{"type":"FeatureCollection","data_type":"Dataset","url_type":null,"permissions":[{"permissions":{"download":true,"view":true},"group_id":"everyone"}],"classification":null,"title":"May 31 2013 primary yes roster","count":505,"stream_id":363802,"contributor":{"url":"http://geocommons.com/users/54435","name":"USADJ"},"data_attributes":null,"calculation_params":null,"icon_link":null,"link":"http://geocommons.com/overlays/363802.json","extent":[-123.276,25.6565,-73.6599,48.218],"geometry_types":["point"],"unique_name":null,"name":"May 31 2013 primary yes roster","feature_count":505,"description":"","next_feature":null,"is_raster":false,"short_classification":"Y","stats":{},"features":[{"properties":{"name":"Ryan Harris","geo_score":0.857,"zip code":"10925","id":"aepvu2nicpih","geo_precision":"zip","state":"NY"},"type":"Feature","geometry":{"type":"Point","coordinates":[-74.26484,41.297325]}},{"properties":{"name":"Richard Gaczewski","geo_score":0.857,"zip code":"14717","id":"aepvu2er82z0","geo_precision":"zip","state":"NY"},"type":"Feature","geometry":{"type":"Point","coordinates":[-78.253069,42.33951]}},{"properties":{"name":"Allen Simons","geo_score":0.857,"zip code":"17921","id":"aepvu2fc4vzi","geo_precision":"zip","state":"PA"},"type":"Feature","geometry":{"type":"Point","coordinates":[-79.601715,41.264783]}},{"properties":{"name":"James Moody","geo_score":0.857,"zip code":"19734","id":"aepvu2hpzl4t","geo_precision":"zip","state":"DE"},"type":"Feature","geometry":{"type":"Point","coordinates":[-75.661318,39.407334]}},{"properties":{"name":"Tomie Morse","geo_score":0.857,"zip code":"19939","id":"aepvu2lthf6y","geo_precision":"zip","state":"DE"},"type":"Feature","geometry":{"type":"Point","coordinates":[-75.170463,38.574279]}},{"properties":{"name":"Thomas Morse","geo_score":0.857,"zip code":"19939","id":"aepvu2fovtu8","geo_precision":"zip","state":"DE"},"type":"Feature","geometry":{"type":"Point","coordinates":[-75.170463,38.574279]}},{"properties":{"name":"Ira Murray","geo_score":0.857,"zip code":"21207","id":"aepvu2przehc","geo_precision":"zip","state":"MD"},"type":"Feature","geometry":{"type":"Point","coordinates":[-76.728028,39.322884]}},{"properties":{"name":"Eric Ellerbe","geo_score":0.857,"zip code":"23350","id":"aepvu2e9uxbx","geo_precision":"zip","state":"VA"},"type":"Feature","geometry":{"type":"Point","coordinates":[-75.833542,37.517634]}},{"properties":{"name":"Nebi Toprak","geo_score":0.857,"zip code":"23508","id":"aepvu2gjje34","geo_precision":"zip","state":"VA"},"type":"Feature","geometry":{"type":"Point","coordinates":[-76.299963,36.884447]}},{"properties":{"name":"Clayton Disrud","geo_score":0.857,"zip code":"24073","id":"aepvu2t0sw8a","geo_precision":"zip","state":"VA"},"type":"Feature","geometry":{"type":"Point","coordinates":[-80.572003,37.221515]}},{"properties":{"name":"James Miller","geo_score":0.857,"zip code":"26104","id":"aepvu2l1av7c","geo_precision":"zip","state":"WV"},"type":"Feature","geometry":{"type":"Point","coordinates":[-81.532901,39.287853]}},{"properties":{"name":"Niles Wood","geo_score":0.857,"zip code":"28146","id":"aepvu2sx0sd8","geo_precision":"zip","state":"NC"},"type":"Feature","geometry":{"type":"Point","coordinates":[-80.402235,35.618694]}},{"properties":{"name":"Jeffrey Williams","geo_score":0.857,"zip code":"28465","id":"aepvu2fouvv1","geo_precision":"zip","state":"NC"},"type":"Feature","geometry":{"type":"Point","coordinates":[-78.078325,33.904896]}},{"properties":{"name":"Doug Mallory","geo_score":0.857,"zip code":"28697","id":"aepvu2kstlvc","geo_precision":"zip","state":"NC"},"type":"Feature","geometry":{"type":"Point","coordinates":[-81.129235,36.211148]}},{"properties":{"name":"Teddie Voigt","geo_score":0.857,"zip code":"29710","id":"aepvu2pfjxdt","geo_precision":"zip","state":"SC"},"type":"Feature","geometry":{"type":"Point","coordinates":[-81.165152,35.035952]}},{"properties":{"name":"Kevin Sprouse","geo_score":0.857,"zip code":"30047","id":"aepvu2k4uzqc","geo_precision":"zip","state":"GA"},"type":"Feature","geometry":{"type":"Point","coordinates":[-84.072463,33.865587]}},{"properties":{"name":"Scott Henderson","geo_score":0.857,"zip code":"30161","id":"aepvu2orat5j","geo_precision":"zip","state":"GA"},"type":"Feature","geometry":{"type":"Point","coordinates":[-85.160784,34.283426]}},{"properties":{"name":"Parrish Swift","geo_score":0.857,"zip code":"30258","id":"aepvu2eenuob","geo_precision":"zip","state":"GA"},"type":"Feature","geometry":{"type":"Point","coordinates":[-84.472701,32.992351]}},{"properties":{"name":"Ben Myers","geo_score":0.857,"zip code":"30305","id":"aepvu2s7wa0e","geo_precision":"zip","state":"GA"},"type":"Feature","geometry":{"type":"Point","coordinates":[-84.386826,33.834989]}},{"properties":{"name":"Emelio Biasucci","geo_score":0.857,"zip code":"30316","id":"aepvu2ns1ggk","geo_precision":"zip","state":"GA"},"type":"Feature","geometry":{"type":"Point","coordinates":[-84.314368,33.703441]}},{"properties":{"name":"Terrell Solomon","geo_score":0.857,"zip code":"30316","id":"aepvu2kd794k","geo_precision":"zip","state":"GA"},"type":"Feature","geometry":{"type":"Point","coordinates":[-84.314368,33.703441]}},{"properties":{"name":"Clint Jackson","geo_score":0.857,"zip code":"30331","id":"aepvu2i0gvim","geo_precision":"zip","state":"GA"},"type":"Feature","geometry":{"type":"Point","coordinates":[-84.578581,33.724275]}},{"properties":{"name":"Sydney Brown","geo_score":0.857,"zip code":"30566","id":"aepvu2kzcgwz","geo_precision":"zip","state":"GA"},"type":"Feature","geometry":{"type":"Point","coordinates":[-83.897612,34.239428]}},{"properties":{"name":"Stephen Starkey","geo_score":0.857,"zip code":"30655","id":"aepvu2l6m9aw","geo_precision":"zip","state":"GA"},"type":"Feature","geometry":{"type":"Point","coordinates":[-83.801565,33.900943]}},{"properties":{"name":"Rick Moore","geo_score":0.857,"zip code":"31419","id":"aepvu2i61oh4","geo_precision":"zip","state":"GA"},"type":"Feature","geometry":{"type":"Point","coordinates":[-81.214369,32.008492]}},{"properties":{"name":"Ted Taylor","geo_score":0.857,"zip code":"31602","id":"aepvu2k08we7","geo_precision":"zip","state":"GA"},"type":"Feature","geometry":{"type":"Point","coordinates":[-83.241263,30.933257]}},{"properties":{"name":"Deborah Linge","geo_score":0.0,"zip code":"32003","id":"aepvu2dl5jgr","geo_precision":"unmatched","state":"FL"},"type":"Feature","geometry":null},{"properties":{"name":"Peter Simon","geo_score":0.857,"zip code":"32118","id":"aepvu2qa3auy","geo_precision":"zip","state":"FL"},"type":"Feature","geometry":{"type":"Point","coordinates":[-81.00227,29.208908]}},{"properties":{"name":"Misty Hitt","geo_score":0.857,"zip code":"32256","id":"aepvu2svrg1q","geo_precision":"zip","state":"FL"},"type":"Feature","geometry":{"type":"Point","coordinates":[-81.539129,30.213733]}},{"properties":{"name":"William \"todd\" Alexander","geo_score":0.857,"zip code":"32259","id":"aepvu2sjb1v9","geo_precision":"zip","state":"FL"},"type":"Feature","geometry":{"type":"Point","coordinates":[-81.582558,30.076654]}},{"properties":{"name":"Phillip Wingo","geo_score":0.857,"zip code":"32320","id":"aepvu2kwup45","geo_precision":"zip","state":"FL"},"type":"Feature","geometry":{"type":"Point","coordinates":[-85.020467,29.7566]}},{"properties":{"name":"Jacqueline Arnold","geo_score":0.857,"zip code":"32344","id":"aepvu2kr1h1b","geo_precision":"zip","state":"FL"},"type":"Feature","geometry":{"type":"Point","coordinates":[-83.968778,30.601588]}},{"properties":{"name":"Paul Dehring","geo_score":0.857,"zip code":"32533","id":"aepvu2m1wytr","geo_precision":"zip","state":"FL"},"type":"Feature","geometry":{"type":"Point","coordinates":[-87.436091,30.693802]}},{"properties":{"name":"Charles \"Chuck\" Ransom","geo_score":0.857,"zip code":"32539","id":"aepvu2h2zr69","geo_precision":"zip","state":"FL"},"type":"Feature","geometry":{"type":"Point","coordinates":[-86.483154,30.777294]}},{"properties":{"name":"Brandon Allen","geo_score":0.857,"zip code":"33019","id":"aepvu2k7a8uf","geo_precision":"zip","state":"FL"},"type":"Feature","geometry":{"type":"Point","coordinates":[-80.192966,26.091514]}},{"properties":{"name":"Eugene Crane","geo_score":0.857,"zip code":"33021","id":"aepvu2l4x3e2","geo_precision":"zip","state":"FL"},"type":"Feature","geometry":{"type":"Point","coordinates":[-80.211942,26.023267]}},{"properties":{"name":"Peter Georgiadis","geo_score":0.857,"zip code":"33021","id":"aepvu2jd0c1b","geo_precision":"zip","state":"FL"},"type":"Feature","geometry":{"type":"Point","coordinates":[-80.211942,26.023267]}},{"properties":{"name":"Danny Zambrano","geo_score":0.857,"zip code":"33021","id":"aepvu2tbmuek","geo_precision":"zip","state":"FL"},"type":"Feature","geometry":{"type":"Point","coordinates":[-80.211942,26.023267]}},{"properties":{"name":"Lynden Wong","geo_score":0.857,"zip code":"33025","id":"aepvu2k0fttt","geo_precision":"zip","state":"FL"},"type":"Feature","geometry":{"type":"Point","coordinates":[-80.231595,26.142322]}},{"properties":{"name":"Robert St Aubin","geo_score":0.857,"zip code":"33067","id":"aepvu2f1m3tq","geo_precision":"zip","state":"FL"},"type":"Feature","geometry":{"type":"Point","coordinates":[-80.241539,26.303307]}},{"properties":{"name":"Patrick Neil","geo_score":0.857,"zip code":"33186","id":"aepvu2j211wt","geo_precision":"zip","state":"FL"},"type":"Feature","geometry":{"type":"Point","coordinates":[-80.410144,25.656462]}},{"properties":{"name":"John 'Ross' Heinzman","geo_score":0.857,"zip code":"33322","id":"aepvu2in7t2j","geo_precision":"zip","state":"FL"},"type":"Feature","geometry":{"type":"Point","coordinates":[-80.331401,26.118845]}},{"properties":{"name":"Kristopher Roe","geo_score":0.857,"zip code":"33401","id":"aepvu2trkmfj","geo_precision":"zip","state":"FL"},"type":"Feature","geometry":{"type":"Point","coordinates":[-80.070613,26.672643]}},{"properties":{"name":"James (Jim) Speach","geo_score":0.857,"zip code":"33418","id":"aepvu2qkprjb","geo_precision":"zip","state":"FL"},"type":"Feature","geometry":{"type":"Point","coordinates":[-80.430269,26.645895]}},{"properties":{"name":"Dwight Douglas","geo_score":0.857,"zip code":"33542","id":"aepvu2qlmdbe","geo_precision":"zip","state":"FL"},"type":"Feature","geometry":{"type":"Point","coordinates":[-82.176294,28.236744]}},{"properties":{"name":"Kevin Thiele","geo_score":0.857,"zip code":"33618","id":"aepvu2mkloim","geo_precision":"zip","state":"FL"},"type":"Feature","geometry":{"type":"Point","coordinates":[-82.492873,28.050018]}},{"properties":{"name":"Bill Rhodes","geo_score":0.857,"zip code":"33755","id":"aepvu2jka1tu","geo_precision":"zip","state":"FL"},"type":"Feature","geometry":{"type":"Point","coordinates":[-82.781523,27.978147]}},{"properties":{"name":"Terrence Donohue","geo_score":0.857,"zip code":"33760","id":"aepvu2ohfvy2","geo_precision":"zip","state":"FL"},"type":"Feature","geometry":{"type":"Point","coordinates":[-82.715166,27.90045]}},{"properties":{"name":"Richard Klein","geo_score":0.857,"zip code":"33914","id":"aepvu2dkppvw","geo_precision":"zip","state":"FL"},"type":"Feature","geometry":{"type":"Point","coordinates":[-81.923974,26.622535]}},{"properties":{"name":"Robert Noullet","geo_score":0.857,"zip code":"33967","id":"aepvu2ftex6h","geo_precision":"zip","state":"FL"},"type":"Feature","geometry":{"type":"Point","coordinates":[-82.045366,26.929784]}},{"properties":{"name":"John *Russ* Tyhurst","geo_score":0.857,"zip code":"33967","id":"aepvu2evy2d5","geo_precision":"zip","state":"FL"},"type":"Feature","geometry":{"type":"Point","coordinates":[-82.045366,26.929784]}},{"properties":{"name":"Lloyd Walford","geo_score":0.857,"zip code":"34109","id":"aepvu2lio4a4","geo_precision":"zip","state":"FL"},"type":"Feature","geometry":{"type":"Point","coordinates":[-81.764364,26.253416]}},{"properties":{"name":"Kevin Sodke","geo_score":0.857,"zip code":"34203","id":"aepvu2j885g2","geo_precision":"zip","state":"FL"},"type":"Feature","geometry":{"type":"Point","coordinates":[-82.535883,27.454723]}},{"properties":{"name":"Lance Benzell","geo_score":0.857,"zip code":"34239","id":"aepvu2dtedaz","geo_precision":"zip","state":"FL"},"type":"Feature","geometry":{"type":"Point","coordinates":[-82.491208,27.325047]}},{"properties":{"name":"Robert Young","geo_score":0.857,"zip code":"34695","id":"aepvu2stj4in","geo_precision":"zip","state":"FL"},"type":"Feature","geometry":{"type":"Point","coordinates":[-82.747692,28.017645]}},{"properties":{"name":"Thomas Kornell","geo_score":0.0,"zip code":"34714","id":"aepvu2qw928q","geo_precision":"unmatched","state":"FL"},"type":"Feature","geometry":null},{"properties":{"name":"Josh Hughes","geo_score":0.857,"zip code":"35045","id":"aepvu2esltvz","geo_precision":"zip","state":"AL"},"type":"Feature","geometry":{"type":"Point","coordinates":[-86.701928,32.757073]}},{"properties":{"name":"Joshua Sanderson","geo_score":0.857,"zip code":"35171","id":"aepvu2s55ajn","geo_precision":"zip","state":"AL"},"type":"Feature","geometry":{"type":"Point","coordinates":[-86.756368,32.893156]}},{"properties":{"name":"Craig Bowman","geo_score":0.857,"zip code":"35475","id":"aepvu2iphi6g","geo_precision":"zip","state":"AL"},"type":"Feature","geometry":{"type":"Point","coordinates":[-87.559894,33.39924]}},{"properties":{"name":"James Morris","geo_score":0.857,"zip code":"35603","id":"aepvu2nkflns","geo_precision":"zip","state":"AL"},"type":"Feature","geometry":{"type":"Point","coordinates":[-86.96556,34.53832]}},{"properties":{"name":"Kendall Hollingsworth","geo_score":0.857,"zip code":"35660","id":"aepvu2fhtksu","geo_precision":"zip","state":"AL"},"type":"Feature","geometry":{"type":"Point","coordinates":[-87.710054,34.691165]}},{"properties":{"name":"Teresa Lien","geo_score":0.857,"zip code":"35950","id":"aepvu2nxeedz","geo_precision":"zip","state":"AL"},"type":"Feature","geometry":{"type":"Point","coordinates":[-86.258313,34.279816]}},{"properties":{"name":"Jim Hurst","geo_score":0.857,"zip code":"36117","id":"aepvu2e603ab","geo_precision":"zip","state":"AL"},"type":"Feature","geometry":{"type":"Point","coordinates":[-86.116486,32.370048]}},{"properties":{"name":"Brad James","geo_score":0.857,"zip code":"36502","id":"aepvu2doa2eo","geo_precision":"zip","state":"AL"},"type":"Feature","geometry":{"type":"Point","coordinates":[-87.520817,31.071846]}},{"properties":{"name":"Richard Hedge","geo_score":0.857,"zip code":"36526","id":"aepvu2j6uxne","geo_precision":"zip","state":"AL"},"type":"Feature","geometry":{"type":"Point","coordinates":[-87.912216,30.643247]}},{"properties":{"name":"John Tomlinson","geo_score":0.857,"zip code":"36526","id":"aepvu2owmpok","geo_precision":"zip","state":"AL"},"type":"Feature","geometry":{"type":"Point","coordinates":[-87.912216,30.643247]}},{"properties":{"name":"John Collier","geo_score":0.857,"zip code":"36532","id":"aepvu2jmqxi4","geo_precision":"zip","state":"AL"},"type":"Feature","geometry":{"type":"Point","coordinates":[-87.811935,30.450752]}},{"properties":{"name":"Mark Keefe","geo_score":0.857,"zip code":"36535","id":"aepvu2fm7pcd","geo_precision":"zip","state":"AL"},"type":"Feature","geometry":{"type":"Point","coordinates":[-87.692401,30.467608]}},{"properties":{"name":"Roberto *Bobby* Herrera","geo_score":0.857,"zip code":"36561","id":"aepvu2rls1mo","geo_precision":"zip","state":"AL"},"type":"Feature","geometry":{"type":"Point","coordinates":[-87.581457,30.281046]}},{"properties":{"name":"Robert Veillon","geo_score":0.857,"zip code":"36606","id":"aepvu2g04nwa","geo_precision":"zip","state":"AL"},"type":"Feature","geometry":{"type":"Point","coordinates":[-88.1052,30.66709]}},{"properties":{"name":"Christopher Helms","geo_score":0.857,"zip code":"36608","id":"aepvu2oixqq9","geo_precision":"zip","state":"AL"},"type":"Feature","geometry":{"type":"Point","coordinates":[-88.138891,30.698523]}},{"properties":{"name":"Brad Steele","geo_score":0.857,"zip code":"36609","id":"aepvu2rfn8lm","geo_precision":"zip","state":"AL"},"type":"Feature","geometry":{"type":"Point","coordinates":[-88.185603,30.551887]}},{"properties":{"name":"Robert Epps","geo_score":0.857,"zip code":"37064","id":"aepvu2s01bja","geo_precision":"zip","state":"TN"},"type":"Feature","geometry":{"type":"Point","coordinates":[-87.079172,35.954508]}},{"properties":{"name":"Quentin Parker","geo_score":0.857,"zip code":"37086","id":"aepvu2oxio1b","geo_precision":"zip","state":"TN"},"type":"Feature","geometry":{"type":"Point","coordinates":[-86.566661,36.006452]}},{"properties":{"name":"Danny White","geo_score":0.857,"zip code":"37341","id":"aepvu2frpa2j","geo_precision":"zip","state":"TN"},"type":"Feature","geometry":{"type":"Point","coordinates":[-85.091744,35.214176]}},{"properties":{"name":"David Strawn","geo_score":0.857,"zip code":"38652","id":"aepvu2h4hrf2","geo_precision":"zip","state":"MS"},"type":"Feature","geometry":{"type":"Point","coordinates":[-89.036731,34.40927]}},{"properties":{"name":"Jon Harris","geo_score":0.857,"zip code":"38655","id":"aepvu2gkd8yj","geo_precision":"zip","state":"MS"},"type":"Feature","geometry":{"type":"Point","coordinates":[-89.346743,34.31094]}},{"properties":{"name":"Scott Conerly","geo_score":0.857,"zip code":"38801","id":"aepvu2tl2aug","geo_precision":"zip","state":"MS"},"type":"Feature","geometry":{"type":"Point","coordinates":[-88.782833,34.246218]}},{"properties":{"name":"Darryl Barrett","geo_score":0.857,"zip code":"38930","id":"aepvu2n7ffpb","geo_precision":"zip","state":"MS"},"type":"Feature","geometry":{"type":"Point","coordinates":[-90.224856,33.550408]}},{"properties":{"name":"Russell Ragsdale","geo_score":0.857,"zip code":"39047","id":"aepvu2qf1zd8","geo_precision":"zip","state":"MS"},"type":"Feature","geometry":{"type":"Point","coordinates":[-89.958406,32.388633]}},{"properties":{"name":"Malcolm Davis","geo_score":0.857,"zip code":"39120","id":"aepvu2gxrt5q","geo_precision":"zip","state":"MS"},"type":"Feature","geometry":{"type":"Point","coordinates":[-91.307025,31.527752]}},{"properties":{"name":"George Bland","geo_score":0.857,"zip code":"39752","id":"aepvu2nbdfqp","geo_precision":"zip","state":"MS"},"type":"Feature","geometry":{"type":"Point","coordinates":[-89.149509,33.635397]}},{"properties":{"name":"Barry Cooper","geo_score":0.857,"zip code":"40220","id":"aepvu2ellchj","geo_precision":"zip","state":"KY"},"type":"Feature","geometry":{"type":"Point","coordinates":[-85.635516,38.222293]}},{"properties":{"name":"Cathy Carpenter","geo_score":0.857,"zip code":"42122","id":"aepvu2gurl0s","geo_precision":"zip","state":"KY"},"type":"Feature","geometry":{"type":"Point","coordinates":[-86.31499,36.831709]}},{"properties":{"name":"Michael Carpenter","geo_score":0.857,"zip code":"42122","id":"aepvu2otr6hn","geo_precision":"zip","state":"KY"},"type":"Feature","geometry":{"type":"Point","coordinates":[-86.31499,36.831709]}},{"properties":{"name":"Jeff Crabill","geo_score":0.857,"zip code":"43056","id":"aepvu2pyaaz1","geo_precision":"zip","state":"OH"},"type":"Feature","geometry":{"type":"Point","coordinates":[-82.467105,40.004407]}},{"properties":{"name":"Joe Madden","geo_score":0.857,"zip code":"43560","id":"aepvu2f2siys","geo_precision":"zip","state":"OH"},"type":"Feature","geometry":{"type":"Point","coordinates":[-83.742161,41.68144]}},{"properties":{"name":"David Spears","geo_score":0.857,"zip code":"45133","id":"aepvu2qwr8rm","geo_precision":"zip","state":"OH"},"type":"Feature","geometry":{"type":"Point","coordinates":[-83.681311,39.204231]}},{"properties":{"name":"Philip Yelton","geo_score":0.857,"zip code":"45240","id":"aepvu2f28qpq","geo_precision":"zip","state":"OH"},"type":"Feature","geometry":{"type":"Point","coordinates":[-84.504111,39.290335]}},{"properties":{"name":"Jerry Womacks","geo_score":0.857,"zip code":"45387","id":"aepvu2rj7xl7","geo_precision":"zip","state":"OH"},"type":"Feature","geometry":{"type":"Point","coordinates":[-83.916041,39.766726]}},{"properties":{"name":"Donald D. Hodges","geo_score":0.857,"zip code":"46041","id":"aepvu2dox6c0","geo_precision":"zip","state":"IN"},"type":"Feature","geometry":{"type":"Point","coordinates":[-86.515278,40.387536]}},{"properties":{"name":"Jon Linville","geo_score":0.857,"zip code":"46143","id":"aepvu2q06yzf","geo_precision":"zip","state":"IN"},"type":"Feature","geometry":{"type":"Point","coordinates":[-86.10149,39.50708]}},{"properties":{"name":"Michael Tompkins","geo_score":0.857,"zip code":"46254","id":"aepvu2rez347","geo_precision":"zip","state":"IN"},"type":"Feature","geometry":{"type":"Point","coordinates":[-86.25638,39.845875]}},{"properties":{"name":"Sam Butler","geo_score":0.857,"zip code":"46507","id":"aepvu2gunnzl","geo_precision":"zip","state":"IN"},"type":"Feature","geometry":{"type":"Point","coordinates":[-85.728047,41.749217]}},{"properties":{"name":"David DuChane","geo_score":0.857,"zip code":"47119","id":"aepvu2gsfj69","geo_precision":"zip","state":"IN"},"type":"Feature","geometry":{"type":"Point","coordinates":[-85.890727,38.35257]}},{"properties":{"name":"Ray Fair","geo_score":0.857,"zip code":"48034","id":"aepvu2smzu0m","geo_precision":"zip","state":"MI"},"type":"Feature","geometry":{"type":"Point","coordinates":[-83.279164,42.478495]}},{"properties":{"name":"Attila Toth","geo_score":0.857,"zip code":"48038","id":"aepvu2pgcrgf","geo_precision":"zip","state":"MI"},"type":"Feature","geometry":{"type":"Point","coordinates":[-82.960775,42.620607]}},{"properties":{"name":"Brian Lynn","geo_score":0.857,"zip code":"48843","id":"aepvu2njtbix","geo_precision":"zip","state":"MI"},"type":"Feature","geometry":{"type":"Point","coordinates":[-83.861613,42.526978]}},{"properties":{"name":"David Veenstra","geo_score":0.857,"zip code":"49093","id":"aepvu2qq3lik","geo_precision":"zip","state":"MI"},"type":"Feature","geometry":{"type":"Point","coordinates":[-85.547771,42.015881]}},{"properties":{"name":"Jack Hiatt","geo_score":0.857,"zip code":"50701","id":"aepvu2gbzpgb","geo_precision":"zip","state":"IA"},"type":"Feature","geometry":{"type":"Point","coordinates":[-92.339209,42.441117]}},{"properties":{"name":"Kendall Brown","geo_score":0.857,"zip code":"52722","id":"aepvu2fehcyc","geo_precision":"zip","state":"IA"},"type":"Feature","geometry":{"type":"Point","coordinates":[-90.458188,41.544478]}},{"properties":{"name":"John Keith","geo_score":0.857,"zip code":"52761","id":"aepvu2fhd8bl","geo_precision":"zip","state":"IA"},"type":"Feature","geometry":{"type":"Point","coordinates":[-90.872091,41.524474]}},{"properties":{"name":"John Wilson","geo_score":0.857,"zip code":"53029","id":"aepvu2iknrc8","geo_precision":"zip","state":"WI"},"type":"Feature","geometry":{"type":"Point","coordinates":[-88.336087,43.123679]}},{"properties":{"name":"Joshua Snyder","geo_score":0.857,"zip code":"53533","id":"aepvu2pp1fzk","geo_precision":"zip","state":"WI"},"type":"Feature","geometry":{"type":"Point","coordinates":[-90.073457,43.054717]}},{"properties":{"name":"Chad Strutzel","geo_score":0.857,"zip code":"53589","id":"aepvu2s9hsvg","geo_precision":"zip","state":"WI"},"type":"Feature","geometry":{"type":"Point","coordinates":[-89.122058,42.965557]}},{"properties":{"name":"Ron Kroll","geo_score":0.857,"zip code":"54498","id":"aepvu2r3qz0l","geo_precision":"zip","state":"WI"},"type":"Feature","geometry":{"type":"Point","coordinates":[-90.659023,45.029137]}},{"properties":{"name":"Brian Sandleback","geo_score":0.857,"zip code":"54941","id":"aepvu2llso41","geo_precision":"zip","state":"WI"},"type":"Feature","geometry":{"type":"Point","coordinates":[-88.985883,43.85627]}},{"properties":{"name":"Matt Lusk","geo_score":0.857,"zip code":"55313","id":"aepvu2fpjtok","geo_precision":"zip","state":"MN"},"type":"Feature","geometry":{"type":"Point","coordinates":[-93.927556,45.180732]}},{"properties":{"name":"Andrew Armbruster","geo_score":0.857,"zip code":"55330","id":"aepvu2jddd8t","geo_precision":"zip","state":"MN"},"type":"Feature","geometry":{"type":"Point","coordinates":[-93.644522,45.403289]}},{"properties":{"name":"AJ Kurth","geo_score":0.857,"zip code":"55350","id":"aepvu2fnne8t","geo_precision":"zip","state":"MN"},"type":"Feature","geometry":{"type":"Point","coordinates":[-94.266332,44.875565]}},{"properties":{"name":"Dean Bohn","geo_score":0.857,"zip code":"55379","id":"aepvu2n079gi","geo_precision":"zip","state":"MN"},"type":"Feature","geometry":{"type":"Point","coordinates":[-93.474144,44.731113]}},{"properties":{"name":"Stuart Duncan","geo_score":0.857,"zip code":"55405","id":"aepvu2mu4srz","geo_precision":"zip","state":"MN"},"type":"Feature","geometry":{"type":"Point","coordinates":[-93.300275,44.970114]}},{"properties":{"name":"Matt Pawlowski","geo_score":0.857,"zip code":"55431","id":"aepvu2gg6mwf","geo_precision":"zip","state":"MN"},"type":"Feature","geometry":{"type":"Point","coordinates":[-93.311823,44.828764]}},{"properties":{"name":"Paul Schlauderaff","geo_score":0.857,"zip code":"56374","id":"aepvu2mn4o50","geo_precision":"zip","state":"MN"},"type":"Feature","geometry":{"type":"Point","coordinates":[-94.350962,45.614235]}},{"properties":{"name":"Chad Sweep","geo_score":0.857,"zip code":"56547","id":"aepvu2ra7yu3","geo_precision":"zip","state":"MN"},"type":"Feature","geometry":{"type":"Point","coordinates":[-96.547295,46.970795]}},{"properties":{"name":"Stuart Carson","geo_score":0.857,"zip code":"57078","id":"aepvu2dsenvd","geo_precision":"zip","state":"SD"},"type":"Feature","geometry":{"type":"Point","coordinates":[-97.37689,42.94396]}},{"properties":{"name":"Michelle Davis-Buchele","geo_score":0.857,"zip code":"57252","id":"aepvu2i7lfp2","geo_precision":"zip","state":"SD"},"type":"Feature","geometry":{"type":"Point","coordinates":[-96.629203,45.171617]}},{"properties":{"name":"Lyla Lindquist","geo_score":0.857,"zip code":"57252","id":"aepvu2ms46rb","geo_precision":"zip","state":"SD"},"type":"Feature","geometry":{"type":"Point","coordinates":[-96.629203,45.171617]}},{"properties":{"name":"Greg Johnson","geo_score":0.857,"zip code":"57701","id":"aepvu2txrh4t","geo_precision":"zip","state":"SD"},"type":"Feature","geometry":{"type":"Point","coordinates":[-102.913505,44.876656]}},{"properties":{"name":"Don Lilya","geo_score":0.857,"zip code":"57702","id":"aepvu2s0mxox","geo_precision":"zip","state":"SD"},"type":"Feature","geometry":{"type":"Point","coordinates":[-103.401854,44.053321]}},{"properties":{"name":"Zach Swisher","geo_score":0.857,"zip code":"57702","id":"aepvu2gmvmqp","geo_precision":"zip","state":"SD"},"type":"Feature","geometry":{"type":"Point","coordinates":[-103.401854,44.053321]}},{"properties":{"name":"Brandon Hice","geo_score":0.857,"zip code":"59901","id":"aepvu2lgt76q","geo_precision":"zip","state":"MT"},"type":"Feature","geometry":{"type":"Point","coordinates":[-114.33291,48.218016]}},{"properties":{"name":"Bob Christensen","geo_score":0.857,"zip code":"60030","id":"aepvu2hbnmq7","geo_precision":"zip","state":"IL"},"type":"Feature","geometry":{"type":"Point","coordinates":[-87.982577,42.351689]}},{"properties":{"name":"James (Jim) Green","geo_score":0.857,"zip code":"60175","id":"aepvu2m1hqnv","geo_precision":"zip","state":"IL"},"type":"Feature","geometry":{"type":"Point","coordinates":[-88.386905,41.943171]}},{"properties":{"name":"Rick Domeracki","geo_score":0.857,"zip code":"60177","id":"aepvu2er51bz","geo_precision":"zip","state":"IL"},"type":"Feature","geometry":{"type":"Point","coordinates":[-88.405895,42.007476]}},{"properties":{"name":"Nick Wilson","geo_score":0.857,"zip code":"60544","id":"aepvu2m75ywg","geo_precision":"zip","state":"IL"},"type":"Feature","geometry":{"type":"Point","coordinates":[-88.181452,41.590308]}},{"properties":{"name":"Mark Stromberger","geo_score":0.0,"zip code":"60585","id":"aepvu2jw5l3h","geo_precision":"unmatched","state":"IL"},"type":"Feature","geometry":null},{"properties":{"name":"Natanael Simon","geo_score":0.857,"zip code":"60804","id":"aepvu2ru69ef","geo_precision":"zip","state":"IL"},"type":"Feature","geometry":{"type":"Point","coordinates":[-87.68732,41.811929]}},{"properties":{"name":"Peter Domeracki","geo_score":0.857,"zip code":"61065","id":"aepvu2lq4dcx","geo_precision":"zip","state":"IL"},"type":"Feature","geometry":{"type":"Point","coordinates":[-88.811894,42.392537]}},{"properties":{"name":"David Conover","geo_score":0.857,"zip code":"61491","id":"aepvu2lixtdq","geo_precision":"zip","state":"IL"},"type":"Feature","geometry":{"type":"Point","coordinates":[-89.763157,41.135315]}},{"properties":{"name":"Mark Crowner","geo_score":0.857,"zip code":"62522","id":"aepvu2h76b2m","geo_precision":"zip","state":"IL"},"type":"Feature","geometry":{"type":"Point","coordinates":[-89.018696,39.865621]}},{"properties":{"name":"Travis Stewart","geo_score":0.857,"zip code":"62922","id":"aepvu2tv7zz1","geo_precision":"zip","state":"IL"},"type":"Feature","geometry":{"type":"Point","coordinates":[-88.800062,37.570328]}},{"properties":{"name":"Joe Matusik","geo_score":0.857,"zip code":"62924","id":"aepvu2fb2ko1","geo_precision":"zip","state":"IL"},"type":"Feature","geometry":{"type":"Point","coordinates":[-89.160914,37.777828]}},{"properties":{"name":"Scott Beard","geo_score":0.857,"zip code":"63021","id":"aepvu2gjm4hy","geo_precision":"zip","state":"MO"},"type":"Feature","geometry":{"type":"Point","coordinates":[-90.49651,38.564776]}},{"properties":{"name":"James \"Craig\" Morice","geo_score":0.857,"zip code":"63021","id":"aepvu2n19xaf","geo_precision":"zip","state":"MO"},"type":"Feature","geometry":{"type":"Point","coordinates":[-90.49651,38.564776]}},{"properties":{"name":"Gregory Thrower","geo_score":0.857,"zip code":"63841","id":"aepvu2qaiep7","geo_precision":"zip","state":"MO"},"type":"Feature","geometry":{"type":"Point","coordinates":[-89.98146,36.882467]}},{"properties":{"name":"Dennis Marler","geo_score":0.857,"zip code":"63901","id":"aepvu2fggcvh","geo_precision":"zip","state":"MO"},"type":"Feature","geometry":{"type":"Point","coordinates":[-90.465113,36.766999]}},{"properties":{"name":"Chris Kidd","geo_score":0.857,"zip code":"64016","id":"aepvu2pc2iqg","geo_precision":"zip","state":"MO"},"type":"Feature","geometry":{"type":"Point","coordinates":[-94.255225,39.110283]}},{"properties":{"name":"Steven Settle","geo_score":0.857,"zip code":"64117","id":"aepvu2nsktl3","geo_precision":"zip","state":"MO"},"type":"Feature","geometry":{"type":"Point","coordinates":[-94.546899,39.15417]}},{"properties":{"name":"David Hancock","geo_score":0.857,"zip code":"65065","id":"aepvu2hewcu8","geo_precision":"zip","state":"MO"},"type":"Feature","geometry":{"type":"Point","coordinates":[-92.651574,38.130311]}},{"properties":{"name":"Mitzi Jeffery","geo_score":0.857,"zip code":"65616","id":"aepvu2mwibxe","geo_precision":"zip","state":"MO"},"type":"Feature","geometry":{"type":"Point","coordinates":[-93.05634,36.653256]}},{"properties":{"name":"Ben Owens","geo_score":0.857,"zip code":"65680","id":"aepvu2oz0fe0","geo_precision":"zip","state":"MO"},"type":"Feature","geometry":{"type":"Point","coordinates":[-92.985076,36.69779]}},{"properties":{"name":"Ray Land","geo_score":0.857,"zip code":"65771","id":"aepvu2lo3j73","geo_precision":"zip","state":"MO"},"type":"Feature","geometry":{"type":"Point","coordinates":[-93.222445,36.772257]}},{"properties":{"name":"Ash Johnston","geo_score":0.857,"zip code":"65804","id":"aepvu2tdy8rq","geo_precision":"zip","state":"MO"},"type":"Feature","geometry":{"type":"Point","coordinates":[-93.238034,37.151377]}},{"properties":{"name":"Jarrod Dreiling","geo_score":0.857,"zip code":"66030","id":"aepvu2s4i7vi","geo_precision":"zip","state":"KS"},"type":"Feature","geometry":{"type":"Point","coordinates":[-94.94139,38.814998]}},{"properties":{"name":"Daryl Dreiling","geo_score":0.857,"zip code":"66030","id":"aepvu2lfq89y","geo_precision":"zip","state":"KS"},"type":"Feature","geometry":{"type":"Point","coordinates":[-94.94139,38.814998]}},{"properties":{"name":"Janna Perez","geo_score":0.857,"zip code":"66030","id":"aepvu2mnlili","geo_precision":"zip","state":"KS"},"type":"Feature","geometry":{"type":"Point","coordinates":[-94.94139,38.814998]}},{"properties":{"name":"Tony Wrestler","geo_score":0.857,"zip code":"66062","id":"aepvu2p2my2o","geo_precision":"zip","state":"KS"},"type":"Feature","geometry":{"type":"Point","coordinates":[-94.778714,38.847391]}},{"properties":{"name":"Ted Fiocati","geo_score":0.857,"zip code":"66083","id":"aepvu2gno6jj","geo_precision":"zip","state":"KS"},"type":"Feature","geometry":{"type":"Point","coordinates":[-94.94552,38.723343]}},{"properties":{"name":"Jerod Allen","geo_score":0.857,"zip code":"66103","id":"aepvu2m380rw","geo_precision":"zip","state":"KS"},"type":"Feature","geometry":{"type":"Point","coordinates":[-94.628184,39.066804]}},{"properties":{"name":"Harry Jordan","geo_score":0.857,"zip code":"66206","id":"aepvu2ec48yl","geo_precision":"zip","state":"KS"},"type":"Feature","geometry":{"type":"Point","coordinates":[-94.716155,38.959356]}},{"properties":{"name":"Marilyn Taul","geo_score":0.857,"zip code":"66223","id":"aepvu2lpgeq7","geo_precision":"zip","state":"KS"},"type":"Feature","geometry":{"type":"Point","coordinates":[-94.665791,38.854452]}},{"properties":{"name":"Chris Chambers","geo_score":0.857,"zip code":"66283","id":"aepvu2g5g5jf","geo_precision":"zip","state":"KS"},"type":"Feature","geometry":{"type":"Point","coordinates":[-94.831991,38.899901]}},{"properties":{"name":"Gerry Murphy","geo_score":0.857,"zip code":"66605","id":"aepvu2rhgcih","geo_precision":"zip","state":"KS"},"type":"Feature","geometry":{"type":"Point","coordinates":[-95.592088,39.01115]}},{"properties":{"name":"Brian Lara","geo_score":0.857,"zip code":"67207","id":"aepvu2s902y4","geo_precision":"zip","state":"KS"},"type":"Feature","geometry":{"type":"Point","coordinates":[-97.20532,37.653349]}},{"properties":{"name":"Ryan Bell","geo_score":0.857,"zip code":"67220","id":"aepvu2kp609g","geo_precision":"zip","state":"KS"},"type":"Feature","geometry":{"type":"Point","coordinates":[-97.265043,37.769735]}},{"properties":{"name":"Walter (Wray) Decker","geo_score":0.857,"zip code":"67473","id":"aepvu2ej1uqk","geo_precision":"zip","state":"KS"},"type":"Feature","geometry":{"type":"Point","coordinates":[-98.787021,39.451677]}},{"properties":{"name":"Keith Ramirez","geo_score":0.857,"zip code":"70003","id":"aepvu2j1gpxa","geo_precision":"zip","state":"LA"},"type":"Feature","geometry":{"type":"Point","coordinates":[-90.20733,30.005653]}},{"properties":{"name":"Tommy Berthelot Jr","geo_score":0.857,"zip code":"70068","id":"aepvu2ow4zc2","geo_precision":"zip","state":"LA"},"type":"Feature","geometry":{"type":"Point","coordinates":[-90.42675,30.107701]}},{"properties":{"name":"Jim Madden","geo_score":0.857,"zip code":"70070","id":"aepvu2jj7dlw","geo_precision":"zip","state":"LA"},"type":"Feature","geometry":{"type":"Point","coordinates":[-90.348009,29.944447]}},{"properties":{"name":"Keith Haydel","geo_score":0.857,"zip code":"70072","id":"aepvu2fg83el","geo_precision":"zip","state":"LA"},"type":"Feature","geometry":{"type":"Point","coordinates":[-90.10674,29.845763]}},{"properties":{"name":"Hayward Hebert","geo_score":0.857,"zip code":"70397","id":"aepvu2qlmxgs","geo_precision":"zip","state":"LA"},"type":"Feature","geometry":{"type":"Point","coordinates":[-90.78627,29.396246]}},{"properties":{"name":"Tommie Mcmorris","geo_score":0.857,"zip code":"70401","id":"aepvu2nt3ua8","geo_precision":"zip","state":"LA"},"type":"Feature","geometry":{"type":"Point","coordinates":[-90.533146,30.504914]}},{"properties":{"name":"Mitash Patel","geo_score":0.857,"zip code":"70401","id":"aepvu2sa4uwj","geo_precision":"zip","state":"LA"},"type":"Feature","geometry":{"type":"Point","coordinates":[-90.533146,30.504914]}},{"properties":{"name":"Butler Ball","geo_score":0.857,"zip code":"70433","id":"aepvu2l7webn","geo_precision":"zip","state":"LA"},"type":"Feature","geometry":{"type":"Point","coordinates":[-90.01202,30.556302]}},{"properties":{"name":"Mark Pfister","geo_score":0.857,"zip code":"70433","id":"aepvu2lrlnpi","geo_precision":"zip","state":"LA"},"type":"Feature","geometry":{"type":"Point","coordinates":[-90.01202,30.556302]}},{"properties":{"name":"David Yates","geo_score":0.857,"zip code":"70508","id":"aepvu2elc6u4","geo_precision":"zip","state":"LA"},"type":"Feature","geometry":{"type":"Point","coordinates":[-92.026859,30.181866]}},{"properties":{"name":"David Munnerlyn","geo_score":0.857,"zip code":"70563","id":"aepvu2l620u3","geo_precision":"zip","state":"LA"},"type":"Feature","geometry":{"type":"Point","coordinates":[-91.749604,30.024515]}},{"properties":{"name":"George Eblen","geo_score":0.857,"zip code":"70669","id":"aepvu2omyee2","geo_precision":"zip","state":"LA"},"type":"Feature","geometry":{"type":"Point","coordinates":[-93.309044,30.247705]}},{"properties":{"name":"Bruce Hickman","geo_score":0.857,"zip code":"71220","id":"aepvu2kojjx6","geo_precision":"zip","state":"LA"},"type":"Feature","geometry":{"type":"Point","coordinates":[-91.907351,32.829299]}},{"properties":{"name":"Jack Hodnett","geo_score":0.857,"zip code":"71328","id":"aepvu2ldwrun","geo_precision":"zip","state":"LA"},"type":"Feature","geometry":{"type":"Point","coordinates":[-92.249576,31.336849]}},{"properties":{"name":"George Gray","geo_score":0.857,"zip code":"71467","id":"aepvu2dyxtoj","geo_precision":"zip","state":"LA"},"type":"Feature","geometry":{"type":"Point","coordinates":[-92.409305,31.564342]}},{"properties":{"name":"Terry Havens","geo_score":0.857,"zip code":"71654","id":"aepvu2n8varl","geo_precision":"zip","state":"AR"},"type":"Feature","geometry":{"type":"Point","coordinates":[-91.40512,33.584833]}},{"properties":{"name":"Walter Davis","geo_score":0.857,"zip code":"71854","id":"aepvu2gre05i","geo_precision":"zip","state":"AR"},"type":"Feature","geometry":{"type":"Point","coordinates":[-93.876485,33.431043]}},{"properties":{"name":"Shannon Donley","geo_score":0.857,"zip code":"71901","id":"aepvu2pjw86z","geo_precision":"zip","state":"AR"},"type":"Feature","geometry":{"type":"Point","coordinates":[-92.972398,34.464257]}},{"properties":{"name":"dOREE Donley","geo_score":0.857,"zip code":"71901","id":"aepvu2nmc80n","geo_precision":"zip","state":"AR"},"type":"Feature","geometry":{"type":"Point","coordinates":[-92.972398,34.464257]}},{"properties":{"name":"Jim Elliott","geo_score":0.857,"zip code":"71910","id":"aepvu2shpzx7","geo_precision":"zip","state":"AR"},"type":"Feature","geometry":{"type":"Point","coordinates":[-93.099403,34.581374]}},{"properties":{"name":"Randel Green","geo_score":0.857,"zip code":"71913","id":"aepvu2g036h9","geo_precision":"zip","state":"AR"},"type":"Feature","geometry":{"type":"Point","coordinates":[-93.133793,34.464257]}},{"properties":{"name":"Clinton Lingelback","geo_score":0.857,"zip code":"71914","id":"aepvu2hgplz5","geo_precision":"zip","state":"AR"},"type":"Feature","geometry":{"type":"Point","coordinates":[-92.968531,34.513682]}},{"properties":{"name":"Rudy Kissinger","geo_score":0.857,"zip code":"72212","id":"aepvu2tnxl3q","geo_precision":"zip","state":"AR"},"type":"Feature","geometry":{"type":"Point","coordinates":[-92.441752,34.800793]}},{"properties":{"name":"Aaron Watson","geo_score":0.857,"zip code":"72422","id":"aepvu2rcorg1","geo_precision":"zip","state":"AR"},"type":"Feature","geometry":{"type":"Point","coordinates":[-90.538667,36.379467]}},{"properties":{"name":"Greg Jack","geo_score":0.857,"zip code":"72519","id":"aepvu2kpz58e","geo_precision":"zip","state":"AR"},"type":"Feature","geometry":{"type":"Point","coordinates":[-92.252656,36.140348]}},{"properties":{"name":"John Carlisle","geo_score":0.857,"zip code":"72653","id":"aepvu2q16o3m","geo_precision":"zip","state":"AR"},"type":"Feature","geometry":{"type":"Point","coordinates":[-92.265156,36.245346]}},{"properties":{"name":"JR Hendricks","geo_score":0.857,"zip code":"72932","id":"aepvu2jnf9p0","geo_precision":"zip","state":"AR"},"type":"Feature","geometry":{"type":"Point","coordinates":[-94.369383,35.654281]}},{"properties":{"name":"Tommy Tipton","geo_score":0.857,"zip code":"72940","id":"aepvu2lgvs12","geo_precision":"zip","state":"AR"},"type":"Feature","geometry":{"type":"Point","coordinates":[-94.226599,35.114262]}},{"properties":{"name":"April Streets","geo_score":0.857,"zip code":"73012","id":"aepvu2hoas4o","geo_precision":"zip","state":"OK"},"type":"Feature","geometry":{"type":"Point","coordinates":[-97.852223,34.48532]}},{"properties":{"name":"Carmen A Stone","geo_score":0.857,"zip code":"73014","id":"aepvu2mrut80","geo_precision":"zip","state":"OK"},"type":"Feature","geometry":{"type":"Point","coordinates":[-98.151236,35.547575]}},{"properties":{"name":"Leo Corey","geo_score":0.857,"zip code":"73019","id":"aepvu2s3natw","geo_precision":"zip","state":"OK"},"type":"Feature","geometry":{"type":"Point","coordinates":[-97.44451,35.208566]}},{"properties":{"name":"Aaron Smith","geo_score":0.857,"zip code":"73064","id":"aepvu2txgjz9","geo_precision":"zip","state":"OK"},"type":"Feature","geometry":{"type":"Point","coordinates":[-97.759874,35.390376]}},{"properties":{"name":"Bartees Cox","geo_score":0.857,"zip code":"73099","id":"aepvu2efr9vy","geo_precision":"zip","state":"OK"},"type":"Feature","geometry":{"type":"Point","coordinates":[-97.804768,35.580052]}},{"properties":{"name":"Britt Rose","geo_score":0.857,"zip code":"73099","id":"aepvu2gxbkkl","geo_precision":"zip","state":"OK"},"type":"Feature","geometry":{"type":"Point","coordinates":[-97.804768,35.580052]}},{"properties":{"name":"Russell Cox","geo_score":0.857,"zip code":"73107","id":"aepvu2dwfug0","geo_precision":"zip","state":"OK"},"type":"Feature","geometry":{"type":"Point","coordinates":[-97.542666,35.481908]}},{"properties":{"name":"Stephanie White","geo_score":0.857,"zip code":"73114","id":"aepvu2o7p2yt","geo_precision":"zip","state":"OK"},"type":"Feature","geometry":{"type":"Point","coordinates":[-97.499605,35.544882]}},{"properties":{"name":"Matt Wilson","geo_score":0.857,"zip code":"73120","id":"aepvu2pqc3ym","geo_precision":"zip","state":"OK"},"type":"Feature","geometry":{"type":"Point","coordinates":[-97.568418,35.587155]}},{"properties":{"name":"Alisha Wilson","geo_score":0.857,"zip code":"73120","id":"aepvu2edqo9j","geo_precision":"zip","state":"OK"},"type":"Feature","geometry":{"type":"Point","coordinates":[-97.568418,35.587155]}},{"properties":{"name":"Kwadwo (Kojo) Agyapong","geo_score":0.857,"zip code":"73170","id":"aepvu2il70lq","geo_precision":"zip","state":"OK"},"type":"Feature","geometry":{"type":"Point","coordinates":[-97.501459,35.2972]}},{"properties":{"name":"Larry Finley","geo_score":0.857,"zip code":"73170","id":"aepvu2sntvji","geo_precision":"zip","state":"OK"},"type":"Feature","geometry":{"type":"Point","coordinates":[-97.501459,35.2972]}},{"properties":{"name":"Ken  Butler","geo_score":0.857,"zip code":"73401","id":"aepvu2seyzu1","geo_precision":"zip","state":"OK"},"type":"Feature","geometry":{"type":"Point","coordinates":[-97.339465,34.332589]}},{"properties":{"name":"Lance Owens","geo_score":0.857,"zip code":"73401","id":"aepvu2ozyodm","geo_precision":"zip","state":"OK"},"type":"Feature","geometry":{"type":"Point","coordinates":[-97.339465,34.332589]}},{"properties":{"name":"Raymond Anderson","geo_score":0.857,"zip code":"73439","id":"aepvu2ix07ns","geo_precision":"zip","state":"OK"},"type":"Feature","geometry":{"type":"Point","coordinates":[-96.862504,33.9551]}},{"properties":{"name":"Charles Walker","geo_score":0.857,"zip code":"73439","id":"aepvu2tnj5n2","geo_precision":"zip","state":"OK"},"type":"Feature","geometry":{"type":"Point","coordinates":[-96.862504,33.9551]}},{"properties":{"name":"Bill Inselman","geo_score":0.857,"zip code":"73463","id":"aepvu2n75hb7","geo_precision":"zip","state":"OK"},"type":"Feature","geometry":{"type":"Point","coordinates":[-97.456965,33.940378]}},{"properties":{"name":"Christy Cook","geo_score":0.857,"zip code":"74033","id":"aepvu2luatzh","geo_precision":"zip","state":"OK"},"type":"Feature","geometry":{"type":"Point","coordinates":[-95.998172,36.102858]}},{"properties":{"name":"Scott Gray","geo_score":0.857,"zip code":"74063","id":"aepvu2mz3t2r","geo_precision":"zip","state":"OK"},"type":"Feature","geometry":{"type":"Point","coordinates":[-96.186776,36.118535]}},{"properties":{"name":"David Anderson","geo_score":0.857,"zip code":"74078","id":"aepvu2sptctj","geo_precision":"zip","state":"OK"},"type":"Feature","geometry":{"type":"Point","coordinates":[-96.987458,36.093665]}},{"properties":{"name":"Brian Ross","geo_score":0.857,"zip code":"74170","id":"aepvu2rguzld","geo_precision":"zip","state":"OK"},"type":"Feature","geometry":{"type":"Point","coordinates":[-96.029725,36.139826]}},{"properties":{"name":"Charles(Chuck) Jack","geo_score":0.857,"zip code":"74429","id":"aepvu2fa488f","geo_precision":"zip","state":"OK"},"type":"Feature","geometry":{"type":"Point","coordinates":[-95.674795,36.002092]}},{"properties":{"name":"Kevin Lodge","geo_score":0.857,"zip code":"75002","id":"aepvu2rhxabf","geo_precision":"zip","state":"TX"},"type":"Feature","geometry":{"type":"Point","coordinates":[-96.621938,33.055398]}},{"properties":{"name":"Pete Struthers","geo_score":0.857,"zip code":"75002","id":"aepvu2kew5u1","geo_precision":"zip","state":"TX"},"type":"Feature","geometry":{"type":"Point","coordinates":[-96.621938,33.055398]}},{"properties":{"name":"Joe Floyd","geo_score":0.857,"zip code":"75006","id":"aepvu2dwohtj","geo_precision":"zip","state":"TX"},"type":"Feature","geometry":{"type":"Point","coordinates":[-96.777626,32.767268]}},{"properties":{"name":"Jim Sylvester","geo_score":0.857,"zip code":"75013","id":"aepvu2lipmw9","geo_precision":"zip","state":"TX"},"type":"Feature","geometry":{"type":"Point","coordinates":[-96.677328,33.118645]}},{"properties":{"name":"Dani  Mitchell","geo_score":0.857,"zip code":"75019","id":"aepvu2i9rjf4","geo_precision":"zip","state":"TX"},"type":"Feature","geometry":{"type":"Point","coordinates":[-96.777626,32.767268]}},{"properties":{"name":"Jim  Crouch","geo_score":0.857,"zip code":"75023","id":"aepvu2o4evzt","geo_precision":"zip","state":"TX"},"type":"Feature","geometry":{"type":"Point","coordinates":[-96.659574,33.104885]}},{"properties":{"name":"John (Cliff) Crouch","geo_score":0.857,"zip code":"75023","id":"aepvu2mfkj06","geo_precision":"zip","state":"TX"},"type":"Feature","geometry":{"type":"Point","coordinates":[-96.659574,33.104885]}},{"properties":{"name":"Kelly Longhurst","geo_score":0.857,"zip code":"75023","id":"aepvu2faqcy2","geo_precision":"zip","state":"TX"},"type":"Feature","geometry":{"type":"Point","coordinates":[-96.659574,33.104885]}},{"properties":{"name":"Vernon Mitchell","geo_score":0.857,"zip code":"75025","id":"aepvu2dn03ih","geo_precision":"zip","state":"TX"},"type":"Feature","geometry":{"type":"Point","coordinates":[-96.734968,33.107261]}},{"properties":{"name":"Kelli Stephens","geo_score":0.857,"zip code":"75035","id":"aepvu2ipsr7o","geo_precision":"zip","state":"TX"},"type":"Feature","geometry":{"type":"Point","coordinates":[-96.772929,33.157083]}},{"properties":{"name":"Ted Bennett","geo_score":0.857,"zip code":"75043","id":"aepvu2q2q58p","geo_precision":"zip","state":"TX"},"type":"Feature","geometry":{"type":"Point","coordinates":[-96.58227,32.876046]}},{"properties":{"name":"Brent Michael Peavy","geo_score":0.857,"zip code":"75051","id":"aepvu2dwol7o","geo_precision":"zip","state":"TX"},"type":"Feature","geometry":{"type":"Point","coordinates":[-96.777626,32.767268]}},{"properties":{"name":"Mark Spradlin","geo_score":0.857,"zip code":"75052","id":"aepvu2lnrmvl","geo_precision":"zip","state":"TX"},"type":"Feature","geometry":{"type":"Point","coordinates":[-96.777626,32.767268]}},{"properties":{"name":"Michael (Mike) Bennett","geo_score":0.857,"zip code":"75056","id":"aepvu2i23noa","geo_precision":"zip","state":"TX"},"type":"Feature","geometry":{"type":"Point","coordinates":[-96.901605,33.077136]}},{"properties":{"name":"Brad Martin","geo_score":0.857,"zip code":"75063","id":"aepvu2dv0iz8","geo_precision":"zip","state":"TX"},"type":"Feature","geometry":{"type":"Point","coordinates":[-96.777626,32.767268]}},{"properties":{"name":"Fredrick Campbell","geo_score":0.857,"zip code":"75067","id":"aepvu2nfjmtu","geo_precision":"zip","state":"TX"},"type":"Feature","geometry":{"type":"Point","coordinates":[-97.046676,33.091788]}},{"properties":{"name":"Tony Duhon","geo_score":0.857,"zip code":"75067","id":"aepvu2qwg77j","geo_precision":"zip","state":"TX"},"type":"Feature","geometry":{"type":"Point","coordinates":[-97.046676,33.091788]}},{"properties":{"name":"David Escher","geo_score":0.857,"zip code":"75067","id":"aepvu2ryzuz7","geo_precision":"zip","state":"TX"},"type":"Feature","geometry":{"type":"Point","coordinates":[-97.046676,33.091788]}},{"properties":{"name":"Robert Pace","geo_score":0.857,"zip code":"75069","id":"aepvu2jop522","geo_precision":"zip","state":"TX"},"type":"Feature","geometry":{"type":"Point","coordinates":[-96.547211,33.18595]}},{"properties":{"name":"John Priest","geo_score":0.857,"zip code":"75069","id":"aepvu2pkv2ff","geo_precision":"zip","state":"TX"},"type":"Feature","geometry":{"type":"Point","coordinates":[-96.547211,33.18595]}},{"properties":{"name":"Christopher Slack, Jr.","geo_score":0.857,"zip code":"75069","id":"aepvu2hh9baj","geo_precision":"zip","state":"TX"},"type":"Feature","geometry":{"type":"Point","coordinates":[-96.547211,33.18595]}},{"properties":{"name":"Daniel Sewell","geo_score":0.857,"zip code":"75076","id":"aepvu2m33fea","geo_precision":"zip","state":"TX"},"type":"Feature","geometry":{"type":"Point","coordinates":[-96.676191,33.817503]}},{"properties":{"name":"Cheryl Vines","geo_score":0.857,"zip code":"75078","id":"aepvu2dydc17","geo_precision":"zip","state":"TX"},"type":"Feature","geometry":{"type":"Point","coordinates":[-96.78524,33.254191]}},{"properties":{"name":"Douglas Haller","geo_score":0.857,"zip code":"75081","id":"aepvu2mda6ww","geo_precision":"zip","state":"TX"},"type":"Feature","geometry":{"type":"Point","coordinates":[-96.721626,32.949266]}},{"properties":{"name":"Pat O'Connor","geo_score":0.857,"zip code":"75081","id":"aepvu2rk0n75","geo_precision":"zip","state":"TX"},"type":"Feature","geometry":{"type":"Point","coordinates":[-96.721626,32.949266]}},{"properties":{"name":"Samantha Jenkins","geo_score":0.857,"zip code":"75082","id":"aepvu2le27st","geo_precision":"zip","state":"TX"},"type":"Feature","geometry":{"type":"Point","coordinates":[-96.69137,32.979315]}},{"properties":{"name":"Sam Struthers","geo_score":0.857,"zip code":"75098","id":"aepvu2nrre2i","geo_precision":"zip","state":"TX"},"type":"Feature","geometry":{"type":"Point","coordinates":[-96.528045,32.9579]}},{"properties":{"name":"Kenneth Weaver","geo_score":0.857,"zip code":"75110","id":"aepvu2tmkds5","geo_precision":"zip","state":"TX"},"type":"Feature","geometry":{"type":"Point","coordinates":[-96.57721,32.16265]}},{"properties":{"name":"Marty Herndon","geo_score":0.857,"zip code":"75117","id":"aepvu2mstzjj","geo_precision":"zip","state":"TX"},"type":"Feature","geometry":{"type":"Point","coordinates":[-95.85635,32.71476]}},{"properties":{"name":"Mark Cowart","geo_score":0.857,"zip code":"75126","id":"aepvu2e86qq0","geo_precision":"zip","state":"TX"},"type":"Feature","geometry":{"type":"Point","coordinates":[-96.450819,32.723931]}},{"properties":{"name":"Bob Wardlaw","geo_score":0.857,"zip code":"75132","id":"aepvu2inmm43","geo_precision":"zip","state":"TX"},"type":"Feature","geometry":{"type":"Point","coordinates":[-96.367821,32.955476]}},{"properties":{"name":"Elizabeth Daniels","geo_score":0.857,"zip code":"75142","id":"aepvu2jnuwez","geo_precision":"zip","state":"TX"},"type":"Feature","geometry":{"type":"Point","coordinates":[-96.420263,32.550136]}},{"properties":{"name":"David Snider","geo_score":0.857,"zip code":"75150","id":"aepvu2eplbsp","geo_precision":"zip","state":"TX"},"type":"Feature","geometry":{"type":"Point","coordinates":[-96.635868,32.790964]}},{"properties":{"name":"Richard Bridges","geo_score":0.857,"zip code":"75160","id":"aepvu2eyj8de","geo_precision":"zip","state":"TX"},"type":"Feature","geometry":{"type":"Point","coordinates":[-96.262201,32.657355]}},{"properties":{"name":"Jesse Robinson","geo_score":0.857,"zip code":"75165","id":"aepvu2svntxc","geo_precision":"zip","state":"TX"},"type":"Feature","geometry":{"type":"Point","coordinates":[-96.763884,32.469862]}},{"properties":{"name":"Joe Mays","geo_score":0.857,"zip code":"75177","id":"aepvu2gwa6ok","geo_precision":"zip","state":"TX"},"type":"Feature","geometry":{"type":"Point","coordinates":[-96.599159,32.766796]}},{"properties":{"name":"Marcus (Heath) Fries","geo_score":0.857,"zip code":"75211","id":"aepvu2iuga7k","geo_precision":"zip","state":"TX"},"type":"Feature","geometry":{"type":"Point","coordinates":[-96.926115,32.692355]}},{"properties":{"name":"Charles Hooker","geo_score":0.857,"zip code":"75218","id":"aepvu2kqis8m","geo_precision":"zip","state":"TX"},"type":"Feature","geometry":{"type":"Point","coordinates":[-96.680552,32.875403]}},{"properties":{"name":"James Kenneth Johnson","geo_score":0.857,"zip code":"75218","id":"aepvu2n916ap","geo_precision":"zip","state":"TX"},"type":"Feature","geometry":{"type":"Point","coordinates":[-96.680552,32.875403]}},{"properties":{"name":"Derek Phipps","geo_score":0.857,"zip code":"75218","id":"aepvu2kr9lrp","geo_precision":"zip","state":"TX"},"type":"Feature","geometry":{"type":"Point","coordinates":[-96.680552,32.875403]}},{"properties":{"name":"Cheri' Moon","geo_score":0.857,"zip code":"75224","id":"aepvu2fsf7kg","geo_precision":"zip","state":"TX"},"type":"Feature","geometry":{"type":"Point","coordinates":[-96.82623,32.710281]}},{"properties":{"name":"Tanya Wolosek","geo_score":0.857,"zip code":"75226","id":"aepvu2g7d9jq","geo_precision":"zip","state":"TX"},"type":"Feature","geometry":{"type":"Point","coordinates":[-96.775578,32.783879]}},{"properties":{"name":"David *Mike* Raymond","geo_score":0.857,"zip code":"75229","id":"aepvu2fo8krs","geo_precision":"zip","state":"TX"},"type":"Feature","geometry":{"type":"Point","coordinates":[-96.777626,32.767268]}},{"properties":{"name":"Thomas Bayes","geo_score":0.857,"zip code":"75401","id":"aepvu2qgnixm","geo_precision":"zip","state":"TX"},"type":"Feature","geometry":{"type":"Point","coordinates":[-96.054416,33.220114]}},{"properties":{"name":"Joseph Ross","geo_score":0.857,"zip code":"75402","id":"aepvu2obz7c3","geo_precision":"zip","state":"TX"},"type":"Feature","geometry":{"type":"Point","coordinates":[-96.092747,33.104707]}},{"properties":{"name":"Kenneth Bates","geo_score":0.857,"zip code":"75409","id":"aepvu2fwf6ge","geo_precision":"zip","state":"TX"},"type":"Feature","geometry":{"type":"Point","coordinates":[-96.524804,33.323709]}},{"properties":{"name":"Timothy Bates","geo_score":0.857,"zip code":"75409","id":"aepvu2s2s37l","geo_precision":"zip","state":"TX"},"type":"Feature","geometry":{"type":"Point","coordinates":[-96.524804,33.323709]}},{"properties":{"name":"Larry Prather","geo_score":0.857,"zip code":"75442","id":"aepvu2l2ijow","geo_precision":"zip","state":"TX"},"type":"Feature","geometry":{"type":"Point","coordinates":[-96.379009,33.218463]}},{"properties":{"name":"Randy Ragan","geo_score":0.857,"zip code":"75482","id":"aepvu2nrlpvc","geo_precision":"zip","state":"TX"},"type":"Feature","geometry":{"type":"Point","coordinates":[-95.700237,33.261778]}},{"properties":{"name":"Francis Frederick","geo_score":0.857,"zip code":"75495","id":"aepvu2pgtmxh","geo_precision":"zip","state":"TX"},"type":"Feature","geometry":{"type":"Point","coordinates":[-96.6356,33.541018]}},{"properties":{"name":"Jeff Edwards","geo_score":0.857,"zip code":"75503","id":"aepvu2gtepqn","geo_precision":"zip","state":"TX"},"type":"Feature","geometry":{"type":"Point","coordinates":[-94.116906,33.464376]}},{"properties":{"name":"Stephen Marshall","geo_score":0.857,"zip code":"75652","id":"aepvu2iaw8gh","geo_precision":"zip","state":"TX"},"type":"Feature","geometry":{"type":"Point","coordinates":[-94.647986,32.297656]}},{"properties":{"name":"Johnathan Carnley","geo_score":0.857,"zip code":"75662","id":"aepvu2ec1qck","geo_precision":"zip","state":"TX"},"type":"Feature","geometry":{"type":"Point","coordinates":[-94.826881,32.400984]}},{"properties":{"name":"Timothy Truman","geo_score":0.857,"zip code":"75662","id":"aepvu2eaq6ru","geo_precision":"zip","state":"TX"},"type":"Feature","geometry":{"type":"Point","coordinates":[-94.826881,32.400984]}},{"properties":{"name":"Tom Jones","geo_score":0.857,"zip code":"75703","id":"aepvu2h1j4ph","geo_precision":"zip","state":"TX"},"type":"Feature","geometry":{"type":"Point","coordinates":[-95.282173,32.441813]}},{"properties":{"name":"Jeff Hykel","geo_score":0.857,"zip code":"75757","id":"aepvu2mfaz5v","geo_precision":"zip","state":"TX"},"type":"Feature","geometry":{"type":"Point","coordinates":[-95.254306,32.177304]}},{"properties":{"name":"Ken  Gilbreath","geo_score":0.857,"zip code":"75773","id":"aepvu2ls3zar","geo_precision":"zip","state":"TX"},"type":"Feature","geometry":{"type":"Point","coordinates":[-95.364395,32.717632]}},{"properties":{"name":"Nick Kocorek","geo_score":0.857,"zip code":"76001","id":"aepvu2q94jdo","geo_precision":"zip","state":"TX"},"type":"Feature","geometry":{"type":"Point","coordinates":[-97.291484,32.771419]}},{"properties":{"name":"Don Glover","geo_score":0.857,"zip code":"76006","id":"aepvu2hukmrg","geo_precision":"zip","state":"TX"},"type":"Feature","geometry":{"type":"Point","coordinates":[-97.085559,32.776551]}},{"properties":{"name":"Vicki Casaus","geo_score":0.857,"zip code":"76010","id":"aepvu2r5y79m","geo_precision":"zip","state":"TX"},"type":"Feature","geometry":{"type":"Point","coordinates":[-97.128066,32.692077]}},{"properties":{"name":"Travis Vanderloop","geo_score":0.857,"zip code":"76011","id":"aepvu2imgsgg","geo_precision":"zip","state":"TX"},"type":"Feature","geometry":{"type":"Point","coordinates":[-97.079633,32.771455]}},{"properties":{"name":"Len Harris","geo_score":0.857,"zip code":"76016","id":"aepvu2hilkkh","geo_precision":"zip","state":"TX"},"type":"Feature","geometry":{"type":"Point","coordinates":[-97.291484,32.771419]}},{"properties":{"name":"Margaret (Peggy) Scott","geo_score":0.857,"zip code":"76020","id":"aepvu2ft0fz5","geo_precision":"zip","state":"TX"},"type":"Feature","geometry":{"type":"Point","coordinates":[-97.599747,32.919847]}},{"properties":{"name":"Dewey Courtney","geo_score":0.857,"zip code":"76021","id":"aepvu2o3dwc0","geo_precision":"zip","state":"TX"},"type":"Feature","geometry":{"type":"Point","coordinates":[-97.136289,32.852546]}},{"properties":{"name":"Dale Cleveland","geo_score":0.857,"zip code":"76023","id":"aepvu2dzn6z2","geo_precision":"zip","state":"TX"},"type":"Feature","geometry":{"type":"Point","coordinates":[-97.613081,33.034567]}},{"properties":{"name":"Ronnie Miller","geo_score":0.857,"zip code":"76028","id":"aepvu2n7qa65","geo_precision":"zip","state":"TX"},"type":"Feature","geometry":{"type":"Point","coordinates":[-97.235569,32.55236]}},{"properties":{"name":"Bill Shewmaker","geo_score":0.857,"zip code":"76028","id":"aepvu2mlwfd0","geo_precision":"zip","state":"TX"},"type":"Feature","geometry":{"type":"Point","coordinates":[-97.235569,32.55236]}},{"properties":{"name":"Clarissa Shewmaker","geo_score":0.857,"zip code":"76028","id":"aepvu2khv42w","geo_precision":"zip","state":"TX"},"type":"Feature","geometry":{"type":"Point","coordinates":[-97.235569,32.55236]}},{"properties":{"name":"Roberta Reed","geo_score":0.857,"zip code":"76036","id":"aepvu2syg4dc","geo_precision":"zip","state":"TX"},"type":"Feature","geometry":{"type":"Point","coordinates":[-97.291484,32.771419]}},{"properties":{"name":"James Hopkins","geo_score":0.857,"zip code":"76039","id":"aepvu2hacb2p","geo_precision":"zip","state":"TX"},"type":"Feature","geometry":{"type":"Point","coordinates":[-97.075688,32.859305]}},{"properties":{"name":"Paul Carlton","geo_score":0.857,"zip code":"76040","id":"aepvu2r7b7br","geo_precision":"zip","state":"TX"},"type":"Feature","geometry":{"type":"Point","coordinates":[-97.108179,32.821379]}},{"properties":{"name":"William Gilbreath","geo_score":0.857,"zip code":"76048","id":"aepvu2hk5exb","geo_precision":"zip","state":"TX"},"type":"Feature","geometry":{"type":"Point","coordinates":[-97.801697,32.514859]}},{"properties":{"name":"Richard Whitten","geo_score":0.857,"zip code":"76048","id":"aepvu2e9xnvk","geo_precision":"zip","state":"TX"},"type":"Feature","geometry":{"type":"Point","coordinates":[-97.801697,32.514859]}},{"properties":{"name":"Brenda Riley","geo_score":0.857,"zip code":"76049","id":"aepvu2r0mxmw","geo_precision":"zip","state":"TX"},"type":"Feature","geometry":{"type":"Point","coordinates":[-97.76658,32.449368]}},{"properties":{"name":"Kim Riley","geo_score":0.857,"zip code":"76049","id":"aepvu2drgl53","geo_precision":"zip","state":"TX"},"type":"Feature","geometry":{"type":"Point","coordinates":[-97.76658,32.449368]}},{"properties":{"name":"Schuyler Riley","geo_score":0.857,"zip code":"76049","id":"aepvu2e31p4d","geo_precision":"zip","state":"TX"},"type":"Feature","geometry":{"type":"Point","coordinates":[-97.76658,32.449368]}},{"properties":{"name":"Ronald Stanfield","geo_score":0.857,"zip code":"76049","id":"aepvu2j8ddrc","geo_precision":"zip","state":"TX"},"type":"Feature","geometry":{"type":"Point","coordinates":[-97.76658,32.449368]}},{"properties":{"name":"Stan Culpepper","geo_score":0.857,"zip code":"76051","id":"aepvu2n14vnp","geo_precision":"zip","state":"TX"},"type":"Feature","geometry":{"type":"Point","coordinates":[-97.080802,32.932843]}},{"properties":{"name":"Larry Miller","geo_score":0.857,"zip code":"76051","id":"aepvu2h9xb2q","geo_precision":"zip","state":"TX"},"type":"Feature","geometry":{"type":"Point","coordinates":[-97.080802,32.932843]}},{"properties":{"name":"Justin Jacobson","geo_score":0.857,"zip code":"76053","id":"aepvu2ttxfra","geo_precision":"zip","state":"TX"},"type":"Feature","geometry":{"type":"Point","coordinates":[-97.227779,32.882663]}},{"properties":{"name":"Nelson Gagne","geo_score":0.857,"zip code":"76058","id":"aepvu2g9wd6m","geo_precision":"zip","state":"TX"},"type":"Feature","geometry":{"type":"Point","coordinates":[-97.303647,32.408644]}},{"properties":{"name":"Troy Fleeman","geo_score":0.857,"zip code":"76060","id":"aepvu2hsppav","geo_precision":"zip","state":"TX"},"type":"Feature","geometry":{"type":"Point","coordinates":[-97.291484,32.771419]}},{"properties":{"name":"Dianna Gray","geo_score":0.857,"zip code":"76065","id":"aepvu2q1v01z","geo_precision":"zip","state":"TX"},"type":"Feature","geometry":{"type":"Point","coordinates":[-96.906111,32.428752]}},{"properties":{"name":"Rick Phillips","geo_score":0.857,"zip code":"76082","id":"aepvu2pdq5pa","geo_precision":"zip","state":"TX"},"type":"Feature","geometry":{"type":"Point","coordinates":[-97.788642,32.979289]}},{"properties":{"name":"Cheri Sutherland","geo_score":0.857,"zip code":"76084","id":"aepvu2ovu1zb","geo_precision":"zip","state":"TX"},"type":"Feature","geometry":{"type":"Point","coordinates":[-97.141191,32.455147]}},{"properties":{"name":"Corey Phillips","geo_score":0.857,"zip code":"76085","id":"aepvu2r1o687","geo_precision":"zip","state":"TX"},"type":"Feature","geometry":{"type":"Point","coordinates":[-97.70349,32.846141]}},{"properties":{"name":"James Shell","geo_score":0.857,"zip code":"76086","id":"aepvu2ikbxwj","geo_precision":"zip","state":"TX"},"type":"Feature","geometry":{"type":"Point","coordinates":[-97.730029,32.756517]}},{"properties":{"name":"Rodney Lode","geo_score":0.857,"zip code":"76087","id":"aepvu2jzi779","geo_precision":"zip","state":"TX"},"type":"Feature","geometry":{"type":"Point","coordinates":[-97.650582,32.762629]}},{"properties":{"name":"Craig Turns","geo_score":0.857,"zip code":"76087","id":"aepvu2jw93s7","geo_precision":"zip","state":"TX"},"type":"Feature","geometry":{"type":"Point","coordinates":[-97.650582,32.762629]}},{"properties":{"name":"David Walsh","geo_score":0.857,"zip code":"76092","id":"aepvu2g92p7y","geo_precision":"zip","state":"TX"},"type":"Feature","geometry":{"type":"Point","coordinates":[-97.060565,32.885682]}},{"properties":{"name":"Benny Bulger","geo_score":0.857,"zip code":"76102","id":"aepvu2ko8ltb","geo_precision":"zip","state":"TX"},"type":"Feature","geometry":{"type":"Point","coordinates":[-97.245612,32.759437]}},{"properties":{"name":"Douglas Mckenzie","geo_score":0.857,"zip code":"76108","id":"aepvu2mwdxip","geo_precision":"zip","state":"TX"},"type":"Feature","geometry":{"type":"Point","coordinates":[-97.458354,32.759574]}},{"properties":{"name":"Larisa Kingston","geo_score":0.857,"zip code":"76120","id":"aepvu2n1okum","geo_precision":"zip","state":"TX"},"type":"Feature","geometry":{"type":"Point","coordinates":[-97.184721,32.769931]}},{"properties":{"name":"David Yount","geo_score":0.857,"zip code":"76126","id":"aepvu2k0t6aj","geo_precision":"zip","state":"TX"},"type":"Feature","geometry":{"type":"Point","coordinates":[-97.460576,32.673188]}},{"properties":{"name":"David Bolsius","geo_score":0.857,"zip code":"76148","id":"aepvu2rftvh3","geo_precision":"zip","state":"TX"},"type":"Feature","geometry":{"type":"Point","coordinates":[-97.254737,32.857906]}},{"properties":{"name":"Tom Dillon","geo_score":0.857,"zip code":"76179","id":"aepvu2m2qm34","geo_precision":"zip","state":"TX"},"type":"Feature","geometry":{"type":"Point","coordinates":[-97.363907,32.860128]}},{"properties":{"name":"Billy Weir","geo_score":0.857,"zip code":"76179","id":"aepvu2e8vy2j","geo_precision":"zip","state":"TX"},"type":"Feature","geometry":{"type":"Point","coordinates":[-97.363907,32.860128]}},{"properties":{"name":"Chris Cleveland","geo_score":0.857,"zip code":"76182","id":"aepvu2l3q6u9","geo_precision":"zip","state":"TX"},"type":"Feature","geometry":{"type":"Point","coordinates":[-97.291484,32.771419]}},{"properties":{"name":"Jeff Johnston","geo_score":0.857,"zip code":"76205","id":"aepvu2nslvbl","geo_precision":"zip","state":"TX"},"type":"Feature","geometry":{"type":"Point","coordinates":[-97.029453,33.16512]}},{"properties":{"name":"David Kershaw","geo_score":0.857,"zip code":"76210","id":"aepvu2iaoqd9","geo_precision":"zip","state":"TX"},"type":"Feature","geometry":{"type":"Point","coordinates":[-97.068141,33.143289]}},{"properties":{"name":"Petrina Smith","geo_score":0.857,"zip code":"76226","id":"aepvu2jb2fsw","geo_precision":"zip","state":"TX"},"type":"Feature","geometry":{"type":"Point","coordinates":[-97.226127,33.100122]}},{"properties":{"name":"Scott Rogers","geo_score":0.857,"zip code":"76230","id":"aepvu2nsejix","geo_precision":"zip","state":"TX"},"type":"Feature","geometry":{"type":"Point","coordinates":[-97.856849,33.530011]}},{"properties":{"name":"Adam Bonnett","geo_score":0.857,"zip code":"76244","id":"aepvu2laea3z","geo_precision":"zip","state":"TX"},"type":"Feature","geometry":{"type":"Point","coordinates":[-97.291484,32.771419]}},{"properties":{"name":"Nate Cutsail","geo_score":0.857,"zip code":"76244","id":"aepvu2jsbynv","geo_precision":"zip","state":"TX"},"type":"Feature","geometry":{"type":"Point","coordinates":[-97.291484,32.771419]}},{"properties":{"name":"John Halvorson","geo_score":0.857,"zip code":"76258","id":"aepvu2g4m8ki","geo_precision":"zip","state":"TX"},"type":"Feature","geometry":{"type":"Point","coordinates":[-97.015563,33.444558]}},{"properties":{"name":"Brian Maxwell","geo_score":0.857,"zip code":"76258","id":"aepvu2omr1nm","geo_precision":"zip","state":"TX"},"type":"Feature","geometry":{"type":"Point","coordinates":[-97.015563,33.444558]}},{"properties":{"name":"Mike Mcelroy","geo_score":0.857,"zip code":"76259","id":"aepvu2k26yub","geo_precision":"zip","state":"TX"},"type":"Feature","geometry":{"type":"Point","coordinates":[-97.309629,33.192662]}},{"properties":{"name":"Michael 'Keith' Fox","geo_score":0.857,"zip code":"76262","id":"aepvu2mvdik2","geo_precision":"zip","state":"TX"},"type":"Feature","geometry":{"type":"Point","coordinates":[-97.117815,33.199082]}},{"properties":{"name":"Michael Berry","geo_score":0.857,"zip code":"76266","id":"aepvu2mr8iwh","geo_precision":"zip","state":"TX"},"type":"Feature","geometry":{"type":"Point","coordinates":[-97.214454,33.341653]}},{"properties":{"name":"Greg Briney","geo_score":0.857,"zip code":"76266","id":"aepvu2squerl","geo_precision":"zip","state":"TX"},"type":"Feature","geometry":{"type":"Point","coordinates":[-97.214454,33.341653]}},{"properties":{"name":"Brian Allmand","geo_score":0.857,"zip code":"76301","id":"aepvu2j9ov8a","geo_precision":"zip","state":"TX"},"type":"Feature","geometry":{"type":"Point","coordinates":[-98.589502,33.938985]}},{"properties":{"name":"Jason Austin","geo_score":0.857,"zip code":"76306","id":"aepvu2pz5xd8","geo_precision":"zip","state":"TX"},"type":"Feature","geometry":{"type":"Point","coordinates":[-98.696094,33.979635]}},{"properties":{"name":"Samantha Lindsey","geo_score":0.857,"zip code":"76306","id":"aepvu2olbdre","geo_precision":"zip","state":"TX"},"type":"Feature","geometry":{"type":"Point","coordinates":[-98.696094,33.979635]}},{"properties":{"name":"Larry Wiggins","geo_score":0.857,"zip code":"76307","id":"aepvu2em0ara","geo_precision":"zip","state":"TX"},"type":"Feature","geometry":{"type":"Point","coordinates":[-98.494595,33.877746]}},{"properties":{"name":"Peter Graf","geo_score":0.857,"zip code":"76308","id":"aepvu2nlw5ar","geo_precision":"zip","state":"TX"},"type":"Feature","geometry":{"type":"Point","coordinates":[-98.389217,34.05815]}},{"properties":{"name":"Scott Shelton","geo_score":0.857,"zip code":"76310","id":"aepvu2omwwka","geo_precision":"zip","state":"TX"},"type":"Feature","geometry":{"type":"Point","coordinates":[-98.576573,33.87121]}},{"properties":{"name":"Gregory Talley","geo_score":0.857,"zip code":"76310","id":"aepvu2p1ahl7","geo_precision":"zip","state":"TX"},"type":"Feature","geometry":{"type":"Point","coordinates":[-98.576573,33.87121]}},{"properties":{"name":"Randy Byrd","geo_score":0.0,"zip code":"76336","id":"aepvu2qodzxq","geo_precision":"unmatched","state":"TX"},"type":"Feature","geometry":null},{"properties":{"name":"Mark Breitkreuz","geo_score":0.857,"zip code":"76354","id":"aepvu2fzdpod","geo_precision":"zip","state":"TX"},"type":"Feature","geometry":{"type":"Point","coordinates":[-98.600475,34.048087]}},{"properties":{"name":"John *Mitch* Whitman","geo_score":0.857,"zip code":"76502","id":"aepvu2pipx39","geo_precision":"zip","state":"TX"},"type":"Feature","geometry":{"type":"Point","coordinates":[-97.402704,31.104581]}},{"properties":{"name":"Thomas Hendricks","geo_score":0.857,"zip code":"76513","id":"aepvu2oqef1f","geo_precision":"zip","state":"TX"},"type":"Feature","geometry":{"type":"Point","coordinates":[-97.411118,31.07879]}},{"properties":{"name":"Donald Forson","geo_score":0.857,"zip code":"76634","id":"aepvu2njwmpa","geo_precision":"zip","state":"TX"},"type":"Feature","geometry":{"type":"Point","coordinates":[-97.496128,31.837102]}},{"properties":{"name":"Dale Pahmiyer","geo_score":0.857,"zip code":"76657","id":"aepvu2r5bqpz","geo_precision":"zip","state":"TX"},"type":"Feature","geometry":{"type":"Point","coordinates":[-97.393924,31.40352]}},{"properties":{"name":"Brad Grusendorf","geo_score":0.857,"zip code":"76708","id":"aepvu2txfkca","geo_precision":"zip","state":"TX"},"type":"Feature","geometry":{"type":"Point","coordinates":[-97.195283,31.609054]}},{"properties":{"name":"Kim  Banks","geo_score":0.857,"zip code":"77003","id":"aepvu2tyqyi6","geo_precision":"zip","state":"TX"},"type":"Feature","geometry":{"type":"Point","coordinates":[-95.434241,29.83399]}},{"properties":{"name":"Doug Cheves","geo_score":0.857,"zip code":"77055","id":"aepvu2re7g48","geo_precision":"zip","state":"TX"},"type":"Feature","geometry":{"type":"Point","coordinates":[-95.434241,29.83399]}},{"properties":{"name":"Shane Hoevelman","geo_score":0.857,"zip code":"77065","id":"aepvu2lo1efl","geo_precision":"zip","state":"TX"},"type":"Feature","geometry":{"type":"Point","coordinates":[-95.434241,29.83399]}},{"properties":{"name":"Daniel Claire","geo_score":0.857,"zip code":"77070","id":"aepvu2ese7mn","geo_precision":"zip","state":"TX"},"type":"Feature","geometry":{"type":"Point","coordinates":[-95.434241,29.83399]}},{"properties":{"name":"Johnny Miller","geo_score":0.857,"zip code":"77070","id":"aepvu2lgeim5","geo_precision":"zip","state":"TX"},"type":"Feature","geometry":{"type":"Point","coordinates":[-95.434241,29.83399]}},{"properties":{"name":"Dion Craig","geo_score":0.857,"zip code":"77081","id":"aepvu2ou83wu","geo_precision":"zip","state":"TX"},"type":"Feature","geometry":{"type":"Point","coordinates":[-95.306914,29.68193]}},{"properties":{"name":"Frank Hartney","geo_score":0.857,"zip code":"77088","id":"aepvu2srv2u6","geo_precision":"zip","state":"TX"},"type":"Feature","geometry":{"type":"Point","coordinates":[-95.434241,29.83399]}},{"properties":{"name":"Max Chesshir","geo_score":0.857,"zip code":"77304","id":"aepvu2tc38cv","geo_precision":"zip","state":"TX"},"type":"Feature","geometry":{"type":"Point","coordinates":[-95.493553,30.38104]}},{"properties":{"name":"Billy Rogacki","geo_score":0.857,"zip code":"77306","id":"aepvu2ojxyun","geo_precision":"zip","state":"TX"},"type":"Feature","geometry":{"type":"Point","coordinates":[-95.285136,30.227669]}},{"properties":{"name":"Clay Conkling","geo_score":0.857,"zip code":"77318","id":"aepvu2pekh96","geo_precision":"zip","state":"TX"},"type":"Feature","geometry":{"type":"Point","coordinates":[-95.490719,30.43794]}},{"properties":{"name":"Kent Duncan","geo_score":0.857,"zip code":"77346","id":"aepvu2i2djgy","geo_precision":"zip","state":"TX"},"type":"Feature","geometry":{"type":"Point","coordinates":[-95.176598,29.998831]}},{"properties":{"name":"Don Coney","geo_score":0.857,"zip code":"77356","id":"aepvu2drgu5s","geo_precision":"zip","state":"TX"},"type":"Feature","geometry":{"type":"Point","coordinates":[-95.49833,30.354902]}},{"properties":{"name":"Thomas Tuley","geo_score":0.857,"zip code":"77364","id":"aepvu2o0hwdj","geo_precision":"zip","state":"TX"},"type":"Feature","geometry":{"type":"Point","coordinates":[-95.218676,30.755812]}},{"properties":{"name":"Kelly Vardaman","geo_score":0.857,"zip code":"77372","id":"aepvu2sy9wnz","geo_precision":"zip","state":"TX"},"type":"Feature","geometry":{"type":"Point","coordinates":[-95.183281,30.255457]}},{"properties":{"name":"Kathy Emery","geo_score":0.857,"zip code":"77373","id":"aepvu2e0vull","geo_precision":"zip","state":"TX"},"type":"Feature","geometry":{"type":"Point","coordinates":[-94.924375,30.41354]}},{"properties":{"name":"Chynethia Gragg","geo_score":0.857,"zip code":"77373","id":"aepvu2qrn6ff","geo_precision":"zip","state":"TX"},"type":"Feature","geometry":{"type":"Point","coordinates":[-94.924375,30.41354]}},{"properties":{"name":"Norman *Wally* Williford Jr.","geo_score":0.857,"zip code":"77377","id":"aepvu2l3mo1f","geo_precision":"zip","state":"TX"},"type":"Feature","geometry":{"type":"Point","coordinates":[-95.434241,29.83399]}},{"properties":{"name":"Bill Clark","geo_score":0.857,"zip code":"77385","id":"aepvu2rewce1","geo_precision":"zip","state":"TX"},"type":"Feature","geometry":{"type":"Point","coordinates":[-95.444383,30.160216]}},{"properties":{"name":"Cindy Clark","geo_score":0.857,"zip code":"77385","id":"aepvu2mp621e","geo_precision":"zip","state":"TX"},"type":"Feature","geometry":{"type":"Point","coordinates":[-95.444383,30.160216]}},{"properties":{"name":"Earl Randolph","geo_score":0.857,"zip code":"77396","id":"aepvu2n66am2","geo_precision":"zip","state":"TX"},"type":"Feature","geometry":{"type":"Point","coordinates":[-95.434241,29.83399]}},{"properties":{"name":"Thomas Morris","geo_score":0.857,"zip code":"77399","id":"aepvu2mzxb7i","geo_precision":"zip","state":"TX"},"type":"Feature","geometry":{"type":"Point","coordinates":[-94.869052,30.817866]}},{"properties":{"name":"Mary Morris","geo_score":0.857,"zip code":"77399","id":"aepvu2h3tnkx","geo_precision":"zip","state":"TX"},"type":"Feature","geometry":{"type":"Point","coordinates":[-94.869052,30.817866]}},{"properties":{"name":"Chad Falcon","geo_score":0.857,"zip code":"77433","id":"aepvu2f74duu","geo_precision":"zip","state":"TX"},"type":"Feature","geometry":{"type":"Point","coordinates":[-95.434241,29.83399]}},{"properties":{"name":"Rodney Stephenson","geo_score":0.857,"zip code":"77445","id":"aepvu2jij184","geo_precision":"zip","state":"TX"},"type":"Feature","geometry":{"type":"Point","coordinates":[-96.038847,29.95078]}},{"properties":{"name":"Franklin Harbin","geo_score":0.857,"zip code":"77450","id":"aepvu2lf890n","geo_precision":"zip","state":"TX"},"type":"Feature","geometry":{"type":"Point","coordinates":[-95.434241,29.83399]}},{"properties":{"name":"Beau Price","geo_score":0.857,"zip code":"77450","id":"aepvu2qvta61","geo_precision":"zip","state":"TX"},"type":"Feature","geometry":{"type":"Point","coordinates":[-95.434241,29.83399]}},{"properties":{"name":"Steven Kim Stewart","geo_score":0.0,"zip code":"77498","id":"aepvu2tw7esq","geo_precision":"unmatched","state":"TX"},"type":"Feature","geometry":null},{"properties":{"name":"Kimberly Stewart","geo_score":0.0,"zip code":"77498","id":"aepvu2hr953a","geo_precision":"unmatched","state":"TX"},"type":"Feature","geometry":null},{"properties":{"name":"Michael Burgess","geo_score":0.857,"zip code":"77505","id":"aepvu2ethn3y","geo_precision":"zip","state":"TX"},"type":"Feature","geometry":{"type":"Point","coordinates":[-95.143911,29.648731]}},{"properties":{"name":"Mike McWherter","geo_score":0.857,"zip code":"77511","id":"aepvu2g0trt2","geo_precision":"zip","state":"TX"},"type":"Feature","geometry":{"type":"Point","coordinates":[-95.406048,29.337714]}},{"properties":{"name":"Wayne Guarisco","geo_score":0.857,"zip code":"77545","id":"aepvu2jkaqf5","geo_precision":"zip","state":"TX"},"type":"Feature","geometry":{"type":"Point","coordinates":[-95.756462,29.525461]}},{"properties":{"name":"Brad Bullock","geo_score":0.857,"zip code":"77546","id":"aepvu2rfc0it","geo_precision":"zip","state":"TX"},"type":"Feature","geometry":{"type":"Point","coordinates":[-95.156545,29.482185]}},{"properties":{"name":"Paul Ward","geo_score":0.857,"zip code":"77573","id":"aepvu2h8lhlj","geo_precision":"zip","state":"TX"},"type":"Feature","geometry":{"type":"Point","coordinates":[-95.052262,29.496451]}},{"properties":{"name":"Monte Jones","geo_score":0.857,"zip code":"77581","id":"aepvu2rg89e9","geo_precision":"zip","state":"TX"},"type":"Feature","geometry":{"type":"Point","coordinates":[-95.325215,29.5869]}},{"properties":{"name":"Richard *Rick* Hasler","geo_score":0.857,"zip code":"77586","id":"aepvu2qv5ijs","geo_precision":"zip","state":"TX"},"type":"Feature","geometry":{"type":"Point","coordinates":[-95.045207,29.563563]}},{"properties":{"name":"Clarence (Bud) Porter","geo_score":0.857,"zip code":"77619","id":"aepvu2lgh4mx","geo_precision":"zip","state":"TX"},"type":"Feature","geometry":{"type":"Point","coordinates":[-93.916957,29.941563]}},{"properties":{"name":"Sharon Kannegieter","geo_score":0.857,"zip code":"77808","id":"aepvu2n3mcm2","geo_precision":"zip","state":"TX"},"type":"Feature","geometry":{"type":"Point","coordinates":[-96.305894,30.820187]}},{"properties":{"name":"Greg Lentz","geo_score":0.857,"zip code":"77808","id":"aepvu2t2w1gi","geo_precision":"zip","state":"TX"},"type":"Feature","geometry":{"type":"Point","coordinates":[-96.305894,30.820187]}},{"properties":{"name":"Matt Costenbader","geo_score":0.714,"zip code":"77845","id":"aepvu2izguzc","geo_precision":"zip","state":"TX"},"type":"Feature","geometry":{"type":"Point","coordinates":[-96.293826,30.579234]}},{"properties":{"name":"Hardy Nevill","geo_score":0.857,"zip code":"77872","id":"aepvu2ia6f9e","geo_precision":"zip","state":"TX"},"type":"Feature","geometry":{"type":"Point","coordinates":[-96.00301,30.913245]}},{"properties":{"name":"James Garcia","geo_score":0.857,"zip code":"78023","id":"aepvu2tlr7ee","geo_precision":"zip","state":"TX"},"type":"Feature","geometry":{"type":"Point","coordinates":[-98.793915,29.623004]}},{"properties":{"name":"Rick Heggy","geo_score":0.857,"zip code":"78130","id":"aepvu2q21q9n","geo_precision":"zip","state":"TX"},"type":"Feature","geometry":{"type":"Point","coordinates":[-98.076674,29.645227]}},{"properties":{"name":"Tim Pryor","geo_score":0.857,"zip code":"78130","id":"aepvu2rx5q1n","geo_precision":"zip","state":"TX"},"type":"Feature","geometry":{"type":"Point","coordinates":[-98.076674,29.645227]}},{"properties":{"name":"Michael Britt","geo_score":0.857,"zip code":"78132","id":"aepvu2i458af","geo_precision":"zip","state":"TX"},"type":"Feature","geometry":{"type":"Point","coordinates":[-98.198321,29.756508]}},{"properties":{"name":"Cameron Clinton","geo_score":0.857,"zip code":"78209","id":"aepvu2ma1jbo","geo_precision":"zip","state":"TX"},"type":"Feature","geometry":{"type":"Point","coordinates":[-98.427793,29.431232]}},{"properties":{"name":"Ron Andersen","geo_score":0.857,"zip code":"78217","id":"aepvu2qbrq4l","geo_precision":"zip","state":"TX"},"type":"Feature","geometry":{"type":"Point","coordinates":[-98.461582,29.437532]}},{"properties":{"name":"Benjamin Willborn","geo_score":0.857,"zip code":"78229","id":"aepvu2gd2h9w","geo_precision":"zip","state":"TX"},"type":"Feature","geometry":{"type":"Point","coordinates":[-98.33469,29.269288]}},{"properties":{"name":"Tim  Weir","geo_score":0.857,"zip code":"78230","id":"aepvu2mobo7x","geo_precision":"zip","state":"TX"},"type":"Feature","geometry":{"type":"Point","coordinates":[-98.7195,29.268287]}},{"properties":{"name":"Bill Parchen","geo_score":0.857,"zip code":"78250","id":"aepvu2rwb15a","geo_precision":"zip","state":"TX"},"type":"Feature","geometry":{"type":"Point","coordinates":[-98.461582,29.437532]}},{"properties":{"name":"Ronald Shilling","geo_score":0.857,"zip code":"78250","id":"aepvu2fjaail","geo_precision":"zip","state":"TX"},"type":"Feature","geometry":{"type":"Point","coordinates":[-98.461582,29.437532]}},{"properties":{"name":"Kirk Markos","geo_score":0.857,"zip code":"78253","id":"aepvu2hyo0vr","geo_precision":"zip","state":"TX"},"type":"Feature","geometry":{"type":"Point","coordinates":[-98.757439,29.471977]}},{"properties":{"name":"Robert Ponce","geo_score":0.857,"zip code":"78253","id":"aepvu2m40s6n","geo_precision":"zip","state":"TX"},"type":"Feature","geometry":{"type":"Point","coordinates":[-98.757439,29.471977]}},{"properties":{"name":"Fred Estrada","geo_score":0.857,"zip code":"78258","id":"aepvu2e8slkz","geo_precision":"zip","state":"TX"},"type":"Feature","geometry":{"type":"Point","coordinates":[-98.461582,29.437532]}},{"properties":{"name":"Karl Weir","geo_score":0.857,"zip code":"78374","id":"aepvu2pbhzw2","geo_precision":"zip","state":"TX"},"type":"Feature","geometry":{"type":"Point","coordinates":[-97.538993,27.979489]}},{"properties":{"name":"Dan Woods","geo_score":0.857,"zip code":"78382","id":"aepvu2oh8ch2","geo_precision":"zip","state":"TX"},"type":"Feature","geometry":{"type":"Point","coordinates":[-97.101567,28.070458]}},{"properties":{"name":"Yvonne Woods","geo_score":0.857,"zip code":"78382","id":"aepvu2jcyzxp","geo_precision":"zip","state":"TX"},"type":"Feature","geometry":{"type":"Point","coordinates":[-97.101567,28.070458]}},{"properties":{"name":"Donald Klock","geo_score":0.857,"zip code":"78409","id":"aepvu2ef3mkl","geo_precision":"zip","state":"TX"},"type":"Feature","geometry":{"type":"Point","coordinates":[-97.523605,27.842246]}},{"properties":{"name":"Glenn Wells","geo_score":0.857,"zip code":"78552","id":"aepvu2tszfgd","geo_precision":"zip","state":"TX"},"type":"Feature","geometry":{"type":"Point","coordinates":[-97.683666,26.174402]}},{"properties":{"name":"Brad Morgan","geo_score":0.857,"zip code":"78575","id":"aepvu2op92o0","geo_precision":"zip","state":"TX"},"type":"Feature","geometry":{"type":"Point","coordinates":[-97.547392,26.006779]}},{"properties":{"name":"Bruce Smith","geo_score":0.857,"zip code":"78596","id":"aepvu2jnk0ik","geo_precision":"zip","state":"TX"},"type":"Feature","geometry":{"type":"Point","coordinates":[-98.134649,26.178744]}},{"properties":{"name":"Mark Boknecht","geo_score":0.857,"zip code":"78613","id":"aepvu2lysjgl","geo_precision":"zip","state":"TX"},"type":"Feature","geometry":{"type":"Point","coordinates":[-97.628724,30.494032]}},{"properties":{"name":"Robert Mohr","geo_score":0.857,"zip code":"78619","id":"aepvu2p60cj8","geo_precision":"zip","state":"TX"},"type":"Feature","geometry":{"type":"Point","coordinates":[-98.000454,30.09393]}},{"properties":{"name":"JD 'David' Smith","geo_score":0.857,"zip code":"78620","id":"aepvu2qgzyd0","geo_precision":"zip","state":"TX"},"type":"Feature","geometry":{"type":"Point","coordinates":[-98.044468,30.165463]}},{"properties":{"name":"Michael Brown","geo_score":0.0,"zip code":"78633","id":"aepvu2goy6gd","geo_precision":"unmatched","state":"TX"},"type":"Feature","geometry":null},{"properties":{"name":"Alvin Bryant","geo_score":0.857,"zip code":"78645","id":"aepvu2qdw7mn","geo_precision":"zip","state":"TX"},"type":"Feature","geometry":{"type":"Point","coordinates":[-97.966945,30.44901]}},{"properties":{"name":"Jim Harris","geo_score":0.857,"zip code":"78657","id":"aepvu2jehx5w","geo_precision":"zip","state":"TX"},"type":"Feature","geometry":{"type":"Point","coordinates":[-98.333113,30.537773]}},{"properties":{"name":"Todd Ohlemeier","geo_score":0.857,"zip code":"78660","id":"aepvu2ie0yaq","geo_precision":"zip","state":"TX"},"type":"Feature","geometry":{"type":"Point","coordinates":[-97.597055,30.442737]}},{"properties":{"name":"Chad &amp; Jeannie Hunter","geo_score":0.857,"zip code":"78669","id":"aepvu2dzg89b","geo_precision":"zip","state":"TX"},"type":"Feature","geometry":{"type":"Point","coordinates":[-98.156407,30.475472]}},{"properties":{"name":"Kevin Kelly","geo_score":0.857,"zip code":"78681","id":"aepvu2glfp2z","geo_precision":"zip","state":"TX"},"type":"Feature","geometry":{"type":"Point","coordinates":[-97.718672,30.52398]}},{"properties":{"name":"Miki Kelly","geo_score":0.857,"zip code":"78707","id":"aepvu2kchhzo","geo_precision":"zip","state":"TX"},"type":"Feature","geometry":{"type":"Point","coordinates":[-97.743061,30.267153]}},{"properties":{"name":"Jon Pace","geo_score":0.857,"zip code":"78732","id":"aepvu2ix4ggw","geo_precision":"zip","state":"TX"},"type":"Feature","geometry":{"type":"Point","coordinates":[-97.889237,30.376821]}},{"properties":{"name":"Tim Giglotti","geo_score":0.857,"zip code":"78733","id":"aepvu2stexjg","geo_precision":"zip","state":"TX"},"type":"Feature","geometry":{"type":"Point","coordinates":[-97.889882,30.321504]}},{"properties":{"name":"Kris Cummins","geo_score":0.857,"zip code":"78734","id":"aepvu2iefcii","geo_precision":"zip","state":"TX"},"type":"Feature","geometry":{"type":"Point","coordinates":[-97.942721,30.370457]}},{"properties":{"name":"Stejepan Boban","geo_score":0.857,"zip code":"78741","id":"aepvu2git4q7","geo_precision":"zip","state":"TX"},"type":"Feature","geometry":{"type":"Point","coordinates":[-97.715057,30.231309]}},{"properties":{"name":"Rance Mcdonald","geo_score":0.857,"zip code":"78745","id":"aepvu2icr8gw","geo_precision":"zip","state":"TX"},"type":"Feature","geometry":{"type":"Point","coordinates":[-97.797183,30.198702]}},{"properties":{"name":"John Chapman","geo_score":0.857,"zip code":"78748","id":"aepvu2f5vckm","geo_precision":"zip","state":"TX"},"type":"Feature","geometry":{"type":"Point","coordinates":[-97.823854,30.16696]}},{"properties":{"name":"Richard Orsak","geo_score":0.857,"zip code":"78748","id":"aepvu2n3xvez","geo_precision":"zip","state":"TX"},"type":"Feature","geometry":{"type":"Point","coordinates":[-97.823854,30.16696]}},{"properties":{"name":"Chris Herrera","geo_score":0.857,"zip code":"78749","id":"aepvu2rvhmn4","geo_precision":"zip","state":"TX"},"type":"Feature","geometry":{"type":"Point","coordinates":[-97.857187,30.207969]}},{"properties":{"name":"Darla  Thompson","geo_score":0.857,"zip code":"78749","id":"aepvu2fmsdue","geo_precision":"zip","state":"TX"},"type":"Feature","geometry":{"type":"Point","coordinates":[-97.857187,30.207969]}},{"properties":{"name":"John Carpenter","geo_score":0.857,"zip code":"78758","id":"aepvu2dqmcvi","geo_precision":"zip","state":"TX"},"type":"Feature","geometry":{"type":"Point","coordinates":[-97.708233,30.383637]}},{"properties":{"name":"Donny Lindner","geo_score":0.857,"zip code":"78942","id":"aepvu2ig3c5v","geo_precision":"zip","state":"TX"},"type":"Feature","geometry":{"type":"Point","coordinates":[-96.970261,30.100496]}},{"properties":{"name":"Leslie (KIM) Shepherd","geo_score":0.857,"zip code":"79109","id":"aepvu2l6o7rj","geo_precision":"zip","state":"TX"},"type":"Feature","geometry":{"type":"Point","coordinates":[-101.847324,35.11389]}},{"properties":{"name":"Tyler Blake","geo_score":0.857,"zip code":"79110","id":"aepvu2s7l2v9","geo_precision":"zip","state":"TX"},"type":"Feature","geometry":{"type":"Point","coordinates":[-101.856612,35.131403]}},{"properties":{"name":"Jay Smith","geo_score":0.857,"zip code":"79339","id":"aepvu2g9hsac","geo_precision":"zip","state":"TX"},"type":"Feature","geometry":{"type":"Point","coordinates":[-102.401015,33.786206]}},{"properties":{"name":"Ernest *Dee* Neill","geo_score":0.857,"zip code":"79407","id":"aepvu2ksnvc9","geo_precision":"zip","state":"TX"},"type":"Feature","geometry":{"type":"Point","coordinates":[-101.989408,33.555775]}},{"properties":{"name":"John Garland","geo_score":0.857,"zip code":"79423","id":"aepvu2ejxmxd","geo_precision":"zip","state":"TX"},"type":"Feature","geometry":{"type":"Point","coordinates":[-101.896714,33.472975]}},{"properties":{"name":"Kristie Perkins","geo_score":0.857,"zip code":"79423","id":"aepvu2re2f4q","geo_precision":"zip","state":"TX"},"type":"Feature","geometry":{"type":"Point","coordinates":[-101.896714,33.472975]}},{"properties":{"name":"Jim Waggoner","geo_score":0.857,"zip code":"79423","id":"aepvu2m4zj7b","geo_precision":"zip","state":"TX"},"type":"Feature","geometry":{"type":"Point","coordinates":[-101.896714,33.472975]}},{"properties":{"name":"Billy Lambert","geo_score":0.857,"zip code":"79536","id":"aepvu2du24cd","geo_precision":"zip","state":"TX"},"type":"Feature","geometry":{"type":"Point","coordinates":[-99.944262,32.546509]}},{"properties":{"name":"Vicki Copeland","geo_score":0.857,"zip code":"79601","id":"aepvu2ni5alq","geo_precision":"zip","state":"TX"},"type":"Feature","geometry":{"type":"Point","coordinates":[-99.80213,32.344457]}},{"properties":{"name":"David Short","geo_score":0.857,"zip code":"79601","id":"aepvu2sqzm62","geo_precision":"zip","state":"TX"},"type":"Feature","geometry":{"type":"Point","coordinates":[-99.80213,32.344457]}},{"properties":{"name":"JD Hendricks","geo_score":0.857,"zip code":"79605","id":"aepvu2dlsa7v","geo_precision":"zip","state":"TX"},"type":"Feature","geometry":{"type":"Point","coordinates":[-99.847035,32.373183]}},{"properties":{"name":"Brian Hillman","geo_score":0.857,"zip code":"79703","id":"aepvu2mb38td","geo_precision":"zip","state":"TX"},"type":"Feature","geometry":{"type":"Point","coordinates":[-102.134352,31.973312]}},{"properties":{"name":"George Clinton","geo_score":0.857,"zip code":"79720","id":"aepvu2ffnbzb","geo_precision":"zip","state":"TX"},"type":"Feature","geometry":{"type":"Point","coordinates":[-101.519016,32.35595]}},{"properties":{"name":"Jose A Andow Jr","geo_score":0.857,"zip code":"79902","id":"aepvu2gfbnl1","geo_precision":"zip","state":"TX"},"type":"Feature","geometry":{"type":"Point","coordinates":[-106.544218,31.879779]}},{"properties":{"name":"Dennis Edwards","geo_score":0.857,"zip code":"80015","id":"aepvu2kzxkpo","geo_precision":"zip","state":"CO"},"type":"Feature","geometry":{"type":"Point","coordinates":[-104.876923,39.579155]}},{"properties":{"name":"Roger Oliver","geo_score":0.857,"zip code":"80016","id":"aepvu2iojzf7","geo_precision":"zip","state":"CO"},"type":"Feature","geometry":{"type":"Point","coordinates":[-104.792475,39.591655]}},{"properties":{"name":"Kelly Scott","geo_score":0.857,"zip code":"80020","id":"aepvu2so420j","geo_precision":"zip","state":"CO"},"type":"Feature","geometry":{"type":"Point","coordinates":[-105.064706,39.856097]}},{"properties":{"name":"Jon Hayes","geo_score":0.857,"zip code":"80101","id":"aepvu2me3g8f","geo_precision":"zip","state":"CO"},"type":"Feature","geometry":{"type":"Point","coordinates":[-104.084781,39.382335]}},{"properties":{"name":"Jeff Blais","geo_score":0.857,"zip code":"80109","id":"aepvu2qv03q9","geo_precision":"zip","state":"CO"},"type":"Feature","geometry":{"type":"Point","coordinates":[-104.853375,39.376698]}},{"properties":{"name":"Dan Pszanka","geo_score":0.857,"zip code":"80109","id":"aepvu2q3s560","geo_precision":"zip","state":"CO"},"type":"Feature","geometry":{"type":"Point","coordinates":[-104.853375,39.376698]}},{"properties":{"name":"Howard Boyd","geo_score":0.857,"zip code":"80121","id":"aepvu2oj9ptd","geo_precision":"zip","state":"CO"},"type":"Feature","geometry":{"type":"Point","coordinates":[-104.88773,39.612789]}},{"properties":{"name":"Aaron Sullenberger","geo_score":0.857,"zip code":"80125","id":"aepvu2jlknr4","geo_precision":"zip","state":"CO"},"type":"Feature","geometry":{"type":"Point","coordinates":[-105.05897,39.495327]}},{"properties":{"name":"Ted Leach","geo_score":0.857,"zip code":"80127","id":"aepvu2nz5nil","geo_precision":"zip","state":"CO"},"type":"Feature","geometry":{"type":"Point","coordinates":[-105.153074,39.544307]}},{"properties":{"name":"Don Steinhour","geo_score":0.857,"zip code":"80128","id":"aepvu2plg2ux","geo_precision":"zip","state":"CO"},"type":"Feature","geometry":{"type":"Point","coordinates":[-105.083196,39.591827]}},{"properties":{"name":"Jason Hibsman","geo_score":0.857,"zip code":"80134","id":"aepvu2qo76dw","geo_precision":"zip","state":"CO"},"type":"Feature","geometry":{"type":"Point","coordinates":[-104.734419,39.455267]}},{"properties":{"name":"Jay Vicic","geo_score":0.857,"zip code":"80135","id":"aepvu2jtn7a5","geo_precision":"zip","state":"CO"},"type":"Feature","geometry":{"type":"Point","coordinates":[-105.067554,39.311334]}},{"properties":{"name":"Chris Gibbs","geo_score":0.857,"zip code":"80138","id":"aepvu2rztk3f","geo_precision":"zip","state":"CO"},"type":"Feature","geometry":{"type":"Point","coordinates":[-104.721607,39.510214]}},{"properties":{"name":"Chris Weis","geo_score":0.857,"zip code":"80138","id":"aepvu2q3osqt","geo_precision":"zip","state":"CO"},"type":"Feature","geometry":{"type":"Point","coordinates":[-104.721607,39.510214]}},{"properties":{"name":"Tyler Lacy","geo_score":0.857,"zip code":"80203","id":"aepvu2e3l2mf","geo_precision":"zip","state":"CO"},"type":"Feature","geometry":{"type":"Point","coordinates":[-104.970331,39.729205]}},{"properties":{"name":"Preston Stoeck","geo_score":0.857,"zip code":"80203","id":"aepvu2iekwjv","geo_precision":"zip","state":"CO"},"type":"Feature","geometry":{"type":"Point","coordinates":[-104.970331,39.729205]}},{"properties":{"name":"Logan Belz","geo_score":0.857,"zip code":"80206","id":"aepvu2l4ni8o","geo_precision":"zip","state":"CO"},"type":"Feature","geometry":{"type":"Point","coordinates":[-104.953335,39.730787]}},{"properties":{"name":"Stuart Allen","geo_score":0.857,"zip code":"80210","id":"aepvu2pfcf3j","geo_precision":"zip","state":"CO"},"type":"Feature","geometry":{"type":"Point","coordinates":[-104.964186,39.701677]}},{"properties":{"name":"Phil Majerus","geo_score":0.857,"zip code":"80521","id":"aepvu2dhivu1","geo_precision":"zip","state":"CO"},"type":"Feature","geometry":{"type":"Point","coordinates":[-105.0572,40.593871]}},{"properties":{"name":"Tom Sawyer","geo_score":0.857,"zip code":"80526","id":"aepvu2ekqay8","geo_precision":"zip","state":"CO"},"type":"Feature","geometry":{"type":"Point","coordinates":[-105.324268,40.587553]}},{"properties":{"name":"Scott Preisendorf","geo_score":0.857,"zip code":"80550","id":"aepvu2m4zlov","geo_precision":"zip","state":"CO"},"type":"Feature","geometry":{"type":"Point","coordinates":[-104.942467,40.307972]}},{"properties":{"name":"Pamela Perry","geo_score":0.857,"zip code":"80903","id":"aepvu2sad1z6","geo_precision":"zip","state":"CO"},"type":"Feature","geometry":{"type":"Point","coordinates":[-104.809929,38.828893]}},{"properties":{"name":"Anthony Pascarelli","geo_score":0.857,"zip code":"80906","id":"aepvu2msmhkl","geo_precision":"zip","state":"CO"},"type":"Feature","geometry":{"type":"Point","coordinates":[-104.835252,38.810548]}},{"properties":{"name":"Harry Koepke","geo_score":0.857,"zip code":"80918","id":"aepvu2pz5epg","geo_precision":"zip","state":"CO"},"type":"Feature","geometry":{"type":"Point","coordinates":[-104.807998,38.90319]}},{"properties":{"name":"Brian Stewart","geo_score":0.857,"zip code":"80923","id":"aepvu2gwbtd7","geo_precision":"zip","state":"CO"},"type":"Feature","geometry":{"type":"Point","coordinates":[-104.821363,38.833882]}},{"properties":{"name":"Todd Clerkin","geo_score":0.857,"zip code":"81001","id":"aepvu2lpk314","geo_precision":"zip","state":"CO"},"type":"Feature","geometry":{"type":"Point","coordinates":[-104.427776,38.344117]}},{"properties":{"name":"Mike Burhart","geo_score":0.857,"zip code":"81122","id":"aepvu2e4ni7a","geo_precision":"zip","state":"CO"},"type":"Feature","geometry":{"type":"Point","coordinates":[-107.63728,37.21917]}},{"properties":{"name":"Steve Grindel","geo_score":0.857,"zip code":"81504","id":"aepvu2tu6psb","geo_precision":"zip","state":"CO"},"type":"Feature","geometry":{"type":"Point","coordinates":[-108.496758,39.081648]}},{"properties":{"name":"Harold Meineke","geo_score":0.714,"zip code":"81504","id":"aepvu2jjto46","geo_precision":"zip","state":"CA"},"type":"Feature","geometry":{"type":"Point","coordinates":[-108.496758,39.081648]}},{"properties":{"name":"Anthony Skinner","geo_score":0.857,"zip code":"83714","id":"aepvu2dq5hux","geo_precision":"zip","state":"ID"},"type":"Feature","geometry":{"type":"Point","coordinates":[-116.238174,43.622111]}},{"properties":{"name":"David Pjesky","geo_score":0.857,"zip code":"83815","id":"aepvu2g02dft","geo_precision":"zip","state":"ID"},"type":"Feature","geometry":{"type":"Point","coordinates":[-116.718533,47.837453]}},{"properties":{"name":"Symen Vanderlinden","geo_score":0.857,"zip code":"84088","id":"aepvu2i42xek","geo_precision":"zip","state":"UT"},"type":"Feature","geometry":{"type":"Point","coordinates":[-111.98342,40.587629]}},{"properties":{"name":"Gary Pitts","geo_score":0.857,"zip code":"84108","id":"aepvu2hiv48a","geo_precision":"zip","state":"UT"},"type":"Feature","geometry":{"type":"Point","coordinates":[-111.834101,40.743002]}},{"properties":{"name":"Deidre Lin","geo_score":0.857,"zip code":"85001","id":"aepvu2kjgwnk","geo_precision":"zip","state":"AZ"},"type":"Feature","geometry":{"type":"Point","coordinates":[-112.351835,33.703967]}},{"properties":{"name":"Robert Shook","geo_score":0.857,"zip code":"85012","id":"aepvu2lienm4","geo_precision":"zip","state":"AZ"},"type":"Feature","geometry":{"type":"Point","coordinates":[-112.18717,33.276539]}},{"properties":{"name":"Matthew Johnson","geo_score":0.857,"zip code":"85014","id":"aepvu2pv8zog","geo_precision":"zip","state":"AZ"},"type":"Feature","geometry":{"type":"Point","coordinates":[-112.18717,33.276539]}},{"properties":{"name":"Richard Mason","geo_score":0.857,"zip code":"85212","id":"aepvu2op5fw7","geo_precision":"zip","state":"AZ"},"type":"Feature","geometry":{"type":"Point","coordinates":[-111.635307,33.342476]}},{"properties":{"name":"Roxanne Schumacher","geo_score":0.857,"zip code":"85230","id":"aepvu2efi3up","geo_precision":"zip","state":"AZ"},"type":"Feature","geometry":{"type":"Point","coordinates":[-111.705441,32.815123]}},{"properties":{"name":"Jeffrey Hill","geo_score":0.857,"zip code":"85234","id":"aepvu2s8cwqd","geo_precision":"zip","state":"AZ"},"type":"Feature","geometry":{"type":"Point","coordinates":[-111.780712,33.352925]}},{"properties":{"name":"Johnny (JD) Smith","geo_score":0.857,"zip code":"85331","id":"aepvu2hkzyt6","geo_precision":"zip","state":"AZ"},"type":"Feature","geometry":{"type":"Point","coordinates":[-112.18717,33.276539]}},{"properties":{"name":"Ron / Linda Eubanks","geo_score":0.857,"zip code":"87124","id":"aepvu2onkeax","geo_precision":"zip","state":"NM"},"type":"Feature","geometry":{"type":"Point","coordinates":[-106.712495,35.282859]}},{"properties":{"name":"Michael Leonard","geo_score":0.857,"zip code":"88031","id":"aepvu2muki03","geo_precision":"zip","state":"NM"},"type":"Feature","geometry":{"type":"Point","coordinates":[-107.74042,32.239815]}},{"properties":{"name":"Reece Wilson","geo_score":0.857,"zip code":"88345","id":"aepvu2tb51iw","geo_precision":"zip","state":"NM"},"type":"Feature","geometry":{"type":"Point","coordinates":[-105.634985,33.323417]}},{"properties":{"name":"Robert Cook","geo_score":0.857,"zip code":"89135","id":"aepvu2eqruij","geo_precision":"zip","state":"NV"},"type":"Feature","geometry":{"type":"Point","coordinates":[-115.326081,36.137829]}},{"properties":{"name":"Kyle Kimbrough","geo_score":0.857,"zip code":"90016","id":"aepvu2mrum7t","geo_precision":"zip","state":"CA"},"type":"Feature","geometry":{"type":"Point","coordinates":[-118.298662,33.786594]}},{"properties":{"name":"Jason Garner","geo_score":0.857,"zip code":"90078","id":"aepvu2fzobgx","geo_precision":"zip","state":"CA"},"type":"Feature","geometry":{"type":"Point","coordinates":[-118.298662,33.786594]}},{"properties":{"name":"Gregory Gelgand","geo_score":0.857,"zip code":"92056","id":"aepvu2luzuep","geo_precision":"zip","state":"CA"},"type":"Feature","geometry":{"type":"Point","coordinates":[-116.846046,33.016928]}},{"properties":{"name":"Danny Zamora","geo_score":0.857,"zip code":"92065","id":"aepvu2nw4og6","geo_precision":"zip","state":"CA"},"type":"Feature","geometry":{"type":"Point","coordinates":[-116.911694,32.968102]}},{"properties":{"name":"Thomas (Tom) Boersma","geo_score":0.857,"zip code":"92071","id":"aepvu2jyt28i","geo_precision":"zip","state":"CA"},"type":"Feature","geometry":{"type":"Point","coordinates":[-116.994511,32.843956]}},{"properties":{"name":"Matt  Anderson","geo_score":0.857,"zip code":"92101","id":"aepvu2pyc3bv","geo_precision":"zip","state":"CA"},"type":"Feature","geometry":{"type":"Point","coordinates":[-117.174366,32.7211]}},{"properties":{"name":"Robert Cooke","geo_score":0.857,"zip code":"92705","id":"aepvu2l8js42","geo_precision":"zip","state":"CA"},"type":"Feature","geometry":{"type":"Point","coordinates":[-117.79811,33.777795]}},{"properties":{"name":"Jon Duncan","geo_score":0.857,"zip code":"93063","id":"aepvu2ig9cp0","geo_precision":"zip","state":"CA"},"type":"Feature","geometry":{"type":"Point","coordinates":[-118.70898,34.271669]}},{"properties":{"name":"Jim Thomas","geo_score":0.857,"zip code":"93401","id":"aepvu2rkvbib","geo_precision":"zip","state":"CA"},"type":"Feature","geometry":{"type":"Point","coordinates":[-120.846846,35.318308]}},{"properties":{"name":"Rory Shea","geo_score":0.857,"zip code":"93644","id":"aepvu2lm5yys","geo_precision":"zip","state":"CA"},"type":"Feature","geometry":{"type":"Point","coordinates":[-119.65238,37.37586]}},{"properties":{"name":"Robert Taylor","geo_score":0.857,"zip code":"93651","id":"aepvu2tob4kn","geo_precision":"zip","state":"CA"},"type":"Feature","geometry":{"type":"Point","coordinates":[-119.512686,37.008796]}},{"properties":{"name":"Randy Swanson","geo_score":0.857,"zip code":"95101","id":"aepvu2jfxljo","geo_precision":"zip","state":"CA"},"type":"Feature","geometry":{"type":"Point","coordinates":[-121.705327,37.189396]}},{"properties":{"name":"Dan Richardson","geo_score":0.857,"zip code":"95602","id":"aepvu2fgjqf5","geo_precision":"zip","state":"CA"},"type":"Feature","geometry":{"type":"Point","coordinates":[-121.07047,39.014933]}},{"properties":{"name":"David Lewis","geo_score":0.857,"zip code":"95630","id":"aepvu2rvslse","geo_precision":"zip","state":"CA"},"type":"Feature","geometry":{"type":"Point","coordinates":[-121.18217,38.668237]}},{"properties":{"name":"Rich Delagarza","geo_score":0.857,"zip code":"95821","id":"aepvu2p6nb35","geo_precision":"zip","state":"CA"},"type":"Feature","geometry":{"type":"Point","coordinates":[-121.437964,38.627204]}},{"properties":{"name":"Charles Gabbani","geo_score":0.857,"zip code":"95833","id":"aepvu2j08bh3","geo_precision":"zip","state":"CA"},"type":"Feature","geometry":{"type":"Point","coordinates":[-121.514016,38.621802]}},{"properties":{"name":"Bill Edward Robinson","geo_score":0.857,"zip code":"95835","id":"aepvu2qa3x2s","geo_precision":"zip","state":"CA"},"type":"Feature","geometry":{"type":"Point","coordinates":[-121.526051,38.667783]}},{"properties":{"name":"Gary Woodring","geo_score":0.857,"zip code":"97013","id":"aepvu2fd1tp8","geo_precision":"zip","state":"OR"},"type":"Feature","geometry":{"type":"Point","coordinates":[-122.661758,45.270677]}},{"properties":{"name":"Doug Snodgrass","geo_score":0.857,"zip code":"97330","id":"aepvu2rxzito","geo_precision":"zip","state":"OR"},"type":"Feature","geometry":{"type":"Point","coordinates":[-123.275654,44.454844]}},{"properties":{"name":"mark Henderson","geo_score":0.857,"zip code":"98053","id":"aepvu2j63qj7","geo_precision":"zip","state":"WA"},"type":"Feature","geometry":{"type":"Point","coordinates":[-122.0804,47.641766]}},{"properties":{"name":"Randy Woods","geo_score":0.857,"zip code":"98270","id":"aepvu2gyww7e","geo_precision":"zip","state":"WA"},"type":"Feature","geometry":{"type":"Point","coordinates":[-122.161951,48.049576]}},{"properties":{"name":"Jerry Burt","geo_score":0.857,"zip code":"99352","id":"aepvu2lguha0","geo_precision":"zip","state":"WA"},"type":"Feature","geometry":{"type":"Point","coordinates":[-119.491659,46.282031]}},{"properties":{"name":"David Samalin","geo_score":0.857,"zip code":"6831","id":"aepvu2nlutcf","geo_precision":"zip","state":"CT"},"type":"Feature","geometry":{"type":"Point","coordinates":[-73.65985,41.035375]}},{"properties":{"name":"Usman Shaikh","geo_score":0.857,"zip code":"8046","id":"aepvu2izn8bt","geo_precision":"zip","state":"NJ"},"type":"Feature","geometry":{"type":"Point","coordinates":[-74.805773,40.013737]}},{"properties":{"name":"Fran Buechele","geo_score":0.857,"zip code":"8204","id":"aepvu2ldup7r","geo_precision":"zip","state":"NJ"},"type":"Feature","geometry":{"type":"Point","coordinates":[-74.883504,39.005946]}},{"properties":{"name":"Chrissy Cammarano","geo_score":0.857,"zip code":"8242","id":"aepvu2pi0lfx","geo_precision":"zip","state":"NJ"},"type":"Feature","geometry":{"type":"Point","coordinates":[-74.883671,39.017283]}},{"properties":{"name":"Jeremy Rettig","geo_score":0.857,"zip code":"8904","id":"aepvu2qjlh7k","geo_precision":"zip","state":"NJ"},"type":"Feature","geometry":{"type":"Point","coordinates":[-74.428095,40.499866]}},{"properties":{"name":"Ivan Campos","geo_score":0.857,"zip code":"79901","id":"aepvu2u001wz","geo_precision":"zip","state":"TX"},"type":"Feature","geometry":{"type":"Point","coordinates":[-106.484592,31.763608]}},{"properties":{"name":"Mickey Chance","geo_score":0.857,"zip code":"50301","id":"aepvu2jubv32","geo_precision":"zip","state":"IA"},"type":"Feature","geometry":{"type":"Point","coordinates":[-93.572173,41.672687]}},{"properties":{"name":"Bruce Desmet","geo_score":0.857,"zip code":"79401","id":"aepvu2hsylmw","geo_precision":"zip","state":"TX"},"type":"Feature","geometry":{"type":"Point","coordinates":[-101.767112,33.693972]}},{"properties":{"name":"Mike Dimarco","geo_score":0.857,"zip code":"50010","id":"aepvu2ibhxux","geo_precision":"zip","state":"IA"},"type":"Feature","geometry":{"type":"Point","coordinates":[-93.600254,42.037879]}},{"properties":{"name":"Matt Hoversten","geo_score":0.857,"zip code":"50006","id":"aepvu2lqju56","geo_precision":"zip","state":"IA"},"type":"Feature","geometry":{"type":"Point","coordinates":[-93.360205,42.571922]}},{"properties":{"name":"Hernan Lerma","geo_score":0.857,"zip code":"75201","id":"aepvu2ea0upv","geo_precision":"zip","state":"TX"},"type":"Feature","geometry":{"type":"Point","coordinates":[-96.790329,32.781179]}},{"properties":{"name":"Jeremy Schirm","geo_score":0.857,"zip code":"50301","id":"aepvu2fo631r","geo_precision":"zip","state":"IA"},"type":"Feature","geometry":{"type":"Point","coordinates":[-93.572173,41.672687]}},{"properties":{"name":"Robert Giffing","geo_score":0.857,"zip code":"84660","id":"aepvu2g7m3gs","geo_precision":"zip","state":"UT"},"type":"Feature","geometry":{"type":"Point","coordinates":[-111.698815,40.140232]}}],"is_temporal":false,"author":{"url":"","metadata":"","contact_name":"","contact_address":"","source":"","contact_phone":""},"source":"","pagination":{"sort":null,"start":0,"total":505,"limit":1000000},"state":"complete","tags":"","published":"2014-08-16T18:16:53-04:00","id":363802}