{"type":"FeatureCollection","data_type":"Dataset","url_type":null,"permissions":[{"permissions":{"download":true,"view":true},"group_id":"everyone"}],"classification":null,"title":"Mappe1","count":8,"stream_id":364512,"contributor":{"url":"http://geocommons.com/users/74146","name":"gilneus"},"data_attributes":null,"calculation_params":null,"icon_link":null,"link":"http://geocommons.com/overlays/364512.json","extent":[-79.5769,40.6087,-79.5769,40.6087],"geometry_types":["point"],"unique_name":null,"name":"Mappe1","feature_count":8,"description":"","next_feature":null,"is_raster":false,"short_classification":"Y","stats":{},"features":[{"properties":{"city":"Trittau","zip":"22946","geo_score":0.256,"id":"aet3winundxa","address":"Hohenfelder Damm 1","geo_precision":"street","state":"Germany"},"type":"Feature","geometry":{"type":"Point","coordinates":[-79.576908,40.608695]}},{"properties":{"city":"Trittau","zip":"22946","geo_score":0.256,"id":"aet3wimoag5t","address":"Hohenfelder Damm 1","geo_precision":"street","state":"Germany"},"type":"Feature","geometry":{"type":"Point","coordinates":[-79.576908,40.608695]}},{"properties":{"city":"Trittau","zip":"22946","geo_score":0.256,"id":"aet3wihqcidc","address":"Hohenfelder Damm 1","geo_precision":"street","state":"Germany"},"type":"Feature","geometry":{"type":"Point","coordinates":[-79.576908,40.608695]}},{"properties":{"city":"Trittau","zip":"22946","geo_score":0.256,"id":"aet3wi92jo43","address":"Hohenfelder Damm 1","geo_precision":"street","state":"Germany"},"type":"Feature","geometry":{"type":"Point","coordinates":[-79.576908,40.608695]}},{"properties":{"city":"Trittau","zip":"22946","geo_score":0.256,"id":"aet3wiaukj7t","address":"Hohenfelder Damm 1","geo_precision":"street","state":"Germany"},"type":"Feature","geometry":{"type":"Point","coordinates":[-79.576908,40.608695]}},{"properties":{"city":"Trittau","zip":"22946","geo_score":0.256,"id":"aet3wib7nqd0","address":"Hohenfelder Damm 1","geo_precision":"street","state":"Germany"},"type":"Feature","geometry":{"type":"Point","coordinates":[-79.576908,40.608695]}},{"properties":{"city":"Trittau","zip":"22946","geo_score":0.256,"id":"aet3wijyu5iy","address":"Hohenfelder Damm 1","geo_precision":"street","state":"Germany"},"type":"Feature","geometry":{"type":"Point","coordinates":[-79.576908,40.608695]}},{"properties":{"city":"Hamburg","zip":"20537","geo_score":0.0,"id":"aet3wibukszz","address":"Dalenstieg 8","geo_precision":"unmatched","state":"Germany"},"type":"Feature","geometry":null}],"is_temporal":false,"author":{"url":"","metadata":"","contact_name":"","contact_address":"","source":"","contact_phone":""},"source":"","pagination":{"sort":null,"start":0,"total":8,"limit":1000000},"state":"complete","tags":"","published":"2014-08-16T19:15:52-04:00","id":364512}