{"type":"FeatureCollection","data_type":"Dataset","url_type":null,"permissions":[{"permissions":{"download":true,"view":true},"group_id":"everyone"}],"classification":null,"title":"NYC Public Libraries Upper Manhattan","count":4,"stream_id":364627,"contributor":{"url":"http://geocommons.com/users/25154","name":"kelsnichole"},"data_attributes":null,"calculation_params":null,"icon_link":null,"link":"http://geocommons.com/overlays/364627.json","extent":[-73.9504,40.8216,-73.9263,40.8658],"geometry_types":["point"],"unique_name":null,"name":"NYC Public Libraries Upper Manhattan","feature_count":4,"description":"NYC Public Libraries Upper Manhattan","next_feature":null,"is_raster":false,"short_classification":"Y","stats":{},"features":[{"properties":{"zip":"10031","geo_score":0.805,"library":"Hamilton Grange Library","id":"aet96reczd4c","address":"503 West 145th Street","geo_precision":"range"},"type":"Feature","geometry":{"type":"Point","coordinates":[-73.950373,40.82647]}},{"properties":{"zip":"10034","geo_score":0.692,"library":"Inwood Branch Library","id":"aet96rkm4rak","address":"4790 Broadway  avenue","geo_precision":"range"},"type":"Feature","geometry":{"type":"Point","coordinates":[-73.926284,40.865756]}},{"properties":{"zip":"10039","geo_score":0.175,"library":"Macomb's Bridge Library","id":"aet96rivhnbg","address":"2650 Adam Clayton Powell, Jr. Blvd.","geo_precision":"range"},"type":"Feature","geometry":{"type":"Point","coordinates":[-73.939077,40.821636]}},{"properties":{"zip":"10032","geo_score":0.714,"library":"Washington Heights Library","id":"aet96rrm3xny","address":"1000 St. Nicholas Avenue","geo_precision":"zip"},"type":"Feature","geometry":{"type":"Point","coordinates":[-73.942181,40.839137]}}],"is_temporal":false,"author":{"url":"","metadata":"","contact_name":"","contact_address":"","source":"","contact_phone":""},"source":"","pagination":{"sort":null,"start":0,"total":4,"limit":1000000},"state":"complete","tags":"library,manhattan,nyc,public,upper","published":"2013-06-04T16:00:00Z","id":364627}