{"type":"FeatureCollection","data_type":"Dataset","url_type":null,"permissions":[{"permissions":{"download":true,"view":true},"group_id":"everyone"}],"classification":null,"title":"Outwit Jobs by City","count":92,"stream_id":364629,"contributor":{"url":"http://geocommons.com/users/74141","name":"lvollmer"},"data_attributes":null,"calculation_params":null,"icon_link":null,"link":"http://geocommons.com/overlays/364629.json","extent":[-77.8593,38.2546,-76.4899,39.5344],"geometry_types":["point"],"unique_name":null,"name":"Outwit Jobs by City","feature_count":92,"description":"","next_feature":null,"is_raster":false,"short_classification":"Y","stats":{"latitude":{"max":39.534376,"variance":0.066782478690913,"mean":38.9995897065217,"stdev":0.258423061453333,"min":38.254645,"median":38.994221},"number of jobs":{"max":549,"variance":4428.44182990922,"mean":23.2717391304348,"stdev":66.5465388274192,"min":1,"median":3},"longitude":{"max":-76.489934,"variance":0.0800527739401782,"mean":-77.0155433260869,"stdev":0.282935989121529,"min":-77.859291,"median":-77.028874}},"features":[{"properties":{"city":"Washington","number of jobs":549,"latitude":38.89037,"longitude":-77.031959,"id":"aet97batmdnj"},"type":"Feature","geometry":{"type":"Point","coordinates":[-77.031959,38.89037]}},{"properties":{"city":"Reston","number of jobs":183,"latitude":38.959374,"longitude":-77.354571,"id":"aet97bjgjiag"},"type":"Feature","geometry":{"type":"Point","coordinates":[-77.354571,38.959374]}},{"properties":{"city":"Arlington","number of jobs":183,"latitude":38.89051,"longitude":-77.086294,"id":"aet97b7g2k17"},"type":"Feature","geometry":{"type":"Point","coordinates":[-77.086294,38.89051]}},{"properties":{"city":"McLean","number of jobs":177,"latitude":38.936529,"longitude":-77.184285,"id":"aet97bic48xg"},"type":"Feature","geometry":{"type":"Point","coordinates":[-77.184285,38.936529]}},{"properties":{"city":"Baltimore","number of jobs":117,"latitude":39.290585,"longitude":-76.609264,"id":"aet97bcjvsb0"},"type":"Feature","geometry":{"type":"Point","coordinates":[-76.609264,39.290585]}},{"properties":{"city":"Herndon","number of jobs":100,"latitude":38.969698,"longitude":-77.385475,"id":"aet97bg06mdv"},"type":"Feature","geometry":{"type":"Point","coordinates":[-77.385475,38.969698]}},{"properties":{"city":"Chantilly","number of jobs":74,"latitude":38.883607,"longitude":-77.439755,"id":"aet97b94k5dk"},"type":"Feature","geometry":{"type":"Point","coordinates":[-77.439755,38.883607]}},{"properties":{"city":"Alexandria","number of jobs":67,"latitude":38.804605,"longitude":-77.043414,"id":"aet97b7q1r5s"},"type":"Feature","geometry":{"type":"Point","coordinates":[-77.043414,38.804605]}},{"properties":{"city":"Columbia","number of jobs":64,"latitude":39.209161,"longitude":-76.867313,"id":"aet97b9jeyqi"},"type":"Feature","geometry":{"type":"Point","coordinates":[-76.867313,39.209161]}},{"properties":{"city":"Annapolis Junction","number of jobs":56,"latitude":39.1241,"longitude":-76.787498,"id":"aet97bar96z8"},"type":"Feature","geometry":{"type":"Point","coordinates":[-76.787498,39.1241]}},{"properties":{"city":"Rockville","number of jobs":48,"latitude":39.081665,"longitude":-77.15124,"id":"aet97b7d4b6v"},"type":"Feature","geometry":{"type":"Point","coordinates":[-77.15124,39.081665]}},{"properties":{"city":"Fairfax","number of jobs":38,"latitude":38.841574,"longitude":-77.308132,"id":"aet97bcssxin"},"type":"Feature","geometry":{"type":"Point","coordinates":[-77.308132,38.841574]}},{"properties":{"city":"Falls Church","number of jobs":36,"latitude":38.88549,"longitude":-77.173624,"id":"aet97b53dmld"},"type":"Feature","geometry":{"type":"Point","coordinates":[-77.173624,38.88549]}},{"properties":{"city":"Owings Mills","number of jobs":33,"latitude":39.414605,"longitude":-76.774374,"id":"aet97bges0ss"},"type":"Feature","geometry":{"type":"Point","coordinates":[-76.774374,39.414605]}},{"properties":{"city":"Bethesda","number of jobs":31,"latitude":38.98637,"longitude":-77.096919,"id":"aet97bgdmj7i"},"type":"Feature","geometry":{"type":"Point","coordinates":[-77.096919,38.98637]}},{"properties":{"city":"Laurel","number of jobs":29,"latitude":39.104915,"longitude":-76.866639,"id":"aet97b751jkj"},"type":"Feature","geometry":{"type":"Point","coordinates":[-76.866639,39.104915]}},{"properties":{"city":"Vienna","number of jobs":28,"latitude":38.900375,"longitude":-77.263654,"id":"aet97b6thi5r"},"type":"Feature","geometry":{"type":"Point","coordinates":[-77.263654,38.900375]}},{"properties":{"city":"Fort Meade","number of jobs":24,"latitude":39.106651,"longitude":-76.734801,"id":"aet97bcti1hd"},"type":"Feature","geometry":{"type":"Point","coordinates":[-76.734801,39.106651]}},{"properties":{"city":"Ashburn","number of jobs":23,"latitude":39.051631,"longitude":-77.483151,"id":"aet97b456z1o"},"type":"Feature","geometry":{"type":"Point","coordinates":[-77.483151,39.051631]}},{"properties":{"city":"Springfield","number of jobs":18,"latitude":38.779044,"longitude":-77.191655,"id":"aet97b6hm1x3"},"type":"Feature","geometry":{"type":"Point","coordinates":[-77.191655,38.779044]}},{"properties":{"city":"Elkridge","number of jobs":17,"latitude":39.20608,"longitude":-76.728359,"id":"aet97bissbvj"},"type":"Feature","geometry":{"type":"Point","coordinates":[-76.728359,39.20608]}},{"properties":{"city":"Silver Spring","number of jobs":17,"latitude":38.99668,"longitude":-77.028874,"id":"aet97b45uyxw"},"type":"Feature","geometry":{"type":"Point","coordinates":[-77.028874,38.99668]}},{"properties":{"city":"Dulles","number of jobs":14,"latitude":39.02784,"longitude":-77.397179,"id":"aet97b8mqho4"},"type":"Feature","geometry":{"type":"Point","coordinates":[-77.397179,39.02784]}},{"properties":{"city":"Hanover","number of jobs":12,"latitude":39.15507,"longitude":-76.720465,"id":"aet97bfgjtsf"},"type":"Feature","geometry":{"type":"Point","coordinates":[-76.720465,39.15507]}},{"properties":{"city":"Lanham","number of jobs":12,"latitude":38.96191,"longitude":-76.862339,"id":"aet97b9d6huo"},"type":"Feature","geometry":{"type":"Point","coordinates":[-76.862339,38.96191]}},{"properties":{"city":"Calverton","number of jobs":11,"latitude":39.046848,"longitude":-76.937981,"id":"aet97bektko6"},"type":"Feature","geometry":{"type":"Point","coordinates":[-76.937981,39.046848]}},{"properties":{"city":"Quantico","number of jobs":9,"latitude":38.522065,"longitude":-77.290854,"id":"aet97bg2x8sx"},"type":"Feature","geometry":{"type":"Point","coordinates":[-77.290854,38.522065]}},{"properties":{"city":"Sterling","number of jobs":9,"latitude":39.033075,"longitude":-77.406568,"id":"aet97bhu9eu3"},"type":"Feature","geometry":{"type":"Point","coordinates":[-77.406568,39.033075]}},{"properties":{"city":"Gaithersburg","number of jobs":9,"latitude":39.139866,"longitude":-77.193829,"id":"aet97b9dntrz"},"type":"Feature","geometry":{"type":"Point","coordinates":[-77.193829,39.139866]}},{"properties":{"city":"Rosslyn","number of jobs":9,"latitude":38.896641,"longitude":-77.072662,"id":"aet97b7fhtrh"},"type":"Feature","geometry":{"type":"Point","coordinates":[-77.072662,38.896641]}},{"properties":{"city":"Annapolis","number of jobs":9,"latitude":38.9767,"longitude":-76.489934,"id":"aet97bjhtx3y"},"type":"Feature","geometry":{"type":"Point","coordinates":[-76.489934,38.9767]}},{"properties":{"city":"Tysons Corner","number of jobs":7,"latitude":38.922722,"longitude":-77.226501,"id":"aet97bji9wuz"},"type":"Feature","geometry":{"type":"Point","coordinates":[-77.226501,38.922722]}},{"properties":{"city":"Frederick","number of jobs":7,"latitude":39.415745,"longitude":-77.412034,"id":"aet97bi28bl0"},"type":"Feature","geometry":{"type":"Point","coordinates":[-77.412034,39.415745]}},{"properties":{"city":"Woodlawn","number of jobs":6,"latitude":39.317032,"longitude":-76.737267,"id":"aet97bh7fhpd"},"type":"Feature","geometry":{"type":"Point","coordinates":[-76.737267,39.317032]}},{"properties":{"city":"Hunt Valley","number of jobs":6,"latitude":39.493485,"longitude":-76.658884,"id":"aet97b4hr1fd"},"type":"Feature","geometry":{"type":"Point","coordinates":[-76.658884,39.493485]}},{"properties":{"city":"Fort Belvoir","number of jobs":6,"latitude":38.68809,"longitude":-77.136184,"id":"aet97bcr1fbv"},"type":"Feature","geometry":{"type":"Point","coordinates":[-77.136184,38.68809]}},{"properties":{"city":"Suitland","number of jobs":5,"latitude":38.84803,"longitude":-76.923086,"id":"aet97be2k716"},"type":"Feature","geometry":{"type":"Point","coordinates":[-76.923086,38.84803]}},{"properties":{"city":"Crystal City","number of jobs":5,"latitude":38.856159,"longitude":-77.051773,"id":"aet97bf3yyvn"},"type":"Feature","geometry":{"type":"Point","coordinates":[-77.051773,38.856159]}},{"properties":{"city":"Linthicum","number of jobs":5,"latitude":39.205269,"longitude":-76.652992,"id":"aet97b9in47r"},"type":"Feature","geometry":{"type":"Point","coordinates":[-76.652992,39.205269]}},{"properties":{"city":"Chevy Chase","number of jobs":5,"latitude":38.982257,"longitude":-77.087679,"id":"aet97bd5q1sk"},"type":"Feature","geometry":{"type":"Point","coordinates":[-77.087679,38.982257]}},{"properties":{"city":"Germantown","number of jobs":4,"latitude":39.182185,"longitude":-77.27004,"id":"aet97bdkaeob"},"type":"Feature","geometry":{"type":"Point","coordinates":[-77.27004,39.182185]}},{"properties":{"city":"Centreville","number of jobs":4,"latitude":38.837413,"longitude":-77.44327,"id":"aet97b4y8d2h"},"type":"Feature","geometry":{"type":"Point","coordinates":[-77.44327,38.837413]}},{"properties":{"city":"National Harbor","number of jobs":4,"latitude":38.817598,"longitude":-77.268219,"id":"aet97bcnl7e5"},"type":"Feature","geometry":{"type":"Point","coordinates":[-77.268219,38.817598]}},{"properties":{"city":"Beltsville","number of jobs":3,"latitude":39.035181,"longitude":-76.919128,"id":"aet97bgu9t74"},"type":"Feature","geometry":{"type":"Point","coordinates":[-76.919128,39.035181]}},{"properties":{"city":"Glen Burnie","number of jobs":3,"latitude":39.161785,"longitude":-76.621845,"id":"aet97b5u544a"},"type":"Feature","geometry":{"type":"Point","coordinates":[-76.621845,39.161785]}},{"properties":{"city":"College Park","number of jobs":3,"latitude":38.980725,"longitude":-76.937269,"id":"aet97bix5kx2"},"type":"Feature","geometry":{"type":"Point","coordinates":[-76.937269,38.980725]}},{"properties":{"city":"Timonium","number of jobs":3,"latitude":39.436829,"longitude":-76.619659,"id":"aet97b82drzv"},"type":"Feature","geometry":{"type":"Point","coordinates":[-76.619659,39.436829]}},{"properties":{"city":"Catonsville","number of jobs":3,"latitude":39.270215,"longitude":-76.739829,"id":"aet97bh8q9q2"},"type":"Feature","geometry":{"type":"Point","coordinates":[-76.739829,39.270215]}},{"properties":{"city":"Greenbelt","number of jobs":3,"latitude":38.994221,"longitude":-76.851878,"id":"aet97bbxcv5e"},"type":"Feature","geometry":{"type":"Point","coordinates":[-76.851878,38.994221]}},{"properties":{"city":"Adelphi","number of jobs":3,"latitude":39.003565,"longitude":-76.972389,"id":"aet97beowm00"},"type":"Feature","geometry":{"type":"Point","coordinates":[-76.972389,39.003565]}},{"properties":{"city":"Towson","number of jobs":2,"latitude":39.399935,"longitude":-76.605364,"id":"aet97bhionpj"},"type":"Feature","geometry":{"type":"Point","coordinates":[-76.605364,39.399935]}},{"properties":{"city":"Savage","number of jobs":2,"latitude":39.135702,"longitude":-76.824869,"id":"aet97bfx3c4x"},"type":"Feature","geometry":{"type":"Point","coordinates":[-76.824869,39.135702]}},{"properties":{"city":"Leesburg","number of jobs":2,"latitude":39.11567,"longitude":-77.565299,"id":"aet97bid80dx"},"type":"Feature","geometry":{"type":"Point","coordinates":[-77.565299,39.11567]}},{"properties":{"city":"Lutherville","number of jobs":2,"latitude":39.42028,"longitude":-76.626663,"id":"aet97b5or4zy"},"type":"Feature","geometry":{"type":"Point","coordinates":[-76.626663,39.42028]}},{"properties":{"city":"Hyattsville","number of jobs":2,"latitude":38.95259,"longitude":-76.942074,"id":"aet97bcu58v0"},"type":"Feature","geometry":{"type":"Point","coordinates":[-76.942074,38.95259]}},{"properties":{"city":"Fredericksburg","number of jobs":2,"latitude":38.30089,"longitude":-77.459144,"id":"aet97baguqfu"},"type":"Feature","geometry":{"type":"Point","coordinates":[-77.459144,38.30089]}},{"properties":{"city":"Millersville","number of jobs":2,"latitude":39.104808,"longitude":-76.627852,"id":"aet97b5f24ng"},"type":"Feature","geometry":{"type":"Point","coordinates":[-76.627852,39.104808]}},{"properties":{"city":"Merrifield","number of jobs":2,"latitude":38.87359,"longitude":-77.234719,"id":"aet97b7d5r8a"},"type":"Feature","geometry":{"type":"Point","coordinates":[-77.234719,38.87359]}},{"properties":{"city":"Landover","number of jobs":1,"latitude":38.930901,"longitude":-76.891197,"id":"aet97b7dpx3f"},"type":"Feature","geometry":{"type":"Point","coordinates":[-76.891197,38.930901]}},{"properties":{"city":"Charles Town","number of jobs":1,"latitude":39.289289,"longitude":-77.859291,"id":"aet97bddhhg8"},"type":"Feature","geometry":{"type":"Point","coordinates":[-77.859291,39.289289]}},{"properties":{"city":"Prince William","number of jobs":1,"latitude":38.72184,"longitude":-77.466675,"id":"aet97bcto83f"},"type":"Feature","geometry":{"type":"Point","coordinates":[-77.466675,38.72184]}},{"properties":{"city":"Pentagon","number of jobs":1,"latitude":38.870468,"longitude":-77.055969,"id":"aet97bh2ofnq"},"type":"Feature","geometry":{"type":"Point","coordinates":[-77.055969,38.870468]}},{"properties":{"city":"White Oaks","number of jobs":1,"latitude":38.761219,"longitude":-77.069748,"id":"aet97b6301em"},"type":"Feature","geometry":{"type":"Point","coordinates":[-77.069748,38.761219]}},{"properties":{"city":"Arnold","number of jobs":1,"latitude":39.031878,"longitude":-76.506338,"id":"aet97b4igfnw"},"type":"Feature","geometry":{"type":"Point","coordinates":[-76.506338,39.031878]}},{"properties":{"city":"Manassas","number of jobs":1,"latitude":38.751195,"longitude":-77.471119,"id":"aet97bft0r0j"},"type":"Feature","geometry":{"type":"Point","coordinates":[-77.471119,38.751195]}},{"properties":{"city":"California","number of jobs":1,"latitude":38.303101,"longitude":-76.5186,"id":"aet97bgc08jf"},"type":"Feature","geometry":{"type":"Point","coordinates":[-76.5186,38.303101]}},{"properties":{"city":"Cockeysville","number of jobs":1,"latitude":39.488165,"longitude":-76.654304,"id":"aet97bd0wg5y"},"type":"Feature","geometry":{"type":"Point","coordinates":[-76.654304,39.488165]}},{"properties":{"city":"West McLean","number of jobs":1,"latitude":38.93195,"longitude":-77.184021,"id":"aet97b5kflng"},"type":"Feature","geometry":{"type":"Point","coordinates":[-77.184021,38.93195]}},{"properties":{"city":"Bolling AFB","number of jobs":1,"latitude":38.840611,"longitude":-77.017532,"id":"aet97bix3pg5"},"type":"Feature","geometry":{"type":"Point","coordinates":[-77.017532,38.840611]}},{"properties":{"city":"Windsor Mill","number of jobs":1,"latitude":39.332997,"longitude":-76.759695,"id":"aet97bibp8ad"},"type":"Feature","geometry":{"type":"Point","coordinates":[-76.759695,39.332997]}},{"properties":{"city":"Potomac","number of jobs":1,"latitude":39.017653,"longitude":-77.208337,"id":"aet97bdm0wbu"},"type":"Feature","geometry":{"type":"Point","coordinates":[-77.208337,39.017653]}},{"properties":{"city":"Silver Springs","number of jobs":1,"latitude":38.99668,"longitude":-77.028874,"id":"aet97bf53nuy"},"type":"Feature","geometry":{"type":"Point","coordinates":[-77.028874,38.99668]}},{"properties":{"city":"Aspen Hill","number of jobs":1,"latitude":39.079109,"longitude":-77.088623,"id":"aet97bhub8m1"},"type":"Feature","geometry":{"type":"Point","coordinates":[-77.088623,39.079109]}},{"properties":{"city":"Colonial Beach","number of jobs":1,"latitude":38.254645,"longitude":-76.963919,"id":"aet97bbi772i"},"type":"Feature","geometry":{"type":"Point","coordinates":[-76.963919,38.254645]}},{"properties":{"city":"Bowie","number of jobs":1,"latitude":38.93081,"longitude":-76.729376,"id":"aet97bfmqes6"},"type":"Feature","geometry":{"type":"Point","coordinates":[-76.729376,38.93081]}},{"properties":{"city":"North Bethesda","number of jobs":1,"latitude":39.003345,"longitude":-77.103124,"id":"aet97b7f8iqr"},"type":"Feature","geometry":{"type":"Point","coordinates":[-77.103124,39.003345]}},{"properties":{"city":"New Carrollton","number of jobs":1,"latitude":38.966789,"longitude":-76.864807,"id":"aet97ba5v1c2"},"type":"Feature","geometry":{"type":"Point","coordinates":[-76.864807,38.966789]}},{"properties":{"city":"Jessup","number of jobs":1,"latitude":39.15303,"longitude":-76.800834,"id":"aet97b5v1bdj"},"type":"Feature","geometry":{"type":"Point","coordinates":[-76.800834,39.15303]}},{"properties":{"city":"Fort George G Meade","number of jobs":1,"latitude":39.095985,"longitude":-76.718167,"id":"aet97b6wwrbp"},"type":"Feature","geometry":{"type":"Point","coordinates":[-76.718167,39.095985]}},{"properties":{"city":"Fulton","number of jobs":1,"latitude":39.154519,"longitude":-76.925374,"id":"aet97biarojt"},"type":"Feature","geometry":{"type":"Point","coordinates":[-76.925374,39.154519]}},{"properties":{"city":"Franconia","number of jobs":1,"latitude":38.782015,"longitude":-77.122231,"id":"aet97b9fgvke"},"type":"Feature","geometry":{"type":"Point","coordinates":[-77.122231,38.782015]}},{"properties":{"city":"Upper Marlboro","number of jobs":1,"latitude":38.818422,"longitude":-76.751286,"id":"aet97bddlb50"},"type":"Feature","geometry":{"type":"Point","coordinates":[-76.751286,38.818422]}},{"properties":{"city":"Olney","number of jobs":1,"latitude":39.150405,"longitude":-77.068094,"id":"aet97bcesc7t"},"type":"Feature","geometry":{"type":"Point","coordinates":[-77.068094,39.150405]}},{"properties":{"city":"Oxon Hill","number of jobs":1,"latitude":38.803209,"longitude":-76.992266,"id":"aet97bexpmmn"},"type":"Feature","geometry":{"type":"Point","coordinates":[-76.992266,38.803209]}},{"properties":{"city":"Hughesville","number of jobs":1,"latitude":38.531623,"longitude":-76.7833,"id":"aet97b68xdj1"},"type":"Feature","geometry":{"type":"Point","coordinates":[-76.7833,38.531623]}},{"properties":{"city":"Dahlgren","number of jobs":1,"latitude":38.331242,"longitude":-77.051086,"id":"aet97bbmcjdd"},"type":"Feature","geometry":{"type":"Point","coordinates":[-77.051086,38.331242]}},{"properties":{"city":"Roland Park","number of jobs":1,"latitude":39.354328,"longitude":-76.634331,"id":"aet97bdtvqzj"},"type":"Feature","geometry":{"type":"Point","coordinates":[-76.634331,39.354328]}},{"properties":{"city":"Woodsboro","number of jobs":1,"latitude":39.534376,"longitude":-77.312634,"id":"aet97bcu7mtb"},"type":"Feature","geometry":{"type":"Point","coordinates":[-77.312634,39.534376]}},{"properties":{"city":"Lorton","number of jobs":1,"latitude":38.70428,"longitude":-77.206854,"id":"aet97bj9blc0"},"type":"Feature","geometry":{"type":"Point","coordinates":[-77.206854,38.70428]}},{"properties":{"city":"Ijamsville","number of jobs":1,"latitude":39.361621,"longitude":-77.324366,"id":"aet97b61ff8i"},"type":"Feature","geometry":{"type":"Point","coordinates":[-77.324366,39.361621]}},{"properties":{"city":"Largo","number of jobs":1,"latitude":38.895598,"longitude":-76.829434,"id":"aet97b7o4wyj"},"type":"Feature","geometry":{"type":"Point","coordinates":[-76.829434,38.895598]}},{"properties":{"city":"Friendship Heights","number of jobs":1,"latitude":38.96335,"longitude":-77.089209,"id":"aet97b7keub3"},"type":"Feature","geometry":{"type":"Point","coordinates":[-77.089209,38.96335]}}],"is_temporal":false,"author":{"url":"","metadata":"","contact_name":"","contact_address":"","source":"","contact_phone":""},"source":"","pagination":{"sort":null,"start":0,"total":92,"limit":1000000},"state":"complete","tags":"","published":"2014-08-16T19:26:39-04:00","id":364629}