{"type":"FeatureCollection","data_type":"Dataset","url_type":null,"permissions":[{"permissions":{"download":true,"view":true},"group_id":"everyone"}],"classification":null,"title":"TCA starts 6 mo ","count":124,"stream_id":364854,"contributor":{"url":"http://geocommons.com/users/72218","name":"jimmycoleman419"},"data_attributes":null,"calculation_params":null,"icon_link":null,"link":"http://geocommons.com/overlays/364854.json","extent":[-104.824,35.2416,-77.4291,41.0537],"geometry_types":["point"],"unique_name":null,"name":"TCA starts 6 mo ","feature_count":124,"description":"","next_feature":null,"is_raster":false,"short_classification":"Y","stats":{"systudentid":{"max":796460,"variance":9589923802.95436,"mean":759506.14516129,"stdev":97928.1563338878,"min":117605,"median":785030}},"features":[{"properties":{"city":"Indianapolis","zip":"46208","leaddate":"30:00.0","geo_score":0.947,"systudentid":595897,"descrip":"Withdrawal","id":"aetysgt3sdoi","startdate":"3/11/2013","address":"517 N Eugene St","campus":"IN","geo_precision":"range","state":"IN"},"type":"Feature","geometry":{"type":"Point","coordinates":[-86.170092,39.80914]}},{"properties":{"city":"Indianapolis","zip":"46203","leaddate":"55:00.0","geo_score":0.416,"systudentid":763037,"descrip":"Active","id":"aetysgrzqnwd","startdate":"5/20/2013","address":"2527 South Shelby St.  Apt. 3","campus":"IN","geo_precision":"street","state":"IN"},"type":"Feature","geometry":{"type":"Point","coordinates":[-86.139809,39.763843]}},{"properties":{"city":"Durham","zip":"27713","leaddate":"43:00.0","geo_score":0.512,"systudentid":777329,"descrip":"Active","id":"aetysgn8u4mo","startdate":"5/20/2013","address":"5523 NC Highway 55 Apt. 304","campus":"NC","geo_precision":"street","state":"NC"},"type":"Feature","geometry":{"type":"Point","coordinates":[-78.888686,35.948588]}},{"properties":{"city":"Indianapolis","zip":"46254","leaddate":"24:00.0","geo_score":1.0,"systudentid":762832,"descrip":"Active","id":"aetysgrfgwnw","startdate":"1/2/2013","address":"5218 Pinebrook Drive","campus":"IN","geo_precision":"range","state":"IN"},"type":"Feature","geometry":{"type":"Point","coordinates":[-86.24411,39.846826]}},{"properties":{"city":"Inidianapolis","zip":"46229","leaddate":"18:00.0","geo_score":0.992,"systudentid":777598,"descrip":"Withdrawal","id":"aetysgjcf18w","startdate":"1/2/2013","address":"1621  Park Ridge Way","campus":"IN","geo_precision":"range","state":"IN"},"type":"Feature","geometry":{"type":"Point","coordinates":[-85.983011,39.790231]}},{"properties":{"city":"Colorado Springs","zip":"80907","leaddate":"27:00.0","geo_score":0.619,"systudentid":777624,"descrip":"Active","id":"aetysggs1fcm","startdate":"3/11/2013","address":"18 W. Polk Avenue","campus":"IN","geo_precision":"street","state":"CO"},"type":"Feature","geometry":{"type":"Point","coordinates":[-104.823599,38.872343]}},{"properties":{"city":"Indianapolis","zip":"46231","leaddate":"00:00.0","geo_score":1.0,"systudentid":777653,"descrip":"Active","id":"aetysgoegzpr","startdate":"1/2/2013","address":"737 Lodge Drive","campus":"IN","geo_precision":"range","state":"IN"},"type":"Feature","geometry":{"type":"Point","coordinates":[-86.326828,39.751621]}},{"properties":{"city":"Raleigh","zip":"27614","leaddate":"15:00.0","geo_score":0.512,"systudentid":777931,"descrip":"Withdrawal","id":"aetysgkvvs9e","startdate":"1/2/2013","address":"12103 Oakwood View Drive #206","campus":"NC","geo_precision":"street","state":"NC"},"type":"Feature","geometry":{"type":"Point","coordinates":[-78.563771,35.943093]}},{"properties":{"city":"Indianapolis","zip":"46229","leaddate":"32:00.0","geo_score":1.0,"systudentid":778025,"descrip":"Active","id":"aetysgj0o941","startdate":"5/20/2013","address":"9245 Gemini Court","campus":"IN","geo_precision":"range","state":"IN"},"type":"Feature","geometry":{"type":"Point","coordinates":[-86.00344,39.804811]}},{"properties":{"city":"Indianapolis","zip":"46278","leaddate":"23:28.0","geo_score":0.935,"systudentid":776734,"descrip":"Withdrawal","id":"aetysgpzne9d","startdate":"1/2/2013","address":"6933 W 79th Street","campus":"IN","geo_precision":"range","state":"IN"},"type":"Feature","geometry":{"type":"Point","coordinates":[-86.289649,39.895587]}},{"properties":{"city":"Raleigh","zip":"27604","leaddate":"37:55.0","geo_score":0.585,"systudentid":778202,"descrip":"Withdrawal","id":"aetysggpcbcm","startdate":"1/2/2013","address":"4216 Tensity Dr.","campus":"NC","geo_precision":"zip","state":"NC"},"type":"Feature","geometry":{"type":"Point","coordinates":[-78.510001,35.883207]}},{"properties":{"city":"Apex","zip":"27539","leaddate":"11:00.0","geo_score":1.0,"systudentid":778329,"descrip":"Active","id":"aetysgl4hq77","startdate":"3/11/2013","address":"302 Stonecreek Drive","campus":"NC","geo_precision":"range","state":"NC"},"type":"Feature","geometry":{"type":"Point","coordinates":[-78.827897,35.682943]}},{"properties":{"city":"Goshen","zip":"46256","leaddate":"33:00.0","geo_score":0.666,"systudentid":778443,"descrip":"Withdrawal","id":"aetysgoc7nvb","startdate":"1/2/2013","address":"422 Constitution Ave.","campus":"IN","geo_precision":"street","state":"IN"},"type":"Feature","geometry":{"type":"Point","coordinates":[-86.045378,39.890919]}},{"properties":{"city":"Durham","zip":"27713","leaddate":"39:00.0","geo_score":0.585,"systudentid":778466,"descrip":"Active","id":"aetysghctb7j","startdate":"1/2/2013","address":"7505 Hedfield Way","campus":"NC","geo_precision":"zip","state":"NC"},"type":"Feature","geometry":{"type":"Point","coordinates":[-78.917768,35.911215]}},{"properties":{"city":"Indianapolis","zip":"46218","leaddate":"08:00.0","geo_score":0.951,"systudentid":776497,"descrip":"Withdrawal","id":"aetysgt5rnc2","startdate":"3/11/2013","address":"2139 Butler Ave","campus":"IN","geo_precision":"range","state":"IN"},"type":"Feature","geometry":{"type":"Point","coordinates":[-86.079714,39.797359]}},{"properties":{"city":"Indianapolis","zip":"46218","leaddate":"45:00.0","geo_score":1.0,"systudentid":779349,"descrip":"Withdrawal","id":"aetysgq1hm2h","startdate":"3/11/2013","address":"2434 North Dearborn St.","campus":"IN","geo_precision":"range","state":"IN"},"type":"Feature","geometry":{"type":"Point","coordinates":[-86.112046,39.802901]}},{"properties":{"city":"Greenwood","zip":"46142","leaddate":"14:00.0","geo_score":0.607,"systudentid":779384,"descrip":"Withdrawal","id":"aetysgkhxfsg","startdate":"1/2/2013","address":"258 Wakefield Dr. East","campus":"IN","geo_precision":"street","state":"IN"},"type":"Feature","geometry":{"type":"Point","coordinates":[-86.20217,39.611599]}},{"properties":{"city":"Cary","zip":"27511","leaddate":"02:00.0","geo_score":0.633,"systudentid":779703,"descrip":"Active","id":"aetysgmkpzpw","startdate":"1/2/2013","address":"103 E. Terrace Dr.","campus":"NC","geo_precision":"street","state":"NC"},"type":"Feature","geometry":{"type":"Point","coordinates":[-78.781942,35.783065]}},{"properties":{"city":"Raleigh","zip":"27601","leaddate":"06:33.0","geo_score":1.0,"systudentid":718260,"descrip":"Active","id":"aetysgp6t9cm","startdate":"1/2/2013","address":"308 South Swain St.","campus":"NC","geo_precision":"range","state":"NC"},"type":"Feature","geometry":{"type":"Point","coordinates":[-78.629339,35.7754]}},{"properties":{"city":"Indianapolis","zip":"46201","leaddate":"53:00.0","geo_score":0.614,"systudentid":780355,"descrip":"Active","id":"aetysgsmq794","startdate":"1/2/2013","address":"40 N Rural St, Apt B","campus":"IN","geo_precision":"street","state":"IN"},"type":"Feature","geometry":{"type":"Point","coordinates":[-86.116428,39.766595]}},{"properties":{"city":"Indianapolis","zip":"46224","leaddate":"42:43.0","geo_score":0.363,"systudentid":780533,"descrip":"Withdrawal","id":"aetysgpspdd9","startdate":"1/2/2013","address":"1137 N Whitcombove Apt B","campus":"IN","geo_precision":"street","state":"IN"},"type":"Feature","geometry":{"type":"Point","coordinates":[-86.155436,39.881456]}},{"properties":{"city":"Apex","zip":"27502","leaddate":"50:00.0","geo_score":0.805,"systudentid":780885,"descrip":"Active","id":"aetysgiucwo3","startdate":"1/2/2013","address":"1525 Haywards Heath Ln.","campus":"NC","geo_precision":"street","state":"NC"},"type":"Feature","geometry":{"type":"Point","coordinates":[-78.864324,35.741942]}},{"properties":{"city":"Indianapolis","zip":"46250","leaddate":"59:04.0","geo_score":1.0,"systudentid":774974,"descrip":"Active","id":"aetysghzq6du","startdate":"1/2/2013","address":"9504 Timber Valley Dr.","campus":"IN","geo_precision":"range","state":"IN"},"type":"Feature","geometry":{"type":"Point","coordinates":[-86.070441,39.924918]}},{"properties":{"city":"Indianapolis","zip":"46222","leaddate":"26:00.0","geo_score":0.61,"systudentid":774152,"descrip":"Active","id":"aetysgi10mnu","startdate":"1/2/2013","address":"1026 N. Elder Ave.","campus":"IN","geo_precision":"street","state":"IN"},"type":"Feature","geometry":{"type":"Point","coordinates":[-86.194098,39.766526]}},{"properties":{"city":"Crawfordsville","zip":"46933","leaddate":"19:00.0","geo_score":0.61,"systudentid":781281,"descrip":"Withdrawal","id":"aetysgmxfgu0","startdate":"1/2/2013","address":"1315 Oakhill Rd","campus":"IN","geo_precision":"street","state":"IN"},"type":"Feature","geometry":{"type":"Point","coordinates":[-86.155526,40.457797]}},{"properties":{"city":"Indianapolis","zip":"46222","leaddate":"03:00.0","geo_score":1.0,"systudentid":674413,"descrip":"Withdrawal","id":"aetysgfdi5nl","startdate":"1/2/2013","address":"2317 N Centennial Street","campus":"IN","geo_precision":"range","state":"IN"},"type":"Feature","geometry":{"type":"Point","coordinates":[-86.213265,39.799862]}},{"properties":{"city":"Indianapolis","zip":"46241","leaddate":"50:00.0","geo_score":1.0,"systudentid":781409,"descrip":"Active","id":"aetysgvg1gix","startdate":"3/11/2013","address":"3636 S Lynhurst Drive","campus":"IN","geo_precision":"range","state":"IN"},"type":"Feature","geometry":{"type":"Point","coordinates":[-86.250447,39.710593]}},{"properties":{"city":"Indianapolis","zip":"46227","leaddate":"04:00.0","geo_score":0.961,"systudentid":781522,"descrip":"Active","id":"aetysgplv5op","startdate":"3/11/2013","address":"8543 J Bison Lake Dr.","campus":"IN","geo_precision":"range","state":"IN"},"type":"Feature","geometry":{"type":"Point","coordinates":[-86.145692,39.641918]}},{"properties":{"city":"Lillington","zip":"27546","leaddate":"03:00.0","geo_score":0.451,"systudentid":646038,"descrip":"Active","id":"aetysgom9sud","startdate":"3/11/2013","address":"PO Box 1293","campus":"NC","geo_precision":"street","state":"NC"},"type":"Feature","geometry":{"type":"Point","coordinates":[-78.115319,35.29228]}},{"properties":{"city":"Indianapolis","zip":"46224","leaddate":"08:27.0","geo_score":0.512,"systudentid":782049,"descrip":"Active","id":"aetysgmh7ab7","startdate":"3/11/2013","address":"2702 Embassy Row Apt. 225","campus":"IN","geo_precision":"street","state":"IN"},"type":"Feature","geometry":{"type":"Point","coordinates":[-86.271283,39.804922]}},{"properties":{"city":"Indianapolis","zip":"46224","leaddate":"55:00.0","geo_score":0.512,"systudentid":782096,"descrip":"Active","id":"aetysglembna","startdate":"1/2/2013","address":"2819 Embassy Row.  Apt. 804","campus":"IN","geo_precision":"street","state":"IN"},"type":"Feature","geometry":{"type":"Point","coordinates":[-86.271283,39.804922]}},{"properties":{"city":"Indianapolis","zip":"46227","leaddate":"49:00.0","geo_score":0.602,"systudentid":782428,"descrip":"Active","id":"aetysgj06yni","startdate":"5/20/2013","address":"4304 Declaration Dr. Apt. D","campus":"IN","geo_precision":"street","state":"IN"},"type":"Feature","geometry":{"type":"Point","coordinates":[-86.155417,39.702942]}},{"properties":{"city":"Fortville","zip":"46040","leaddate":"36:00.0","geo_score":0.61,"systudentid":782563,"descrip":"Active","id":"aetysgt1o2eh","startdate":"3/11/2013","address":"402 E. New York St","campus":"IN","geo_precision":"street","state":"IN"},"type":"Feature","geometry":{"type":"Point","coordinates":[-85.849727,39.94328]}},{"properties":{"city":"Indianapolis","zip":"46203","leaddate":"45:49.7","geo_score":0.61,"systudentid":782718,"descrip":"Active","id":"aetysgistdjv","startdate":"3/11/2013","address":"1935 S. Emerson","campus":"IN","geo_precision":"street","state":"IN"},"type":"Feature","geometry":{"type":"Point","coordinates":[-86.082944,39.75788]}},{"properties":{"city":"Indianapolis","zip":"46218","leaddate":"33:46.0","geo_score":0.619,"systudentid":782833,"descrip":"Active","id":"aetysgipvkly","startdate":"3/11/2013","address":"3440 E. 26th St.","campus":"IN","geo_precision":"street","state":"IN"},"type":"Feature","geometry":{"type":"Point","coordinates":[-86.110804,39.804485]}},{"properties":{"city":"Zebulon","zip":"27597","leaddate":"53:32.0","geo_score":1.0,"systudentid":783040,"descrip":"Active","id":"aetysgtjfad1","startdate":"3/11/2013","address":"1121 Karial Court","campus":"NC","geo_precision":"range","state":"NC"},"type":"Feature","geometry":{"type":"Point","coordinates":[-78.309741,35.836006]}},{"properties":{"city":"Fuquay Varina","zip":"27526","leaddate":"16:00.0","geo_score":0.992,"systudentid":783159,"descrip":"Active","id":"aetysgpkzvwm","startdate":"3/11/2013","address":"51 Woodview Court","campus":"NC","geo_precision":"range","state":"NC"},"type":"Feature","geometry":{"type":"Point","coordinates":[-78.824279,35.447895]}},{"properties":{"city":"Greenwood","zip":"46142","leaddate":"19:00.0","geo_score":0.898,"systudentid":783244,"descrip":"Active","id":"aetysgk4lr4d","startdate":"3/11/2013","address":"1539 Stone Hedge Ct Apt H","campus":"IN","geo_precision":"range","state":"IN"},"type":"Feature","geometry":{"type":"Point","coordinates":[-86.152835,39.632764]}},{"properties":{"city":"Cameron","zip":"28326","leaddate":"47:00.0","geo_score":0.602,"systudentid":783299,"descrip":"Active","id":"aetysgogit0i","startdate":"3/11/2013","address":"3758 Count Road Line","campus":"NC","geo_precision":"street","state":"NC"},"type":"Feature","geometry":{"type":"Point","coordinates":[-79.217069,35.265372]}},{"properties":{"city":"Indianapolis","zip":"46201","leaddate":"00:00.0","geo_score":1.0,"systudentid":783550,"descrip":"Withdrawal","id":"aetysgsyzhlw","startdate":"3/11/2013","address":"715 N Bancroft St","campus":"IN","geo_precision":"range","state":"IN"},"type":"Feature","geometry":{"type":"Point","coordinates":[-86.084541,39.778669]}},{"properties":{"city":"Indianapolis","zip":"46226","leaddate":"11:00.0","geo_score":0.976,"systudentid":632243,"descrip":"Active","id":"aetysgqbb21z","startdate":"5/20/2013","address":"3830 N Laymon Ave","campus":"IN","geo_precision":"range","state":"IN"},"type":"Feature","geometry":{"type":"Point","coordinates":[-86.073781,39.826937]}},{"properties":{"city":"Indianapolis","zip":"46218","leaddate":"20:00.0","geo_score":0.6,"systudentid":783923,"descrip":"Active","id":"aetysgqh084r","startdate":"3/11/2013","address":"2904 N. Gladestone","campus":"IN","geo_precision":"street","state":"IN"},"type":"Feature","geometry":{"type":"Point","coordinates":[-86.096977,39.78879]}},{"properties":{"city":"Pittsboro","zip":"27312","leaddate":"13:00.0","geo_score":0.98,"systudentid":784028,"descrip":"Withdrawal","id":"aetysgibpqwz","startdate":"3/11/2013","address":"153 Burnett Circle Ext.","campus":"NC","geo_precision":"range","state":"NC"},"type":"Feature","geometry":{"type":"Point","coordinates":[-79.169693,35.856487]}},{"properties":{"city":"Indianapolis","zip":"46221","leaddate":"27:00.0","geo_score":0.614,"systudentid":764866,"descrip":"Active","id":"aetysgiwd9ak","startdate":"3/11/2013","address":"3319 S. Collier Street","campus":"IN","geo_precision":"street","state":"IN"},"type":"Feature","geometry":{"type":"Point","coordinates":[-86.230967,39.716811]}},{"properties":{"city":"Middlesex","zip":"27557","leaddate":"46:00.0","geo_score":1.0,"systudentid":784387,"descrip":"Active","id":"aetysghxn4kf","startdate":"5/20/2013","address":"1019 Windward Hill Court","campus":"NC","geo_precision":"range","state":"NC"},"type":"Feature","geometry":{"type":"Point","coordinates":[-78.228092,35.718781]}},{"properties":{"city":"Raleigh","zip":"27613","leaddate":"14:00.0","geo_score":0.875,"systudentid":784555,"descrip":"Active","id":"aetysguuhmb9","startdate":"3/11/2013","address":"4133 Lake Lynn Drive  Apt 201","campus":"NC","geo_precision":"range","state":"NC"},"type":"Feature","geometry":{"type":"Point","coordinates":[-78.702571,35.87874]}},{"properties":{"city":"Raleigh","zip":"27613","leaddate":"15:00.0","geo_score":0.643,"systudentid":784556,"descrip":"Active","id":"aetysgo65vsr","startdate":"3/11/2013","address":"4133 Lake Lynn Dr. Apt 201","campus":"NC","geo_precision":"street","state":"NC"},"type":"Feature","geometry":{"type":"Point","coordinates":[-78.704602,35.878761]}},{"properties":{"city":"Creedmoor","zip":"27522","leaddate":"30:00.0","geo_score":0.684,"systudentid":784837,"descrip":"Active","id":"aetysgrnpiho","startdate":"3/11/2013","address":"212 East Lyon Street","campus":"NC","geo_precision":"street","state":"NC"},"type":"Feature","geometry":{"type":"Point","coordinates":[-78.679352,36.11633]}},{"properties":{"city":"Garner","zip":"27529","leaddate":"46:00.0","geo_score":1.0,"systudentid":784968,"descrip":"Active","id":"aetysgpd1m4t","startdate":"3/11/2013","address":"808 Stephanie Place","campus":"NC","geo_precision":"range","state":"NC"},"type":"Feature","geometry":{"type":"Point","coordinates":[-78.560345,35.57874]}},{"properties":{"city":"Raleigh","zip":"27604","leaddate":"02:00.0","geo_score":1.0,"systudentid":785030,"descrip":"Active","id":"aetysgqmgll7","startdate":"3/11/2013","address":"2913 Dunsinane Court","campus":"NC","geo_precision":"range","state":"NC"},"type":"Feature","geometry":{"type":"Point","coordinates":[-78.589947,35.836667]}},{"properties":{"city":"Indianapolis","zip":"46237","leaddate":"21:00.0","geo_score":1.0,"systudentid":785619,"descrip":"Active","id":"aetysgkk824w","startdate":"3/11/2013","address":"7220 Muirfield Place","campus":"IN","geo_precision":"range","state":"IN"},"type":"Feature","geometry":{"type":"Point","coordinates":[-86.06072,39.66186]}},{"properties":{"city":"Raleigh","zip":"27610","leaddate":"03:00.0","geo_score":0.902,"systudentid":785659,"descrip":"Active","id":"aetysguprenm","startdate":"5/20/2013","address":"2324 Milburne","campus":"NC","geo_precision":"range","state":"NC"},"type":"Feature","geometry":{"type":"Point","coordinates":[-78.602672,35.789294]}},{"properties":{"city":"Indianapolis","zip":"46260","leaddate":"31:00.0","geo_score":1.0,"systudentid":117605,"descrip":"Active","id":"aetysgvdegtx","startdate":"5/20/2013","address":"6441 Horizon Ct.","campus":"IN","geo_precision":"range","state":"IN"},"type":"Feature","geometry":{"type":"Point","coordinates":[-86.189927,39.874512]}},{"properties":{"city":"Indianapolis","zip":"46201","leaddate":"11:00.0","geo_score":0.604,"systudentid":785924,"descrip":"Active","id":"aetysgnpc5v7","startdate":"3/11/2013","address":"50 S. Bradley","campus":"IN","geo_precision":"street","state":"IN"},"type":"Feature","geometry":{"type":"Point","coordinates":[-86.100937,39.769265]}},{"properties":{"city":"Indianapolis","zip":"46226","leaddate":"21:00.0","geo_score":0.619,"systudentid":786603,"descrip":"Withdrawal","id":"aetysgigw6wa","startdate":"3/11/2013","address":"5844 E.43rd St.","campus":"IN","geo_precision":"street","state":"IN"},"type":"Feature","geometry":{"type":"Point","coordinates":[-86.063884,39.833821]}},{"properties":{"city":"Raleigh","zip":"27613","leaddate":"20:00.0","geo_score":1.0,"systudentid":786815,"descrip":"Withdrawal","id":"aetysgihznpv","startdate":"3/11/2013","address":"8335 Morgans Way","campus":"NC","geo_precision":"range","state":"NC"},"type":"Feature","geometry":{"type":"Point","coordinates":[-78.685401,35.892882]}},{"properties":{"city":"Raleigh","zip":"27604","leaddate":"34:00.0","geo_score":0.61,"systudentid":786981,"descrip":"Active","id":"aetysgubl8fn","startdate":"3/11/2013","address":"520 N. Person Street","campus":"NC","geo_precision":"street","state":"NC"},"type":"Feature","geometry":{"type":"Point","coordinates":[-78.63445,35.787348]}},{"properties":{"city":"Morrisville","zip":"27560","leaddate":"22:00.0","geo_score":0.937,"systudentid":787077,"descrip":"Active","id":"aetysgmpk0cr","startdate":"3/11/2013","address":"1331 Summit West Drive","campus":"NC","geo_precision":"range","state":"NC"},"type":"Feature","geometry":{"type":"Point","coordinates":[-78.820002,35.812629]}},{"properties":{"city":"Indianapolis","zip":"46237","leaddate":"58:00.0","geo_score":0.74,"systudentid":787171,"descrip":"Withdrawal","id":"aetysglkivge","startdate":"3/11/2013","address":"1215 West 30th Street","campus":"IN","geo_precision":"range","state":"IN"},"type":"Feature","geometry":{"type":"Point","coordinates":[-86.184523,39.809962]}},{"properties":{"city":"Indianapolis","zip":"46237","leaddate":"54:24.1","geo_score":0.67,"systudentid":787319,"descrip":"Active","id":"aetysglveg9i","startdate":"3/11/2013","address":"5745 Carry Back Drive","campus":"IN","geo_precision":"street","state":"IN"},"type":"Feature","geometry":{"type":"Point","coordinates":[-86.060647,39.664795]}},{"properties":{"city":"Indianapolis","zip":"46234","leaddate":"59:00.0","geo_score":0.867,"systudentid":787365,"descrip":"Active","id":"aetysgoveo6u","startdate":"3/11/2013","address":"9021 Caminito Court","campus":"IN","geo_precision":"range","state":"IN"},"type":"Feature","geometry":{"type":"Point","coordinates":[-86.322802,39.766581]}},{"properties":{"city":"Indianapolis","zip":"46236","leaddate":"44:00.0","geo_score":1.0,"systudentid":787831,"descrip":"Active","id":"aetysgme6qks","startdate":"5/20/2013","address":"12424 Doe Lane","campus":"IN","geo_precision":"range","state":"IN"},"type":"Feature","geometry":{"type":"Point","coordinates":[-85.940467,39.891896]}},{"properties":{"city":"Durham","zip":"27713","leaddate":"46:00.0","geo_score":1.0,"systudentid":787832,"descrip":"Active","id":"aetysghh6jjh","startdate":"5/20/2013","address":"5011 Robinwood Road","campus":"NC","geo_precision":"range","state":"NC"},"type":"Feature","geometry":{"type":"Point","coordinates":[-78.90515,35.931964]}},{"properties":{"city":"Apex","zip":"27523","leaddate":"06:00.0","geo_score":0.922,"systudentid":787834,"descrip":"Active","id":"aetysgikh0xg","startdate":"3/11/2013","address":"1132 Batchelor Road","campus":"NC","geo_precision":"range","state":"NC"},"type":"Feature","geometry":{"type":"Point","coordinates":[-78.93329,35.772193]}},{"properties":{"city":"Raleigh","zip":"27612","leaddate":"31:00.0","geo_score":1.0,"systudentid":787836,"descrip":"Active","id":"aetysgfy9s18","startdate":"3/11/2013","address":"4413 Embleton Drive","campus":"NC","geo_precision":"range","state":"NC"},"type":"Feature","geometry":{"type":"Point","coordinates":[-78.707511,35.844946]}},{"properties":{"city":"Durham","zip":"27703","leaddate":"51:16.9","geo_score":0.902,"systudentid":784151,"descrip":"Active","id":"aetysgn6wg96","startdate":"3/11/2013","address":"907 Stennis Way","campus":"NC","geo_precision":"street","state":"NC"},"type":"Feature","geometry":{"type":"Point","coordinates":[-78.842075,35.973884]}},{"properties":{"city":"Indianapolis","zip":"46208","leaddate":"30:00.0","geo_score":1.0,"systudentid":788051,"descrip":"Withdrawal","id":"aetysgqidd2v","startdate":"3/11/2013","address":"330 W Hampton Drive","campus":"IN","geo_precision":"range","state":"IN"},"type":"Feature","geometry":{"type":"Point","coordinates":[-86.165434,39.836692]}},{"properties":{"city":"Charlotte","zip":"28216","leaddate":"13:00.0","geo_score":0.973,"systudentid":788261,"descrip":"Active","id":"aetysgve2hqj","startdate":"3/11/2013","address":"10000 Fledbank Drive","campus":"NC","geo_precision":"range","state":"NC"},"type":"Feature","geometry":{"type":"Point","coordinates":[-80.860531,35.327076]}},{"properties":{"city":"Indianapolis","zip":"46226","leaddate":"54:00.0","geo_score":0.443,"systudentid":788601,"descrip":"Active","id":"aetysgg5nn57","startdate":"3/11/2013","address":"6834 Benda Way North Dr","campus":"IN","geo_precision":"street","state":"IN"},"type":"Feature","geometry":{"type":"Point","coordinates":[-86.291643,39.790853]}},{"properties":{"city":"Indianapolis","zip":"46204","leaddate":"27:00.0","geo_score":0.602,"systudentid":581276,"descrip":"Active","id":"aetysgpj81ef","startdate":"5/20/2013","address":"675 E. Washington St.","campus":"IN","geo_precision":"street","state":"IN"},"type":"Feature","geometry":{"type":"Point","coordinates":[-86.168411,39.767345]}},{"properties":{"city":"Dunn","zip":"28334","leaddate":"05:00.0","geo_score":0.941,"systudentid":788673,"descrip":"Active","id":"aetysgj7ph2c","startdate":"5/20/2013","address":"202 Byron Street","campus":"NC","geo_precision":"range","state":"NC"},"type":"Feature","geometry":{"type":"Point","coordinates":[-78.603535,35.333151]}},{"properties":{"city":"Indianapolis","zip":"46218","leaddate":"30:00.0","geo_score":1.0,"systudentid":788821,"descrip":"Active","id":"aetysgh7y6f5","startdate":"5/20/2013","address":"3112 Orchard Terrace","campus":"IN","geo_precision":"range","state":"IN"},"type":"Feature","geometry":{"type":"Point","coordinates":[-86.127405,39.813056]}},{"properties":{"city":"Charlotte","zip":"28216","leaddate":"02:00.0","geo_score":0.317,"systudentid":789024,"descrip":"Active","id":"aetysgllrun3","startdate":"5/20/2013","address":"8510 Prosser Way #205","campus":"NC","geo_precision":"street","state":"NC"},"type":"Feature","geometry":{"type":"Point","coordinates":[-80.775714,35.241569]}},{"properties":{"city":"Indianapolis","zip":"46227","leaddate":"03:00.0","geo_score":0.61,"systudentid":747659,"descrip":"Active","id":"aetysgmb0pot","startdate":"5/20/2013","address":"3661 A El Lago N Dr Apartment 13","campus":"IN","geo_precision":"street","state":"IN"},"type":"Feature","geometry":{"type":"Point","coordinates":[-86.114937,39.706078]}},{"properties":{"city":"Raleigh","zip":"27615","leaddate":"09:00.0","geo_score":0.604,"systudentid":789335,"descrip":"Active","id":"aetysgizii68","startdate":"5/20/2013","address":"121 Farrington Drive, Apt. F","campus":"NC","geo_precision":"street","state":"NC"},"type":"Feature","geometry":{"type":"Point","coordinates":[-78.643418,35.888785]}},{"properties":{"city":"Clayton","zip":"27520","leaddate":"01:00.0","geo_score":0.585,"systudentid":789341,"descrip":"Active","id":"aetysgkxhmcw","startdate":"5/20/2013","address":"165 Norwich Drive","campus":"NC","geo_precision":"zip","state":"NC"},"type":"Feature","geometry":{"type":"Point","coordinates":[-78.435416,35.633257]}},{"properties":{"city":"Durham","zip":"27713","leaddate":"16:00.0","geo_score":1.0,"systudentid":789566,"descrip":"Active","id":"aetysgmyilw7","startdate":"5/20/2013","address":"711 Cross Timbers Drive","campus":"NC","geo_precision":"range","state":"NC"},"type":"Feature","geometry":{"type":"Point","coordinates":[-78.936744,35.923621]}},{"properties":{"city":"Parker City","zip":"47368","leaddate":"37:00.0","geo_score":1.0,"systudentid":789788,"descrip":"Active","id":"aetysgnc4okg","startdate":"5/20/2013","address":"502 Tennessee Street","campus":"IN","geo_precision":"range","state":"IN"},"type":"Feature","geometry":{"type":"Point","coordinates":[-85.197156,40.186669]}},{"properties":{"city":"Indianapolis","zip":"46203","leaddate":"12:00.0","geo_score":0.339,"systudentid":789927,"descrip":"Active","id":"aetysgnw33a4","startdate":"5/20/2013","address":"6155 Castleford Dr. Apt. C","campus":"IN","geo_precision":"street","state":"IN"},"type":"Feature","geometry":{"type":"Point","coordinates":[-86.179827,39.65497]}},{"properties":{"city":"Cary","zip":"27519","leaddate":"19:00.0","geo_score":0.861,"systudentid":790193,"descrip":"Active","id":"aetysgjfz4bc","startdate":"5/20/2013","address":"831 Preston Grove Avenue","campus":"NC","geo_precision":"range","state":"NC"},"type":"Feature","geometry":{"type":"Point","coordinates":[-78.859797,35.812777]}},{"properties":{"city":"Indianapolis","zip":"46214","leaddate":"49:00.0","geo_score":0.585,"systudentid":790197,"descrip":"Active","id":"aetysgvk6nn4","startdate":"5/20/2013","address":"7446 Rockleigh Ave.","campus":"IN","geo_precision":"zip","state":"IN"},"type":"Feature","geometry":{"type":"Point","coordinates":[-86.287465,39.792379]}},{"properties":{"city":"Indianapolis","zip":"46204","leaddate":"47:00.0","geo_score":0.914,"systudentid":357873,"descrip":"Active","id":"aetysgm9h9r0","startdate":"5/20/2013","address":"725 Pennsylvania","campus":"IN","geo_precision":"range","state":"IN"},"type":"Feature","geometry":{"type":"Point","coordinates":[-86.155791,39.777655]}},{"properties":{"city":"Raleigh","zip":"27612","leaddate":"13:00.0","geo_score":0.512,"systudentid":790294,"descrip":"Active","id":"aetysggu8bva","startdate":"5/20/2013","address":"5601 Oak Meadow Lane Apt.1305","campus":"NC","geo_precision":"street","state":"NC"},"type":"Feature","geometry":{"type":"Point","coordinates":[-78.71609,35.853618]}},{"properties":{"city":"Wendell","zip":"27591","leaddate":"17:00.0","geo_score":1.0,"systudentid":770363,"descrip":"Active","id":"aetysghbu1p3","startdate":"5/20/2013","address":"112 Seminole Drive","campus":"NC","geo_precision":"range","state":"NC"},"type":"Feature","geometry":{"type":"Point","coordinates":[-78.351536,35.701445]}},{"properties":{"city":"London","zip":"40744","leaddate":"09:00.0","geo_score":1.0,"systudentid":790632,"descrip":"Active","id":"aetysghsz3k9","startdate":"5/20/2013","address":"1592 Flat Lick Road","campus":"IN","geo_precision":"range","state":"KY"},"type":"Feature","geometry":{"type":"Point","coordinates":[-83.9684,37.082571]}},{"properties":{"city":"Durham","zip":"27712","leaddate":"09:00.0","geo_score":0.941,"systudentid":790631,"descrip":"Active","id":"aetysgfvl1r2","startdate":"5/20/2013","address":"6809 Johnson Mill","campus":"NC","geo_precision":"range","state":"NC"},"type":"Feature","geometry":{"type":"Point","coordinates":[-78.917683,36.128821]}},{"properties":{"city":"Indianapolis","zip":"46221","leaddate":"50:00.0","geo_score":0.922,"systudentid":791324,"descrip":"Active","id":"aetysgh9uva9","startdate":"5/20/2013","address":"1343 South Sheffield","campus":"IN","geo_precision":"range","state":"IN"},"type":"Feature","geometry":{"type":"Point","coordinates":[-86.197995,39.748026]}},{"properties":{"city":"Cary","zip":"27518","leaddate":"18:00.0","geo_score":0.585,"systudentid":791639,"descrip":"Active","id":"aetysgo4enq5","startdate":"5/20/2013","address":"100 Highlands Bluffs Drive","campus":"NC","geo_precision":"zip","state":"NC"},"type":"Feature","geometry":{"type":"Point","coordinates":[-78.625265,35.797692]}},{"properties":{"city":"Indianapolis","zip":"46221","leaddate":"03:00.0","geo_score":1.0,"systudentid":791684,"descrip":"Active","id":"aetysgrdzocr","startdate":"5/20/2013","address":"5108 Red Horizon Blvd","campus":"IN","geo_precision":"range","state":"IN"},"type":"Feature","geometry":{"type":"Point","coordinates":[-86.247924,39.696031]}},{"properties":{"city":"Hubert","zip":"28539","leaddate":"34:00.0","geo_score":0.732,"systudentid":791868,"descrip":"Active","id":"aetysghfjqiq","startdate":"5/20/2013","address":"110 North Ivy Drive","campus":"NC","geo_precision":"range","state":"NC"},"type":"Feature","geometry":{"type":"Point","coordinates":[-77.429074,35.376224]}},{"properties":{"city":"Indianapolis","zip":"46202","leaddate":"32:00.0","geo_score":0.902,"systudentid":792160,"descrip":"Active","id":"aetysgptxfj9","startdate":"5/20/2013","address":"310 West Michigan Apt 319","campus":"IN","geo_precision":"range","state":"IN"},"type":"Feature","geometry":{"type":"Point","coordinates":[-86.164156,39.774329]}},{"properties":{"city":"Indianapolis","zip":"46218","leaddate":"03:00.0","geo_score":0.614,"systudentid":792221,"descrip":"Active","id":"aetysgtqg2o2","startdate":"5/20/2013","address":"2035 N. Houston St.","campus":"IN","geo_precision":"street","state":"IN"},"type":"Feature","geometry":{"type":"Point","coordinates":[-86.109481,39.794208]}},{"properties":{"city":"Indianapolis","zip":"46224","leaddate":"32:00.0","geo_score":0.357,"systudentid":792230,"descrip":"Active","id":"aetysgpg2n9b","startdate":"5/20/2013","address":"465 Big Hill Circle Apt. B","campus":"IN","geo_precision":"street","state":"IN"},"type":"Feature","geometry":{"type":"Point","coordinates":[-86.132745,39.693585]}},{"properties":{"city":"Indianapolis","zip":"46226","leaddate":"54:16.0","geo_score":0.793,"systudentid":792233,"descrip":"Active","id":"aetysgn95t7z","startdate":"5/20/2013","address":"4242 Rue Biscay Street 3B","campus":"IN","geo_precision":"street","state":"IN"},"type":"Feature","geometry":{"type":"Point","coordinates":[-86.015716,39.834567]}},{"properties":{"city":"Durham","zip":"27704","leaddate":"11:00.0","geo_score":1.0,"systudentid":792414,"descrip":"Active","id":"aetysgp3a0uu","startdate":"5/20/2013","address":"2809 Camberly Drive","campus":"NC","geo_precision":"range","state":"NC"},"type":"Feature","geometry":{"type":"Point","coordinates":[-78.846813,36.045492]}},{"properties":{"city":"Indianapolis","zip":"46226","leaddate":"39:08.0","geo_score":0.902,"systudentid":792795,"descrip":"Active","id":"aetysgmodi41","startdate":"5/20/2013","address":"7926 Penway","campus":"IN","geo_precision":"range","state":"IN"},"type":"Feature","geometry":{"type":"Point","coordinates":[-86.027106,39.823]}},{"properties":{"city":"Greenfield","zip":"46140","leaddate":"39:00.0","geo_score":1.0,"systudentid":746755,"descrip":"Active","id":"aetysgj18819","startdate":"5/20/2013","address":"1254 Orphant Annie Dr.","campus":"IN","geo_precision":"range","state":"IN"},"type":"Feature","geometry":{"type":"Point","coordinates":[-85.773317,39.768008]}},{"properties":{"city":"Raleigh","zip":"27601","leaddate":"15:00.0","geo_score":0.512,"systudentid":792951,"descrip":"Active","id":"aetysgjg95b2","startdate":"5/20/2013","address":"730 Bright Creek Way  #205","campus":"NC","geo_precision":"street","state":"NC"},"type":"Feature","geometry":{"type":"Point","coordinates":[-78.626753,35.765603]}},{"properties":{"city":"Raleigh","zip":"27616","leaddate":"41:00.0","geo_score":0.571,"systudentid":793049,"descrip":"Active","id":"aetysgkof2lg","startdate":"5/20/2013","address":"5111 Wallingford Drive  Apt. E","campus":"NC","geo_precision":"street","state":"NC"},"type":"Feature","geometry":{"type":"Point","coordinates":[-78.575054,35.848448]}},{"properties":{"city":"Franklinton","zip":"27525","leaddate":"37:00.0","geo_score":0.805,"systudentid":793100,"descrip":"Active","id":"aetysgoe2fqh","startdate":"5/20/2013","address":"4569 John Sandling Rd.","campus":"NC","geo_precision":"street","state":"NC"},"type":"Feature","geometry":{"type":"Point","coordinates":[-78.511639,36.145728]}},{"properties":{"city":"Indianapolis","zip":"46222","leaddate":"40:00.0","geo_score":0.857,"systudentid":793342,"descrip":"Active","id":"aetysgqzwxbk","startdate":"5/20/2013","address":"620 N. Exeter Dr.","campus":"IN","geo_precision":"zip","state":"IN"},"type":"Feature","geometry":{"type":"Point","coordinates":[-86.183322,39.844208]}},{"properties":{"city":"Anderson","zip":"46012","leaddate":"45:00.0","geo_score":0.961,"systudentid":758315,"descrip":"Active","id":"aetysghmn6ae","startdate":"5/20/2013","address":"3126 Autumn Ridge Drive","campus":"IN","geo_precision":"range","state":"IN"},"type":"Feature","geometry":{"type":"Point","coordinates":[-85.637474,40.115465]}},{"properties":{"city":"Durham","zip":"27703","leaddate":"16:00.0","geo_score":0.585,"systudentid":793436,"descrip":"Active","id":"aetysgh1welz","startdate":"5/20/2013","address":"1725 TW Alexander Dr. # 1206","campus":"NC","geo_precision":"zip","state":"NC"},"type":"Feature","geometry":{"type":"Point","coordinates":[-78.821694,35.957366]}},{"properties":{"city":"raleigh","zip":"27613","leaddate":"50:00.0","geo_score":0.419,"systudentid":793661,"descrip":"Active","id":"aetysgufo1l8","startdate":"5/20/2013","address":"5400 Summit Manor Lane Apt 103","campus":"NC","geo_precision":"street","state":"NC"},"type":"Feature","geometry":{"type":"Point","coordinates":[-78.649271,35.761846]}},{"properties":{"city":"Indianapolis","zip":"46260","leaddate":"30:00.0","geo_score":0.781,"systudentid":793908,"descrip":"Withdrawal","id":"aetysgmz5dhr","startdate":"5/20/2013","address":"2275 Woodglen Ct","campus":"IN","geo_precision":"street","state":"IN"},"type":"Feature","geometry":{"type":"Point","coordinates":[-86.199796,39.901953]}},{"properties":{"city":"Raleigh","zip":"27610","leaddate":"35:00.0","geo_score":0.464,"systudentid":793992,"descrip":"Active","id":"aetysgiu4ys5","startdate":"5/20/2013","address":"3101 Rock Quarry Rd.","campus":"NC","geo_precision":"street","state":"NC"},"type":"Feature","geometry":{"type":"Point","coordinates":[-78.623515,35.768169]}},{"properties":{"city":"Zebulon","zip":"27597","leaddate":"38:44.0","geo_score":0.463,"systudentid":793999,"descrip":"Active","id":"aetysgg2n18l","startdate":"5/20/2013","address":"3108 Royal Deeside Court","campus":"NC","geo_precision":"street","state":"NC"},"type":"Feature","geometry":{"type":"Point","coordinates":[-78.930876,35.500999]}},{"properties":{"city":"Angier","zip":"27501","leaddate":"39:00.0","geo_score":1.0,"systudentid":794201,"descrip":"Active","id":"aetysgk9jetp","startdate":"5/20/2013","address":"14 Spikebuck Court","campus":"NC","geo_precision":"range","state":"NC"},"type":"Feature","geometry":{"type":"Point","coordinates":[-78.733746,35.525534]}},{"properties":{"city":"Indianapolis","zip":"46226","leaddate":"45:00.0","geo_score":1.0,"systudentid":794310,"descrip":"Active","id":"aetysgsds130","startdate":"5/20/2013","address":"5643 Brendon Forest Drive","campus":"IN","geo_precision":"range","state":"IN"},"type":"Feature","geometry":{"type":"Point","coordinates":[-86.054612,39.860642]}},{"properties":{"city":"Indianapolis","zip":"46228","leaddate":"30:00.0","geo_score":0.619,"systudentid":781549,"descrip":"Active","id":"aetysgjgsaw8","startdate":"5/20/2013","address":"3444 W. 52nd St","campus":"IN","geo_precision":"street","state":"IN"},"type":"Feature","geometry":{"type":"Point","coordinates":[-86.179929,39.846659]}},{"properties":{"city":"Boone","zip":"28607","leaddate":"55:00.0","geo_score":0.811,"systudentid":794352,"descrip":"Active","id":"aetysgk9oz74","startdate":"5/20/2013","address":"133-1 Alley Hill Rd.","campus":"NC","geo_precision":"range","state":"NC"},"type":"Feature","geometry":{"type":"Point","coordinates":[-81.716931,36.224717]}},{"properties":{"city":"Indianapolis","zip":"46260","leaddate":"08:00.0","geo_score":0.902,"systudentid":563083,"descrip":"Active","id":"aetysgginxbe","startdate":"5/20/2013","address":"2060 Amerherst Dr Apt B","campus":"IN","geo_precision":"range","state":"IN"},"type":"Feature","geometry":{"type":"Point","coordinates":[-86.198933,39.887985]}},{"properties":{"city":"Indianapolis","zip":"46221","leaddate":"13:00.0","geo_score":0.585,"systudentid":794501,"descrip":"Active","id":"aetysgn6i56n","startdate":"5/20/2013","address":"4524 Bellingham #169","campus":"IN","geo_precision":"zip","state":"IN"},"type":"Feature","geometry":{"type":"Point","coordinates":[-86.130655,39.764258]}},{"properties":{"city":"Durham","zip":"27707","leaddate":"36:00.0","geo_score":1.0,"systudentid":794562,"descrip":"Withdrawal","id":"aetysgra31yl","startdate":"5/20/2013","address":"1308 Bacon Street","campus":"NC","geo_precision":"range","state":"NC"},"type":"Feature","geometry":{"type":"Point","coordinates":[-78.884974,35.966583]}},{"properties":{"city":"Fishers","zip":"46037","leaddate":"31:00.0","geo_score":0.488,"systudentid":385291,"descrip":"Active","id":"aetysgunjj41","startdate":"5/20/2013","address":"12003 Hollyhock","campus":"IN","geo_precision":"city","state":"IN"},"type":"Feature","geometry":{"type":"Point","coordinates":[-85.964894,39.967406]}},{"properties":{"city":"Indianapolis","zip":"46229","leaddate":"50:00.0","geo_score":1.0,"systudentid":794991,"descrip":"Active","id":"aetysgjv3yg3","startdate":"5/20/2013","address":"10058 Dedham Dr.","campus":"IN","geo_precision":"range","state":"IN"},"type":"Feature","geometry":{"type":"Point","coordinates":[-85.986771,39.80711]}},{"properties":{"city":"Indianapolis","zip":"46237","leaddate":"27:00.0","geo_score":0.512,"systudentid":795132,"descrip":"Active","id":"aetysgr2a17k","startdate":"5/20/2013","address":"6530 Capricorn Drive Apt. 2702","campus":"IN","geo_precision":"street","state":"IN"},"type":"Feature","geometry":{"type":"Point","coordinates":[-86.046962,39.701074]}},{"properties":{"city":"Durham","zip":"27704","leaddate":"52:00.0","geo_score":1.0,"systudentid":795356,"descrip":"Active","id":"aetysgnje8vq","startdate":"5/20/2013","address":"938 Belvin Avenue","campus":"NC","geo_precision":"range","state":"NC"},"type":"Feature","geometry":{"type":"Point","coordinates":[-78.881084,36.034954]}},{"properties":{"city":"Durham","zip":"27703","leaddate":"41:00.0","geo_score":1.0,"systudentid":718470,"descrip":"Active","id":"aetysgulqgcp","startdate":"5/20/2013","address":"211 Ruby Ridge Rd.","campus":"NC","geo_precision":"range","state":"NC"},"type":"Feature","geometry":{"type":"Point","coordinates":[-78.847917,35.982465]}},{"properties":{"city":"Pittsboro","zip":"27312","leaddate":"00:00.0","geo_score":0.948,"systudentid":795737,"descrip":"Active","id":"aetysgnlt7dh","startdate":"5/20/2013","address":"126 Carolina Ridge","campus":"NC","geo_precision":"range","state":"NC"},"type":"Feature","geometry":{"type":"Point","coordinates":[-79.281035,35.709766]}},{"properties":{"city":"Raleigh","zip":"27601","leaddate":"26:00.0","geo_score":0.805,"systudentid":795754,"descrip":"Active","id":"aetysgs4jean","startdate":"5/20/2013","address":"2516 Sanderford Road","campus":"NC","geo_precision":"range","state":"NC"},"type":"Feature","geometry":{"type":"Point","coordinates":[-78.614088,35.744522]}},{"properties":{"city":"Cary","zip":"27519","leaddate":"06:00.0","geo_score":0.422,"systudentid":796274,"descrip":"Active","id":"aetysgtvi8el","startdate":"5/20/2013","address":"36104 Folklore Way","campus":"NC","geo_precision":"street","state":"NC"},"type":"Feature","geometry":{"type":"Point","coordinates":[-78.715708,35.564918]}},{"properties":{"city":"Durham","zip":"27713","leaddate":"59:00.0","geo_score":1.0,"systudentid":796460,"descrip":"Active","id":"aetysgg0y4tn","startdate":"5/20/2013","address":"3391 Tarleton East","campus":"NC","geo_precision":"range","state":"NC"},"type":"Feature","geometry":{"type":"Point","coordinates":[-78.895186,35.934789]}},{"properties":{"city":"Sweetser","zip":"46987","leaddate":"09:19.4","geo_score":0.393,"systudentid":262308,"descrip":"Active","id":"aetysgmc2sgy","startdate":"5/20/2013","address":"P.O. Box 557","campus":"IN","geo_precision":"street","state":"IN"},"type":"Feature","geometry":{"type":"Point","coordinates":[-86.127392,41.053748]}}],"is_temporal":false,"author":{"url":"","metadata":"","contact_name":"","contact_address":"","source":"","contact_phone":""},"source":"","pagination":{"sort":null,"start":0,"total":124,"limit":1000000},"state":"complete","tags":"","published":"2014-08-16T19:46:55-04:00","id":364854}