{"type":"FeatureCollection","data_type":"Dataset","url_type":null,"permissions":[{"permissions":{"download":true,"view":true},"group_id":"everyone"}],"classification":null,"title":"Southeast Credit Unions","count":164,"stream_id":365268,"contributor":{"url":"http://geocommons.com/users/74371","name":"lscottcornell"},"data_attributes":null,"calculation_params":null,"icon_link":null,"link":"http://geocommons.com/overlays/365268.json","extent":[-89.9907,24.5671,-78.6053,36.5522],"geometry_types":["point"],"unique_name":null,"name":"Southeast Credit Unions","feature_count":164,"description":"","next_feature":null,"is_raster":false,"short_classification":"Y","stats":{},"features":[{"properties":{"name":"Redstone FCU (Inactive)","city":"HUNTSVILLE","zip":"35893","column_10":null,"column_11":null,"column_12":null,"column_8":null,"column_13":null,"geo_score":0.683,"website":"WWW.REDFCU.ORG","column_9":null,"asset size":"$2,897,123,068","street":"220 WYNN DRIVE","id":"aeuxx8ywynjx","geo_precision":"street","state":"AL"},"type":"Feature","geometry":{"type":"Point","coordinates":[-86.652912,34.741892]}},{"properties":{"name":"EPL Inc.","city":"Birmingham","zip":"35242","column_10":null,"column_11":null,"column_12":null,"column_8":null,"column_13":null,"geo_score":1.0,"website":"http://www.eplinc.com","column_9":null,"asset size":null,"street":"22 Inverness Center Parkway","id":"aeuxx8zavtct","geo_precision":"range","state":"AL"},"type":"Feature","geometry":{"type":"Point","coordinates":[-86.705004,33.423485]}},{"properties":{"name":"THE CREDIT UNION OF ALABAMA","city":"TUSCALOOSA","zip":"35404","column_10":null,"column_11":null,"column_12":null,"column_8":null,"column_13":null,"geo_score":1.0,"website":"WWW.TCUOA.ORG","column_9":null,"asset size":"$480,846,875","street":"1215 VETERANS MEMORIAL PARKWAY","id":"aeuxx8sqlk1v","geo_precision":"range","state":"AL"},"type":"Feature","geometry":{"type":"Point","coordinates":[-87.522299,33.197244]}},{"properties":{"name":"Royal Federal Credit Union","city":null,"zip":null,"column_10":null,"column_11":null,"column_12":null,"column_8":null,"column_13":null,"geo_score":0.0,"website":null,"column_9":null,"asset size":null,"street":null,"id":"aeuxx97l3xag","geo_precision":"unmatched","state":"AL"},"type":"Feature","geometry":null},{"properties":{"name":"America's First FCU","city":"BIRMINGHAM","zip":"35202","column_10":null,"column_11":null,"column_12":null,"column_8":null,"column_13":null,"geo_score":0.393,"website":"WWW.AMFIRST.ORG","column_9":null,"asset size":"$1,113,762,148","street":"P.O. BOX 11349","id":"aeuxx93c44ed","geo_precision":"street","state":"AL"},"type":"Feature","geometry":{"type":"Point","coordinates":[-86.888646,33.482251]}},{"properties":{"name":"AOD","city":null,"zip":null,"column_10":null,"column_11":null,"column_12":null,"column_8":null,"column_13":null,"geo_score":0.0,"website":"WWW.AODFCU.COM","column_9":null,"asset size":"$145,407,936","street":null,"id":"aeuxx93421hn","geo_precision":"unmatched","state":"AL"},"type":"Feature","geometry":null},{"properties":{"name":"Apco Employees","city":null,"zip":null,"column_10":null,"column_11":null,"column_12":null,"column_8":null,"column_13":null,"geo_score":0.0,"website":"WWW.APCOCU.ORG","column_9":null,"asset size":"$2.343,531,001","street":null,"id":"aeuxx8rybtec","geo_precision":"unmatched","state":"AL"},"type":"Feature","geometry":null},{"properties":{"name":"Army Aviation Ctr FCU","city":"DALEVILLE","zip":"36322","column_10":null,"column_11":null,"column_12":null,"column_8":null,"column_13":null,"geo_score":0.393,"website":"WWW.AACFCU.COM","column_9":null,"asset size":"$832,189,938","street":"POST OFFICE DRAWER 8","id":"aeuxx94qre81","geo_precision":"street","state":"AL"},"type":"Feature","geometry":{"type":"Point","coordinates":[-85.226342,31.103824]}},{"properties":{"name":"Alabama","city":null,"zip":null,"column_10":null,"column_11":null,"column_12":null,"column_8":null,"column_13":null,"geo_score":0.0,"website":"ALABAMACU.COM","column_9":null,"asset size":"$456,110,827","street":null,"id":"aeuxx8y0verg","geo_precision":"unmatched","state":"AL"},"type":"Feature","geometry":null},{"properties":{"name":"Alabama Central CU","city":"BIRMINGHAM","zip":"35222","column_10":null,"column_11":null,"column_12":null,"column_8":null,"column_13":null,"geo_score":0.935,"website":"WWW.ALABAMACENTRAL.ORG","column_9":null,"asset size":"$200,317,288","street":"3601 4TH AVENUE SOUTH","id":"aeuxx92f3g7z","geo_precision":"range","state":"AL"},"type":"Feature","geometry":{"type":"Point","coordinates":[-86.778987,33.520049]}},{"properties":{"name":"Alabama Credit Union League","city":null,"zip":null,"column_10":null,"column_11":null,"column_12":null,"column_8":null,"column_13":null,"geo_score":0.0,"website":null,"column_9":null,"asset size":null,"street":null,"id":"aeuxx92z5rjb","geo_precision":"unmatched","state":"AL"},"type":"Feature","geometry":null},{"properties":{"name":"Alabama State Employees","city":null,"zip":null,"column_10":null,"column_11":null,"column_12":null,"column_8":null,"column_13":null,"geo_score":0.0,"website":"WWW.ASECU.ORG","column_9":null,"asset size":"$185,560,958","street":null,"id":"aeuxx8udan2c","geo_precision":"unmatched","state":"AL"},"type":"Feature","geometry":null},{"properties":{"name":"Alabama Teachers Credit Union","city":"GADSDEN","zip":"35902","column_10":null,"column_11":null,"column_12":null,"column_8":null,"column_13":null,"geo_score":0.393,"website":"ATCU.COM","column_9":null,"asset size":"$123,474,232","street":"P O BOX 1400","id":"aeuxx90cizk7","geo_precision":"street","state":"AL"},"type":"Feature","geometry":{"type":"Point","coordinates":[-86.320971,34.023997]}},{"properties":{"name":"Alabama Telco CU","city":null,"zip":null,"column_10":null,"column_11":null,"column_12":null,"column_8":null,"column_13":null,"geo_score":0.0,"website":"www.alatelco.org/","column_9":null,"asset size":"$573,052,794","street":null,"id":"aeuxx93p08a8","geo_precision":"unmatched","state":"AL"},"type":"Feature","geometry":null},{"properties":{"name":"Family Savings","city":null,"zip":null,"column_10":null,"column_11":null,"column_12":null,"column_8":null,"column_13":null,"geo_score":0.0,"website":"WWW.FAMILYSAVINGSCU.COM","column_9":null,"asset size":"$285,331,513","street":null,"id":"aeuxx93v636k","geo_precision":"unmatched","state":"AL"},"type":"Feature","geometry":null},{"properties":{"name":"Family Security","city":null,"zip":null,"column_10":null,"column_11":null,"column_12":null,"column_8":null,"column_13":null,"geo_score":0.0,"website":"MYFSCU.COM","column_9":null,"asset size":"$426,139,313","street":null,"id":"aeuxx8we5nu8","geo_precision":"unmatched","state":"AL"},"type":"Feature","geometry":null},{"properties":{"name":"Five Star","city":null,"zip":null,"column_10":null,"column_11":null,"column_12":null,"column_8":null,"column_13":null,"geo_score":0.0,"website":"WWW.FIVESTARCU.COM","column_9":null,"asset size":"$252,181,902","street":"cross sell, service, reach","id":"aeuxx8sqab2n","geo_precision":"unmatched","state":"AL"},"type":"Feature","geometry":null},{"properties":{"name":"COOSA PINES","city":"CHILDERSBURG","zip":"35044","column_10":null,"column_11":null,"column_12":null,"column_8":null,"column_13":null,"geo_score":0.371,"website":"WWW.COOSAPINESFCU.ORG","column_9":null,"asset size":"$150,162,238","street":"P.O. BOX 407","id":"aeuxx8tt8hxh","geo_precision":"street","state":"AL"},"type":"Feature","geometry":{"type":"Point","coordinates":[-86.920704,33.420912]}},{"properties":{"name":"ACIPCO","city":"BIRMINGHAM","zip":"35202","column_10":null,"column_11":null,"column_12":null,"column_8":null,"column_13":null,"geo_score":0.393,"website":"WWW.ACIPCOFCU.ORG","column_9":null,"asset size":"$109,381,302","street":"P O BOX 2727","id":"aeuxx91xpo3m","geo_precision":"street","state":"AL"},"type":"Feature","geometry":{"type":"Point","coordinates":[-86.733218,33.471184]}},{"properties":{"name":"FOUR SEASONS FEDERAL CREDIT UNION","city":"Opelika","zip":null,"column_10":null,"column_11":null,"column_12":null,"column_8":null,"column_13":null,"geo_score":0.902,"website":null,"column_9":null,"asset size":"$42,307,342","street":"2915 Pepperell Parkway","id":"aeuxx8ymc5oj","geo_precision":"range","state":"AL"},"type":"Feature","geometry":{"type":"Point","coordinates":[-85.422678,32.63516]}},{"properties":{"name":"Mutual Savings CU","city":"Birmingham","zip":null,"column_10":null,"column_11":null,"column_12":null,"column_8":null,"column_13":null,"geo_score":0.714,"website":"WWW.MUTUALSAVINGS.ORG","column_9":null,"asset size":"$189,026,083","street":null,"id":"aeuxx94gwwn2","geo_precision":"city","state":"AL"},"type":"Feature","geometry":{"type":"Point","coordinates":[-86.801904,33.456412]}},{"properties":{"name":"Listerhill CU","city":null,"zip":null,"column_10":null,"column_11":null,"column_12":null,"column_8":null,"column_13":null,"geo_score":0.0,"website":"WWW.LISTERHILL.COM","column_9":null,"asset size":"$536,262,222","street":null,"id":"aeuxx8wbud8e","geo_precision":"unmatched","state":"AL"},"type":"Feature","geometry":null},{"properties":{"name":"Max Credit Union","city":"Montgomery","zip":"36117","column_10":null,"column_11":null,"column_12":null,"column_8":null,"column_13":null,"geo_score":1.0,"website":"WWW.MYMAX.COM","column_9":null,"asset size":"$1,008,499,038","street":"400 Eastdale Circle","id":"aeuxx8tb1cpb","geo_precision":"range","state":"AL"},"type":"Feature","geometry":{"type":"Point","coordinates":[-86.204193,32.387242]}},{"properties":{"name":"New Horizons Credit Union","city":"MOBILE","zip":"36652","column_10":null,"column_11":null,"column_12":null,"column_8":null,"column_13":null,"geo_score":0.403,"website":"WWW.NEWHCU.ORG","column_9":null,"asset size":"$194,758,224","street":"PO BOX 2966","id":"aeuxx8ytt0b7","geo_precision":"street","state":"AL"},"type":"Feature","geometry":{"type":"Point","coordinates":[-88.087436,30.74103]}},{"properties":{"name":"TVA","city":null,"zip":null,"column_10":null,"column_11":null,"column_12":null,"column_8":null,"column_13":null,"geo_score":0.0,"website":"WWW.TVAFCU.COM","column_9":null,"asset size":"$171,215,448","street":null,"id":"aeuxx8tv9wb0","geo_precision":"unmatched","state":"AL"},"type":"Feature","geometry":null},{"properties":{"name":"LEGACY COMMUNITY","city":"BIRMINGHAM","zip":"35242","column_10":null,"column_11":null,"column_12":null,"column_8":null,"column_13":null,"geo_score":0.641,"website":"LEGACYCREDITUNION.COM","column_9":null,"asset size":"$342,175,550","street":"100 CORPORATE RIDGE SUITE 200","id":"aeuxx8rs5hkw","geo_precision":"street","state":"AL"},"type":"Feature","geometry":{"type":"Point","coordinates":[-86.681882,33.417049]}},{"properties":{"name":"Magnify (Community First)","city":"MULBERRY","zip":"33860","column_10":null,"column_11":null,"column_12":null,"column_8":null,"column_13":null,"geo_score":0.357,"website":"http://www.magnifycu.org/","column_9":null,"asset size":"$102,852,917","street":"P.O. BOX 427","id":"aeuxx8swmpkt","geo_precision":"street","state":"FL"},"type":"Feature","geometry":{"type":"Point","coordinates":[-81.573331,28.006308]}},{"properties":{"name":"PSCU (PublicService)","city":"St. Petersburg","zip":"33716","column_10":null,"column_11":null,"column_12":null,"column_8":null,"column_13":null,"geo_score":0.675,"website":"www.pscu.com","column_9":null,"asset size":null,"street":"Corporate Headquarters 560 Carillon Parkway","id":"aeuxx8rlrsyd","geo_precision":"street","state":"FL"},"type":"Feature","geometry":{"type":"Point","coordinates":[-82.668523,27.888253]}},{"properties":{"name":"United Solutions Co.","city":"Tallahassee","zip":"32314-5496","column_10":null,"column_11":null,"column_12":null,"column_8":null,"column_13":null,"geo_score":0.403,"website":"www.unitedsolutions.coop","column_9":null,"asset size":null,"street":"PO Box 5496","id":"aeuxx95l6168","geo_precision":"street","state":"FL"},"type":"Feature","geometry":{"type":"Point","coordinates":[-84.209383,30.388672]}},{"properties":{"name":"BrightStar CU","city":"Ft. Lauderdale","zip":null,"column_10":null,"column_11":null,"column_12":null,"column_8":null,"column_13":null,"geo_score":0.714,"website":"WWW.BSCU.ORG","column_9":null,"asset size":"$334,028,451","street":null,"id":"aeuxx96m2p4h","geo_precision":"city","state":"FL"},"type":"Feature","geometry":{"type":"Point","coordinates":[-80.208381,26.166474]}},{"properties":{"name":"Keys Federal Credit Union","city":"Key West","zip":"33040","column_10":null,"column_11":null,"column_12":null,"column_8":null,"column_13":null,"geo_score":0.857,"website":"WWW.KEYSFCU.ORG","column_9":null,"asset size":"$196,298,760","street":"P.O. Box 1898","id":"aeuxx97xdwz1","geo_precision":"zip","state":"FL"},"type":"Feature","geometry":{"type":"Point","coordinates":[-81.738424,24.567091]}},{"properties":{"name":"McCoy Federal Credit Union","city":"Orlando","zip":"593806","column_10":null,"column_11":null,"column_12":null,"column_8":null,"column_13":null,"geo_score":0.49,"website":"WWW.MCCOYFCU.ORG","column_9":null,"asset size":"$387,882,586","street":"P.O. Box 593806","id":"aeuxx8uw6viw","geo_precision":"street","state":"FL"},"type":"Feature","geometry":{"type":"Point","coordinates":[-81.361669,28.493923]}},{"properties":{"name":"Orlando Federal CU","city":"Orlando","zip":"32805","column_10":null,"column_11":null,"column_12":null,"column_8":null,"column_13":null,"geo_score":0.597,"website":"WWW.ORLANDOFCU.ORG","column_9":null,"asset size":"$156,818,139","street":"1117 S. Westmoreland","id":"aeuxx90efaqr","geo_precision":"street","state":"FL"},"type":"Feature","geometry":{"type":"Point","coordinates":[-81.393166,28.541983]}},{"properties":{"name":"University CU - FL","city":"Miami","zip":"33143","column_10":null,"column_11":null,"column_12":null,"column_8":null,"column_13":null,"geo_score":0.672,"website":"www.myunicu.coop","column_9":null,"asset size":"$183,175,764","street":"6250 SW 57th Ave","id":"aeuxx90dknl1","geo_precision":"street","state":"FL"},"type":"Feature","geometry":{"type":"Point","coordinates":[-80.306299,25.716728]}},{"properties":{"name":"Bay Gulf Credit Union","city":"Tampa","zip":null,"column_10":null,"column_11":null,"column_12":null,"column_8":null,"column_13":null,"geo_score":0.714,"website":"WWW.BAYGULF.COM","column_9":null,"asset size":"$146,327,916","street":null,"id":"aeuxx8sr7xqa","geo_precision":"city","state":"FL"},"type":"Feature","geometry":{"type":"Point","coordinates":[-82.582035,27.996097]}},{"properties":{"name":"Campus USA Credit Union (FL)","city":"Gainesville","zip":"32614","column_10":null,"column_11":null,"column_12":null,"column_8":null,"column_13":null,"geo_score":0.857,"website":"WWW.CAMPUSCU.COM","column_9":null,"asset size":"$1, 163,720,551","street":"P.O. Box 147029","id":"aeuxx8sf9x2l","geo_precision":"zip","state":"FL"},"type":"Feature","geometry":{"type":"Point","coordinates":[-82.353862,29.681312]}},{"properties":{"name":"Coastline Federal CU","city":"Jacksonville","zip":"32247-7410","column_10":null,"column_11":null,"column_12":null,"column_8":null,"column_13":null,"geo_score":0.39,"website":"WWW.COASTLINEFCU.ORG","column_9":null,"asset size":"$138,802,524","street":"1115 PO Box 47410","id":"aeuxx957tlfa","geo_precision":"street","state":"FL"},"type":"Feature","geometry":{"type":"Point","coordinates":[-81.785131,30.233515]}},{"properties":{"name":"Community Credit Union (FL)","city":"Rockledge","zip":"32955","column_10":null,"column_11":null,"column_12":null,"column_8":null,"column_13":null,"geo_score":0.854,"website":"www.ccuflorida.org","column_9":null,"asset size":"$340,742,774","street":"1030 S Us 1 Hwy","id":"aeuxx93glhtd","geo_precision":"range","state":"FL"},"type":"Feature","geometry":{"type":"Point","coordinates":[-80.728618,28.34424]}},{"properties":{"name":"City County CU Of Fort Lauderdale","city":"Lauderdale","zip":"33302","column_10":null,"column_11":null,"column_12":null,"column_8":null,"column_13":null,"geo_score":0.286,"website":"WWW.CITYCOUNTYCU.ORG","column_9":null,"asset size":"$279,520,665","street":"P.O. Box 14548 Ft.","id":"aeuxx96r3xcx","geo_precision":"street","state":"FL"},"type":"Feature","geometry":{"type":"Point","coordinates":[-80.214269,26.050266]}},{"properties":{"name":"Duval FCU","city":"City Jacksonville","zip":"32254","column_10":null,"column_11":null,"column_12":null,"column_8":null,"column_13":null,"geo_score":0.565,"website":"http://www.duvalfcu.org/","column_9":null,"asset size":"$55,161,140","street":"500 Mcduff Ave., South","id":"aeuxx8zz0ba7","geo_precision":"street","state":"FL"},"type":"Feature","geometry":{"type":"Point","coordinates":[-81.705548,30.329824]}},{"properties":{"name":"Credit Union 24 Inc","city":"Tallahassee","zip":"32309","column_10":null,"column_11":null,"column_12":null,"column_8":null,"column_13":null,"geo_score":0.637,"website":"http://www.cu24.com","column_9":null,"asset size":null,"street":"2252 Killearn Center Blvd. Suite 300","id":"aeuxx8zf85dj","geo_precision":"street","state":"FL"},"type":"Feature","geometry":{"type":"Point","coordinates":[-84.24445,30.512528]}},{"properties":{"name":"Ctrl FL HealthCare FCU","city":null,"zip":null,"column_10":null,"column_11":null,"column_12":null,"column_8":null,"column_13":null,"geo_score":0.0,"website":null,"column_9":null,"asset size":null,"street":null,"id":"aeuxx8v3gu25","geo_precision":"unmatched","state":"FL"},"type":"Feature","geometry":null},{"properties":{"name":"EASTERN FINANCIAL","city":"MIRAMAR","zip":"33027-322","column_10":null,"column_11":null,"column_12":null,"column_8":null,"column_13":null,"geo_score":0.902,"website":"WWW.EFFCU.COM","column_9":null,"asset size":"$1,994,537,761","street":"3700 LAKESIDE DRIVE","id":"aeuxx8w064s6","geo_precision":"range","state":"FL"},"type":"Feature","geometry":{"type":"Point","coordinates":[-80.346062,25.976007]}},{"properties":{"name":"DADE COUNTY FEDERAL CREDIT","city":"Miami","zip":"33172","column_10":null,"column_11":null,"column_12":null,"column_8":null,"column_13":null,"geo_score":0.951,"website":"WWW.DCFCU.ORG","column_9":null,"asset size":"505,578,247","street":"1500 NW 107 Avenue","id":"aeuxx8zyfpcj","geo_precision":"range","state":"FL"},"type":"Feature","geometry":{"type":"Point","coordinates":[-80.368769,25.78711]}},{"properties":{"name":"Eglin Federal CU","city":"Walton Beach","zip":"32547","column_10":null,"column_11":null,"column_12":null,"column_8":null,"column_13":null,"geo_score":0.588,"website":"WWW.EGLINFCU.ORG","column_9":null,"asset size":"$1,231,050,110","street":"9788 838 Eglin Pkwy NE 250 Fm 2821 Ft.","id":"aeuxx8uhn760","geo_precision":"street","state":"FL"},"type":"Feature","geometry":{"type":"Point","coordinates":[-86.593213,30.441231]}},{"properties":{"name":"Florida CU","city":"Gainesville","zip":null,"column_10":null,"column_11":null,"column_12":null,"column_8":null,"column_13":null,"geo_score":0.714,"website":"WWW.FLCU.ORG","column_9":null,"asset size":"$449,469,820","street":null,"id":"aeuxx9221ft0","geo_precision":"city","state":"FL"},"type":"Feature","geometry":{"type":"Point","coordinates":[-82.345739,29.68041]}},{"properties":{"name":"Velocity Community Credit Union","city":"Palm Beach Gardens","zip":null,"column_10":null,"column_11":null,"column_12":null,"column_8":null,"column_13":null,"geo_score":0.902,"website":"www.velocitycommunity.org","column_9":null,"asset size":"$234,266,201","street":"2801 PGA Boulevard","id":"aeuxx938ex93","geo_precision":"range","state":"FL"},"type":"Feature","geometry":{"type":"Point","coordinates":[-80.076394,26.84483]}},{"properties":{"name":"Florida Commerce CU","city":"TALLAHASSEE","zip":"32308","column_10":null,"column_11":null,"column_12":null,"column_8":null,"column_13":null,"geo_score":1.0,"website":"WWW.FLORIDACOMMERCE.ORG","column_9":null,"asset size":"$332,871,441","street":"2330 MAHAN DRIVE","id":"aeuxx91u8tv7","geo_precision":"range","state":"FL"},"type":"Feature","geometry":{"type":"Point","coordinates":[-84.24318,30.454564]}},{"properties":{"name":"121FCU","city":"City Jacksonville","zip":"32245","column_10":null,"column_11":null,"column_12":null,"column_8":null,"column_13":null,"geo_score":0.357,"website":"WWW.121fcu.org","column_9":null,"asset size":"$419,251,459","street":"P.O. Box 16688","id":"aeuxx8ztb61j","geo_precision":"street","state":"FL"},"type":"Feature","geometry":{"type":"Point","coordinates":[-81.783987,30.233532]}},{"properties":{"name":"Compass Financial Federal Credit Union","city":"Medley","zip":"33178","column_10":null,"column_11":null,"column_12":null,"column_8":null,"column_13":null,"geo_score":0.619,"website":null,"column_9":null,"asset size":null,"street":"9960 NW 10016th Way Suite 5","id":"aeuxx90lho9p","geo_precision":"range","state":"FL"},"type":"Feature","geometry":{"type":"Point","coordinates":[-80.205834,25.865971]}},{"properties":{"name":"First Florida Credit Union","city":"City Jacksonville","zip":"32203","column_10":null,"column_11":null,"column_12":null,"column_8":null,"column_13":null,"geo_score":0.357,"website":"WWW.FIRSTFLORIDA.ORG","column_9":null,"asset size":"$359,824,790","street":"P.O. Box 43310","id":"aeuxx91ba1gt","geo_precision":"street","state":"FL"},"type":"Feature","geometry":{"type":"Point","coordinates":[-81.783987,30.233532]}},{"properties":{"name":"GOLD COAST","city":"WEST PALM BEACH","zip":"33416-6719","column_10":null,"column_11":null,"column_12":null,"column_8":null,"column_13":null,"geo_score":0.393,"website":"GCFCU.ORG","column_9":null,"asset size":"$105,852,749","street":"PO BOX 16719","id":"aeuxx90hr5jj","geo_precision":"street","state":"FL"},"type":"Feature","geometry":{"type":"Point","coordinates":[-80.61473,26.849839]}},{"properties":{"name":"POWER FINANCIAL","city":"PEMBROKE PINES","zip":"33028","column_10":null,"column_11":null,"column_12":null,"column_8":null,"column_13":null,"geo_score":0.951,"website":"WWW.POWERFI.ORG","column_9":null,"asset size":"$519,262,701","street":"2020 NW 150 AVENUE","id":"aeuxx8y3qvoi","geo_precision":"range","state":"FL"},"type":"Feature","geometry":{"type":"Point","coordinates":[-80.347586,26.026751]}},{"properties":{"name":"FIRST CHOICE (FL)","city":"WEST PALM BEACH","zip":"33406","column_10":null,"column_11":null,"column_12":null,"column_8":null,"column_13":null,"geo_score":1.0,"website":"WWW.FIRSTCHOICECU.ORG","column_9":null,"asset size":"$145,236,466","street":"1055 S CONGRESS AVENUE","id":"aeuxx9752dqb","geo_precision":"range","state":"FL"},"type":"Feature","geometry":{"type":"Point","coordinates":[-80.088376,26.662009]}},{"properties":{"name":"FOCUS CU","city":"CHATTAHOOCHEE","zip":"32324","column_10":null,"column_11":null,"column_12":null,"column_8":null,"column_13":null,"geo_score":0.371,"website":"WWW.FOCUSCU.ORG","column_9":null,"asset size":"$113,584,258","street":"P.O. BOX 835","id":"aeuxx8sfxgom","geo_precision":"street","state":"FL"},"type":"Feature","geometry":{"type":"Point","coordinates":[-83.887078,30.45262]}},{"properties":{"name":"Innovations FCU","city":"PANAMA CITY","zip":"32406-5529","column_10":null,"column_11":null,"column_12":null,"column_8":null,"column_13":null,"geo_score":0.385,"website":"WWW.INNOVATIONSFCU.ORG","column_9":null,"asset size":"$150,371,301","street":"P O BOX 15529","id":"aeuxx95zj6ps","geo_precision":"street","state":"FL"},"type":"Feature","geometry":{"type":"Point","coordinates":[-86.096938,30.308929]}},{"properties":{"name":"Insight Credit Union","city":"ORLANDO","zip":"32802","column_10":null,"column_11":null,"column_12":null,"column_8":null,"column_13":null,"geo_score":0.403,"website":"https://insightcreditunion.com/","column_9":null,"asset size":"$436,349,160","street":"PO BOX 4900","id":"aeuxx8yovfd4","geo_precision":"street","state":"FL"},"type":"Feature","geometry":{"type":"Point","coordinates":[-81.361669,28.493923]}},{"properties":{"name":"Jacksonville Police FCU","city":"Jacksonville","zip":"32257-6109","column_10":null,"column_11":null,"column_12":null,"column_8":null,"column_13":null,"geo_score":1.0,"website":null,"column_9":null,"asset size":"72,000,000","street":"4675 Sunbeam Rd.","id":"aeuxx97ao2w4","geo_precision":"range","state":"FL"},"type":"Feature","geometry":{"type":"Point","coordinates":[-81.592463,30.206138]}},{"properties":{"name":"Jax Metro Credit Union","city":"Jacksonville","zip":null,"column_10":null,"column_11":null,"column_12":null,"column_8":null,"column_13":null,"geo_score":0.0,"website":"WWW.JAXFCU.ORG","column_9":null,"asset size":"$331,772,080","street":"340 P.O. Box 2357","id":"aeuxx8xblskz","geo_precision":"unmatched","state":"FL"},"type":"Feature","geometry":null},{"properties":{"name":"JetStream FCU","city":"MIAMI LAKES","zip":"33014","column_10":null,"column_11":null,"column_12":null,"column_8":null,"column_13":null,"geo_score":0.857,"website":"WWW.JETSTREAMFCU.ORG","column_9":null,"asset size":"$103,923,004","street":"P.O. BOX 5487","id":"aeuxx92oiz1f","geo_precision":"zip","state":"FL"},"type":"Feature","geometry":{"type":"Point","coordinates":[-80.302463,25.904128]}},{"properties":{"name":"Grow Financial Federal Credit Union","city":"Tampa","zip":"33689","column_10":null,"column_11":null,"column_12":null,"column_8":null,"column_13":null,"geo_score":0.357,"website":"WWW.growFinancial.org","column_9":null,"asset size":"$1,822,487,765","street":"9976 P.O. Box 89909","id":"aeuxx970q2aq","geo_precision":"street","state":"FL"},"type":"Feature","geometry":{"type":"Point","coordinates":[-82.584402,28.022026]}},{"properties":{"name":"SEFCU FL","city":"Jacksonville","zip":null,"column_10":null,"column_11":null,"column_12":null,"column_8":null,"column_13":null,"geo_score":0.0,"website":"www.secufl.org","column_9":null,"asset size":"$301,833,117","street":null,"id":"aeuxx91iffif","geo_precision":"unmatched","state":"FL"},"type":"Feature","geometry":null},{"properties":{"name":"Martin Federal CU","city":"Orlando","zip":"32809","column_10":null,"column_11":null,"column_12":null,"column_8":null,"column_13":null,"geo_score":1.0,"website":"WWW.MARTINFCU.ORG","column_9":null,"asset size":"$127,973,556","street":"1727 Orlando Central Parkway","id":"aeuxx8u3ubwc","geo_precision":"range","state":"FL"},"type":"Feature","geometry":{"type":"Point","coordinates":[-81.399664,28.463561]}},{"properties":{"name":"GTE Federal Credit Union","city":"Tampa","zip":null,"column_10":null,"column_11":null,"column_12":null,"column_8":null,"column_13":null,"geo_score":0.714,"website":"WWW.GTEFCU.ORG","column_9":null,"asset size":"$2,157,267,115","street":null,"id":"aeuxx9796hz2","geo_precision":"city","state":"FL"},"type":"Feature","geometry":{"type":"Point","coordinates":[-82.582035,27.996097]}},{"properties":{"name":"Gulf Winds FCU","city":"Pensacola","zip":"32534","column_10":null,"column_11":null,"column_12":null,"column_8":null,"column_13":null,"geo_score":0.602,"website":"WWW.GWFCU.ORG","column_9":null,"asset size":"$308,036,927","street":"220 E. Nine Mile Rd","id":"aeuxx9264r2h","geo_precision":"street","state":"FL"},"type":"Feature","geometry":{"type":"Point","coordinates":[-87.273812,30.533306]}},{"properties":{"name":"Harvesters FCU (FL)","city":null,"zip":null,"column_10":null,"column_11":null,"column_12":null,"column_8":null,"column_13":null,"geo_score":0.0,"website":null,"column_9":null,"asset size":null,"street":null,"id":"aeuxx94uxoil","geo_precision":"unmatched","state":"FL"},"type":"Feature","geometry":null},{"properties":{"name":"Members First of Florida","city":"PENSACOLA","zip":"32591","column_10":null,"column_11":null,"column_12":null,"column_8":null,"column_13":null,"geo_score":0.357,"website":"WWW.MEMBERSFIRSTFL.ORG","column_9":null,"asset size":"$127,785,407","street":"P. O. BOX 12983","id":"aeuxx95olm3o","geo_precision":"street","state":"FL"},"type":"Feature","geometry":{"type":"Point","coordinates":[-87.242824,30.413047]}},{"properties":{"name":"Miami Federal CU","city":"Miami","zip":null,"column_10":null,"column_11":null,"column_12":null,"column_8":null,"column_13":null,"geo_score":0.714,"website":"www.miamifcu.org","column_9":null,"asset size":"$26,413,672","street":null,"id":"aeuxx90jwt40","geo_precision":"city","state":"FL"},"type":"Feature","geometry":{"type":"Point","coordinates":[-80.193659,25.774266]}},{"properties":{"name":"IBM Southeast EFCU","city":"BOCA RATON","zip":"33431-0890","column_10":null,"column_11":null,"column_12":null,"column_8":null,"column_13":null,"geo_score":0.393,"website":"https://www.ibmsecu.org","column_9":null,"asset size":"$820,783,651","street":"P.O. BOX 5090","id":"aeuxx8vbbhj6","geo_precision":"street","state":"FL"},"type":"Feature","geometry":{"type":"Point","coordinates":[-80.05691,26.700678]}},{"properties":{"name":"South Florida Educational FCU","city":"MIAMI","zip":"33183","column_10":null,"column_11":null,"column_12":null,"column_8":null,"column_13":null,"geo_score":1.0,"website":"SFEFCU.ORG","column_9":null,"asset size":"$724,852,403","street":"7800 SW 117TH AVENUE","id":"aeuxx8sai9ur","geo_precision":"range","state":"FL"},"type":"Feature","geometry":{"type":"Point","coordinates":[-80.382111,25.696199]}},{"properties":{"name":"Southeast Corporate FCU","city":"TALLAHASSEE","zip":"32303","column_10":null,"column_11":null,"column_12":null,"column_8":null,"column_13":null,"geo_score":1.0,"website":"http://www.secorp.org","column_9":null,"asset size":null,"street":"3555 COMMONWEALTH BLVD","id":"aeuxx8upwoc3","geo_precision":"range","state":"FL"},"type":"Feature","geometry":{"type":"Point","coordinates":[-84.35688,30.475643]}},{"properties":{"name":"USF FCU","city":"TAMPA","zip":"33612","column_10":null,"column_11":null,"column_12":null,"column_8":null,"column_13":null,"geo_score":0.92,"website":"WWW.USFFCU.ORG","column_9":null,"asset size":"$333,329,132","street":"13302 USF PALM DRIVE","id":"aeuxx91uk10t","geo_precision":"range","state":"FL"},"type":"Feature","geometry":{"type":"Point","coordinates":[-82.413306,28.065664]}},{"properties":{"name":"VyStar CU (Jacksonville)","city":"Jacksonville","zip":"32232-5085","column_10":null,"column_11":null,"column_12":null,"column_8":null,"column_13":null,"geo_score":0.357,"website":"WWW.VYSTARCU.ORG","column_9":null,"asset size":"$4,755,193,144","street":"P.O. Box 45085","id":"aeuxx95qkjiq","geo_precision":"street","state":"FL"},"type":"Feature","geometry":{"type":"Point","coordinates":[-81.783987,30.233532]}},{"properties":{"name":"SunState Federal CU","city":"Gainesville","zip":null,"column_10":null,"column_11":null,"column_12":null,"column_8":null,"column_13":null,"geo_score":0.714,"website":"WWW.SUNSTATEFCU.ORG","column_9":null,"asset size":"$245,877,938","street":null,"id":"aeuxx90m2k68","geo_precision":"city","state":"FL"},"type":"Feature","geometry":{"type":"Point","coordinates":[-82.345739,29.68041]}},{"properties":{"name":"Suncoast Schools Federal Credit Union","city":"Tampa","zip":"33680","column_10":null,"column_11":null,"column_12":null,"column_8":null,"column_13":null,"geo_score":0.357,"website":"WWW.SUNCOASTFCU.ORG","column_9":null,"asset size":"$5,017,032,849","street":"P.O. Box 11904","id":"aeuxx97g9yqj","geo_precision":"street","state":"FL"},"type":"Feature","geometry":{"type":"Point","coordinates":[-82.584402,28.022026]}},{"properties":{"name":"Publix Employees FCU","city":"Lakeland","zip":"33802","column_10":null,"column_11":null,"column_12":null,"column_8":null,"column_13":null,"geo_score":0.357,"website":"WWW.PEFCU.COM","column_9":null,"asset size":"$507,170,105","street":"23020 P.O. Box 1000","id":"aeuxx93h1k0z","geo_precision":"street","state":"FL"},"type":"Feature","geometry":{"type":"Point","coordinates":[-81.573331,28.006308]}},{"properties":{"name":"Railroad &amp; Industrial FCU","city":"Tampa","zip":null,"column_10":null,"column_11":null,"column_12":null,"column_8":null,"column_13":null,"geo_score":0.714,"website":"WWW.RIFCU.ORG","column_9":null,"asset size":"$292,930,627","street":null,"id":"aeuxx8x9ounw","geo_precision":"city","state":"FL"},"type":"Feature","geometry":{"type":"Point","coordinates":[-82.582035,27.996097]}},{"properties":{"name":"Tampa Bay FCU","city":"TAMPA","zip":"33673","column_10":null,"column_11":null,"column_12":null,"column_8":null,"column_13":null,"geo_score":0.357,"website":"WWW.TAMPABAYFEDERAL.COM","column_9":null,"asset size":"$223,293,386","street":"P.O. BOX 7492","id":"aeuxx8vkcq6f","geo_precision":"street","state":"FL"},"type":"Feature","geometry":{"type":"Point","coordinates":[-82.584402,28.022026]}},{"properties":{"name":"Robins FCU (Inactive)","city":"Warner Robins","zip":"31095-6849","column_10":null,"column_11":null,"column_12":null,"column_8":null,"column_13":null,"geo_score":0.364,"website":"http://www.robinsfcu.org/","column_9":null,"asset size":"$1,283,092,113","street":"PO Box 6849","id":"aeuxx97gksr4","geo_precision":"street","state":"GA"},"type":"Feature","geometry":{"type":"Point","coordinates":[-83.872745,31.866304]}},{"properties":{"name":"Atlanta Postal","city":"Atlanta","zip":"30380-0001","column_10":null,"column_11":null,"column_12":null,"column_8":null,"column_13":null,"geo_score":0.53,"website":"WWW.APCU.COM","column_9":null,"asset size":"$1,514,956,900","street":"67389 3900 Crown Rd.","id":"aeuxx8ss3dxb","geo_precision":"street","state":"GA"},"type":"Feature","geometry":{"type":"Point","coordinates":[-84.394339,33.651342]}},{"properties":{"name":"Lockheed Georgia Employees","city":"Marietta","zip":"30061","column_10":null,"column_11":null,"column_12":null,"column_8":null,"column_13":null,"geo_score":0.857,"website":"WWW.LGEFCU.ORG","column_9":null,"asset size":"737,921,830","street":"7228 P.O. Box 1188","id":"aeuxx927jgax","geo_precision":"zip","state":"GA"},"type":"Feature","geometry":{"type":"Point","coordinates":[-84.556004,33.932842]}},{"properties":{"name":"Associated Credit Union (GA)","city":"Norcross","zip":null,"column_10":null,"column_11":null,"column_12":null,"column_8":null,"column_13":null,"geo_score":0.714,"website":"WWW.ACUONLINE.ORG","column_9":null,"asset size":"1,200,000,000.00","street":null,"id":"aeuxx8vdp2t7","geo_precision":"city","state":"GA"},"type":"Feature","geometry":{"type":"Point","coordinates":[-84.037859,33.960353]}},{"properties":{"name":"Chatham Federal CU","city":null,"zip":null,"column_10":null,"column_11":null,"column_12":null,"column_8":null,"column_13":null,"geo_score":0.0,"website":null,"column_9":null,"asset size":"$18,652,577","street":null,"id":"aeuxx94sb3me","geo_precision":"unmatched","state":"GA"},"type":"Feature","geometry":null},{"properties":{"name":"CDC Federal Credit Union","city":"Atlanta","zip":"30359-1169","column_10":null,"column_11":null,"column_12":null,"column_8":null,"column_13":null,"geo_score":0.857,"website":"CDCFCU.COM","column_9":null,"asset size":"$175,555,986","street":"P.O. Box 49169","id":"aeuxx94vzxuo","geo_precision":"zip","state":"GA"},"type":"Feature","geometry":{"type":"Point","coordinates":[-84.07456,33.891251]}},{"properties":{"name":"Delta Community Credit Union","city":"ATLANTA","zip":"30320-2541","column_10":null,"column_11":null,"column_12":null,"column_8":null,"column_13":null,"geo_score":0.857,"website":"WWW.DELTACOMMUNITYCU.COM","column_9":null,"asset size":"$4,023,014,129","street":"P.O. BOX 20541","id":"aeuxx97k394n","geo_precision":"zip","state":"GA"},"type":"Feature","geometry":{"type":"Point","coordinates":[-84.423648,33.656824]}},{"properties":{"name":"Georgia United CU","city":null,"zip":null,"column_10":null,"column_11":null,"column_12":null,"column_8":null,"column_13":null,"geo_score":0.0,"website":"WWW.GFCUONLINE.ORG","column_9":null,"asset size":"$431,336,069","street":null,"id":"aeuxx8sakq6t","geo_precision":"unmatched","state":"GA"},"type":"Feature","geometry":null},{"properties":{"name":"Georgia's Own Credit Union","city":"Atlanta","zip":"30348","column_10":null,"column_11":null,"column_12":null,"column_8":null,"column_13":null,"geo_score":0.857,"website":"WWW.GATELCO.ORG","column_9":null,"asset size":"$1,112,201,164","street":"P.O. Box 105205","id":"aeuxx93z9o5p","geo_precision":"zip","state":"GA"},"type":"Feature","geometry":{"type":"Point","coordinates":[-84.47405,33.844371]}},{"properties":{"name":"Credit Union of Georgia","city":"WOODSTOCK","zip":"30188","column_10":null,"column_11":null,"column_12":null,"column_8":null,"column_13":null,"geo_score":0.364,"website":"WWW.MACO.ORG","column_9":null,"asset size":"$191,413,062","street":"PO BOX 2148","id":"aeuxx96fkm9g","geo_precision":"street","state":"GA"},"type":"Feature","geometry":{"type":"Point","coordinates":[-84.8056,33.668322]}},{"properties":{"name":"Mid South FCU","city":null,"zip":null,"column_10":null,"column_11":null,"column_12":null,"column_8":null,"column_13":null,"geo_score":0.0,"website":"WWW.MIDSOUTHFCU.ORG","column_9":null,"asset size":"$135,672,727","street":null,"id":"aeuxx8ztwgv8","geo_precision":"unmatched","state":"GA"},"type":"Feature","geometry":null},{"properties":{"name":"The Coca-Cola Co Family FCU","city":null,"zip":null,"column_10":null,"column_11":null,"column_12":null,"column_8":null,"column_13":null,"geo_score":0.0,"website":"WWW.CREDITUNION.COCA-COLA.COM","column_9":null,"asset size":"$151,612,697","street":null,"id":"aeuxx97oacml","geo_precision":"unmatched","state":"GA"},"type":"Feature","geometry":null},{"properties":{"name":"TIC Federal CU","city":null,"zip":null,"column_10":null,"column_11":null,"column_12":null,"column_8":null,"column_13":null,"geo_score":0.0,"website":"WWW.TICFCU.COM","column_9":null,"asset size":"$214,364,971","street":null,"id":"aeuxx96pzalr","geo_precision":"unmatched","state":"GA"},"type":"Feature","geometry":null},{"properties":{"name":"Premier (NC)","city":"Greensboro","zip":"27415","column_10":null,"column_11":null,"column_12":null,"column_8":null,"column_13":null,"geo_score":0.357,"website":"WWW.PREMIERFCU.ORG","column_9":null,"asset size":"$102,816,260","street":"P.O. Box 26590","id":"aeuxx8za7jdo","geo_precision":"street","state":"NC"},"type":"Feature","geometry":{"type":"Point","coordinates":[-79.819915,36.065549]}},{"properties":{"name":"Coastal FCU","city":"Raleigh","zip":"27658-8429","column_10":null,"column_11":null,"column_12":null,"column_8":null,"column_13":null,"geo_score":0.857,"website":"WWW.COASTALFCU.ORG","column_9":null,"asset size":"$1,706,942,873","street":"18297 P.O. Box 58429","id":"aeuxx95wky3w","geo_precision":"zip","state":"NC"},"type":"Feature","geometry":{"type":"Point","coordinates":[-78.605281,35.850984]}},{"properties":{"name":"RTP","city":"Research Triangle Park","zip":"27709","column_10":null,"column_11":null,"column_12":null,"column_8":null,"column_13":null,"geo_score":0.857,"website":"www.rtpfcu.org","column_9":null,"asset size":"101,345,842","street":"18550 P.O. Box 12807","id":"aeuxx8z22hxg","geo_precision":"zip","state":"NC"},"type":"Feature","geometry":{"type":"Point","coordinates":[-78.857651,36.051155]}},{"properties":{"name":"Moutain Credit Union (NC)","city":"Waynesville","zip":null,"column_10":null,"column_11":null,"column_12":null,"column_8":null,"column_13":null,"geo_score":0.714,"website":"www.mountaincu.org","column_9":null,"asset size":"$145,202,090","street":null,"id":"aeuxx8s7rfga","geo_precision":"city","state":"NC"},"type":"Feature","geometry":{"type":"Point","coordinates":[-82.959617,35.585619]}},{"properties":{"name":"Allegacy","city":"Winston-Salem","zip":"27103","column_10":null,"column_11":null,"column_12":null,"column_8":null,"column_13":null,"geo_score":0.967,"website":"ALLEGACYFCU.ORG","column_9":null,"asset size":"$1,047,994,462","street":"1691 Westbrook Plaza Dr","id":"aeuxx8stuiwm","geo_precision":"range","state":"NC"},"type":"Feature","geometry":{"type":"Point","coordinates":[-80.315791,36.070756]}},{"properties":{"name":"Charlotte Metro Credit Union","city":"Charlotte","zip":"28204","column_10":null,"column_11":null,"column_12":null,"column_8":null,"column_13":null,"geo_score":1.0,"website":"WWW.CMCU.ORG","column_9":null,"asset size":"$281,202,600","street":"718 Central Ave","id":"aeuxx8u8q9ae","geo_precision":"range","state":"NC"},"type":"Feature","geometry":{"type":"Point","coordinates":[-80.824632,35.22114]}},{"properties":{"name":"Carolinas Telco","city":"Charlotte","zip":null,"column_10":null,"column_11":null,"column_12":null,"column_8":null,"column_13":null,"geo_score":0.714,"website":"WWW.CTELCO.ORG","column_9":null,"asset size":"$342,026,803","street":null,"id":"aeuxx931lvt1","geo_precision":"city","state":"NC"},"type":"Feature","geometry":{"type":"Point","coordinates":[-80.804151,35.26002]}},{"properties":{"name":"Fort Bragg","city":"Fayetteville","zip":"28303","column_10":null,"column_11":null,"column_12":null,"column_8":null,"column_13":null,"geo_score":1.0,"website":"WWW.FBFCU.ORG","column_9":null,"asset size":"$336,049,283","street":"1638 Skibo Rd","id":"aeuxx8vv1z12","geo_precision":"range","state":"NC"},"type":"Feature","geometry":{"type":"Point","coordinates":[-78.95755,35.078685]}},{"properties":{"name":"Freedom FCU","city":null,"zip":null,"column_10":null,"column_11":null,"column_12":null,"column_8":null,"column_13":null,"geo_score":0.0,"website":null,"column_9":null,"asset size":"$52,499,884","street":null,"id":"aeuxx8vlfj20","geo_precision":"unmatched","state":"NC"},"type":"Feature","geometry":null},{"properties":{"name":"Winston-Salem City Emps.","city":"Winston-Salem","zip":"27101","column_10":null,"column_11":null,"column_12":null,"column_8":null,"column_13":null,"geo_score":0.947,"website":"www.wscecu.org/","column_9":null,"asset size":"62,128,662","street":"711 SALEM AVENUE","id":"aeuxx90vfn8j","geo_precision":"range","state":"NC"},"type":"Feature","geometry":{"type":"Point","coordinates":[-80.236982,36.088022]}},{"properties":{"name":"Choice Community","city":null,"zip":null,"column_10":null,"column_11":null,"column_12":null,"column_8":null,"column_13":null,"geo_score":0.0,"website":null,"column_9":null,"asset size":"$46,333,189","street":null,"id":"aeuxx97e0a5b","geo_precision":"unmatched","state":"NC"},"type":"Feature","geometry":null},{"properties":{"name":"First Flight FCU","city":"Havelock","zip":null,"column_10":null,"column_11":null,"column_12":null,"column_8":null,"column_13":null,"geo_score":0.0,"website":"WWW.FIRSTFLIGHTFCU.ORG","column_9":null,"asset size":"$180,056,840","street":"7870 1208 E. Main St.","id":"aeuxx92msky8","geo_precision":"unmatched","state":"NC"},"type":"Feature","geometry":null},{"properties":{"name":"CHAMPION","city":"CANTON","zip":"28716","column_10":null,"column_11":null,"column_12":null,"column_8":null,"column_13":null,"geo_score":0.607,"website":"WWW.CHAMPIONCU.COM","column_9":null,"asset size":"$105,496,147","street":"P O BOX 1389","id":"aeuxx92fusob","geo_precision":"street","state":"NC"},"type":"Feature","geometry":{"type":"Point","coordinates":[-82.82811,35.544665]}},{"properties":{"name":"Members CU (NC)","city":"Winston-Salem","zip":"27113","column_10":null,"column_11":null,"column_12":null,"column_8":null,"column_13":null,"geo_score":0.333,"website":null,"column_9":null,"asset size":"$231,762,780","street":"P.O. Box 5297","id":"aeuxx8tmov54","geo_precision":"street","state":"NC"},"type":"Feature","geometry":{"type":"Point","coordinates":[-80.256759,36.086783]}},{"properties":{"name":"Piedmont Advantage","city":"Winston-Salem","zip":null,"column_10":null,"column_11":null,"column_12":null,"column_8":null,"column_13":null,"geo_score":0.714,"website":"WWW.PACU.COM","column_9":null,"asset size":"$227,614,205","street":null,"id":"aeuxx97a7ykp","geo_precision":"city","state":"NC"},"type":"Feature","geometry":{"type":"Point","coordinates":[-80.28762,36.101817]}},{"properties":{"name":"State Employees Credit Union (NC)","city":"Raleigh","zip":"27626-0606","column_10":null,"column_11":null,"column_12":null,"column_8":null,"column_13":null,"geo_score":0.857,"website":"http://www.ncsecu.org","column_9":null,"asset size":"$22,107,208,827","street":"PO Box 29606","id":"aeuxx8wz9dwc","geo_precision":"zip","state":"NC"},"type":"Feature","geometry":{"type":"Point","coordinates":[-78.625265,35.797692]}},{"properties":{"name":"Self-Help","city":"Durham","zip":"27702","column_10":null,"column_11":null,"column_12":null,"column_8":null,"column_13":null,"geo_score":0.857,"website":"WWW.SELF-HELP.ORG","column_9":null,"asset size":"$286,604,107","street":"P.O. Box 3619","id":"aeuxx9041vsm","geo_precision":"zip","state":"NC"},"type":"Feature","geometry":{"type":"Point","coordinates":[-78.857651,36.051155]}},{"properties":{"name":"Caribe Federal Credit Union","city":null,"zip":null,"column_10":null,"column_11":null,"column_12":null,"column_8":null,"column_13":null,"geo_score":0.0,"website":"WWW.CARIBEFEDERAL.COM","column_9":null,"asset size":"$250,165,642","street":null,"id":"aeuxx90n4vfo","geo_precision":"unmatched","state":"PR"},"type":"Feature","geometry":null},{"properties":{"name":"VAPR","city":null,"zip":null,"column_10":null,"column_11":null,"column_12":null,"column_8":null,"column_13":null,"geo_score":0.0,"website":"WWW.VAPRFCU.COM","column_9":null,"asset size":"$131,464,767","street":null,"id":"aeuxx8u8apvx","geo_precision":"unmatched","state":"PR"},"type":"Feature","geometry":null},{"properties":{"name":"CPM","city":"P.O. Box 62229","zip":"29419","column_10":null,"column_11":null,"column_12":null,"column_8":null,"column_13":null,"geo_score":0.357,"website":"WWW.CPMFED.COM","column_9":null,"asset size":"$171,876,764","street":"P.O. Box 62229","id":"aeuxx96042k6","geo_precision":"street","state":"SC"},"type":"Feature","geometry":{"type":"Point","coordinates":[-80.11484,33.089445]}},{"properties":{"name":"Family Trust FCU","city":"Rock Hill","zip":"29731","column_10":null,"column_11":null,"column_12":null,"column_8":null,"column_13":null,"geo_score":0.357,"website":"WWW.FAMILYTRUST.ORG","column_9":null,"asset size":"242,305,266.00","street":"P.O. Box Drawer 10233","id":"aeuxx941zilu","geo_precision":"street","state":"SC"},"type":"Feature","geometry":{"type":"Point","coordinates":[-81.004629,34.937725]}},{"properties":{"name":"SAFE FCU (SC)","city":"Sumter","zip":"29151","column_10":null,"column_11":null,"column_12":null,"column_8":null,"column_13":null,"geo_score":0.393,"website":"WWW.SAFEFED.ORG","column_9":null,"asset size":"$744,065,830","street":"P.O. Box 2008","id":"aeuxx92zn2sa","geo_precision":"street","state":"SC"},"type":"Feature","geometry":{"type":"Point","coordinates":[-81.598132,33.826996]}},{"properties":{"name":"AllSouth FCU","city":"COLUMBIA","zip":"29206","column_10":null,"column_11":null,"column_12":null,"column_8":null,"column_13":null,"geo_score":0.833,"website":"WWW.ALLSOUTH.ORG","column_9":null,"asset size":"$544,407,868","street":"6923 N TRENHOLM RD","id":"aeuxx90i8j5l","geo_precision":"range","state":"SC"},"type":"Feature","geometry":{"type":"Point","coordinates":[-80.956923,34.062177]}},{"properties":{"name":"Community 1 FCU (SC)","city":"Greenville","zip":null,"column_10":null,"column_11":null,"column_12":null,"column_8":null,"column_13":null,"geo_score":0.0,"website":"www.community1fcu.com","column_9":null,"asset size":"$25,326,490","street":null,"id":"aeuxx90es8y0","geo_precision":"unmatched","state":"sc"},"type":"Feature","geometry":null},{"properties":{"name":"Founders FCU","city":"St. Lancaster","zip":"29720","column_10":null,"column_11":null,"column_12":null,"column_8":null,"column_13":null,"geo_score":0.677,"website":"WWW.FOUNDERSFCU.COM","column_9":null,"asset size":"$1,333,440,765","street":"24063 607 North Main","id":"aeuxx8vm2xrd","geo_precision":"street","state":"SC"},"type":"Feature","geometry":{"type":"Point","coordinates":[-80.777509,34.734413]}},{"properties":{"name":"South Carolina FCU","city":"N CHARLESTON","zip":"294064915","column_10":null,"column_11":null,"column_12":null,"column_8":null,"column_13":null,"geo_score":0.984,"website":"WWW.SCFEDERAL.ORG","column_9":null,"asset size":"$1,320,286,001","street":"2175 CREDIT UNION LANE","id":"aeuxx8y1ffe0","geo_precision":"range","state":"SC"},"type":"Feature","geometry":{"type":"Point","coordinates":[-80.024776,32.908023]}},{"properties":{"name":"Heritage Trust FCU","city":"CHARLESTON","zip":"29423","column_10":null,"column_11":null,"column_12":null,"column_8":null,"column_13":null,"geo_score":0.385,"website":"WWW.HTFCU.ORG","column_9":null,"asset size":"$461,493,701","street":"PO BOX 118000","id":"aeuxx8wkijhl","geo_precision":"street","state":"SC"},"type":"Feature","geometry":{"type":"Point","coordinates":[-79.997327,33.201271]}},{"properties":{"name":"South Carolina Telco Federal Credit Union","city":null,"zip":null,"column_10":null,"column_11":null,"column_12":null,"column_8":null,"column_13":null,"geo_score":0.0,"website":"http://www.sctelco.com/","column_9":null,"asset size":"$215,238,200","street":null,"id":"aeuxx90py0rx","geo_precision":"unmatched","state":"SC"},"type":"Feature","geometry":null},{"properties":{"name":"SRP Federal Credit Union","city":"NORTH AUGUSTA","zip":"29861","column_10":null,"column_11":null,"column_12":null,"column_8":null,"column_13":null,"geo_score":0.371,"website":"WWW.SRPFCU.ORG","column_9":null,"asset size":"$543,354,379","street":"P.O. BOX 6730","id":"aeuxx93v1ibi","geo_precision":"street","state":"SC"},"type":"Feature","geometry":{"type":"Point","coordinates":[-81.770881,33.671057]}},{"properties":{"name":"Sharonview FCU","city":"Ft. Mill","zip":"29716","column_10":null,"column_11":null,"column_12":null,"column_8":null,"column_13":null,"geo_score":0.357,"website":"WWW.SHARONVIEW.ORG","column_9":null,"asset size":"$832,673,257","street":"P.O. Box 2070","id":"aeuxx8rub2d9","geo_precision":"street","state":"SC"},"type":"Feature","geometry":{"type":"Point","coordinates":[-81.004629,34.937725]}},{"properties":{"name":"The Tennessee Credit Union","city":"Nashville","zip":"37202-2882","column_10":null,"column_11":null,"column_12":null,"column_8":null,"column_13":null,"geo_score":0.857,"website":"WWW.TTCU.ORG","column_9":null,"asset size":"$216,702,208","street":"PO Box 22881","id":"aeuxx94ehn4r","geo_precision":"zip","state":"TN"},"type":"Feature","geometry":{"type":"Point","coordinates":[-86.827254,36.340304]}},{"properties":{"name":"FEDEX EMPLOYEES CREDIT ASSOCIATION","city":"MEMPHIS","zip":"38104","column_10":null,"column_11":null,"column_12":null,"column_8":null,"column_13":null,"geo_score":0.805,"website":"WWW.FECCA.COM","column_9":null,"asset size":"$269,294,142","street":"2124 DEMOCRAT ROAD","id":"aeuxx8wpf9qd","geo_precision":"range","state":"TN"},"type":"Feature","geometry":{"type":"Point","coordinates":[-89.990692,35.068832]}},{"properties":{"name":"ORNL Federal CU","city":"Oak Ridge","zip":null,"column_10":null,"column_11":null,"column_12":null,"column_8":null,"column_13":null,"geo_score":0.714,"website":"WWW.ORNLFCU.COM","column_9":null,"asset size":"$1,152,778,185","street":null,"id":"aeuxx8yvqibg","geo_precision":"city","state":"TN"},"type":"Feature","geometry":{"type":"Point","coordinates":[-84.689716,35.101062]}},{"properties":{"name":"Kemba Delta FCU","city":null,"zip":null,"column_10":null,"column_11":null,"column_12":null,"column_8":null,"column_13":null,"geo_score":0.0,"website":null,"column_9":null,"asset size":"$23,967,631","street":null,"id":"aeuxx97lf7zk","geo_precision":"unmatched","state":"TN"},"type":"Feature","geometry":null},{"properties":{"name":"AFG Employees CU","city":"Kingsport","zip":"37662","column_10":null,"column_11":null,"column_12":null,"column_8":null,"column_13":null,"geo_score":0.805,"website":null,"column_9":null,"asset size":null,"street":"1440 Lincoln St.","id":"aeuxx8wltfw7","geo_precision":"range","state":"TN"},"type":"Feature","geometry":{"type":"Point","coordinates":[-82.545222,36.533903]}},{"properties":{"name":"Alcoa Tenn","city":"Alcoa","zip":"37701","column_10":null,"column_11":null,"column_12":null,"column_8":null,"column_13":null,"geo_score":0.857,"website":"WWW.ATFCU.COM","column_9":null,"asset size":"$136,310,390","street":"P.O. Box 9001","id":"aeuxx914sigp","geo_precision":"zip","state":"TN"},"type":"Feature","geometry":{"type":"Point","coordinates":[-83.964071,35.792027]}},{"properties":{"name":"Consumer (TN)","city":null,"zip":null,"column_10":null,"column_11":null,"column_12":null,"column_8":null,"column_13":null,"geo_score":0.0,"website":"CONSUMERCREDITUNION.COM","column_9":null,"asset size":"$219,882,446","street":null,"id":"aeuxx92vozb6","geo_precision":"unmatched","state":"TN"},"type":"Feature","geometry":null},{"properties":{"name":"Memphis City Employees","city":"Memphis","zip":"38112","column_10":null,"column_11":null,"column_12":null,"column_8":null,"column_13":null,"geo_score":1.0,"website":"WWW.CITYOFMEMPHISCU.ORG","column_9":null,"asset size":"$240,377,654","street":"2608 Avery Avenue","id":"aeuxx93ov03e","geo_precision":"range","state":"TN"},"type":"Feature","geometry":{"type":"Point","coordinates":[-89.973436,35.130933]}},{"properties":{"name":"CORNERSTONE FINANCIAL","city":"NASHVILLE","zip":"37212","column_10":null,"column_11":null,"column_12":null,"column_8":null,"column_13":null,"geo_score":0.857,"website":"CORNERSTONEFINANCIALCU.ORG","column_9":null,"asset size":"$223,919,090","street":"PO BOX 120729","id":"aeuxx96qyn1q","geo_precision":"zip","state":"TN"},"type":"Feature","geometry":{"type":"Point","coordinates":[-87.010281,36.027284]}},{"properties":{"name":"Tennessee Teachers","city":null,"zip":null,"column_10":null,"column_11":null,"column_12":null,"column_8":null,"column_13":null,"geo_score":0.0,"website":null,"column_9":null,"asset size":null,"street":null,"id":"aeuxx95kk8nm","geo_precision":"unmatched","state":"TN"},"type":"Feature","geometry":null},{"properties":{"name":"Y-12 Federal Credit Union","city":"OAK RIDGE","zip":"37831-2512","column_10":null,"column_11":null,"column_12":null,"column_8":null,"column_13":null,"geo_score":0.286,"website":"WWW.Y12FCU.ORG","column_9":null,"asset size":"$414,636,498","street":"P. O. BOX 2512 501 LAFAYETTE DRIVE","id":"aeuxx8v29qe1","geo_precision":"street","state":"TN"},"type":"Feature","geometry":{"type":"Point","coordinates":[-83.544529,36.030529]}},{"properties":{"name":"HERITAGE SOUTH COMMUNITY CU","city":"SHELBYVILLE","zip":"37162","column_10":null,"column_11":null,"column_12":null,"column_8":null,"column_13":null,"geo_score":0.357,"website":"WWW.HERITAGESOUTH.ORG","column_9":null,"asset size":"$149,562,242","street":"P. O. BOX 1219","id":"aeuxx91q0ydh","geo_precision":"street","state":"TN"},"type":"Feature","geometry":{"type":"Point","coordinates":[-85.740222,35.583177]}},{"properties":{"name":"UNITED SOUTHEAST","city":"BRISTOL","zip":"37620","column_10":null,"column_11":null,"column_12":null,"column_8":null,"column_13":null,"geo_score":1.0,"website":"WWW.USFCU.ORG","column_9":null,"asset size":"$105,516,115","street":"1712 VOLUNTEER PARKWAY","id":"aeuxx96pkrk3","geo_precision":"range","state":"TN"},"type":"Feature","geometry":{"type":"Point","coordinates":[-82.220766,36.552203]}},{"properties":{"name":"Eastman Credit Union (Kingsport)","city":"KINGSPORT","zip":"37662","column_10":null,"column_11":null,"column_12":null,"column_8":null,"column_13":null,"geo_score":0.286,"website":"WWW.ECU.ORG","column_9":null,"asset size":"$2,505,049,393","street":"P. O. BOX 1989","id":"aeuxx8vtsl6s","geo_precision":"street","state":"TN"},"type":"Feature","geometry":{"type":"Point","coordinates":[-82.270546,36.300233]}},{"properties":{"name":"Ascend Federal Credit Union","city":"TULLAHOMA","zip":"37388","column_10":null,"column_11":null,"column_12":null,"column_8":null,"column_13":null,"geo_score":0.643,"website":"WWW.ASCENDFCU.ORG","column_9":null,"asset size":"$1,391,996,658","street":"P. O. BOX 1210","id":"aeuxx8tvvucu","geo_precision":"street","state":"TN"},"type":"Feature","geometry":{"type":"Point","coordinates":[-86.236404,35.295705]}},{"properties":{"name":"COMTRUST","city":"CHATTANOOGA","zip":"37402","column_10":null,"column_11":null,"column_12":null,"column_8":null,"column_13":null,"geo_score":1.0,"website":"WWW.COMTRUSTFCU.COM","column_9":null,"asset size":"$271,299,024","street":"1020 RIVERFRONT PARKWAY","id":"aeuxx8vvs2kb","geo_precision":"range","state":"TN"},"type":"Feature","geometry":{"type":"Point","coordinates":[-85.322303,35.047232]}},{"properties":{"name":"CHATTANOOGA AREA SCHOOLS","city":"CHATTANOOGA","zip":"37404","column_10":null,"column_11":null,"column_12":null,"column_8":null,"column_13":null,"geo_score":0.357,"website":"WWW.CASFCU.COM","column_9":null,"asset size":"$111,710,993","street":"P O BOX 3529","id":"aeuxx90xxjth","geo_precision":"street","state":"TN"},"type":"Feature","geometry":{"type":"Point","coordinates":[-85.200532,35.080261]}},{"properties":{"name":"US COMMUNITY","city":"NASHVILLE","zip":"37202","column_10":null,"column_11":null,"column_12":null,"column_8":null,"column_13":null,"geo_score":0.857,"website":"WWW.USCCU.ORG","column_9":null,"asset size":"$109,424,175","street":"PO BOX 25047","id":"aeuxx8rz4gor","geo_precision":"zip","state":"TN"},"type":"Feature","geometry":{"type":"Point","coordinates":[-86.827254,36.340304]}},{"properties":{"name":"Enrichment Federal Credit Union","city":"Ridge","zip":"37831-0883","column_10":null,"column_11":null,"column_12":null,"column_8":null,"column_13":null,"geo_score":0.357,"website":"WWW.enrichmentFCU.ORG","column_9":null,"asset size":"$291,444,730","street":"P.O. Box 883 Oak","id":"aeuxx95z6wso","geo_precision":"street","state":"TN"},"type":"Feature","geometry":{"type":"Point","coordinates":[-83.557475,35.797888]}},{"properties":{"name":"Knoxville Teachers","city":null,"zip":null,"column_10":null,"column_11":null,"column_12":null,"column_8":null,"column_13":null,"geo_score":0.0,"website":"WWW.KTFCU.ORG","column_9":null,"asset size":"$150,415,942","street":null,"id":"aeuxx8ropk7n","geo_precision":"unmatched","state":"TN"},"type":"Feature","geometry":null},{"properties":{"name":"Knoxville TVA ECU","city":"Knoxville","zip":"37901","column_10":null,"column_11":null,"column_12":null,"column_8":null,"column_13":null,"geo_score":0.857,"website":"WWW.TVACREDITUNION.COM","column_9":null,"asset size":"$548,141,119","street":"P.O. Box 15994","id":"aeuxx9774hvu","geo_precision":"zip","state":"TN"},"type":"Feature","geometry":{"type":"Point","coordinates":[-83.884804,36.032334]}},{"properties":{"name":"Leaders Credit Union","city":"Jackson","zip":null,"column_10":null,"column_11":null,"column_12":null,"column_8":null,"column_13":null,"geo_score":0.0,"website":"www.leaderscu.com","column_9":null,"asset size":"$130,168,416","street":null,"id":"aeuxx8ztf05s","geo_precision":"unmatched","state":"TN"},"type":"Feature","geometry":null},{"properties":{"name":"Orion - fka Memphis Area Teachers CU","city":null,"zip":null,"column_10":null,"column_11":null,"column_12":null,"column_8":null,"column_13":null,"geo_score":0.0,"website":"WWW.MATCU","column_9":null,"asset size":"$511,658,688","street":null,"id":"aeuxx8v69ekp","geo_precision":"unmatched","state":"TN"},"type":"Feature","geometry":null},{"properties":{"name":"First South Credit Union","city":null,"zip":null,"column_10":null,"column_11":null,"column_12":null,"column_8":null,"column_13":null,"geo_score":0.0,"website":"WWW.FIRSTSOUTH.COM","column_9":null,"asset size":"$323,541,717","street":null,"id":"aeuxx938fo39","geo_precision":"unmatched","state":"TN"},"type":"Feature","geometry":null},{"properties":{"name":"Southeast Financial","city":null,"zip":null,"column_10":null,"column_11":null,"column_12":null,"column_8":null,"column_13":null,"geo_score":0.0,"website":"WWW.SOUTHEASTFINANCIAL.ORG","column_9":null,"asset size":"$303,025,125","street":null,"id":"aeuxx94jp9ns","geo_precision":"unmatched","state":"TN"},"type":"Feature","geometry":null},{"properties":{"name":"UT Federal CU","city":null,"zip":null,"column_10":null,"column_11":null,"column_12":null,"column_8":null,"column_13":null,"geo_score":0.0,"website":"WWW.UTFCU.ORG","column_9":null,"asset size":"$144,258,926","street":null,"id":"aeuxx9779hlv","geo_precision":"unmatched","state":"TN"},"type":"Feature","geometry":null},{"properties":{"name":"OLD HICKORY EMPLOYEES","city":"OLD HICKORY","zip":"37138-0431","column_10":null,"column_11":null,"column_12":null,"column_8":null,"column_13":null,"geo_score":0.357,"website":"WWW.OHCU.ORG","column_9":null,"asset size":"$136,522,287","street":"P. O. BOX 431","id":"aeuxx920lqs5","geo_precision":"street","state":"TN"},"type":"Feature","geometry":{"type":"Point","coordinates":[-85.740222,35.583177]}},{"properties":{"name":"1st CU of Gainesville (inactive)","city":"Gainesville","zip":"32602","column_10":null,"column_11":null,"column_12":null,"column_8":null,"column_13":null,"geo_score":0.857,"website":"www.1stcu.com","column_9":null,"asset size":"$44,320,385","street":"P.O. Box 2339","id":"aeuxx8yhz5zd","geo_precision":"zip","state":"FL"},"type":"Feature","geometry":{"type":"Point","coordinates":[-82.396567,29.629887]}},{"properties":{"name":"Tennessee Valley FCU (inactive)","city":"Chattanooga","zip":"37422","column_10":null,"column_11":null,"column_12":null,"column_8":null,"column_13":null,"geo_score":0.357,"website":"WWW.TVFCU.COM","column_9":null,"asset size":"$686,689,894","street":"PO BOX 23967","id":"aeuxx92ki9wj","geo_precision":"street","state":"TN"},"type":"Feature","geometry":{"type":"Point","coordinates":[-85.200532,35.080261]}},{"properties":{"name":"eCO educators &amp; Community","city":"Bermingham","zip":null,"column_10":null,"column_11":null,"column_12":null,"column_8":null,"column_13":null,"geo_score":0.714,"website":"www.ecocu.org","column_9":null,"asset size":"$113,561,770","street":null,"id":"aeuxx917fszr","geo_precision":"city","state":"AL"},"type":"Feature","geometry":{"type":"Point","coordinates":[-86.801904,33.456412]}},{"properties":{"name":"Community CU","city":"Gadsen","zip":null,"column_10":null,"column_11":null,"column_12":null,"column_8":null,"column_13":null,"geo_score":0.0,"website":"www.netccu.com","column_9":null,"asset size":"$243,098,236","street":null,"id":"aeuxx8yyhpv2","geo_precision":"unmatched","state":"AL"},"type":"Feature","geometry":null},{"properties":{"name":"City &amp; Police","city":"Jacksonville","zip":"32257-6109","column_10":null,"column_11":null,"column_12":null,"column_8":null,"column_13":null,"geo_score":1.0,"website":"www.cityfcu.com","column_9":null,"asset size":"72,474,208","street":"4675 Sunbeam Rd","id":"aeuxx8rx54v0","geo_precision":"range","state":"FL"},"type":"Feature","geometry":{"type":"Point","coordinates":[-81.592463,30.206138]}},{"properties":{"name":"First Commerce CU","city":"Tallahassee","zip":"32314","column_10":null,"column_11":null,"column_12":null,"column_8":null,"column_13":null,"geo_score":0.371,"website":"www.floridacommercecu.org","column_9":null,"asset size":"362,000,000","street":"P.O. Box","id":"aeuxx935m5ei","geo_precision":"street","state":"FL"},"type":"Feature","geometry":{"type":"Point","coordinates":[-83.887078,30.45262]}},{"properties":{"name":"Orlando FCU","city":"Orlando","zip":"32805","column_10":null,"column_11":null,"column_12":null,"column_8":null,"column_13":null,"geo_score":0.597,"website":"www.orlandofcu.org","column_9":null,"asset size":"171,457,551","street":"1117 s. Westmoreland Dr.","id":"aeuxx8v6444z","geo_precision":"street","state":"FL"},"type":"Feature","geometry":{"type":"Point","coordinates":[-81.393166,28.541983]}},{"properties":{"name":"Doco School Employees FCU","city":null,"zip":null,"column_10":null,"column_11":null,"column_12":null,"column_8":null,"column_13":null,"geo_score":0.0,"website":null,"column_9":null,"asset size":null,"street":null,"id":"aeuxx93wfedj","geo_precision":"unmatched","state":"GA"},"type":"Feature","geometry":null},{"properties":{"name":"Augusta Metro FCU","city":"Augusta","zip":null,"column_10":null,"column_11":null,"column_12":null,"column_8":null,"column_13":null,"geo_score":0.714,"website":null,"column_9":null,"asset size":"62,000,000","street":"PO Box 213089","id":"aeuxx9458yvs","geo_precision":"city","state":"GA"},"type":"Feature","geometry":{"type":"Point","coordinates":[-81.969184,33.456687]}},{"properties":{"name":"Augusta VA FCU","city":"Augusta","zip":null,"column_10":null,"column_11":null,"column_12":null,"column_8":null,"column_13":null,"geo_score":0.488,"website":null,"column_9":null,"asset size":null,"street":"1267 Ausgusta West Parkway","id":"aeuxx8uuh2he","geo_precision":"city","state":"GA"},"type":"Feature","geometry":{"type":"Point","coordinates":[-81.969184,33.456687]}},{"properties":{"name":"Coosa Valley FCU","city":"Rome","zip":null,"column_10":null,"column_11":null,"column_12":null,"column_8":null,"column_13":null,"geo_score":0.84,"website":null,"column_9":null,"asset size":"158,459,000","street":"2010 Redmond Cir NW","id":"aeuxx92dtwqe","geo_precision":"range","state":"GA"},"type":"Feature","geometry":{"type":"Point","coordinates":[-85.224624,34.285775]}},{"properties":{"name":"LGE CCU","city":"Marietta","zip":"30061","column_10":null,"column_11":null,"column_12":null,"column_8":null,"column_13":null,"geo_score":0.857,"website":"www.lgeccu.org","column_9":null,"asset size":"879,393,113","street":"P.O. Box 1188","id":"aeuxx8zxq7z0","geo_precision":"zip","state":"GA"},"type":"Feature","geometry":{"type":"Point","coordinates":[-84.556004,33.932842]}},{"properties":{"name":"North Georgia Credit Union","city":null,"zip":null,"column_10":null,"column_11":null,"column_12":null,"column_8":null,"column_13":null,"geo_score":0.0,"website":null,"column_9":null,"asset size":null,"street":null,"id":"aeuxx8vli4wm","geo_precision":"unmatched","state":"GA"},"type":"Feature","geometry":null},{"properties":{"name":"Credit Union of Atlanta","city":null,"zip":null,"column_10":null,"column_11":null,"column_12":null,"column_8":null,"column_13":null,"geo_score":0.0,"website":null,"column_9":null,"asset size":null,"street":null,"id":"aeuxx8unmxhd","geo_precision":"unmatched","state":"GA"},"type":"Feature","geometry":null},{"properties":{"name":"Greensboro Health Care Credit Union","city":"Greensboro","zip":null,"column_10":null,"column_11":null,"column_12":null,"column_8":null,"column_13":null,"geo_score":0.482,"website":null,"column_9":null,"asset size":null,"street":"1200 N. Elm Street","id":"aeuxx917j98c","geo_precision":"street","state":"NC"},"type":"Feature","geometry":{"type":"Point","coordinates":[-79.789906,36.076996]}},{"properties":{"name":"Bowater Employees Credit Union","city":"Calhoun","zip":null,"column_10":null,"column_11":null,"column_12":null,"column_8":null,"column_13":null,"geo_score":0.573,"website":null,"column_9":null,"asset size":null,"street":"454 Highway 163","id":"aeuxx95njefd","geo_precision":"street","state":"TN"},"type":"Feature","geometry":{"type":"Point","coordinates":[-84.750976,35.297012]}}],"is_temporal":false,"author":{"url":"","metadata":"","contact_name":"","contact_address":"","source":"","contact_phone":""},"source":"","pagination":{"sort":null,"start":0,"total":164,"limit":1000000},"state":"complete","tags":"","published":"2014-08-16T20:21:15-04:00","id":365268}