{"type":"FeatureCollection","data_type":"Dataset","url_type":null,"permissions":[{"permissions":{"download":true,"view":true},"group_id":"everyone"}],"classification":null,"title":"Working","count":216,"stream_id":366542,"contributor":{"url":"http://geocommons.com/users/74787","name":"stevendosanjh"},"data_attributes":null,"calculation_params":null,"icon_link":null,"link":"http://geocommons.com/overlays/366542.json","extent":[-123.21,43.1435,-64.6354,49.9282],"geometry_types":["point"],"unique_name":null,"name":"Working","feature_count":216,"description":"","next_feature":null,"is_raster":false,"short_classification":"Y","stats":{"latitude":{"max":49.928196,"variance":7.07767858094415,"mean":45.9394475,"stdev":2.66039068201348,"min":43.143545,"median":43.833442},"order":{"max":9999,"variance":0.0,"mean":9999.0,"stdev":0.0,"min":9999,"median":9999},"longitude":{"max":-64.635362,"variance":385.057565102159,"mean":-89.5332116620371,"stdev":19.6228837101523,"min":-123.209816,"median":-79.745946},"identifying number":{"max":10927935,"variance":7511.95639534884,"mean":10927788.375,"stdev":86.6715431693058,"min":10927639,"median":10927794}},"features":[{"properties":{"delete":null,"city":"Mississauga","category":"Working","subcategory":null,"latitude":43.61293,"photo url":null,"title":"A10","directions":"FALSE","order":9999,"street1":null,"zipcode":"L4Z 3K9","photo height":null,"freeform address":"Mississauga, ON, L4Z 3K9, CA","street2":null,"country":"CA","website":null,"description":null,"photo width":null,"neighborhood":null,"photo description":null,"identifying number":10927639,"longitude":-79.659859,"link":"http://www.communitywalk.com/map/1605311#0004Y[hG","id":"aez25lt0laoh","phone number":null,"state":"ON","photo title":null},"type":"Feature","geometry":{"type":"Point","coordinates":[-79.659859,43.61293]}},{"properties":{"delete":null,"city":"Brampton","category":"Working","subcategory":null,"latitude":43.72158,"photo url":null,"title":"A11","directions":"FALSE","order":9999,"street1":null,"zipcode":"L6S 1P4","photo height":null,"freeform address":"Brampton, ON, L6S 1P4, CA","street2":null,"country":"CA","website":null,"description":null,"photo width":null,"neighborhood":null,"photo description":null,"identifying number":10927640,"longitude":-79.732451,"link":"http://www.communitywalk.com/map/1605311#0004Y[hH","id":"aez25lzyt78d","phone number":null,"state":"ON","photo title":null},"type":"Feature","geometry":{"type":"Point","coordinates":[-79.732451,43.72158]}},{"properties":{"delete":null,"city":"Toronto","category":"Working","subcategory":null,"latitude":43.776563,"photo url":null,"title":"A12","directions":"FALSE","order":9999,"street1":null,"zipcode":"M2N 6X5","photo height":null,"freeform address":"Toronto, ON, M2N 6X5, CA","street2":null,"country":"CA","website":null,"description":null,"photo width":null,"neighborhood":null,"photo description":null,"identifying number":10927641,"longitude":-79.412538,"link":"http://www.communitywalk.com/map/1605311#0004Y[hI","id":"aez25lxdrm20","phone number":null,"state":"ON","photo title":null},"type":"Feature","geometry":{"type":"Point","coordinates":[-79.412538,43.776563]}},{"properties":{"delete":null,"city":"Toronto","category":"Working","subcategory":null,"latitude":43.824341,"photo url":null,"title":"A13","directions":"FALSE","order":9999,"street1":null,"zipcode":"M1V 4R7","photo height":null,"freeform address":"Toronto, ON, M1V 4R7, CA","street2":null,"country":"CA","website":null,"description":null,"photo width":null,"neighborhood":null,"photo description":null,"identifying number":10927642,"longitude":-79.292415,"link":"http://www.communitywalk.com/map/1605311#0004Y[hJ","id":"aez25lvchec1","phone number":null,"state":"ON","photo title":null},"type":"Feature","geometry":{"type":"Point","coordinates":[-79.292415,43.824341]}},{"properties":{"delete":null,"city":"Mississauga","category":"Working","subcategory":null,"latitude":43.722142,"photo url":null,"title":"A14","directions":"FALSE","order":9999,"street1":null,"zipcode":"L4T 2V2","photo height":null,"freeform address":"Mississauga, ON, L4T 2V2, CA","street2":null,"country":"CA","website":null,"description":null,"photo width":null,"neighborhood":null,"photo description":null,"identifying number":10927643,"longitude":-79.64407,"link":"http://www.communitywalk.com/map/1605311#0004Y[hK","id":"aez25lsw5cwy","phone number":null,"state":"ON","photo title":null},"type":"Feature","geometry":{"type":"Point","coordinates":[-79.64407,43.722142]}},{"properties":{"delete":null,"city":"Oakville","category":"Working","subcategory":null,"latitude":43.419692,"photo url":null,"title":"A15","directions":"FALSE","order":9999,"street1":null,"zipcode":"L6L 4J8","photo height":null,"freeform address":"Oakville, ON, L6L 4J8, CA","street2":null,"country":"CA","website":null,"description":null,"photo width":null,"neighborhood":null,"photo description":null,"identifying number":10927644,"longitude":-79.711065,"link":"http://www.communitywalk.com/map/1605311#0004Y[hL","id":"aez25llssh42","phone number":null,"state":"ON","photo title":null},"type":"Feature","geometry":{"type":"Point","coordinates":[-79.711065,43.419692]}},{"properties":{"delete":null,"city":"Brampton","category":"Working","subcategory":null,"latitude":43.755806,"photo url":null,"title":"A16","directions":"FALSE","order":9999,"street1":null,"zipcode":"L6R 0S8","photo height":null,"freeform address":"Brampton, ON, L6R 0S8, CA","street2":null,"country":"CA","website":null,"description":null,"photo width":null,"neighborhood":null,"photo description":null,"identifying number":10927645,"longitude":-79.771879,"link":"http://www.communitywalk.com/map/1605311#0004Y[hM","id":"aez25loo2e48","phone number":null,"state":"ON","photo title":null},"type":"Feature","geometry":{"type":"Point","coordinates":[-79.771879,43.755806]}},{"properties":{"delete":null,"city":"Toronto","category":"Working","subcategory":null,"latitude":43.682766,"photo url":null,"title":"A17","directions":"FALSE","order":9999,"street1":null,"zipcode":"M4K 1X1","photo height":null,"freeform address":"Toronto, ON, M4K 1X1, CA","street2":null,"country":"CA","website":null,"description":null,"photo width":null,"neighborhood":null,"photo description":null,"identifying number":10927646,"longitude":-79.3477,"link":"http://www.communitywalk.com/map/1605311#0004Y[hN","id":"aez25lm1vb65","phone number":null,"state":"ON","photo title":null},"type":"Feature","geometry":{"type":"Point","coordinates":[-79.3477,43.682766]}},{"properties":{"delete":null,"city":"Brampton","category":"Working","subcategory":null,"latitude":43.720411,"photo url":null,"title":"A18","directions":"FALSE","order":9999,"street1":null,"zipcode":"L6S 1S5","photo height":null,"freeform address":"Brampton, ON, L6S 1S5, CA","street2":null,"country":"CA","website":null,"description":null,"photo width":null,"neighborhood":null,"photo description":null,"identifying number":10927647,"longitude":-79.727719,"link":"http://www.communitywalk.com/map/1605311#0004Y[hO","id":"aez25llvowsz","phone number":null,"state":"ON","photo title":null},"type":"Feature","geometry":{"type":"Point","coordinates":[-79.727719,43.720411]}},{"properties":{"delete":null,"city":"Burlington","category":"Working","subcategory":null,"latitude":43.32962,"photo url":null,"title":"A19","directions":"FALSE","order":9999,"street1":null,"zipcode":"L7R 1H8","photo height":null,"freeform address":"Burlington, ON, L7R 1H8, CA","street2":null,"country":"CA","website":null,"description":null,"photo width":null,"neighborhood":null,"photo description":null,"identifying number":10927648,"longitude":-79.794476,"link":"http://www.communitywalk.com/map/1605311#0004Y[hP","id":"aez25lnxami7","phone number":null,"state":"ON","photo title":null},"type":"Feature","geometry":{"type":"Point","coordinates":[-79.794476,43.32962]}},{"properties":{"delete":null,"city":"Mississauga","category":"Working","subcategory":null,"latitude":43.591635,"photo url":null,"title":"A1","directions":"FALSE","order":9999,"street1":null,"zipcode":"L5B 0G8","photo height":null,"freeform address":"Mississauga, ON, L5B 0G8, CA","street2":null,"country":"CA","website":null,"description":null,"photo width":null,"neighborhood":null,"photo description":null,"identifying number":10927649,"longitude":-79.635716,"link":"http://www.communitywalk.com/map/1605311#0004Y[hQ","id":"aez25ljx9h4u","phone number":null,"state":"ON","photo title":null},"type":"Feature","geometry":{"type":"Point","coordinates":[-79.635716,43.591635]}},{"properties":{"delete":null,"city":"Brampton","category":"Working","subcategory":null,"latitude":43.718426,"photo url":null,"title":"A2","directions":"FALSE","order":9999,"street1":null,"zipcode":"L6V 4R1","photo height":null,"freeform address":"Brampton, ON, L6V 4R1, CA","street2":null,"country":"CA","website":null,"description":null,"photo width":null,"neighborhood":null,"photo description":null,"identifying number":10927650,"longitude":-79.766448,"link":"http://www.communitywalk.com/map/1605311#0004Y[hR","id":"aez25lkh9eld","phone number":null,"state":"ON","photo title":null},"type":"Feature","geometry":{"type":"Point","coordinates":[-79.766448,43.718426]}},{"properties":{"delete":null,"city":"Toronto","category":"Working","subcategory":null,"latitude":43.833442,"photo url":null,"title":"A3","directions":"FALSE","order":9999,"street1":null,"zipcode":"M1X 2B9","photo height":null,"freeform address":"Toronto, ON, M1X 2B9, CA","street2":null,"country":"CA","website":null,"description":null,"photo width":null,"neighborhood":null,"photo description":null,"identifying number":10927651,"longitude":-79.225554,"link":"http://www.communitywalk.com/map/1605311#0004Y[hS","id":"aez25lqz83qk","phone number":null,"state":"ON","photo title":null},"type":"Feature","geometry":{"type":"Point","coordinates":[-79.225554,43.833442]}},{"properties":{"delete":null,"city":"Mississauga","category":"Working","subcategory":null,"latitude":43.619595,"photo url":null,"title":"A4","directions":"FALSE","order":9999,"street1":null,"zipcode":"L4W 3T3","photo height":null,"freeform address":"Mississauga, ON, L4W 3T3, CA","street2":null,"country":"CA","website":null,"description":null,"photo width":null,"neighborhood":null,"photo description":null,"identifying number":10927652,"longitude":-79.623892,"link":"http://www.communitywalk.com/map/1605311#0004Y[hT","id":"aez25loo5t71","phone number":null,"state":"ON","photo title":null},"type":"Feature","geometry":{"type":"Point","coordinates":[-79.623892,43.619595]}},{"properties":{"delete":null,"city":"Mississauga","category":"Working","subcategory":null,"latitude":43.546156,"photo url":null,"title":"A5","directions":"FALSE","order":9999,"street1":null,"zipcode":"L5M 6L7","photo height":null,"freeform address":"Mississauga, ON, L5M 6L7, CA","street2":null,"country":"CA","website":null,"description":null,"photo width":null,"neighborhood":null,"photo description":null,"identifying number":10927653,"longitude":-79.746121,"link":"http://www.communitywalk.com/map/1605311#0004Y[hU","id":"aez25lm9pmaq","phone number":null,"state":"ON","photo title":null},"type":"Feature","geometry":{"type":"Point","coordinates":[-79.746121,43.546156]}},{"properties":{"delete":null,"city":"Brampton","category":"Working","subcategory":null,"latitude":43.672453,"photo url":null,"title":"A6","directions":"FALSE","order":9999,"street1":null,"zipcode":"L6X 0P6","photo height":null,"freeform address":"Brampton, ON, L6X 0P6, CA","street2":null,"country":"CA","website":null,"description":null,"photo width":null,"neighborhood":null,"photo description":null,"identifying number":10927654,"longitude":-79.815842,"link":"http://www.communitywalk.com/map/1605311#0004Y[hV","id":"aez25llbks78","phone number":null,"state":"ON","photo title":null},"type":"Feature","geometry":{"type":"Point","coordinates":[-79.815842,43.672453]}},{"properties":{"delete":null,"city":"Mississauga","category":"Working","subcategory":null,"latitude":43.552431,"photo url":null,"title":"A7","directions":"FALSE","order":9999,"street1":null,"zipcode":"L5M 0B2","photo height":null,"freeform address":"Mississauga, ON, L5M 0B2, CA","street2":null,"country":"CA","website":null,"description":null,"photo width":null,"neighborhood":null,"photo description":null,"identifying number":10927655,"longitude":-79.729997,"link":"http://www.communitywalk.com/map/1605311#0004Y[hW","id":"aez25ls5cbeg","phone number":null,"state":"ON","photo title":null},"type":"Feature","geometry":{"type":"Point","coordinates":[-79.729997,43.552431]}},{"properties":{"delete":null,"city":"Markham","category":"Working","subcategory":null,"latitude":43.829727,"photo url":null,"title":"A8","directions":"FALSE","order":9999,"street1":null,"zipcode":"L3R 4Z2","photo height":null,"freeform address":"Markham, ON, L3R 4Z2, CA","street2":null,"country":"CA","website":null,"description":null,"photo width":null,"neighborhood":null,"photo description":null,"identifying number":10927656,"longitude":-79.308,"link":"http://www.communitywalk.com/map/1605311#0004Y[hX","id":"aez25lqeyspu","phone number":null,"state":"ON","photo title":null},"type":"Feature","geometry":{"type":"Point","coordinates":[-79.308,43.829727]}},{"properties":{"delete":null,"city":"Mississauga","category":"Working","subcategory":null,"latitude":43.593508,"photo url":null,"title":"A9","directions":"FALSE","order":9999,"street1":null,"zipcode":"L5V 2J4","photo height":null,"freeform address":"Mississauga, ON, L5V 2J4, CA","street2":null,"country":"CA","website":null,"description":null,"photo width":null,"neighborhood":null,"photo description":null,"identifying number":10927657,"longitude":-79.696162,"link":"http://www.communitywalk.com/map/1605311#0004Y[hY","id":"aez25lp9i4kl","phone number":null,"state":"ON","photo title":null},"type":"Feature","geometry":{"type":"Point","coordinates":[-79.696162,43.593508]}},{"properties":{"delete":null,"city":"Brampton","category":"Working","subcategory":null,"latitude":43.746775,"photo url":null,"title":"A20","directions":"FALSE","order":9999,"street1":null,"zipcode":"L6S 3W1","photo height":null,"freeform address":"Brampton, ON, L6S 3W1, CA","street2":null,"country":"CA","website":null,"description":null,"photo width":null,"neighborhood":null,"photo description":null,"identifying number":10927658,"longitude":-79.739111,"link":"http://www.communitywalk.com/map/1605311#0004Y[hZ","id":"aez25lqw5ocv","phone number":null,"state":"ON","photo title":null},"type":"Feature","geometry":{"type":"Point","coordinates":[-79.739111,43.746775]}},{"properties":{"delete":null,"city":"Oakville","category":"Working","subcategory":null,"latitude":43.440898,"photo url":null,"title":"A30","directions":"FALSE","order":9999,"street1":null,"zipcode":"L6M 2P9","photo height":null,"freeform address":"Oakville, ON, L6M 2P9, CA","street2":null,"country":"CA","website":null,"description":null,"photo width":null,"neighborhood":null,"photo description":null,"identifying number":10927659,"longitude":-79.734554,"link":"http://www.communitywalk.com/map/1605311#0004Y[h[","id":"aez25lpcut5m","phone number":null,"state":"ON","photo title":null},"type":"Feature","geometry":{"type":"Point","coordinates":[-79.734554,43.440898]}},{"properties":{"delete":null,"city":"Vaughan","category":"Working","subcategory":null,"latitude":43.776289,"photo url":null,"title":"A31","directions":"FALSE","order":9999,"street1":null,"zipcode":"L4L 9P2","photo height":null,"freeform address":"Vaughan, ON, L4L 9P2, CA","street2":null,"country":"CA","website":null,"description":null,"photo width":null,"neighborhood":null,"photo description":null,"identifying number":10927660,"longitude":-79.57246,"link":"http://www.communitywalk.com/map/1605311#0004Y[h\\","id":"aez25loberbd","phone number":null,"state":"ON","photo title":null},"type":"Feature","geometry":{"type":"Point","coordinates":[-79.57246,43.776289]}},{"properties":{"delete":null,"city":"Brampton","category":"Working","subcategory":null,"latitude":43.688258,"photo url":null,"title":"A32","directions":"FALSE","order":9999,"street1":null,"zipcode":"L6X 1N1","photo height":null,"freeform address":"Brampton, ON, L6X 1N1, CA","street2":null,"country":"CA","website":null,"description":null,"photo width":null,"neighborhood":null,"photo description":null,"identifying number":10927661,"longitude":-79.763995,"link":"http://www.communitywalk.com/map/1605311#0004Y[h]","id":"aez25lolvaf1","phone number":null,"state":"ON","photo title":null},"type":"Feature","geometry":{"type":"Point","coordinates":[-79.763995,43.688258]}},{"properties":{"delete":null,"city":"Milton","category":"Working","subcategory":null,"latitude":43.521883,"photo url":null,"title":"A33","directions":"FALSE","order":9999,"street1":null,"zipcode":"L9T 5T6","photo height":null,"freeform address":"Milton, ON, L9T 5T6, CA","street2":null,"country":"CA","website":null,"description":null,"photo width":null,"neighborhood":null,"photo description":null,"identifying number":10927662,"longitude":-79.8302,"link":"http://www.communitywalk.com/map/1605311#0004Y[h^","id":"aez25lzaupn4","phone number":null,"state":"ON","photo title":null},"type":"Feature","geometry":{"type":"Point","coordinates":[-79.8302,43.521883]}},{"properties":{"delete":null,"city":"Brampton","category":"Working","subcategory":null,"latitude":43.65405,"photo url":null,"title":"A34","directions":"FALSE","order":9999,"street1":null,"zipcode":"L6Y 4L3","photo height":null,"freeform address":"Brampton, ON, L6Y 4L3, CA","street2":null,"country":"CA","website":null,"description":null,"photo width":null,"neighborhood":null,"photo description":null,"identifying number":10927663,"longitude":-79.761366,"link":"http://www.communitywalk.com/map/1605311#0004Y[h_","id":"aez25lldsqdq","phone number":null,"state":"ON","photo title":null},"type":"Feature","geometry":{"type":"Point","coordinates":[-79.761366,43.65405]}},{"properties":{"delete":null,"city":"Toronto","category":"Working","subcategory":null,"latitude":43.753017,"photo url":null,"title":"A21","directions":"FALSE","order":9999,"street1":null,"zipcode":"M9L 1A7","photo height":null,"freeform address":"Toronto, ON, M9L 1A7, CA","street2":null,"country":"CA","website":null,"description":null,"photo width":null,"neighborhood":null,"photo description":null,"identifying number":10927669,"longitude":-79.564032,"link":"http://www.communitywalk.com/map/1605311#0004Y[he","id":"aez25ltlgcog","phone number":null,"state":"ON","photo title":null},"type":"Feature","geometry":{"type":"Point","coordinates":[-79.564032,43.753017]}},{"properties":{"delete":null,"city":"Milton","category":"Working","subcategory":null,"latitude":43.51043,"photo url":null,"title":"A22","directions":"FALSE","order":9999,"street1":null,"zipcode":"L9T 0E7","photo height":null,"freeform address":"Milton, ON, L9T 0E7, CA","street2":null,"country":"CA","website":null,"description":null,"photo width":null,"neighborhood":null,"photo description":null,"identifying number":10927670,"longitude":-79.851907,"link":"http://www.communitywalk.com/map/1605311#0004Y[hf","id":"aez25lz2mbxu","phone number":null,"state":"ON","photo title":null},"type":"Feature","geometry":{"type":"Point","coordinates":[-79.851907,43.51043]}},{"properties":{"delete":null,"city":"Brampton","category":"Working","subcategory":null,"latitude":43.698833,"photo url":null,"title":"A23","directions":"FALSE","order":9999,"street1":null,"zipcode":"L7A 3M7","photo height":null,"freeform address":"Brampton, ON, L7A 3M7, CA","street2":null,"country":"CA","website":null,"description":null,"photo width":null,"neighborhood":null,"photo description":null,"identifying number":10927671,"longitude":-79.835452,"link":"http://www.communitywalk.com/map/1605311#0004Y[hg","id":"aez25ly41dz5","phone number":null,"state":"ON","photo title":null},"type":"Feature","geometry":{"type":"Point","coordinates":[-79.835452,43.698833]}},{"properties":{"delete":null,"city":"Caledon","category":"Working","subcategory":null,"latitude":43.873504,"photo url":null,"title":"A25","directions":"FALSE","order":9999,"street1":null,"zipcode":"L7E 1P7","photo height":null,"freeform address":"Caledon, ON, L7E 1P7, CA","street2":null,"country":"CA","website":null,"description":null,"photo width":null,"neighborhood":null,"photo description":null,"identifying number":10927673,"longitude":-79.725615,"link":"http://www.communitywalk.com/map/1605311#0004Y[hi","id":"aez25lq5byil","phone number":null,"state":"ON","photo title":null},"type":"Feature","geometry":{"type":"Point","coordinates":[-79.725615,43.873504]}},{"properties":{"delete":null,"city":"Mississauga","category":"Working","subcategory":null,"latitude":43.594851,"photo url":null,"title":"A26","directions":"FALSE","order":9999,"street1":null,"zipcode":"L4Z 0A4","photo height":null,"freeform address":"Mississauga, ON, L4Z 0A4, CA","street2":null,"country":"CA","website":null,"description":null,"photo width":null,"neighborhood":null,"photo description":null,"identifying number":10927674,"longitude":-79.634245,"link":"http://www.communitywalk.com/map/1605311#0004Y[hj","id":"aez25lum4kyv","phone number":null,"state":"ON","photo title":null},"type":"Feature","geometry":{"type":"Point","coordinates":[-79.634245,43.594851]}},{"properties":{"delete":null,"city":"Mississauga","category":"Working","subcategory":null,"latitude":43.609417,"photo url":null,"title":"A27","directions":"FALSE","order":9999,"street1":null,"zipcode":"L5V 1A6","photo height":null,"freeform address":"Mississauga, ON, L5V 1A6, CA","street2":null,"country":"CA","website":null,"description":null,"photo width":null,"neighborhood":null,"photo description":null,"identifying number":10927675,"longitude":-79.706156,"link":"http://www.communitywalk.com/map/1605311#0004Y[hk","id":"aez25lxxmj2d","phone number":null,"state":"ON","photo title":null},"type":"Feature","geometry":{"type":"Point","coordinates":[-79.706156,43.609417]}},{"properties":{"delete":null,"city":"Hamilton","category":"Working","subcategory":null,"latitude":43.219495,"photo url":null,"title":"A28","directions":"FALSE","order":9999,"street1":null,"zipcode":"L8E 6G1","photo height":null,"freeform address":"Hamilton, ON, L8E 6G1, CA","street2":null,"country":"CA","website":null,"description":null,"photo width":null,"neighborhood":null,"photo description":null,"identifying number":10927676,"longitude":-79.630209,"link":"http://www.communitywalk.com/map/1605311#0004Y[hl","id":"aez25lvluqr8","phone number":null,"state":"ON","photo title":null},"type":"Feature","geometry":{"type":"Point","coordinates":[-79.630209,43.219495]}},{"properties":{"delete":null,"city":"Mississauga","category":"Working","subcategory":null,"latitude":43.641152,"photo url":null,"title":"A29","directions":"FALSE","order":9999,"street1":null,"zipcode":"L5W 0C9","photo height":null,"freeform address":"Mississauga, ON, L5W 0C9, CA","street2":null,"country":"CA","website":null,"description":null,"photo width":null,"neighborhood":null,"photo description":null,"identifying number":10927677,"longitude":-79.717201,"link":"http://www.communitywalk.com/map/1605311#0004Y[hm","id":"aez25lwvbad5","phone number":null,"state":"ON","photo title":null},"type":"Feature","geometry":{"type":"Point","coordinates":[-79.717201,43.641152]}},{"properties":{"delete":null,"city":"Toronto","category":"Working","subcategory":null,"latitude":43.706151,"photo url":null,"title":"A40","directions":"FALSE","order":9999,"street1":null,"zipcode":"M4S 0A1","photo height":null,"freeform address":"Toronto, ON, M4S 0A1, CA","street2":null,"country":"CA","website":null,"description":null,"photo width":null,"neighborhood":null,"photo description":null,"identifying number":10927678,"longitude":-79.393276,"link":"http://www.communitywalk.com/map/1605311#0004Y[hn","id":"aez25lqffusw","phone number":null,"state":"ON","photo title":null},"type":"Feature","geometry":{"type":"Point","coordinates":[-79.393276,43.706151]}},{"properties":{"delete":null,"city":"Brampton","category":"Working","subcategory":null,"latitude":43.70573,"photo url":null,"title":"A60","directions":"FALSE","order":9999,"street1":null,"zipcode":"L7A 2L1","photo height":null,"freeform address":"Brampton, ON, L7A 2L1, CA","street2":null,"country":"CA","website":null,"description":null,"photo width":null,"neighborhood":null,"photo description":null,"identifying number":10927679,"longitude":-79.833001,"link":"http://www.communitywalk.com/map/1605311#0004Y[ho","id":"aez25ll5pqnv","phone number":null,"state":"ON","photo title":null},"type":"Feature","geometry":{"type":"Point","coordinates":[-79.833001,43.70573]}},{"properties":{"delete":null,"city":"Toronto","category":"Working","subcategory":null,"latitude":43.780675,"photo url":null,"title":"A54","directions":"FALSE","order":9999,"street1":null,"zipcode":"M1H 3H8","photo height":null,"freeform address":"Toronto, ON, M1H 3H8, CA","street2":null,"country":"CA","website":null,"description":null,"photo width":null,"neighborhood":null,"photo description":null,"identifying number":10927684,"longitude":-79.248022,"link":"http://www.communitywalk.com/map/1605311#0004Y[i4","id":"aez25lmsh6tj","phone number":null,"state":"ON","photo title":null},"type":"Feature","geometry":{"type":"Point","coordinates":[-79.248022,43.780675]}},{"properties":{"delete":null,"city":"Brampton","category":"Working","subcategory":null,"latitude":43.720913,"photo url":null,"title":"A55","directions":"FALSE","order":9999,"street1":null,"zipcode":"L6T 3X5","photo height":null,"freeform address":"Brampton, ON, L6T 3X5, CA","street2":null,"country":"CA","website":null,"description":null,"photo width":null,"neighborhood":null,"photo description":null,"identifying number":10927685,"longitude":-79.715273,"link":"http://www.communitywalk.com/map/1605311#0004Y[i5","id":"aez25ljmtieg","phone number":null,"state":"ON","photo title":null},"type":"Feature","geometry":{"type":"Point","coordinates":[-79.715273,43.720913]}},{"properties":{"delete":null,"city":"Toronto","category":"Working","subcategory":null,"latitude":43.836164,"photo url":null,"title":"A57","directions":"FALSE","order":9999,"street1":null,"zipcode":"M1X 2B5","photo height":null,"freeform address":"Toronto, ON, M1X 2B5, CA","street2":null,"country":"CA","website":null,"description":null,"photo width":null,"neighborhood":null,"photo description":null,"identifying number":10927687,"longitude":-79.224673,"link":"http://www.communitywalk.com/map/1605311#0004Y[i7","id":"aez25lvbbkq0","phone number":null,"state":"ON","photo title":null},"type":"Feature","geometry":{"type":"Point","coordinates":[-79.224673,43.836164]}},{"properties":{"delete":null,"city":"Mississauga","category":"Working","subcategory":null,"latitude":43.589032,"photo url":null,"title":"A58","directions":"FALSE","order":9999,"street1":null,"zipcode":"L5M 3Y3","photo height":null,"freeform address":"Mississauga, ON, L5M 3Y3, CA","street2":null,"country":"CA","website":null,"description":null,"photo width":null,"neighborhood":null,"photo description":null,"identifying number":10927688,"longitude":-79.701686,"link":"http://www.communitywalk.com/map/1605311#0004Y[i8","id":"aez25lop9s67","phone number":null,"state":"ON","photo title":null},"type":"Feature","geometry":{"type":"Point","coordinates":[-79.701686,43.589032]}},{"properties":{"delete":null,"city":"Toronto","category":"Working","subcategory":null,"latitude":43.686425,"photo url":null,"title":"A41","directions":"FALSE","order":9999,"street1":null,"zipcode":"M5P 1R1","photo height":null,"freeform address":"Toronto, ON, M5P 1R1, CA","street2":null,"country":"CA","website":null,"description":null,"photo width":null,"neighborhood":null,"photo description":null,"identifying number":10927690,"longitude":-79.418431,"link":"http://www.communitywalk.com/map/1605311#0004Y[i:","id":"aez25lx9lw7l","phone number":null,"state":"ON","photo title":null},"type":"Feature","geometry":{"type":"Point","coordinates":[-79.418431,43.686425]}},{"properties":{"delete":null,"city":"Mississauga","category":"Working","subcategory":null,"latitude":43.628879,"photo url":null,"title":"A42","directions":"FALSE","order":9999,"street1":null,"zipcode":"L5W 1E1","photo height":null,"freeform address":"Mississauga, ON, L5W 1E1, CA","street2":null,"country":"CA","website":null,"description":null,"photo width":null,"neighborhood":null,"photo description":null,"identifying number":10927691,"longitude":-79.717727,"link":"http://www.communitywalk.com/map/1605311#0004Y[i;","id":"aez25lvfbklb","phone number":null,"state":"ON","photo title":null},"type":"Feature","geometry":{"type":"Point","coordinates":[-79.717727,43.628879]}},{"properties":{"delete":null,"city":"Brampton","category":"Working","subcategory":null,"latitude":43.726263,"photo url":null,"title":"A44","directions":"FALSE","order":9999,"street1":null,"zipcode":"L6S 4Y3","photo height":null,"freeform address":"Brampton, ON, L6S 4Y3, CA","street2":null,"country":"CA","website":null,"description":null,"photo width":null,"neighborhood":null,"photo description":null,"identifying number":10927693,"longitude":-79.758037,"link":"http://www.communitywalk.com/map/1605311#0004Y[i=","id":"aez25lxyyl2c","phone number":null,"state":"ON","photo title":null},"type":"Feature","geometry":{"type":"Point","coordinates":[-79.758037,43.726263]}},{"properties":{"delete":null,"city":"Toronto","category":"Working","subcategory":null,"latitude":43.708159,"photo url":null,"title":"A46","directions":"FALSE","order":9999,"street1":null,"zipcode":"M4R 1C6","photo height":null,"freeform address":"Toronto, ON, M4R 1C6, CA","street2":null,"country":"CA","website":null,"description":null,"photo width":null,"neighborhood":null,"photo description":null,"identifying number":10927695,"longitude":-79.402072,"link":"http://www.communitywalk.com/map/1605311#0004Y[ip","id":"aez25lv1gjwf","phone number":null,"state":"ON","photo title":null},"type":"Feature","geometry":{"type":"Point","coordinates":[-79.402072,43.708159]}},{"properties":{"delete":null,"city":null,"category":"Working","subcategory":null,"latitude":43.143545,"photo url":null,"title":"A48","directions":"FALSE","order":9999,"street1":null,"zipcode":"L0R 1W0","photo height":null,"freeform address":"ON, L0R 1W0, CA","street2":null,"country":"CA","website":null,"description":null,"photo width":null,"neighborhood":null,"photo description":null,"identifying number":10927697,"longitude":-79.908076,"link":"http://www.communitywalk.com/map/1605311#0004Y[iA","id":"aez25lnbn044","phone number":null,"state":"ON","photo title":null},"type":"Feature","geometry":{"type":"Point","coordinates":[-79.908076,43.143545]}},{"properties":{"delete":null,"city":"Toronto","category":"Working","subcategory":null,"latitude":43.683355,"photo url":null,"title":"A49","directions":"FALSE","order":9999,"street1":null,"zipcode":"M9R 3L6","photo height":null,"freeform address":"Toronto, ON, M9R 3L6, CA","street2":null,"country":"CA","website":null,"description":null,"photo width":null,"neighborhood":null,"photo description":null,"identifying number":10927698,"longitude":-79.563681,"link":"http://www.communitywalk.com/map/1605311#0004Y[iB","id":"aez25lwb4bkc","phone number":null,"state":"ON","photo title":null},"type":"Feature","geometry":{"type":"Point","coordinates":[-79.563681,43.683355]}},{"properties":{"delete":null,"city":"Brampton","category":"Working","subcategory":null,"latitude":43.706135,"photo url":null,"title":"A61","directions":"FALSE","order":9999,"street1":null,"zipcode":"L7A 2L5","photo height":null,"freeform address":"Brampton, ON, L7A 2L5, CA","street2":null,"country":"CA","website":null,"description":null,"photo width":null,"neighborhood":null,"photo description":null,"identifying number":10927699,"longitude":-79.8309,"link":"http://www.communitywalk.com/map/1605311#0004Y[iC","id":"aez25lo9wnyt","phone number":null,"state":"ON","photo title":null},"type":"Feature","geometry":{"type":"Point","coordinates":[-79.8309,43.706135]}},{"properties":{"delete":null,"city":"Milton","category":"Working","subcategory":null,"latitude":43.490822,"photo url":null,"title":"A62","directions":"FALSE","order":9999,"street1":null,"zipcode":"L9T 0R2","photo height":null,"freeform address":"Milton, ON, L9T 0R2, CA","street2":null,"country":"CA","website":null,"description":null,"photo width":null,"neighborhood":null,"photo description":null,"identifying number":10927700,"longitude":-79.880783,"link":"http://www.communitywalk.com/map/1605311#0004Y[iD","id":"aez25lt3vpsc","phone number":null,"state":"ON","photo title":null},"type":"Feature","geometry":{"type":"Point","coordinates":[-79.880783,43.490822]}},{"properties":{"delete":null,"city":"Brampton","category":"Working","subcategory":null,"latitude":43.660387,"photo url":null,"title":"A63","directions":"FALSE","order":9999,"street1":null,"zipcode":"L6Y 2S3","photo height":null,"freeform address":"Brampton, ON, L6Y 2S3, CA","street2":null,"country":"CA","website":null,"description":null,"photo width":null,"neighborhood":null,"photo description":null,"identifying number":10927701,"longitude":-79.751028,"link":"http://www.communitywalk.com/map/1605311#0004Y[iE","id":"aez25lngo1fi","phone number":null,"state":"ON","photo title":null},"type":"Feature","geometry":{"type":"Point","coordinates":[-79.751028,43.660387]}},{"properties":{"delete":null,"city":"Mississauga","category":"Working","subcategory":null,"latitude":43.617733,"photo url":null,"title":"A64","directions":"FALSE","order":9999,"street1":null,"zipcode":"L5V 2S7","photo height":null,"freeform address":"Mississauga, ON, L5V 2S7, CA","street2":null,"country":"CA","website":null,"description":null,"photo width":null,"neighborhood":null,"photo description":null,"identifying number":10927702,"longitude":-79.706156,"link":"http://www.communitywalk.com/map/1605311#0004Y[iF","id":"aez25loq4mi1","phone number":null,"state":"ON","photo title":null},"type":"Feature","geometry":{"type":"Point","coordinates":[-79.706156,43.617733]}},{"properties":{"delete":null,"city":"Toronto","category":"Working","subcategory":null,"latitude":43.75442,"photo url":null,"title":"A66","directions":"FALSE","order":9999,"street1":null,"zipcode":"M9V 5A5","photo height":null,"freeform address":"Toronto, ON, M9V 5A5, CA","street2":null,"country":"CA","website":null,"description":null,"photo width":null,"neighborhood":null,"photo description":null,"identifying number":10927704,"longitude":-79.605113,"link":"http://www.communitywalk.com/map/1605311#0004Y[iH","id":"aez25lnvd7ml","phone number":null,"state":"ON","photo title":null},"type":"Feature","geometry":{"type":"Point","coordinates":[-79.605113,43.75442]}},{"properties":{"delete":null,"city":"Toronto","category":"Working","subcategory":null,"latitude":43.71125,"photo url":null,"title":"A68","directions":"FALSE","order":9999,"street1":null,"zipcode":"M6B 3T6","photo height":null,"freeform address":"Toronto, ON, M6B 3T6, CA","street2":null,"country":"CA","website":null,"description":null,"photo width":null,"neighborhood":null,"photo description":null,"identifying number":10927706,"longitude":-79.455094,"link":"http://www.communitywalk.com/map/1605311#0004Y[iJ","id":"aez25lww55g4","phone number":null,"state":"ON","photo title":null},"type":"Feature","geometry":{"type":"Point","coordinates":[-79.455094,43.71125]}},{"properties":{"delete":null,"city":"Toronto","category":"Working","subcategory":null,"latitude":43.703128,"photo url":null,"title":"A69","directions":"FALSE","order":9999,"street1":null,"zipcode":"M9N 1Y2","photo height":null,"freeform address":"Toronto, ON, M9N 1Y2, CA","street2":null,"country":"CA","website":null,"description":null,"photo width":null,"neighborhood":null,"photo description":null,"identifying number":10927707,"longitude":-79.526533,"link":"http://www.communitywalk.com/map/1605311#0004Y[iK","id":"aez25lo9eqpk","phone number":null,"state":"ON","photo title":null},"type":"Feature","geometry":{"type":"Point","coordinates":[-79.526533,43.703128]}},{"properties":{"delete":null,"city":"Markham","category":"Working","subcategory":null,"latitude":43.841538,"photo url":null,"title":"A80","directions":"FALSE","order":9999,"street1":null,"zipcode":"L3T 7Y6","photo height":null,"freeform address":"Markham, ON, L3T 7Y6, CA","street2":null,"country":"CA","website":null,"description":null,"photo width":null,"neighborhood":null,"photo description":null,"identifying number":10927708,"longitude":-79.392837,"link":"http://www.communitywalk.com/map/1605311#0004Y[iL","id":"aez25lmieqpq","phone number":null,"state":"ON","photo title":null},"type":"Feature","geometry":{"type":"Point","coordinates":[-79.392837,43.841538]}},{"properties":{"delete":null,"city":"Mississauga","category":"Working","subcategory":null,"latitude":43.59325,"photo url":null,"title":"A72","directions":"FALSE","order":9999,"street1":null,"zipcode":"L5A 3X8","photo height":null,"freeform address":"Mississauga, ON, L5A 3X8, CA","street2":null,"country":"CA","website":null,"description":null,"photo width":null,"neighborhood":null,"photo description":null,"identifying number":10927711,"longitude":-79.628103,"link":"http://www.communitywalk.com/map/1605311#0004Y[iO","id":"aez25lu1k8xa","phone number":null,"state":"ON","photo title":null},"type":"Feature","geometry":{"type":"Point","coordinates":[-79.628103,43.59325]}},{"properties":{"delete":null,"city":"Mississauga","category":"Working","subcategory":null,"latitude":43.594368,"photo url":null,"title":"A74","directions":"FALSE","order":9999,"street1":null,"zipcode":"L5R 1P8","photo height":null,"freeform address":"Mississauga, ON, L5R 1P8, CA","street2":null,"country":"CA","website":null,"description":null,"photo width":null,"neighborhood":null,"photo description":null,"identifying number":10927713,"longitude":-79.653368,"link":"http://www.communitywalk.com/map/1605311#0004Y[iQ","id":"aez25lqamz7b","phone number":null,"state":"ON","photo title":null},"type":"Feature","geometry":{"type":"Point","coordinates":[-79.653368,43.594368]}},{"properties":{"delete":null,"city":"Mississauga","category":"Working","subcategory":null,"latitude":43.537823,"photo url":null,"title":"A77","directions":"FALSE","order":9999,"street1":null,"zipcode":"L5L 3W9","photo height":null,"freeform address":"Mississauga, ON, L5L 3W9, CA","street2":null,"country":"CA","website":null,"description":null,"photo width":null,"neighborhood":null,"photo description":null,"identifying number":10927716,"longitude":-79.703351,"link":"http://www.communitywalk.com/map/1605311#0004Y[iT","id":"aez25lo9fwqq","phone number":null,"state":"ON","photo title":null},"type":"Feature","geometry":{"type":"Point","coordinates":[-79.703351,43.537823]}},{"properties":{"delete":null,"city":"Brampton","category":"Working","subcategory":null,"latitude":43.747809,"photo url":null,"title":"A78","directions":"FALSE","order":9999,"street1":null,"zipcode":"L6R 2M9","photo height":null,"freeform address":"Brampton, ON, L6R 2M9, CA","street2":null,"country":"CA","website":null,"description":null,"photo width":null,"neighborhood":null,"photo description":null,"identifying number":10927717,"longitude":-79.753832,"link":"http://www.communitywalk.com/map/1605311#0004Y[iU","id":"aez25lroje2x","phone number":null,"state":"ON","photo title":null},"type":"Feature","geometry":{"type":"Point","coordinates":[-79.753832,43.747809]}},{"properties":{"delete":null,"city":"Hamilton","category":"Working","subcategory":null,"latitude":43.27336,"photo url":null,"title":"A79","directions":"FALSE","order":9999,"street1":null,"zipcode":"L9H 6N7","photo height":null,"freeform address":"Hamilton, ON, L9H 6N7, CA","street2":null,"country":"CA","website":null,"description":null,"photo width":null,"neighborhood":null,"photo description":null,"identifying number":10927718,"longitude":-79.948124,"link":"http://www.communitywalk.com/map/1605311#0004Y[iV","id":"aez25lt6tg0o","phone number":null,"state":"ON","photo title":null},"type":"Feature","geometry":{"type":"Point","coordinates":[-79.948124,43.27336]}},{"properties":{"delete":null,"city":"Mississauga","category":"Working","subcategory":null,"latitude":43.551352,"photo url":null,"title":"A88","directions":"FALSE","order":9999,"street1":null,"zipcode":"L5M 7G3","photo height":null,"freeform address":"Mississauga, ON, L5M 7G3, CA","street2":null,"country":"CA","website":null,"description":null,"photo width":null,"neighborhood":null,"photo description":null,"identifying number":10927726,"longitude":-79.744369,"link":"http://www.communitywalk.com/map/1605311#0004Y[i^","id":"aez25ltyewj8","phone number":null,"state":"ON","photo title":null},"type":"Feature","geometry":{"type":"Point","coordinates":[-79.744369,43.551352]}},{"properties":{"delete":null,"city":"Mississauga","category":"Working","subcategory":null,"latitude":43.61541,"photo url":null,"title":"A90","directions":"FALSE","order":9999,"street1":null,"zipcode":"L5V 2G6","photo height":null,"freeform address":"Mississauga, ON, L5V 2G6, CA","street2":null,"country":"CA","website":null,"description":null,"photo width":null,"neighborhood":null,"photo description":null,"identifying number":10927728,"longitude":-79.710013,"link":"http://www.communitywalk.com/map/1605311#0004Y[i`","id":"aez25lq3o0u2","phone number":null,"state":"ON","photo title":null},"type":"Feature","geometry":{"type":"Point","coordinates":[-79.710013,43.61541]}},{"properties":{"delete":null,"city":"Mississauga","category":"Working","subcategory":null,"latitude":43.541248,"photo url":null,"title":"A100","directions":"FALSE","order":9999,"street1":null,"zipcode":"L5M 7L6","photo height":null,"freeform address":"Mississauga, ON, L5M 7L6, CA","street2":null,"country":"CA","website":null,"description":null,"photo width":null,"neighborhood":null,"photo description":null,"identifying number":10927729,"longitude":-79.724739,"link":"http://www.communitywalk.com/map/1605311#0004Y[ia","id":"aez25lr90pri","phone number":null,"state":"ON","photo title":null},"type":"Feature","geometry":{"type":"Point","coordinates":[-79.724739,43.541248]}},{"properties":{"delete":null,"city":"Milton","category":"Working","subcategory":null,"latitude":43.531649,"photo url":null,"title":"A91","directions":"FALSE","order":9999,"street1":null,"zipcode":"L9T 7S4","photo height":null,"freeform address":"Milton, ON, L9T 7S4, CA","street2":null,"country":"CA","website":null,"description":null,"photo width":null,"neighborhood":null,"photo description":null,"identifying number":10927730,"longitude":-79.861818,"link":"http://www.communitywalk.com/map/1605311#0004Y[ib","id":"aez25lnmca5j","phone number":null,"state":"ON","photo title":null},"type":"Feature","geometry":{"type":"Point","coordinates":[-79.861818,43.531649]}},{"properties":{"delete":null,"city":"Mississauga","category":"Working","subcategory":null,"latitude":43.620568,"photo url":null,"title":"A92","directions":"FALSE","order":9999,"street1":null,"zipcode":"L4Z 3Y7","photo height":null,"freeform address":"Mississauga, ON, L4Z 3Y7, CA","street2":null,"country":"CA","website":null,"description":null,"photo width":null,"neighborhood":null,"photo description":null,"identifying number":10927731,"longitude":-79.642667,"link":"http://www.communitywalk.com/map/1605311#0004Y[ic","id":"aez25lxgwkka","phone number":null,"state":"ON","photo title":null},"type":"Feature","geometry":{"type":"Point","coordinates":[-79.642667,43.620568]}},{"properties":{"delete":null,"city":"Toronto","category":"Working","subcategory":null,"latitude":43.647794,"photo url":null,"title":"A93","directions":"FALSE","order":9999,"street1":null,"zipcode":"M9A 3J9","photo height":null,"freeform address":"Toronto, ON, M9A 3J9, CA","street2":null,"country":"CA","website":null,"description":null,"photo width":null,"neighborhood":null,"photo description":null,"identifying number":10927732,"longitude":-79.525391,"link":"http://www.communitywalk.com/map/1605311#0004Y[id","id":"aez25ll0yl23","phone number":null,"state":"ON","photo title":null},"type":"Feature","geometry":{"type":"Point","coordinates":[-79.525391,43.647794]}},{"properties":{"delete":null,"city":"Mississauga","category":"Working","subcategory":null,"latitude":43.58989,"photo url":null,"title":"A94","directions":"FALSE","order":9999,"street1":null,"zipcode":"L5A 3S2","photo height":null,"freeform address":"Mississauga, ON, L5A 3S2, CA","street2":null,"country":"CA","website":null,"description":null,"photo width":null,"neighborhood":null,"photo description":null,"identifying number":10927733,"longitude":-79.625471,"link":"http://www.communitywalk.com/map/1605311#0004Y[ie","id":"aez25lm5sui8","phone number":null,"state":"ON","photo title":null},"type":"Feature","geometry":{"type":"Point","coordinates":[-79.625471,43.58989]}},{"properties":{"delete":null,"city":"Brampton","category":"Working","subcategory":null,"latitude":43.760844,"photo url":null,"title":"A95","directions":"FALSE","order":9999,"street1":null,"zipcode":"L6R 0P6","photo height":null,"freeform address":"Brampton, ON, L6R 0P6, CA","street2":null,"country":"CA","website":null,"description":null,"photo width":null,"neighborhood":null,"photo description":null,"identifying number":10927734,"longitude":-79.762067,"link":"http://www.communitywalk.com/map/1605311#0004Y[if","id":"aez25lnz5ulu","phone number":null,"state":"ON","photo title":null},"type":"Feature","geometry":{"type":"Point","coordinates":[-79.762067,43.760844]}},{"properties":{"delete":null,"city":"Markham","category":"Working","subcategory":null,"latitude":43.843014,"photo url":null,"title":"A97","directions":"FALSE","order":9999,"street1":null,"zipcode":"L3S 2S9","photo height":null,"freeform address":"Markham, ON, L3S 2S9, CA","street2":null,"country":"CA","website":null,"description":null,"photo width":null,"neighborhood":null,"photo description":null,"identifying number":10927736,"longitude":-79.276651,"link":"http://www.communitywalk.com/map/1605311#0004Y[ih","id":"aez25lzfgvdm","phone number":null,"state":"ON","photo title":null},"type":"Feature","geometry":{"type":"Point","coordinates":[-79.276651,43.843014]}},{"properties":{"delete":null,"city":"Brampton","category":"Working","subcategory":null,"latitude":43.715962,"photo url":null,"title":"A99","directions":"FALSE","order":9999,"street1":null,"zipcode":"L6Z 3M3","photo height":null,"freeform address":"Brampton, ON, L6Z 3M3, CA","street2":null,"country":"CA","website":null,"description":null,"photo width":null,"neighborhood":null,"photo description":null,"identifying number":10927738,"longitude":-79.785981,"link":"http://www.communitywalk.com/map/1605311#0004Y[ij","id":"aez25lnrlgbx","phone number":null,"state":"ON","photo title":null},"type":"Feature","geometry":{"type":"Point","coordinates":[-79.785981,43.715962]}},{"properties":{"delete":null,"city":"Mississauga","category":"Working","subcategory":null,"latitude":43.591053,"photo url":null,"title":"A101","directions":"FALSE","order":9999,"street1":null,"zipcode":"L5N 8J2","photo height":null,"freeform address":"Mississauga, ON, L5N 8J2, CA","street2":null,"country":"CA","website":null,"description":null,"photo width":null,"neighborhood":null,"photo description":null,"identifying number":10927739,"longitude":-79.785718,"link":"http://www.communitywalk.com/map/1605311#0004Y[ik","id":"aez25lr5ukpm","phone number":null,"state":"ON","photo title":null},"type":"Feature","geometry":{"type":"Point","coordinates":[-79.785718,43.591053]}},{"properties":{"delete":null,"city":"Mississauga","category":"Working","subcategory":null,"latitude":43.580031,"photo url":null,"title":"A103","directions":"FALSE","order":9999,"street1":null,"zipcode":"L5N 7G8","photo height":null,"freeform address":"Mississauga, ON, L5N 7G8, CA","street2":null,"country":"CA","website":null,"description":null,"photo width":null,"neighborhood":null,"photo description":null,"identifying number":10927741,"longitude":-79.783791,"link":"http://www.communitywalk.com/map/1605311#0004Y[im","id":"aez25llamsg6","phone number":null,"state":"ON","photo title":null},"type":"Feature","geometry":{"type":"Point","coordinates":[-79.783791,43.580031]}},{"properties":{"delete":null,"city":"Vaughan","category":"Working","subcategory":null,"latitude":43.854205,"photo url":null,"title":"A104","directions":"FALSE","order":9999,"street1":null,"zipcode":"L4H 0W1","photo height":null,"freeform address":"Vaughan, ON, L4H 0W1, CA","street2":null,"country":"CA","website":null,"description":null,"photo width":null,"neighborhood":null,"photo description":null,"identifying number":10927742,"longitude":-79.564383,"link":"http://www.communitywalk.com/map/1605311#0004Y[in","id":"aez25lvo9ulp","phone number":null,"state":"ON","photo title":null},"type":"Feature","geometry":{"type":"Point","coordinates":[-79.564383,43.854205]}},{"properties":{"delete":null,"city":"Brampton","category":"Working","subcategory":null,"latitude":43.715754,"photo url":null,"title":"A107","directions":"FALSE","order":9999,"street1":null,"zipcode":"L6T 3J7","photo height":null,"freeform address":"Brampton, ON, L6T 3J7, CA","street2":null,"country":"CA","website":null,"description":null,"photo width":null,"neighborhood":null,"photo description":null,"identifying number":10927745,"longitude":-79.691077,"link":"http://www.communitywalk.com/map/1605311#0004Y[j1","id":"aez25ltvct21","phone number":null,"state":"ON","photo title":null},"type":"Feature","geometry":{"type":"Point","coordinates":[-79.691077,43.715754]}},{"properties":{"delete":null,"city":"Brampton","category":"Working","subcategory":null,"latitude":43.776661,"photo url":null,"title":"A108","directions":"FALSE","order":9999,"street1":null,"zipcode":"L6R 0K9","photo height":null,"freeform address":"Brampton, ON, L6R 0K9, CA","street2":null,"country":"CA","website":null,"description":null,"photo width":null,"neighborhood":null,"photo description":null,"identifying number":10927746,"longitude":-79.755234,"link":"http://www.communitywalk.com/map/1605311#0004Y[j2","id":"aez25lv2ofza","phone number":null,"state":"ON","photo title":null},"type":"Feature","geometry":{"type":"Point","coordinates":[-79.755234,43.776661]}},{"properties":{"delete":null,"city":"Milton","category":"Working","subcategory":null,"latitude":43.522314,"photo url":null,"title":"A109","directions":"FALSE","order":9999,"street1":null,"zipcode":"L9T 0H6","photo height":null,"freeform address":"Milton, ON, L9T 0H6, CA","street2":null,"country":"CA","website":null,"description":null,"photo width":null,"neighborhood":null,"photo description":null,"identifying number":10927747,"longitude":-79.84333,"link":"http://www.communitywalk.com/map/1605311#0004Y[j3","id":"aez25lnrvwca","phone number":null,"state":"ON","photo title":null},"type":"Feature","geometry":{"type":"Point","coordinates":[-79.84333,43.522314]}},{"properties":{"delete":null,"city":"Brampton","category":"Working","subcategory":null,"latitude":43.673034,"photo url":null,"title":"A120","directions":"FALSE","order":9999,"street1":null,"zipcode":"L6X 0L8","photo height":null,"freeform address":"Brampton, ON, L6X 0L8, CA","street2":null,"country":"CA","website":null,"description":null,"photo width":null,"neighborhood":null,"photo description":null,"identifying number":10927748,"longitude":-79.814879,"link":"http://www.communitywalk.com/map/1605311#0004Y[j4","id":"aez25lq31lm5","phone number":null,"state":"ON","photo title":null},"type":"Feature","geometry":{"type":"Point","coordinates":[-79.814879,43.673034]}},{"properties":{"delete":null,"city":"Mississauga","category":"Working","subcategory":null,"latitude":43.533553,"photo url":null,"title":"A110","directions":"FALSE","order":9999,"street1":null,"zipcode":"L5L 1N6","photo height":null,"freeform address":"Mississauga, ON, L5L 1N6, CA","street2":null,"country":"CA","website":null,"description":null,"photo width":null,"neighborhood":null,"photo description":null,"identifying number":10927749,"longitude":-79.695636,"link":"http://www.communitywalk.com/map/1605311#0004Y[j5","id":"aez25lmj9iu4","phone number":null,"state":"ON","photo title":null},"type":"Feature","geometry":{"type":"Point","coordinates":[-79.695636,43.533553]}},{"properties":{"delete":null,"city":"Mississauga","category":"Working","subcategory":null,"latitude":43.574023,"photo url":null,"title":"A111","directions":"FALSE","order":9999,"street1":null,"zipcode":"L5C 3Z8","photo height":null,"freeform address":"Mississauga, ON, L5C 3Z8, CA","street2":null,"country":"CA","website":null,"description":null,"photo width":null,"neighborhood":null,"photo description":null,"identifying number":10927750,"longitude":-79.660824,"link":"http://www.communitywalk.com/map/1605311#0004Y[j6","id":"aez25lpaqypv","phone number":null,"state":"ON","photo title":null},"type":"Feature","geometry":{"type":"Point","coordinates":[-79.660824,43.574023]}},{"properties":{"delete":null,"city":"Toronto","category":"Working","subcategory":null,"latitude":43.762602,"photo url":null,"title":"A112","directions":"FALSE","order":9999,"street1":null,"zipcode":"M3A 3K7","photo height":null,"freeform address":"Toronto, ON, M3A 3K7, CA","street2":null,"country":"CA","website":null,"description":null,"photo width":null,"neighborhood":null,"photo description":null,"identifying number":10927751,"longitude":-79.337754,"link":"http://www.communitywalk.com/map/1605311#0004Y[j7","id":"aez25lo0kwv9","phone number":null,"state":"ON","photo title":null},"type":"Feature","geometry":{"type":"Point","coordinates":[-79.337754,43.762602]}},{"properties":{"delete":null,"city":"Mississauga","category":"Working","subcategory":null,"latitude":43.578903,"photo url":null,"title":"A116","directions":"FALSE","order":9999,"street1":null,"zipcode":"L5V 1K8","photo height":null,"freeform address":"Mississauga, ON, L5V 1K8, CA","street2":null,"country":"CA","website":null,"description":null,"photo width":null,"neighborhood":null,"photo description":null,"identifying number":10927755,"longitude":-79.679328,"link":"http://www.communitywalk.com/map/1605311#0004Y[j;","id":"aez25lt4uihs","phone number":null,"state":"ON","photo title":null},"type":"Feature","geometry":{"type":"Point","coordinates":[-79.679328,43.578903]}},{"properties":{"delete":null,"city":"Brampton","category":"Working","subcategory":null,"latitude":43.712419,"photo url":null,"title":"A130","directions":"FALSE","order":9999,"street1":null,"zipcode":"L6V 3R8","photo height":null,"freeform address":"Brampton, ON, L6V 3R8, CA","street2":null,"country":"CA","website":null,"description":null,"photo width":null,"neighborhood":null,"photo description":null,"identifying number":10927759,"longitude":-79.769689,"link":"http://www.communitywalk.com/map/1605311#0004Y[jp","id":"aez25ltjnmhm","phone number":null,"state":"ON","photo title":null},"type":"Feature","geometry":{"type":"Point","coordinates":[-79.769689,43.712419]}},{"properties":{"delete":null,"city":"Mississauga","category":"Working","subcategory":null,"latitude":43.581574,"photo url":null,"title":"A131","directions":"FALSE","order":9999,"street1":null,"zipcode":"L5B 3Y9","photo height":null,"freeform address":"Mississauga, ON, L5B 3Y9, CA","street2":null,"country":"CA","website":null,"description":null,"photo width":null,"neighborhood":null,"photo description":null,"identifying number":10927760,"longitude":-79.623892,"link":"http://www.communitywalk.com/map/1605311#0004Y[j@","id":"aez25lm68lhv","phone number":null,"state":"ON","photo title":null},"type":"Feature","geometry":{"type":"Point","coordinates":[-79.623892,43.581574]}},{"properties":{"delete":null,"city":"Brampton","category":"Working","subcategory":null,"latitude":43.722652,"photo url":null,"title":"A132","directions":"FALSE","order":9999,"street1":null,"zipcode":"L6S 4B3","photo height":null,"freeform address":"Brampton, ON, L6S 4B3, CA","street2":null,"country":"CA","website":null,"description":null,"photo width":null,"neighborhood":null,"photo description":null,"identifying number":10927761,"longitude":-79.745946,"link":"http://www.communitywalk.com/map/1605311#0004Y[jA","id":"aez25lroib83","phone number":null,"state":"ON","photo title":null},"type":"Feature","geometry":{"type":"Point","coordinates":[-79.745946,43.722652]}},{"properties":{"delete":null,"city":"Brampton","category":"Working","subcategory":null,"latitude":43.625839,"photo url":null,"title":"A133","directions":"FALSE","order":9999,"street1":null,"zipcode":"L6Y 5S1","photo height":null,"freeform address":"Brampton, ON, L6Y 5S1, CA","street2":null,"country":"CA","website":null,"description":null,"photo width":null,"neighborhood":null,"photo description":null,"identifying number":10927762,"longitude":-79.754708,"link":"http://www.communitywalk.com/map/1605311#0004Y[jB","id":"aez25lqafdxm","phone number":null,"state":"ON","photo title":null},"type":"Feature","geometry":{"type":"Point","coordinates":[-79.754708,43.625839]}},{"properties":{"delete":null,"city":"Mississauga","category":"Working","subcategory":null,"latitude":43.625068,"photo url":null,"title":"A134","directions":"FALSE","order":9999,"street1":null,"zipcode":"L4Z 4A9","photo height":null,"freeform address":"Mississauga, ON, L4Z 4A9, CA","street2":null,"country":"CA","website":null,"description":null,"photo width":null,"neighborhood":null,"photo description":null,"identifying number":10927763,"longitude":-79.649684,"link":"http://www.communitywalk.com/map/1605311#0004Y[jC","id":"aez25lr78ly2","phone number":null,"state":"ON","photo title":null},"type":"Feature","geometry":{"type":"Point","coordinates":[-79.649684,43.625068]}},{"properties":{"delete":null,"city":"Mississauga","category":"Working","subcategory":null,"latitude":43.559598,"photo url":null,"title":"A135","directions":"FALSE","order":9999,"street1":null,"zipcode":"L5M 5C4","photo height":null,"freeform address":"Mississauga, ON, L5M 5C4, CA","street2":null,"country":"CA","website":null,"description":null,"photo width":null,"neighborhood":null,"photo description":null,"identifying number":10927764,"longitude":-79.722109,"link":"http://www.communitywalk.com/map/1605311#0004Y[jD","id":"aez25ltdtsmr","phone number":null,"state":"ON","photo title":null},"type":"Feature","geometry":{"type":"Point","coordinates":[-79.722109,43.559598]}},{"properties":{"delete":null,"city":"Brampton","category":"Working","subcategory":null,"latitude":43.667075,"photo url":null,"title":"A136","directions":"FALSE","order":9999,"street1":null,"zipcode":"L6Y 3J3","photo height":null,"freeform address":"Brampton, ON, L6Y 3J3, CA","street2":null,"country":"CA","website":null,"description":null,"photo width":null,"neighborhood":null,"photo description":null,"identifying number":10927765,"longitude":-79.743756,"link":"http://www.communitywalk.com/map/1605311#0004Y[jE","id":"aez25lqpruv0","phone number":null,"state":"ON","photo title":null},"type":"Feature","geometry":{"type":"Point","coordinates":[-79.743756,43.667075]}},{"properties":{"delete":null,"city":"Toronto","category":"Working","subcategory":null,"latitude":43.752561,"photo url":null,"title":"A137","directions":"FALSE","order":9999,"street1":null,"zipcode":"M2P 1K3","photo height":null,"freeform address":"Toronto, ON, M2P 1K3, CA","street2":null,"country":"CA","website":null,"description":null,"photo width":null,"neighborhood":null,"photo description":null,"identifying number":10927766,"longitude":-79.405854,"link":"http://www.communitywalk.com/map/1605311#0004Y[jF","id":"aez25lxaduv5","phone number":null,"state":"ON","photo title":null},"type":"Feature","geometry":{"type":"Point","coordinates":[-79.405854,43.752561]}},{"properties":{"delete":null,"city":"Brampton","category":"Working","subcategory":null,"latitude":43.658329,"photo url":null,"title":"A138","directions":"FALSE","order":9999,"street1":null,"zipcode":"L6X 0X1","photo height":null,"freeform address":"Brampton, ON, L6X 0X1, CA","street2":null,"country":"CA","website":null,"description":null,"photo width":null,"neighborhood":null,"photo description":null,"identifying number":10927767,"longitude":-79.795702,"link":"http://www.communitywalk.com/map/1605311#0004Y[jG","id":"aez25lvkvl5q","phone number":null,"state":"ON","photo title":null},"type":"Feature","geometry":{"type":"Point","coordinates":[-79.795702,43.658329]}},{"properties":{"delete":null,"city":"Toronto","category":"Working","subcategory":null,"latitude":43.716769,"photo url":null,"title":"A139","directions":"FALSE","order":9999,"street1":null,"zipcode":"M9W 1W8","photo height":null,"freeform address":"Toronto, ON, M9W 1W8, CA","street2":null,"country":"CA","website":null,"description":null,"photo width":null,"neighborhood":null,"photo description":null,"identifying number":10927768,"longitude":-79.552354,"link":"http://www.communitywalk.com/map/1605311#0004Y[jH","id":"aez25lujnjda","phone number":null,"state":"ON","photo title":null},"type":"Feature","geometry":{"type":"Point","coordinates":[-79.552354,43.716769]}},{"properties":{"delete":null,"city":"Mississauga","category":"Working","subcategory":null,"latitude":43.559887,"photo url":null,"title":"A122","directions":"FALSE","order":9999,"street1":null,"zipcode":"L5N 7V6","photo height":null,"freeform address":"Mississauga, ON, L5N 7V6, CA","street2":null,"country":"CA","website":null,"description":null,"photo width":null,"neighborhood":null,"photo description":null,"identifying number":10927770,"longitude":-79.766448,"link":"http://www.communitywalk.com/map/1605311#0004Y[jJ","id":"aez25lt0783f","phone number":null,"state":"ON","photo title":null},"type":"Feature","geometry":{"type":"Point","coordinates":[-79.766448,43.559887]}},{"properties":{"delete":null,"city":"Whitby","category":"Working","subcategory":null,"latitude":43.909916,"photo url":null,"title":"A123","directions":"FALSE","order":9999,"street1":null,"zipcode":"L1R 1X1","photo height":null,"freeform address":"Whitby, ON, L1R 1X1, CA","street2":null,"country":"CA","website":null,"description":null,"photo width":null,"neighborhood":null,"photo description":null,"identifying number":10927771,"longitude":-78.939785,"link":"http://www.communitywalk.com/map/1605311#0004Y[jK","id":"aez25lsepsts","phone number":null,"state":"ON","photo title":null},"type":"Feature","geometry":{"type":"Point","coordinates":[-78.939785,43.909916]}},{"properties":{"delete":null,"city":"Toronto","category":"Working","subcategory":null,"latitude":43.647794,"photo url":null,"title":"A124","directions":"FALSE","order":9999,"street1":null,"zipcode":"M9A 3J9","photo height":null,"freeform address":"Toronto, ON, M9A 3J9, CA","street2":null,"country":"CA","website":null,"description":null,"photo width":null,"neighborhood":null,"photo description":null,"identifying number":10927772,"longitude":-79.525391,"link":"http://www.communitywalk.com/map/1605311#0004Y[jL","id":"aez25lt8s581","phone number":null,"state":"ON","photo title":null},"type":"Feature","geometry":{"type":"Point","coordinates":[-79.525391,43.647794]}},{"properties":{"delete":null,"city":"Mississauga","category":"Working","subcategory":null,"latitude":43.604282,"photo url":null,"title":"A125","directions":"FALSE","order":9999,"street1":null,"zipcode":"L5V 2T6","photo height":null,"freeform address":"Mississauga, ON, L5V 2T6, CA","street2":null,"country":"CA","website":null,"description":null,"photo width":null,"neighborhood":null,"photo description":null,"identifying number":10927773,"longitude":-79.701949,"link":"http://www.communitywalk.com/map/1605311#0004Y[jM","id":"aez25lkxg9wn","phone number":null,"state":"ON","photo title":null},"type":"Feature","geometry":{"type":"Point","coordinates":[-79.701949,43.604282]}},{"properties":{"delete":null,"city":"Toronto","category":"Working","subcategory":null,"latitude":43.695028,"photo url":null,"title":"A126","directions":"FALSE","order":9999,"street1":null,"zipcode":"M4C 2H1","photo height":null,"freeform address":"Toronto, ON, M4C 2H1, CA","street2":null,"country":"CA","website":null,"description":null,"photo width":null,"neighborhood":null,"photo description":null,"identifying number":10927774,"longitude":-79.294616,"link":"http://www.communitywalk.com/map/1605311#0004Y[jN","id":"aez25lnjf8k3","phone number":null,"state":"ON","photo title":null},"type":"Feature","geometry":{"type":"Point","coordinates":[-79.294616,43.695028]}},{"properties":{"delete":null,"city":"Toronto","category":"Working","subcategory":null,"latitude":43.687878,"photo url":null,"title":"A127","directions":"FALSE","order":9999,"street1":null,"zipcode":"M4V 2C3","photo height":null,"freeform address":"Toronto, ON, M4V 2C3, CA","street2":null,"country":"CA","website":null,"description":null,"photo width":null,"neighborhood":null,"photo description":null,"identifying number":10927775,"longitude":-79.399082,"link":"http://www.communitywalk.com/map/1605311#0004Y[jO","id":"aez25loylgd9","phone number":null,"state":"ON","photo title":null},"type":"Feature","geometry":{"type":"Point","coordinates":[-79.399082,43.687878]}},{"properties":{"delete":null,"city":"Toronto","category":"Working","subcategory":null,"latitude":43.656861,"photo url":null,"title":"A129","directions":"FALSE","order":9999,"street1":null,"zipcode":"M6P 2R8","photo height":null,"freeform address":"Toronto, ON, M6P 2R8, CA","street2":null,"country":"CA","website":null,"description":null,"photo width":null,"neighborhood":null,"photo description":null,"identifying number":10927777,"longitude":-79.466346,"link":"http://www.communitywalk.com/map/1605311#0004Y[jQ","id":"aez25lvxgtpo","phone number":null,"state":"ON","photo title":null},"type":"Feature","geometry":{"type":"Point","coordinates":[-79.466346,43.656861]}},{"properties":{"delete":null,"city":"Burlington","category":"Working","subcategory":null,"latitude":43.376541,"photo url":null,"title":"A141","directions":"FALSE","order":9999,"street1":null,"zipcode":"L7P 4A2","photo height":null,"freeform address":"Burlington, ON, L7P 4A2, CA","street2":null,"country":"CA","website":null,"description":null,"photo width":null,"neighborhood":null,"photo description":null,"identifying number":10927780,"longitude":-79.839828,"link":"http://www.communitywalk.com/map/1605311#0004Y[jT","id":"aez25lsh838e","phone number":null,"state":"ON","photo title":null},"type":"Feature","geometry":{"type":"Point","coordinates":[-79.839828,43.376541]}},{"properties":{"delete":null,"city":"Mississauga","category":"Working","subcategory":null,"latitude":43.571042,"photo url":null,"title":"A142","directions":"FALSE","order":9999,"street1":null,"zipcode":"L5M 5H4","photo height":null,"freeform address":"Mississauga, ON, L5M 5H4, CA","street2":null,"country":"CA","website":null,"description":null,"photo width":null,"neighborhood":null,"photo description":null,"identifying number":10927781,"longitude":-79.679503,"link":"http://www.communitywalk.com/map/1605311#0004Y[jU","id":"aez25lkwbggu","phone number":null,"state":"ON","photo title":null},"type":"Feature","geometry":{"type":"Point","coordinates":[-79.679503,43.571042]}},{"properties":{"delete":null,"city":"Brampton","category":"Working","subcategory":null,"latitude":43.778565,"photo url":null,"title":"A143","directions":"FALSE","order":9999,"street1":null,"zipcode":"L6P 2P3","photo height":null,"freeform address":"Brampton, ON, L6P 2P3, CA","street2":null,"country":"CA","website":null,"description":null,"photo width":null,"neighborhood":null,"photo description":null,"identifying number":10927782,"longitude":-79.696162,"link":"http://www.communitywalk.com/map/1605311#0004Y[jV","id":"aez25lxajs5k","phone number":null,"state":"ON","photo title":null},"type":"Feature","geometry":{"type":"Point","coordinates":[-79.696162,43.778565]}},{"properties":{"delete":null,"city":"Toronto","category":"Working","subcategory":null,"latitude":43.706468,"photo url":null,"title":"A144","directions":"FALSE","order":9999,"street1":null,"zipcode":"M6B 2G8","photo height":null,"freeform address":"Toronto, ON, M6B 2G8, CA","street2":null,"country":"CA","website":null,"description":null,"photo width":null,"neighborhood":null,"photo description":null,"identifying number":10927783,"longitude":-79.4674,"link":"http://www.communitywalk.com/map/1605311#0004Y[jW","id":"aez25los0x8p","phone number":null,"state":"ON","photo title":null},"type":"Feature","geometry":{"type":"Point","coordinates":[-79.4674,43.706468]}},{"properties":{"delete":null,"city":"Brampton","category":"Working","subcategory":null,"latitude":43.713067,"photo url":null,"title":"A145","directions":"FALSE","order":9999,"street1":null,"zipcode":"L6Z 3Y5","photo height":null,"freeform address":"Brampton, ON, L6Z 3Y5, CA","street2":null,"country":"CA","website":null,"description":null,"photo width":null,"neighborhood":null,"photo description":null,"identifying number":10927784,"longitude":-79.789221,"link":"http://www.communitywalk.com/map/1605311#0004Y[jX","id":"aez25lkjmjoa","phone number":null,"state":"ON","photo title":null},"type":"Feature","geometry":{"type":"Point","coordinates":[-79.789221,43.713067]}},{"properties":{"delete":null,"city":"Brampton","category":"Working","subcategory":null,"latitude":43.644891,"photo url":null,"title":"A146","directions":"FALSE","order":9999,"street1":null,"zipcode":"L6Y 4N9","photo height":null,"freeform address":"Brampton, ON, L6Y 4N9, CA","street2":null,"country":"CA","website":null,"description":null,"photo width":null,"neighborhood":null,"photo description":null,"identifying number":10927785,"longitude":-79.750327,"link":"http://www.communitywalk.com/map/1605311#0004Y[jY","id":"aez25lplk5a3","phone number":null,"state":"ON","photo title":null},"type":"Feature","geometry":{"type":"Point","coordinates":[-79.750327,43.644891]}},{"properties":{"delete":null,"city":"Mississauga","category":"Working","subcategory":null,"latitude":43.548312,"photo url":null,"title":"A147","directions":"FALSE","order":9999,"street1":null,"zipcode":"L5M 7V4","photo height":null,"freeform address":"Mississauga, ON, L5M 7V4, CA","street2":null,"country":"CA","website":null,"description":null,"photo width":null,"neighborhood":null,"photo description":null,"identifying number":10927786,"longitude":-79.731312,"link":"http://www.communitywalk.com/map/1605311#0004Y[jZ","id":"aez25ltrxf42","phone number":null,"state":"ON","photo title":null},"type":"Feature","geometry":{"type":"Point","coordinates":[-79.731312,43.548312]}},{"properties":{"delete":null,"city":"Toronto","category":"Working","subcategory":null,"latitude":43.647871,"photo url":null,"title":"A149","directions":"FALSE","order":9999,"street1":null,"zipcode":"M9B 5C5","photo height":null,"freeform address":"Toronto, ON, M9B 5C5, CA","street2":null,"country":"CA","website":null,"description":null,"photo width":null,"neighborhood":null,"photo description":null,"identifying number":10927788,"longitude":-79.558412,"link":"http://www.communitywalk.com/map/1605311#0004Y[j\\","id":"aez25lwjo2kq","phone number":null,"state":"ON","photo title":null},"type":"Feature","geometry":{"type":"Point","coordinates":[-79.558412,43.647871]}},{"properties":{"delete":null,"city":"Mississauga","category":"Working","subcategory":null,"latitude":43.624963,"photo url":null,"title":"A150","directions":"FALSE","order":9999,"street1":null,"zipcode":"L5N 7R1","photo height":null,"freeform address":"Mississauga, ON, L5N 7R1, CA","street2":null,"country":"CA","website":null,"description":null,"photo width":null,"neighborhood":null,"photo description":null,"identifying number":10927789,"longitude":-79.737622,"link":"http://www.communitywalk.com/map/1605311#0004Y[j]","id":"aez25ljma303","phone number":null,"state":"ON","photo title":null},"type":"Feature","geometry":{"type":"Point","coordinates":[-79.737622,43.624963]}},{"properties":{"delete":null,"city":"Toronto","category":"Working","subcategory":null,"latitude":43.719536,"photo url":null,"title":"A152","directions":"FALSE","order":9999,"street1":null,"zipcode":"M9W 6W7","photo height":null,"freeform address":"Toronto, ON, M9W 6W7, CA","street2":null,"country":"CA","website":null,"description":null,"photo width":null,"neighborhood":null,"photo description":null,"identifying number":10927791,"longitude":-79.618803,"link":"http://www.communitywalk.com/map/1605311#0004Y[j_","id":"aez25lrrewjx","phone number":null,"state":"ON","photo title":null},"type":"Feature","geometry":{"type":"Point","coordinates":[-79.618803,43.719536]}},{"properties":{"delete":null,"city":"Toronto","category":"Working","subcategory":null,"latitude":43.670702,"photo url":null,"title":"A153","directions":"FALSE","order":9999,"street1":null,"zipcode":"M4Y 0A4","photo height":null,"freeform address":"Toronto, ON, M4Y 0A4, CA","street2":null,"country":"CA","website":null,"description":null,"photo width":null,"neighborhood":null,"photo description":null,"identifying number":10927792,"longitude":-79.37709,"link":"http://www.communitywalk.com/map/1605311#0004Y[j`","id":"aez25lyjcild","phone number":null,"state":"ON","photo title":null},"type":"Feature","geometry":{"type":"Point","coordinates":[-79.37709,43.670702]}},{"properties":{"delete":null,"city":"Toronto","category":"Working","subcategory":null,"latitude":43.623709,"photo url":null,"title":"A154","directions":"FALSE","order":9999,"street1":null,"zipcode":"M8Z 1P3","photo height":null,"freeform address":"Toronto, ON, M8Z 1P3, CA","street2":null,"country":"CA","website":null,"description":null,"photo width":null,"neighborhood":null,"photo description":null,"identifying number":10927793,"longitude":-79.512039,"link":"http://www.communitywalk.com/map/1605311#0004Y[ja","id":"aez25lua4dcn","phone number":null,"state":"ON","photo title":null},"type":"Feature","geometry":{"type":"Point","coordinates":[-79.512039,43.623709]}},{"properties":{"delete":null,"city":"Mississauga","category":"Working","subcategory":null,"latitude":43.609928,"photo url":null,"title":"A155","directions":"FALSE","order":9999,"street1":null,"zipcode":"L5R 4E7","photo height":null,"freeform address":"Mississauga, ON, L5R 4E7, CA","street2":null,"country":"CA","website":null,"description":null,"photo width":null,"neighborhood":null,"photo description":null,"identifying number":10927794,"longitude":-79.659508,"link":"http://www.communitywalk.com/map/1605311#0004Y[jb","id":"aez25lnqt8r6","phone number":null,"state":"ON","photo title":null},"type":"Feature","geometry":{"type":"Point","coordinates":[-79.659508,43.609928]}},{"properties":{"delete":null,"city":"Brampton","category":"Working","subcategory":null,"latitude":43.722652,"photo url":null,"title":"A156","directions":"FALSE","order":9999,"street1":null,"zipcode":"L6S 4B3","photo height":null,"freeform address":"Brampton, ON, L6S 4B3, CA","street2":null,"country":"CA","website":null,"description":null,"photo width":null,"neighborhood":null,"photo description":null,"identifying number":10927795,"longitude":-79.745946,"link":"http://www.communitywalk.com/map/1605311#0004Y[jc","id":"aez25lqbwt82","phone number":null,"state":"ON","photo title":null},"type":"Feature","geometry":{"type":"Point","coordinates":[-79.745946,43.722652]}},{"properties":{"delete":null,"city":"Mississauga","category":"Working","subcategory":null,"latitude":43.593763,"photo url":null,"title":"A158","directions":"FALSE","order":9999,"street1":null,"zipcode":"L5A 4A1","photo height":null,"freeform address":"Mississauga, ON, L5A 4A1, CA","street2":null,"country":"CA","website":null,"description":null,"photo width":null,"neighborhood":null,"photo description":null,"identifying number":10927797,"longitude":-79.633718,"link":"http://www.communitywalk.com/map/1605311#0004Y[je","id":"aez25lsa7l05","phone number":null,"state":"ON","photo title":null},"type":"Feature","geometry":{"type":"Point","coordinates":[-79.633718,43.593763]}},{"properties":{"delete":null,"city":"Toronto","category":"Working","subcategory":null,"latitude":43.600157,"photo url":null,"title":"A159","directions":"FALSE","order":9999,"street1":null,"zipcode":"M8V 4C9","photo height":null,"freeform address":"Toronto, ON, M8V 4C9, CA","street2":null,"country":"CA","website":null,"description":null,"photo width":null,"neighborhood":null,"photo description":null,"identifying number":10927798,"longitude":-79.510194,"link":"http://www.communitywalk.com/map/1605311#0004Y[jf","id":"aez25lm3a1w9","phone number":null,"state":"ON","photo title":null},"type":"Feature","geometry":{"type":"Point","coordinates":[-79.510194,43.600157]}},{"properties":{"delete":null,"city":"Surrey","category":"Working","subcategory":null,"latitude":49.165712,"photo url":null,"title":"A172","directions":"FALSE","order":9999,"street1":null,"zipcode":"V3R 4J3","photo height":null,"freeform address":"Surrey, BC, V3R 4J3, CA","street2":null,"country":"CA","website":null,"description":null,"photo width":null,"neighborhood":null,"photo description":null,"identifying number":10927801,"longitude":-122.795465,"link":"http://www.communitywalk.com/map/1605311#0004Y[ji","id":"aez25luc3su9","phone number":null,"state":"BC","photo title":null},"type":"Feature","geometry":{"type":"Point","coordinates":[-122.795465,49.165712]}},{"properties":{"delete":null,"city":"Richmond","category":"Working","subcategory":null,"latitude":49.168831,"photo url":null,"title":"A173","directions":"FALSE","order":9999,"street1":null,"zipcode":"V6Y 0B8","photo height":null,"freeform address":"Richmond, BC, V6Y 0B8, CA","street2":null,"country":"CA","website":null,"description":null,"photo width":null,"neighborhood":null,"photo description":null,"identifying number":10927802,"longitude":-123.121526,"link":"http://www.communitywalk.com/map/1605311#0004Y[jj","id":"aez25lvg2td8","phone number":null,"state":"BC","photo title":null},"type":"Feature","geometry":{"type":"Point","coordinates":[-123.121526,49.168831]}},{"properties":{"delete":null,"city":"Coquitlam","category":"Working","subcategory":null,"latitude":49.284855,"photo url":null,"title":"A174","directions":"FALSE","order":9999,"street1":null,"zipcode":"V3B 7M4","photo height":null,"freeform address":"Coquitlam, BC, V3B 7M4, CA","street2":null,"country":"CA","website":null,"description":null,"photo width":null,"neighborhood":null,"photo description":null,"identifying number":10927803,"longitude":-122.797605,"link":"http://www.communitywalk.com/map/1605311#0004Y[jk","id":"aez25lngpu6e","phone number":null,"state":"BC","photo title":null},"type":"Feature","geometry":{"type":"Point","coordinates":[-122.797605,49.284855]}},{"properties":{"delete":null,"city":"Surrey","category":"Working","subcategory":null,"latitude":49.141465,"photo url":null,"title":"A176","directions":"FALSE","order":9999,"street1":null,"zipcode":"V3W 8J5","photo height":null,"freeform address":"Surrey, BC, V3W 8J5, CA","street2":null,"country":"CA","website":null,"description":null,"photo width":null,"neighborhood":null,"photo description":null,"identifying number":10927805,"longitude":-122.843176,"link":"http://www.communitywalk.com/map/1605311#0004Y[jm","id":"aez25ly1b0jc","phone number":null,"state":"BC","photo title":null},"type":"Feature","geometry":{"type":"Point","coordinates":[-122.843176,49.141465]}},{"properties":{"delete":null,"city":"New Westminster","category":"Working","subcategory":null,"latitude":49.199389,"photo url":null,"title":"A177","directions":"FALSE","order":9999,"street1":null,"zipcode":"V3M 6C9","photo height":null,"freeform address":"New Westminster, BC, V3M 6C9, CA","street2":null,"country":"CA","website":null,"description":null,"photo width":null,"neighborhood":null,"photo description":null,"identifying number":10927806,"longitude":-122.915903,"link":"http://www.communitywalk.com/map/1605311#0004Y[jn","id":"aez25luocetn","phone number":null,"state":"BC","photo title":null},"type":"Feature","geometry":{"type":"Point","coordinates":[-122.915903,49.199389]}},{"properties":{"delete":null,"city":"Burnaby","category":"Working","subcategory":null,"latitude":49.255422,"photo url":null,"title":"A178","directions":"FALSE","order":9999,"street1":null,"zipcode":"V5G 1G3","photo height":null,"freeform address":"Burnaby, BC, V5G 1G3, CA","street2":null,"country":"CA","website":null,"description":null,"photo width":null,"neighborhood":null,"photo description":null,"identifying number":10927807,"longitude":-122.987,"link":"http://www.communitywalk.com/map/1605311#0004Y[jo","id":"aez25lvb7g2n","phone number":null,"state":"BC","photo title":null},"type":"Feature","geometry":{"type":"Point","coordinates":[-122.987,49.255422]}},{"properties":{"delete":null,"city":"Burnaby","category":"Working","subcategory":null,"latitude":49.283123,"photo url":null,"title":"A179","directions":"FALSE","order":9999,"street1":null,"zipcode":"V5B 3C6","photo height":null,"freeform address":"Burnaby, BC, V5B 3C6, CA","street2":null,"country":"CA","website":null,"description":null,"photo width":null,"neighborhood":null,"photo description":null,"identifying number":10927808,"longitude":-122.992227,"link":"http://www.communitywalk.com/map/1605311#0004Y[k0","id":"aez25lmbx0wg","phone number":null,"state":"BC","photo title":null},"type":"Feature","geometry":{"type":"Point","coordinates":[-122.992227,49.283123]}},{"properties":{"delete":null,"city":"Toronto","category":"Working","subcategory":null,"latitude":43.7719,"photo url":null,"title":"A162","directions":"FALSE","order":9999,"street1":null,"zipcode":"M1E 3T4","photo height":null,"freeform address":"Toronto, ON, M1E 3T4, CA","street2":null,"country":"CA","website":null,"description":null,"photo width":null,"neighborhood":null,"photo description":null,"identifying number":10927810,"longitude":-79.179895,"link":"http://www.communitywalk.com/map/1605311#0004Y[k2","id":"aez25lpk38l5","phone number":null,"state":"ON","photo title":null},"type":"Feature","geometry":{"type":"Point","coordinates":[-79.179895,43.7719]}},{"properties":{"delete":null,"city":"Mississauga","category":"Working","subcategory":null,"latitude":43.568169,"photo url":null,"title":"A163","directions":"FALSE","order":9999,"street1":null,"zipcode":"L5C 4E4","photo height":null,"freeform address":"Mississauga, ON, L5C 4E4, CA","street2":null,"country":"CA","website":null,"description":null,"photo width":null,"neighborhood":null,"photo description":null,"identifying number":10927811,"longitude":-79.669155,"link":"http://www.communitywalk.com/map/1605311#0004Y[k3","id":"aez25lmi1nu2","phone number":null,"state":"ON","photo title":null},"type":"Feature","geometry":{"type":"Point","coordinates":[-79.669155,43.568169]}},{"properties":{"delete":null,"city":"Toronto","category":"Working","subcategory":null,"latitude":43.780908,"photo url":null,"title":"A164","directions":"FALSE","order":9999,"street1":null,"zipcode":"M1H 3G6","photo height":null,"freeform address":"Toronto, ON, M1H 3G6, CA","street2":null,"country":"CA","website":null,"description":null,"photo width":null,"neighborhood":null,"photo description":null,"identifying number":10927812,"longitude":-79.249696,"link":"http://www.communitywalk.com/map/1605311#0004Y[k4","id":"aez25lu8mx4y","phone number":null,"state":"ON","photo title":null},"type":"Feature","geometry":{"type":"Point","coordinates":[-79.249696,43.780908]}},{"properties":{"delete":null,"city":"Vancouver","category":"Working","subcategory":null,"latitude":49.25036,"photo url":null,"title":"A165","directions":"FALSE","order":9999,"street1":null,"zipcode":"V5Z 2B3","photo height":null,"freeform address":"Vancouver, BC, V5Z 2B3, CA","street2":null,"country":"CA","website":null,"description":null,"photo width":null,"neighborhood":null,"photo description":null,"identifying number":10927813,"longitude":-123.126311,"link":"http://www.communitywalk.com/map/1605311#0004Y[k5","id":"aez25lx0ujl6","phone number":null,"state":"BC","photo title":null},"type":"Feature","geometry":{"type":"Point","coordinates":[-123.126311,49.25036]}},{"properties":{"delete":null,"city":"West Vancouver","category":"Working","subcategory":null,"latitude":49.333616,"photo url":null,"title":"A166","directions":"FALSE","order":9999,"street1":null,"zipcode":"V7T 1Z5","photo height":null,"freeform address":"West Vancouver, BC, V7T 1Z5, CA","street2":null,"country":"CA","website":null,"description":null,"photo width":null,"neighborhood":null,"photo description":null,"identifying number":10927814,"longitude":-123.133852,"link":"http://www.communitywalk.com/map/1605311#0004Y[k6","id":"aez25ludkj31","phone number":null,"state":"BC","photo title":null},"type":"Feature","geometry":{"type":"Point","coordinates":[-123.133852,49.333616]}},{"properties":{"delete":null,"city":"New Westminster","category":"Working","subcategory":null,"latitude":49.190019,"photo url":null,"title":"A167","directions":"FALSE","order":9999,"street1":null,"zipcode":"V3M 5H8","photo height":null,"freeform address":"New Westminster, BC, V3M 5H8, CA","street2":null,"country":"CA","website":null,"description":null,"photo width":null,"neighborhood":null,"photo description":null,"identifying number":10927815,"longitude":-122.934369,"link":"http://www.communitywalk.com/map/1605311#0004Y[k7","id":"aez25lqte97p","phone number":null,"state":"BC","photo title":null},"type":"Feature","geometry":{"type":"Point","coordinates":[-122.934369,49.190019]}},{"properties":{"delete":null,"city":"North Vancouver","category":"Working","subcategory":null,"latitude":49.319126,"photo url":null,"title":"A168","directions":"FALSE","order":9999,"street1":null,"zipcode":"V7L 2J5","photo height":null,"freeform address":"North Vancouver, BC, V7L 2J5, CA","street2":null,"country":"CA","website":null,"description":null,"photo width":null,"neighborhood":null,"photo description":null,"identifying number":10927816,"longitude":-123.070924,"link":"http://www.communitywalk.com/map/1605311#0004Y[k8","id":"aez25ltr5ale","phone number":null,"state":"BC","photo title":null},"type":"Feature","geometry":{"type":"Point","coordinates":[-123.070924,49.319126]}},{"properties":{"delete":null,"city":"Coquitlam","category":"Working","subcategory":null,"latitude":49.246025,"photo url":null,"title":"A169","directions":"FALSE","order":9999,"street1":null,"zipcode":"V3K 3B8","photo height":null,"freeform address":"Coquitlam, BC, V3K 3B8, CA","street2":null,"country":"CA","website":null,"description":null,"photo width":null,"neighborhood":null,"photo description":null,"identifying number":10927817,"longitude":-122.863465,"link":"http://www.communitywalk.com/map/1605311#0004Y[k9","id":"aez25ly010ns","phone number":null,"state":"BC","photo title":null},"type":"Feature","geometry":{"type":"Point","coordinates":[-122.863465,49.246025]}},{"properties":{"delete":null,"city":"Burnaby","category":"Working","subcategory":null,"latitude":49.245649,"photo url":null,"title":"A180","directions":"FALSE","order":9999,"street1":null,"zipcode":"V5G 3B6","photo height":null,"freeform address":"Burnaby, BC, V5G 3B6, CA","street2":null,"country":"CA","website":null,"description":null,"photo width":null,"neighborhood":null,"photo description":null,"identifying number":10927818,"longitude":-123.012182,"link":"http://www.communitywalk.com/map/1605311#0004Y[k:","id":"aez25lz2nnmp","phone number":null,"state":"BC","photo title":null},"type":"Feature","geometry":{"type":"Point","coordinates":[-123.012182,49.245649]}},{"properties":{"delete":null,"city":"North Vancouver","category":"Working","subcategory":null,"latitude":49.333469,"photo url":null,"title":"A190","directions":"FALSE","order":9999,"street1":null,"zipcode":"V7J 1S8","photo height":null,"freeform address":"North Vancouver, BC, V7J 1S8, CA","street2":null,"country":"CA","website":null,"description":null,"photo width":null,"neighborhood":null,"photo description":null,"identifying number":10927819,"longitude":-123.033793,"link":"http://www.communitywalk.com/map/1605311#0004Y[k;","id":"aez25lwhrvdp","phone number":null,"state":"BC","photo title":null},"type":"Feature","geometry":{"type":"Point","coordinates":[-123.033793,49.333469]}},{"properties":{"delete":null,"city":"Burnaby","category":"Working","subcategory":null,"latitude":49.213286,"photo url":null,"title":"A192","directions":"FALSE","order":9999,"street1":null,"zipcode":"V5J 2L7","photo height":null,"freeform address":"Burnaby, BC, V5J 2L7, CA","street2":null,"country":"CA","website":null,"description":null,"photo width":null,"neighborhood":null,"photo description":null,"identifying number":10927821,"longitude":-122.98673,"link":"http://www.communitywalk.com/map/1605311#0004Y[k=","id":"aez25lju6pbs","phone number":null,"state":"BC","photo title":null},"type":"Feature","geometry":{"type":"Point","coordinates":[-122.98673,49.213286]}},{"properties":{"delete":null,"city":"Coquitlam","category":"Working","subcategory":null,"latitude":49.283654,"photo url":null,"title":"A193","directions":"FALSE","order":9999,"street1":null,"zipcode":"V3B 7Z2","photo height":null,"freeform address":"Coquitlam, BC, V3B 7Z2, CA","street2":null,"country":"CA","website":null,"description":null,"photo width":null,"neighborhood":null,"photo description":null,"identifying number":10927822,"longitude":-122.797756,"link":"http://www.communitywalk.com/map/1605311#0004Y[kq","id":"aez25lw7v4ji","phone number":null,"state":"BC","photo title":null},"type":"Feature","geometry":{"type":"Point","coordinates":[-122.797756,49.283654]}},{"properties":{"delete":null,"city":"Burnaby","category":"Working","subcategory":null,"latitude":49.274076,"photo url":null,"title":"A195","directions":"FALSE","order":9999,"street1":null,"zipcode":"V5B 2C4","photo height":null,"freeform address":"Burnaby, BC, V5B 2C4, CA","street2":null,"country":"CA","website":null,"description":null,"photo width":null,"neighborhood":null,"photo description":null,"identifying number":10927824,"longitude":-122.962046,"link":"http://www.communitywalk.com/map/1605311#0004Y[k@","id":"aez25ll88yhs","phone number":null,"state":"BC","photo title":null},"type":"Feature","geometry":{"type":"Point","coordinates":[-122.962046,49.274076]}},{"properties":{"delete":null,"city":"Richmond","category":"Working","subcategory":null,"latitude":49.135991,"photo url":null,"title":"A196","directions":"FALSE","order":9999,"street1":null,"zipcode":"V7E 4K6","photo height":null,"freeform address":"Richmond, BC, V7E 4K6, CA","street2":null,"country":"CA","website":null,"description":null,"photo width":null,"neighborhood":null,"photo description":null,"identifying number":10927825,"longitude":-123.171296,"link":"http://www.communitywalk.com/map/1605311#0004Y[kA","id":"aez25lmjs62t","phone number":null,"state":"BC","photo title":null},"type":"Feature","geometry":{"type":"Point","coordinates":[-123.171296,49.135991]}},{"properties":{"delete":null,"city":"Surrey","category":"Working","subcategory":null,"latitude":49.151993,"photo url":null,"title":"A197","directions":"FALSE","order":9999,"street1":null,"zipcode":"V3W 5A6","photo height":null,"freeform address":"Surrey, BC, V3W 5A6, CA","street2":null,"country":"CA","website":null,"description":null,"photo width":null,"neighborhood":null,"photo description":null,"identifying number":10927826,"longitude":-122.885948,"link":"http://www.communitywalk.com/map/1605311#0004Y[kB","id":"aez25lnieo7x","phone number":null,"state":"BC","photo title":null},"type":"Feature","geometry":{"type":"Point","coordinates":[-122.885948,49.151993]}},{"properties":{"delete":null,"city":"Surrey","category":"Working","subcategory":null,"latitude":49.136033,"photo url":null,"title":"A198","directions":"FALSE","order":9999,"street1":null,"zipcode":"V3W 7E5","photo height":null,"freeform address":"Surrey, BC, V3W 7E5, CA","street2":null,"country":"CA","website":null,"description":null,"photo width":null,"neighborhood":null,"photo description":null,"identifying number":10927827,"longitude":-122.866267,"link":"http://www.communitywalk.com/map/1605311#0004Y[kC","id":"aez25lvxgw67","phone number":null,"state":"BC","photo title":null},"type":"Feature","geometry":{"type":"Point","coordinates":[-122.866267,49.136033]}},{"properties":{"delete":null,"city":"Landmark","category":"Working","subcategory":null,"latitude":49.662618,"photo url":null,"title":"A199","directions":"FALSE","order":9999,"street1":null,"zipcode":"R0A 0X0","photo height":null,"freeform address":"Landmark, MB, R0A 0X0, CA","street2":null,"country":"CA","website":null,"description":null,"photo width":null,"neighborhood":null,"photo description":null,"identifying number":10927828,"longitude":-96.849183,"link":"http://www.communitywalk.com/map/1605311#0004Y[kD","id":"aez25ltxcgao","phone number":null,"state":"MB","photo title":null},"type":"Feature","geometry":{"type":"Point","coordinates":[-96.849183,49.662618]}},{"properties":{"delete":null,"city":"Vancouver","category":"Working","subcategory":null,"latitude":49.218425,"photo url":null,"title":"A181","directions":"FALSE","order":9999,"street1":null,"zipcode":"V5X 1T3","photo height":null,"freeform address":"Vancouver, BC, V5X 1T3, CA","street2":null,"country":"CA","website":null,"description":null,"photo width":null,"neighborhood":null,"photo description":null,"identifying number":10927829,"longitude":-123.089062,"link":"http://www.communitywalk.com/map/1605311#0004Y[kE","id":"aez25llew4xt","phone number":null,"state":"BC","photo title":null},"type":"Feature","geometry":{"type":"Point","coordinates":[-123.089062,49.218425]}},{"properties":{"delete":null,"city":"Surrey","category":"Working","subcategory":null,"latitude":49.145626,"photo url":null,"title":"A182","directions":"FALSE","order":9999,"street1":null,"zipcode":"V3W 2Y2","photo height":null,"freeform address":"Surrey, BC, V3W 2Y2, CA","street2":null,"country":"CA","website":null,"description":null,"photo width":null,"neighborhood":null,"photo description":null,"identifying number":10927830,"longitude":-122.849538,"link":"http://www.communitywalk.com/map/1605311#0004Y[kF","id":"aez25lwb7k1t","phone number":null,"state":"BC","photo title":null},"type":"Feature","geometry":{"type":"Point","coordinates":[-122.849538,49.145626]}},{"properties":{"delete":null,"city":"Richmond","category":"Working","subcategory":null,"latitude":49.154877,"photo url":null,"title":"A183","directions":"FALSE","order":9999,"street1":null,"zipcode":"V6Y 2R1","photo height":null,"freeform address":"Richmond, BC, V6Y 2R1, CA","street2":null,"country":"CA","website":null,"description":null,"photo width":null,"neighborhood":null,"photo description":null,"identifying number":10927831,"longitude":-123.1219,"link":"http://www.communitywalk.com/map/1605311#0004Y[kG","id":"aez25llu3nei","phone number":null,"state":"BC","photo title":null},"type":"Feature","geometry":{"type":"Point","coordinates":[-123.1219,49.154877]}},{"properties":{"delete":null,"city":"New Westminster","category":"Working","subcategory":null,"latitude":49.183352,"photo url":null,"title":"A185","directions":"FALSE","order":9999,"street1":null,"zipcode":"V3M 6X3","photo height":null,"freeform address":"New Westminster, BC, V3M 6X3, CA","street2":null,"country":"CA","website":null,"description":null,"photo width":null,"neighborhood":null,"photo description":null,"identifying number":10927833,"longitude":-122.951848,"link":"http://www.communitywalk.com/map/1605311#0004Y[kI","id":"aez25ltehs6w","phone number":null,"state":"BC","photo title":null},"type":"Feature","geometry":{"type":"Point","coordinates":[-122.951848,49.183352]}},{"properties":{"delete":null,"city":"Surrey","category":"Working","subcategory":null,"latitude":49.190792,"photo url":null,"title":"A186","directions":"FALSE","order":9999,"street1":null,"zipcode":"V4N 5R4","photo height":null,"freeform address":"Surrey, BC, V4N 5R4, CA","street2":null,"country":"CA","website":null,"description":null,"photo width":null,"neighborhood":null,"photo description":null,"identifying number":10927834,"longitude":-122.739481,"link":"http://www.communitywalk.com/map/1605311#0004Y[kJ","id":"aez25lzn055h","phone number":null,"state":"BC","photo title":null},"type":"Feature","geometry":{"type":"Point","coordinates":[-122.739481,49.190792]}},{"properties":{"delete":null,"city":"Lorette","category":"Working","subcategory":null,"latitude":49.752901,"photo url":null,"title":"A187","directions":"FALSE","order":9999,"street1":null,"zipcode":"R0A 0Y0","photo height":null,"freeform address":"Lorette, MB, R0A 0Y0, CA","street2":null,"country":"CA","website":null,"description":null,"photo width":null,"neighborhood":null,"photo description":null,"identifying number":10927835,"longitude":-96.883876,"link":"http://www.communitywalk.com/map/1605311#0004Y[kK","id":"aez25lwcwv9l","phone number":null,"state":"MB","photo title":null},"type":"Feature","geometry":{"type":"Point","coordinates":[-96.883876,49.752901]}},{"properties":{"delete":null,"city":"Surrey","category":"Working","subcategory":null,"latitude":49.200124,"photo url":null,"title":"A189","directions":"FALSE","order":9999,"street1":null,"zipcode":"V4N 5E2","photo height":null,"freeform address":"Surrey, BC, V4N 5E2, CA","street2":null,"country":"CA","website":null,"description":null,"photo width":null,"neighborhood":null,"photo description":null,"identifying number":10927837,"longitude":-122.761878,"link":"http://www.communitywalk.com/map/1605311#0004Y[kM","id":"aez25lx43oiu","phone number":null,"state":"BC","photo title":null},"type":"Feature","geometry":{"type":"Point","coordinates":[-122.761878,49.200124]}},{"properties":{"delete":null,"city":"Winnipeg","category":"Working","subcategory":null,"latitude":49.770309,"photo url":null,"title":"A200","directions":"FALSE","order":9999,"street1":null,"zipcode":"R3V 1S1","photo height":null,"freeform address":"Winnipeg, MB, R3V 1S1, CA","street2":null,"country":"CA","website":null,"description":null,"photo width":null,"neighborhood":null,"photo description":null,"identifying number":10927838,"longitude":-97.173051,"link":"http://www.communitywalk.com/map/1605311#0004Y[kN","id":"aez25lwmezto","phone number":null,"state":"MB","photo title":null},"type":"Feature","geometry":{"type":"Point","coordinates":[-97.173051,49.770309]}},{"properties":{"delete":null,"city":"Winnipeg","category":"Working","subcategory":null,"latitude":49.882846,"photo url":null,"title":"A210","directions":"FALSE","order":9999,"street1":null,"zipcode":"R2H 0S3","photo height":null,"freeform address":"Winnipeg, MB, R2H 0S3, CA","street2":null,"country":"CA","website":null,"description":null,"photo width":null,"neighborhood":null,"photo description":null,"identifying number":10927839,"longitude":-97.116399,"link":"http://www.communitywalk.com/map/1605311#0004Y[kO","id":"aez25lz0fuzq","phone number":null,"state":"MB","photo title":null},"type":"Feature","geometry":{"type":"Point","coordinates":[-97.116399,49.882846]}},{"properties":{"delete":null,"city":"Winnipeg","category":"Working","subcategory":null,"latitude":49.875404,"photo url":null,"title":"A211","directions":"FALSE","order":9999,"street1":null,"zipcode":"R3J 0P2","photo height":null,"freeform address":"Winnipeg, MB, R3J 0P2, CA","street2":null,"country":"CA","website":null,"description":null,"photo width":null,"neighborhood":null,"photo description":null,"identifying number":10927840,"longitude":-97.258159,"link":"http://www.communitywalk.com/map/1605311#0004Y[kP","id":"aez25lpm0ji1","phone number":null,"state":"MB","photo title":null},"type":"Feature","geometry":{"type":"Point","coordinates":[-97.258159,49.875404]}},{"properties":{"delete":null,"city":null,"category":"Working","subcategory":null,"latitude":49.901127,"photo url":null,"title":"A212","directions":"FALSE","order":9999,"street1":null,"zipcode":"R2C 4S8","photo height":null,"freeform address":"MB, R2C 4S8, CA","street2":null,"country":"CA","website":null,"description":null,"photo width":null,"neighborhood":null,"photo description":null,"identifying number":10927841,"longitude":-96.984021,"link":"http://www.communitywalk.com/map/1605311#0004Y[kQ","id":"aez25llh5jac","phone number":null,"state":"MB","photo title":null},"type":"Feature","geometry":{"type":"Point","coordinates":[-96.984021,49.901127]}},{"properties":{"delete":null,"city":"Winnipeg","category":"Working","subcategory":null,"latitude":49.911557,"photo url":null,"title":"A213","directions":"FALSE","order":9999,"street1":null,"zipcode":"R3E 0P8","photo height":null,"freeform address":"Winnipeg, MB, R3E 0P8, CA","street2":null,"country":"CA","website":null,"description":null,"photo width":null,"neighborhood":null,"photo description":null,"identifying number":10927842,"longitude":-97.18939,"link":"http://www.communitywalk.com/map/1605311#0004Y[kR","id":"aez25lvfqtj1","phone number":null,"state":"MB","photo title":null},"type":"Feature","geometry":{"type":"Point","coordinates":[-97.18939,49.911557]}},{"properties":{"delete":null,"city":null,"category":"Working","subcategory":null,"latitude":49.901127,"photo url":null,"title":"A214","directions":"FALSE","order":9999,"street1":null,"zipcode":"R2C 4S8","photo height":null,"freeform address":"MB, R2C 4S8, CA","street2":null,"country":"CA","website":null,"description":null,"photo width":null,"neighborhood":null,"photo description":null,"identifying number":10927843,"longitude":-96.984021,"link":"http://www.communitywalk.com/map/1605311#0004Y[kS","id":"aez25lwg3ew3","phone number":null,"state":"MB","photo title":null},"type":"Feature","geometry":{"type":"Point","coordinates":[-96.984021,49.901127]}},{"properties":{"delete":null,"city":"Winnipeg","category":"Working","subcategory":null,"latitude":49.902116,"photo url":null,"title":"A215","directions":"FALSE","order":9999,"street1":null,"zipcode":"R2L 2A4","photo height":null,"freeform address":"Winnipeg, MB, R2L 2A4, CA","street2":null,"country":"CA","website":null,"description":null,"photo width":null,"neighborhood":null,"photo description":null,"identifying number":10927844,"longitude":-97.071046,"link":"http://www.communitywalk.com/map/1605311#0004Y[kT","id":"aez25ljpclos","phone number":null,"state":"MB","photo title":null},"type":"Feature","geometry":{"type":"Point","coordinates":[-97.071046,49.902116]}},{"properties":{"delete":null,"city":"Winnipeg","category":"Working","subcategory":null,"latitude":49.907618,"photo url":null,"title":"A216","directions":"FALSE","order":9999,"street1":null,"zipcode":"R2L 1B4","photo height":null,"freeform address":"Winnipeg, MB, R2L 1B4, CA","street2":null,"country":"CA","website":null,"description":null,"photo width":null,"neighborhood":null,"photo description":null,"identifying number":10927845,"longitude":-97.0968,"link":"http://www.communitywalk.com/map/1605311#0004Y[kU","id":"aez25lm0en48","phone number":null,"state":"MB","photo title":null},"type":"Feature","geometry":{"type":"Point","coordinates":[-97.0968,49.907618]}},{"properties":{"delete":null,"city":"Winnipeg","category":"Working","subcategory":null,"latitude":49.882392,"photo url":null,"title":"A218","directions":"FALSE","order":9999,"street1":null,"zipcode":"R3C 1X2","photo height":null,"freeform address":"Winnipeg, MB, R3C 1X2, CA","street2":null,"country":"CA","website":null,"description":null,"photo width":null,"neighborhood":null,"photo description":null,"identifying number":10927847,"longitude":-97.155041,"link":"http://www.communitywalk.com/map/1605311#0004Y[kW","id":"aez25lwpja8e","phone number":null,"state":"MB","photo title":null},"type":"Feature","geometry":{"type":"Point","coordinates":[-97.155041,49.882392]}},{"properties":{"delete":null,"city":"Winnipeg","category":"Working","subcategory":null,"latitude":49.874121,"photo url":null,"title":"A219","directions":"FALSE","order":9999,"street1":null,"zipcode":"R3M 0B3","photo height":null,"freeform address":"Winnipeg, MB, R3M 0B3, CA","street2":null,"country":"CA","website":null,"description":null,"photo width":null,"neighborhood":null,"photo description":null,"identifying number":10927848,"longitude":-97.150936,"link":"http://www.communitywalk.com/map/1605311#0004Y[kX","id":"aez25lv7dxl8","phone number":null,"state":"MB","photo title":null},"type":"Feature","geometry":{"type":"Point","coordinates":[-97.150936,49.874121]}},{"properties":{"delete":null,"city":"Winnipeg","category":"Working","subcategory":null,"latitude":49.896011,"photo url":null,"title":"A201","directions":"FALSE","order":9999,"street1":null,"zipcode":"R3G 2L4","photo height":null,"freeform address":"Winnipeg, MB, R3G 2L4, CA","street2":null,"country":"CA","website":null,"description":null,"photo width":null,"neighborhood":null,"photo description":null,"identifying number":10927849,"longitude":-97.175409,"link":"http://www.communitywalk.com/map/1605311#0004Y[kY","id":"aez25lkrdpoe","phone number":null,"state":"MB","photo title":null},"type":"Feature","geometry":{"type":"Point","coordinates":[-97.175409,49.896011]}},{"properties":{"delete":null,"city":"Winnipeg","category":"Working","subcategory":null,"latitude":49.82716,"photo url":null,"title":"A203","directions":"FALSE","order":9999,"street1":null,"zipcode":"R3X 0E2","photo height":null,"freeform address":"Winnipeg, MB, R3X 0E2, CA","street2":null,"country":"CA","website":null,"description":null,"photo width":null,"neighborhood":null,"photo description":null,"identifying number":10927851,"longitude":-97.037273,"link":"http://www.communitywalk.com/map/1605311#0004Y[k[","id":"aez25lsnm0hm","phone number":null,"state":"MB","photo title":null},"type":"Feature","geometry":{"type":"Point","coordinates":[-97.037273,49.82716]}},{"properties":{"delete":null,"city":"Winnipeg","category":"Working","subcategory":null,"latitude":49.874693,"photo url":null,"title":"A204","directions":"FALSE","order":9999,"street1":null,"zipcode":"R3L 0N4","photo height":null,"freeform address":"Winnipeg, MB, R3L 0N4, CA","street2":null,"country":"CA","website":null,"description":null,"photo width":null,"neighborhood":null,"photo description":null,"identifying number":10927852,"longitude":-97.145588,"link":"http://www.communitywalk.com/map/1605311#0004Y[k\\","id":"aez25lw5pure","phone number":null,"state":"MB","photo title":null},"type":"Feature","geometry":{"type":"Point","coordinates":[-97.145588,49.874693]}},{"properties":{"delete":null,"city":"Winnipeg","category":"Working","subcategory":null,"latitude":49.885839,"photo url":null,"title":"A206","directions":"FALSE","order":9999,"street1":null,"zipcode":"R3C 0W6","photo height":null,"freeform address":"Winnipeg, MB, R3C 0W6, CA","street2":null,"country":"CA","website":null,"description":null,"photo width":null,"neighborhood":null,"photo description":null,"identifying number":10927854,"longitude":-97.15392,"link":"http://www.communitywalk.com/map/1605311#0004Y[k^","id":"aez25lzllzmp","phone number":null,"state":"MB","photo title":null},"type":"Feature","geometry":{"type":"Point","coordinates":[-97.15392,49.885839]}},{"properties":{"delete":null,"city":"Winnipeg","category":"Working","subcategory":null,"latitude":49.886582,"photo url":null,"title":"A207","directions":"FALSE","order":9999,"street1":null,"zipcode":"R3C 1W2","photo height":null,"freeform address":"Winnipeg, MB, R3C 1W2, CA","street2":null,"country":"CA","website":null,"description":null,"photo width":null,"neighborhood":null,"photo description":null,"identifying number":10927855,"longitude":-97.151012,"link":"http://www.communitywalk.com/map/1605311#0004Y[k_","id":"aez25loqh8ru","phone number":null,"state":"MB","photo title":null},"type":"Feature","geometry":{"type":"Point","coordinates":[-97.151012,49.886582]}},{"properties":{"delete":null,"city":"Winnipeg","category":"Working","subcategory":null,"latitude":49.775318,"photo url":null,"title":"A209","directions":"FALSE","order":9999,"street1":null,"zipcode":"R3V 1W9","photo height":null,"freeform address":"Winnipeg, MB, R3V 1W9, CA","street2":null,"country":"CA","website":null,"description":null,"photo width":null,"neighborhood":null,"photo description":null,"identifying number":10927857,"longitude":-97.154408,"link":"http://www.communitywalk.com/map/1605311#0004Y[ka","id":"aez25lnnw66e","phone number":null,"state":"MB","photo title":null},"type":"Feature","geometry":{"type":"Point","coordinates":[-97.154408,49.775318]}},{"properties":{"delete":null,"city":"Moncton","category":"Working","subcategory":null,"latitude":46.092422,"photo url":null,"title":"A240","directions":"FALSE","order":9999,"street1":null,"zipcode":"E1C 1Z6","photo height":null,"freeform address":"Moncton, NB, E1C 1Z6, CA","street2":null,"country":"CA","website":null,"description":null,"photo width":null,"neighborhood":null,"photo description":null,"identifying number":10927859,"longitude":-64.780554,"link":"http://www.communitywalk.com/map/1605311#0004Y[kc","id":"aez25lv4b3e2","phone number":null,"state":"NB","photo title":null},"type":"Feature","geometry":{"type":"Point","coordinates":[-64.780554,46.092422]}},{"properties":{"delete":null,"city":"Vancouver","category":"Working","subcategory":null,"latitude":49.261758,"photo url":null,"title":"A230","directions":"FALSE","order":9999,"street1":null,"zipcode":"V6R 2R5","photo height":null,"freeform address":"Vancouver, BC, V6R 2R5, CA","street2":null,"country":"CA","website":null,"description":null,"photo width":null,"neighborhood":null,"photo description":null,"identifying number":10927860,"longitude":-123.209816,"link":"http://www.communitywalk.com/map/1605311#0004Y[kd","id":"aez25lw290hs","phone number":null,"state":"BC","photo title":null},"type":"Feature","geometry":{"type":"Point","coordinates":[-123.209816,49.261758]}},{"properties":{"delete":null,"city":"Delta","category":"Working","subcategory":null,"latitude":49.137494,"photo url":null,"title":"A231","directions":"FALSE","order":9999,"street1":null,"zipcode":"V4C 6P5","photo height":null,"freeform address":"Delta, BC, V4C 6P5, CA","street2":null,"country":"CA","website":null,"description":null,"photo width":null,"neighborhood":null,"photo description":null,"identifying number":10927861,"longitude":-122.890743,"link":"http://www.communitywalk.com/map/1605311#0004Y[ke","id":"aez25lttj1up","phone number":null,"state":"BC","photo title":null},"type":"Feature","geometry":{"type":"Point","coordinates":[-122.890743,49.137494]}},{"properties":{"delete":null,"city":"Richmond","category":"Working","subcategory":null,"latitude":49.176054,"photo url":null,"title":"A232","directions":"FALSE","order":9999,"street1":null,"zipcode":"V6V 2S8","photo height":null,"freeform address":"Richmond, BC, V6V 2S8, CA","street2":null,"country":"CA","website":null,"description":null,"photo width":null,"neighborhood":null,"photo description":null,"identifying number":10927862,"longitude":-122.980672,"link":"http://www.communitywalk.com/map/1605311#0004Y[kf","id":"aez25lm43tgo","phone number":null,"state":"BC","photo title":null},"type":"Feature","geometry":{"type":"Point","coordinates":[-122.980672,49.176054]}},{"properties":{"delete":null,"city":"Richmond","category":"Working","subcategory":null,"latitude":49.157147,"photo url":null,"title":"A233","directions":"FALSE","order":9999,"street1":null,"zipcode":"V6Y 0C1","photo height":null,"freeform address":"Richmond, BC, V6Y 0C1, CA","street2":null,"country":"CA","website":null,"description":null,"photo width":null,"neighborhood":null,"photo description":null,"identifying number":10927863,"longitude":-123.124345,"link":"http://www.communitywalk.com/map/1605311#0004Y[kg","id":"aez25lm6gbn8","phone number":null,"state":"BC","photo title":null},"type":"Feature","geometry":{"type":"Point","coordinates":[-123.124345,49.157147]}},{"properties":{"delete":null,"city":"North Vancouver","category":"Working","subcategory":null,"latitude":49.316124,"photo url":null,"title":"A234","directions":"FALSE","order":9999,"street1":null,"zipcode":"V7H 1E9","photo height":null,"freeform address":"North Vancouver, BC, V7H 1E9, CA","street2":null,"country":"CA","website":null,"description":null,"photo width":null,"neighborhood":null,"photo description":null,"identifying number":10927864,"longitude":-122.995941,"link":"http://www.communitywalk.com/map/1605311#0004Y[kh","id":"aez25lvqs7c6","phone number":null,"state":"BC","photo title":null},"type":"Feature","geometry":{"type":"Point","coordinates":[-122.995941,49.316124]}},{"properties":{"delete":null,"city":"Vancouver","category":"Working","subcategory":null,"latitude":49.239546,"photo url":null,"title":"A236","directions":"FALSE","order":9999,"street1":null,"zipcode":"V5R 2S3","photo height":null,"freeform address":"Vancouver, BC, V5R 2S3, CA","street2":null,"country":"CA","website":null,"description":null,"photo width":null,"neighborhood":null,"photo description":null,"identifying number":10927866,"longitude":-123.056276,"link":"http://www.communitywalk.com/map/1605311#0004Y[kj","id":"aez25lr0rxka","phone number":null,"state":"BC","photo title":null},"type":"Feature","geometry":{"type":"Point","coordinates":[-123.056276,49.239546]}},{"properties":{"delete":null,"city":"Surrey","category":"Working","subcategory":null,"latitude":49.129379,"photo url":null,"title":"A237","directions":"FALSE","order":9999,"street1":null,"zipcode":"V3W 1A5","photo height":null,"freeform address":"Surrey, BC, V3W 1A5, CA","street2":null,"country":"CA","website":null,"description":null,"photo width":null,"neighborhood":null,"photo description":null,"identifying number":10927867,"longitude":-122.827568,"link":"http://www.communitywalk.com/map/1605311#0004Y[kk","id":"aez25ls2i8vc","phone number":null,"state":"BC","photo title":null},"type":"Feature","geometry":{"type":"Point","coordinates":[-122.827568,49.129379]}},{"properties":{"delete":null,"city":"Burnaby","category":"Working","subcategory":null,"latitude":49.266424,"photo url":null,"title":"A238","directions":"FALSE","order":9999,"street1":null,"zipcode":"V5B 4S5","photo height":null,"freeform address":"Burnaby, BC, V5B 4S5, CA","street2":null,"country":"CA","website":null,"description":null,"photo width":null,"neighborhood":null,"photo description":null,"identifying number":10927868,"longitude":-122.99143,"link":"http://www.communitywalk.com/map/1605311#0004Y[kl","id":"aez25lz2louv","phone number":null,"state":"BC","photo title":null},"type":"Feature","geometry":{"type":"Point","coordinates":[-122.99143,49.266424]}},{"properties":{"delete":null,"city":"Vancouver","category":"Working","subcategory":null,"latitude":49.213999,"photo url":null,"title":"A239","directions":"FALSE","order":9999,"street1":null,"zipcode":"V5X 2G1","photo height":null,"freeform address":"Vancouver, BC, V5X 2G1, CA","street2":null,"country":"CA","website":null,"description":null,"photo width":null,"neighborhood":null,"photo description":null,"identifying number":10927869,"longitude":-123.095912,"link":"http://www.communitywalk.com/map/1605311#0004Y[km","id":"aez25lz7u5bh","phone number":null,"state":"BC","photo title":null},"type":"Feature","geometry":{"type":"Point","coordinates":[-123.095912,49.213999]}},{"properties":{"delete":null,"city":"Winnipeg","category":"Working","subcategory":null,"latitude":49.852311,"photo url":null,"title":"A221","directions":"FALSE","order":9999,"street1":null,"zipcode":"R3M 2J8","photo height":null,"freeform address":"Winnipeg, MB, R3M 2J8, CA","street2":null,"country":"CA","website":null,"description":null,"photo width":null,"neighborhood":null,"photo description":null,"identifying number":10927870,"longitude":-97.179832,"link":"http://www.communitywalk.com/map/1605311#0004Y[kn","id":"aez25louvqaw","phone number":null,"state":"MB","photo title":null},"type":"Feature","geometry":{"type":"Point","coordinates":[-97.179832,49.852311]}},{"properties":{"delete":null,"city":"Winnipeg","category":"Working","subcategory":null,"latitude":49.928196,"photo url":null,"title":"A222","directions":"FALSE","order":9999,"street1":null,"zipcode":"R2X 0E4","photo height":null,"freeform address":"Winnipeg, MB, R2X 0E4, CA","street2":null,"country":"CA","website":null,"description":null,"photo width":null,"neighborhood":null,"photo description":null,"identifying number":10927871,"longitude":-97.18454,"link":"http://www.communitywalk.com/map/1605311#0004Y[ko","id":"aez25lw24p8t","phone number":null,"state":"MB","photo title":null},"type":"Feature","geometry":{"type":"Point","coordinates":[-97.18454,49.928196]}},{"properties":{"delete":null,"city":"Winnipeg","category":"Working","subcategory":null,"latitude":49.87024,"photo url":null,"title":"A223","directions":"FALSE","order":9999,"street1":null,"zipcode":"R3R 0A4","photo height":null,"freeform address":"Winnipeg, MB, R3R 0A4, CA","street2":null,"country":"CA","website":null,"description":null,"photo width":null,"neighborhood":null,"photo description":null,"identifying number":10927872,"longitude":-97.258425,"link":"http://www.communitywalk.com/map/1605311#0004Y[l0","id":"aez25lxpf391","phone number":null,"state":"MB","photo title":null},"type":"Feature","geometry":{"type":"Point","coordinates":[-97.258425,49.87024]}},{"properties":{"delete":null,"city":"Winnipeg","category":"Working","subcategory":null,"latitude":49.900911,"photo url":null,"title":"A224","directions":"FALSE","order":9999,"street1":null,"zipcode":"R2Y 2K5","photo height":null,"freeform address":"Winnipeg, MB, R2Y 2K5, CA","street2":null,"country":"CA","website":null,"description":null,"photo width":null,"neighborhood":null,"photo description":null,"identifying number":10927873,"longitude":-97.282391,"link":"http://www.communitywalk.com/map/1605311#0004Y[l1","id":"aez25lltyyqi","phone number":null,"state":"MB","photo title":null},"type":"Feature","geometry":{"type":"Point","coordinates":[-97.282391,49.900911]}},{"properties":{"delete":null,"city":"Winnipeg","category":"Working","subcategory":null,"latitude":49.795409,"photo url":null,"title":"A225","directions":"FALSE","order":9999,"street1":null,"zipcode":"R3T 2R4","photo height":null,"freeform address":"Winnipeg, MB, R3T 2R4, CA","street2":null,"country":"CA","website":null,"description":null,"photo width":null,"neighborhood":null,"photo description":null,"identifying number":10927874,"longitude":-97.164508,"link":"http://www.communitywalk.com/map/1605311#0004Y[l2","id":"aez25luz7hse","phone number":null,"state":"MB","photo title":null},"type":"Feature","geometry":{"type":"Point","coordinates":[-97.164508,49.795409]}},{"properties":{"delete":null,"city":"Winnipeg","category":"Working","subcategory":null,"latitude":49.871846,"photo url":null,"title":"A226","directions":"FALSE","order":9999,"street1":null,"zipcode":"R2J 2L4","photo height":null,"freeform address":"Winnipeg, MB, R2J 2L4, CA","street2":null,"country":"CA","website":null,"description":null,"photo width":null,"neighborhood":null,"photo description":null,"identifying number":10927875,"longitude":-97.084026,"link":"http://www.communitywalk.com/map/1605311#0004Y[l3","id":"aez25lscofbk","phone number":null,"state":"MB","photo title":null},"type":"Feature","geometry":{"type":"Point","coordinates":[-97.084026,49.871846]}},{"properties":{"delete":null,"city":"Winnipeg","category":"Working","subcategory":null,"latitude":49.875698,"photo url":null,"title":"A227","directions":"FALSE","order":9999,"street1":null,"zipcode":"R3L 0M3","photo height":null,"freeform address":"Winnipeg, MB, R3L 0M3, CA","street2":null,"country":"CA","website":null,"description":null,"photo width":null,"neighborhood":null,"photo description":null,"identifying number":10927876,"longitude":-97.148191,"link":"http://www.communitywalk.com/map/1605311#0004Y[l4","id":"aez25ll9z0t8","phone number":null,"state":"MB","photo title":null},"type":"Feature","geometry":{"type":"Point","coordinates":[-97.148191,49.875698]}},{"properties":{"delete":null,"city":"Winnipeg","category":"Working","subcategory":null,"latitude":49.882709,"photo url":null,"title":"A229","directions":"FALSE","order":9999,"street1":null,"zipcode":"R3C 1Z5","photo height":null,"freeform address":"Winnipeg, MB, R3C 1Z5, CA","street2":null,"country":"CA","website":null,"description":null,"photo width":null,"neighborhood":null,"photo description":null,"identifying number":10927878,"longitude":-97.15642,"link":"http://www.communitywalk.com/map/1605311#0004Y[l6","id":"aez25llz65ff","phone number":null,"state":"MB","photo title":null},"type":"Feature","geometry":{"type":"Point","coordinates":[-97.15642,49.882709]}},{"properties":{"delete":null,"city":"Fredericton","category":"Working","subcategory":null,"latitude":45.990512,"photo url":null,"title":"A260","directions":"FALSE","order":9999,"street1":null,"zipcode":"E3A 4Z3","photo height":null,"freeform address":"Fredericton, NB, E3A 4Z3, CA","street2":null,"country":"CA","website":null,"description":null,"photo width":null,"neighborhood":null,"photo description":null,"identifying number":10927879,"longitude":-66.661921,"link":"http://www.communitywalk.com/map/1605311#0004Y[l7","id":"aez25lr1gy4v","phone number":null,"state":"NB","photo title":null},"type":"Feature","geometry":{"type":"Point","coordinates":[-66.661921,45.990512]}},{"properties":{"delete":null,"city":"Moncton","category":"Working","subcategory":null,"latitude":46.083194,"photo url":null,"title":"A250","directions":"FALSE","order":9999,"street1":null,"zipcode":"E1E 1T7","photo height":null,"freeform address":"Moncton, NB, E1E 1T7, CA","street2":null,"country":"CA","website":null,"description":null,"photo width":null,"neighborhood":null,"photo description":null,"identifying number":10927880,"longitude":-64.807858,"link":"http://www.communitywalk.com/map/1605311#0004Y[l8","id":"aez25ljldl8c","phone number":null,"state":"NB","photo title":null},"type":"Feature","geometry":{"type":"Point","coordinates":[-64.807858,46.083194]}},{"properties":{"delete":null,"city":"Riverview","category":"Working","subcategory":null,"latitude":46.041613,"photo url":null,"title":"A251","directions":"FALSE","order":9999,"street1":null,"zipcode":"E1B 5P1","photo height":null,"freeform address":"Riverview, NB, E1B 5P1, CA","street2":null,"country":"CA","website":null,"description":null,"photo width":null,"neighborhood":null,"photo description":null,"identifying number":10927881,"longitude":-64.811312,"link":"http://www.communitywalk.com/map/1605311#0004Y[l9","id":"aez25ls2sm38","phone number":null,"state":"NB","photo title":null},"type":"Feature","geometry":{"type":"Point","coordinates":[-64.811312,46.041613]}},{"properties":{"delete":null,"city":"Dieppe","category":"Working","subcategory":null,"latitude":46.079943,"photo url":null,"title":"A254","directions":"FALSE","order":9999,"street1":null,"zipcode":"E1A 5N2","photo height":null,"freeform address":"Dieppe, NB, E1A 5N2, CA","street2":null,"country":"CA","website":null,"description":null,"photo width":null,"neighborhood":null,"photo description":null,"identifying number":10927884,"longitude":-64.723211,"link":"http://www.communitywalk.com/map/1605311#0004Y[l","id":"aez25lpwbykg","phone number":null,"state":"NB","photo title":null},"type":"Feature","geometry":{"type":"Point","coordinates":[-64.723211,46.079943]}},{"properties":{"delete":null,"city":"Moncton","category":"Working","subcategory":null,"latitude":46.117809,"photo url":null,"title":"A257","directions":"FALSE","order":9999,"street1":null,"zipcode":"E1G 5E3","photo height":null,"freeform address":"Moncton, NB, E1G 5E3, CA","street2":null,"country":"CA","website":null,"description":null,"photo width":null,"neighborhood":null,"photo description":null,"identifying number":10927887,"longitude":-64.852089,"link":"http://www.communitywalk.com/map/1605311#0004Y[lp","id":"aez25ls1xpcj","phone number":null,"state":"NB","photo title":null},"type":"Feature","geometry":{"type":"Point","coordinates":[-64.852089,46.117809]}},{"properties":{"delete":null,"city":"Dieppe","category":"Working","subcategory":null,"latitude":46.079715,"photo url":null,"title":"A258","directions":"FALSE","order":9999,"street1":null,"zipcode":"E1A 5J3","photo height":null,"freeform address":"Dieppe, NB, E1A 5J3, CA","street2":null,"country":"CA","website":null,"description":null,"photo width":null,"neighborhood":null,"photo description":null,"identifying number":10927888,"longitude":-64.72179,"link":"http://www.communitywalk.com/map/1605311#0004Y[l@","id":"aez25lwfseq2","phone number":null,"state":"NB","photo title":null},"type":"Feature","geometry":{"type":"Point","coordinates":[-64.72179,46.079715]}},{"properties":{"delete":null,"city":"Fredericton","category":"Working","subcategory":null,"latitude":45.944617,"photo url":null,"title":"A259","directions":"FALSE","order":9999,"street1":null,"zipcode":"E3B 6K4","photo height":null,"freeform address":"Fredericton, NB, E3B 6K4, CA","street2":null,"country":"CA","website":null,"description":null,"photo width":null,"neighborhood":null,"photo description":null,"identifying number":10927889,"longitude":-66.653667,"link":"http://www.communitywalk.com/map/1605311#0004Y[lA","id":"aez25lzhyqvq","phone number":null,"state":"NB","photo title":null},"type":"Feature","geometry":{"type":"Point","coordinates":[-66.653667,45.944617]}},{"properties":{"delete":null,"city":"Moncton","category":"Working","subcategory":null,"latitude":46.090177,"photo url":null,"title":"A242","directions":"FALSE","order":9999,"street1":null,"zipcode":"E1C 0H2","photo height":null,"freeform address":"Moncton, NB, E1C 0H2, CA","street2":null,"country":"CA","website":null,"description":null,"photo width":null,"neighborhood":null,"photo description":null,"identifying number":10927891,"longitude":-64.78317,"link":"http://www.communitywalk.com/map/1605311#0004Y[lC","id":"aez25lu4jlkd","phone number":null,"state":"NB","photo title":null},"type":"Feature","geometry":{"type":"Point","coordinates":[-64.78317,46.090177]}},{"properties":{"delete":null,"city":"Hillsborough","category":"Working","subcategory":null,"latitude":45.905284,"photo url":null,"title":"A243","directions":"FALSE","order":9999,"street1":null,"zipcode":"E4H 2Z2","photo height":null,"freeform address":"Hillsborough, NB, E4H 2Z2, CA","street2":null,"country":"CA","website":null,"description":null,"photo width":null,"neighborhood":null,"photo description":null,"identifying number":10927892,"longitude":-64.635362,"link":"http://www.communitywalk.com/map/1605311#0004Y[lD","id":"aez25ltpdn3u","phone number":null,"state":"NB","photo title":null},"type":"Feature","geometry":{"type":"Point","coordinates":[-64.635362,45.905284]}},{"properties":{"delete":null,"city":"Dieppe","category":"Working","subcategory":null,"latitude":46.079715,"photo url":null,"title":"A244","directions":"FALSE","order":9999,"street1":null,"zipcode":"E1A 8Y9","photo height":null,"freeform address":"Dieppe, NB, E1A 8Y9, CA","street2":null,"country":"CA","website":null,"description":null,"photo width":null,"neighborhood":null,"photo description":null,"identifying number":10927893,"longitude":-64.72179,"link":"http://www.communitywalk.com/map/1605311#0004Y[lE","id":"aez25lkp3iaz","phone number":null,"state":"NB","photo title":null},"type":"Feature","geometry":{"type":"Point","coordinates":[-64.72179,46.079715]}},{"properties":{"delete":null,"city":"Irishtown","category":"Working","subcategory":null,"latitude":46.226578,"photo url":null,"title":"A245","directions":"FALSE","order":9999,"street1":null,"zipcode":"E1H 1R1","photo height":null,"freeform address":"Irishtown, NB, E1H 1R1, CA","street2":null,"country":"CA","website":null,"description":null,"photo width":null,"neighborhood":null,"photo description":null,"identifying number":10927894,"longitude":-64.779614,"link":"http://www.communitywalk.com/map/1605311#0004Y[lF","id":"aez25ly672p4","phone number":null,"state":"NB","photo title":null},"type":"Feature","geometry":{"type":"Point","coordinates":[-64.779614,46.226578]}},{"properties":{"delete":null,"city":"Moncton","category":"Working","subcategory":null,"latitude":46.078417,"photo url":null,"title":"A246","directions":"FALSE","order":9999,"street1":null,"zipcode":"E1E 1L7","photo height":null,"freeform address":"Moncton, NB, E1E 1L7, CA","street2":null,"country":"CA","website":null,"description":null,"photo width":null,"neighborhood":null,"photo description":null,"identifying number":10927895,"longitude":-64.802741,"link":"http://www.communitywalk.com/map/1605311#0004Y[lG","id":"aez25lzm58sd","phone number":null,"state":"NB","photo title":null},"type":"Feature","geometry":{"type":"Point","coordinates":[-64.802741,46.078417]}},{"properties":{"delete":null,"city":"Riverview","category":"Working","subcategory":null,"latitude":46.051568,"photo url":null,"title":"A249","directions":"FALSE","order":9999,"street1":null,"zipcode":"E1B 3M2","photo height":null,"freeform address":"Riverview, NB, E1B 3M2, CA","street2":null,"country":"CA","website":null,"description":null,"photo width":null,"neighborhood":null,"photo description":null,"identifying number":10927898,"longitude":-64.806057,"link":"http://www.communitywalk.com/map/1605311#0004Y[lJ","id":"aez25llpb2c1","phone number":null,"state":"NB","photo title":null},"type":"Feature","geometry":{"type":"Point","coordinates":[-64.806057,46.051568]}},{"properties":{"delete":null,"city":"Moncton","category":"Working","subcategory":null,"latitude":46.078676,"photo url":null,"title":"A262","directions":"FALSE","order":9999,"street1":null,"zipcode":"E1E 1N1","photo height":null,"freeform address":"Moncton, NB, E1E 1N1, CA","street2":null,"country":"CA","website":null,"description":null,"photo width":null,"neighborhood":null,"photo description":null,"identifying number":10927900,"longitude":-64.811611,"link":"http://www.communitywalk.com/map/1605311#0004Y[lL","id":"aez25lrj2d1n","phone number":null,"state":"NB","photo title":null},"type":"Feature","geometry":{"type":"Point","coordinates":[-64.811611,46.078676]}},{"properties":{"delete":null,"city":"Moncton","category":"Working","subcategory":null,"latitude":46.111107,"photo url":null,"title":"A265","directions":"FALSE","order":9999,"street1":null,"zipcode":"E1C 4J9","photo height":null,"freeform address":"Moncton, NB, E1C 4J9, CA","street2":null,"country":"CA","website":null,"description":null,"photo width":null,"neighborhood":null,"photo description":null,"identifying number":10927903,"longitude":-64.81068,"link":"http://www.communitywalk.com/map/1605311#0004Y[lO","id":"aez25lxrxedy","phone number":null,"state":"NB","photo title":null},"type":"Feature","geometry":{"type":"Point","coordinates":[-64.81068,46.111107]}},{"properties":{"delete":null,"city":"Richibucto","category":"Working","subcategory":null,"latitude":46.673918,"photo url":null,"title":"A266","directions":"FALSE","order":9999,"street1":null,"zipcode":"E4W 3W5","photo height":null,"freeform address":"Richibucto, NB, E4W 3W5, CA","street2":null,"country":"CA","website":null,"description":null,"photo width":null,"neighborhood":null,"photo description":null,"identifying number":10927904,"longitude":-64.864198,"link":"http://www.communitywalk.com/map/1605311#0004Y[lP","id":"aez25lohd4cg","phone number":null,"state":"NB","photo title":null},"type":"Feature","geometry":{"type":"Point","coordinates":[-64.864198,46.673918]}},{"properties":{"delete":null,"city":"Riverview","category":"Working","subcategory":null,"latitude":46.073074,"photo url":null,"title":"A268","directions":"FALSE","order":9999,"street1":null,"zipcode":"E1B 0A8","photo height":null,"freeform address":"Riverview, NB, E1B 0A8, CA","street2":null,"country":"CA","website":null,"description":null,"photo width":null,"neighborhood":null,"photo description":null,"identifying number":10927906,"longitude":-64.759445,"link":"http://www.communitywalk.com/map/1605311#0004Y[lR","id":"aez25lpvbttn","phone number":null,"state":"NB","photo title":null},"type":"Feature","geometry":{"type":"Point","coordinates":[-64.759445,46.073074]}},{"properties":{"delete":null,"city":"Moncton","category":"Working","subcategory":null,"latitude":46.0938,"photo url":null,"title":"A269","directions":"FALSE","order":9999,"street1":null,"zipcode":"E1C 5E4","photo height":null,"freeform address":"Moncton, NB, E1C 5E4, CA","street2":null,"country":"CA","website":null,"description":null,"photo width":null,"neighborhood":null,"photo description":null,"identifying number":10927907,"longitude":-64.782191,"link":"http://www.communitywalk.com/map/1605311#0004Y[lS","id":"aez25lprv9gk","phone number":null,"state":"NB","photo title":null},"type":"Feature","geometry":{"type":"Point","coordinates":[-64.782191,46.0938]}},{"properties":{"delete":null,"city":"Allison","category":"Working","subcategory":null,"latitude":46.062556,"photo url":null,"title":"A270","directions":"FALSE","order":9999,"street1":null,"zipcode":"E1G 4K8","photo height":null,"freeform address":"Allison, NB, E1G 4K8, CA","street2":null,"country":"CA","website":null,"description":null,"photo width":null,"neighborhood":null,"photo description":null,"identifying number":10927908,"longitude":-64.922997,"link":"http://www.communitywalk.com/map/1605311#0004Y[lT","id":"aez25ly5ex95","phone number":null,"state":"NB","photo title":null},"type":"Feature","geometry":{"type":"Point","coordinates":[-64.922997,46.062556]}},{"properties":{"delete":null,"city":"Riverview","category":"Working","subcategory":null,"latitude":46.057466,"photo url":null,"title":"A271","directions":"FALSE","order":9999,"street1":null,"zipcode":"E1B 4J8","photo height":null,"freeform address":"Riverview, NB, E1B 4J8, CA","street2":null,"country":"CA","website":null,"description":null,"photo width":null,"neighborhood":null,"photo description":null,"identifying number":10927909,"longitude":-64.791642,"link":"http://www.communitywalk.com/map/1605311#0004Y[lU","id":"aez25lr34go0","phone number":null,"state":"NB","photo title":null},"type":"Feature","geometry":{"type":"Point","coordinates":[-64.791642,46.057466]}},{"properties":{"delete":null,"city":"Moncton","category":"Working","subcategory":null,"latitude":46.090357,"photo url":null,"title":"A273","directions":"FALSE","order":9999,"street1":null,"zipcode":"E1C 1R2","photo height":null,"freeform address":"Moncton, NB, E1C 1R2, CA","street2":null,"country":"CA","website":null,"description":null,"photo width":null,"neighborhood":null,"photo description":null,"identifying number":10927911,"longitude":-64.781064,"link":"http://www.communitywalk.com/map/1605311#0004Y[lW","id":"aez25ln87v2v","phone number":null,"state":"NB","photo title":null},"type":"Feature","geometry":{"type":"Point","coordinates":[-64.781064,46.090357]}},{"properties":{"delete":null,"city":"Dieppe","category":"Working","subcategory":null,"latitude":46.079715,"photo url":null,"title":"A274","directions":"FALSE","order":9999,"street1":null,"zipcode":"E1A 9A9","photo height":null,"freeform address":"Dieppe, NB, E1A 9A9, CA","street2":null,"country":"CA","website":null,"description":null,"photo width":null,"neighborhood":null,"photo description":null,"identifying number":10927912,"longitude":-64.72179,"link":"http://www.communitywalk.com/map/1605311#0004Y[lX","id":"aez25llrh7ti","phone number":null,"state":"NB","photo title":null},"type":"Feature","geometry":{"type":"Point","coordinates":[-64.72179,46.079715]}},{"properties":{"delete":null,"city":"Moncton","category":"Working","subcategory":null,"latitude":46.108706,"photo url":null,"title":"A275","directions":"FALSE","order":9999,"street1":null,"zipcode":"E1C 8S4","photo height":null,"freeform address":"Moncton, NB, E1C 8S4, CA","street2":null,"country":"CA","website":null,"description":null,"photo width":null,"neighborhood":null,"photo description":null,"identifying number":10927913,"longitude":-64.821434,"link":"http://www.communitywalk.com/map/1605311#0004Y[lY","id":"aez25lu0k5dk","phone number":null,"state":"NB","photo title":null},"type":"Feature","geometry":{"type":"Point","coordinates":[-64.821434,46.108706]}},{"properties":{"delete":null,"city":"Moncton","category":"Working","subcategory":null,"latitude":46.056831,"photo url":null,"title":"A276","directions":"FALSE","order":9999,"street1":null,"zipcode":"E1E 3S3","photo height":null,"freeform address":"Moncton, NB, E1E 3S3, CA","street2":null,"country":"CA","website":null,"description":null,"photo width":null,"neighborhood":null,"photo description":null,"identifying number":10927914,"longitude":-64.859407,"link":"http://www.communitywalk.com/map/1605311#0004Y[lZ","id":"aez25lruqqzc","phone number":null,"state":"NB","photo title":null},"type":"Feature","geometry":{"type":"Point","coordinates":[-64.859407,46.056831]}},{"properties":{"delete":null,"city":"Moncton","category":"Working","subcategory":null,"latitude":46.125268,"photo url":null,"title":"A278","directions":"FALSE","order":9999,"street1":null,"zipcode":"E1A 7A1","photo height":null,"freeform address":"Moncton, NB, E1A 7A1, CA","street2":null,"country":"CA","website":null,"description":null,"photo width":null,"neighborhood":null,"photo description":null,"identifying number":10927916,"longitude":-64.719908,"link":"http://www.communitywalk.com/map/1605311#0004Y[l\\","id":"aez25lzpfb3c","phone number":null,"state":"NB","photo title":null},"type":"Feature","geometry":{"type":"Point","coordinates":[-64.719908,46.125268]}},{"properties":{"delete":null,"city":"River Glade","category":"Working","subcategory":null,"latitude":46.032406,"photo url":null,"title":"A279","directions":"FALSE","order":9999,"street1":null,"zipcode":"E4Z 3P2","photo height":null,"freeform address":"River Glade, NB, E4Z 3P2, CA","street2":null,"country":"CA","website":null,"description":null,"photo width":null,"neighborhood":null,"photo description":null,"identifying number":10927917,"longitude":-65.112897,"link":"http://www.communitywalk.com/map/1605311#0004Y[l]","id":"aez25lzvnzrd","phone number":null,"state":"NB","photo title":null},"type":"Feature","geometry":{"type":"Point","coordinates":[-65.112897,46.032406]}},{"properties":{"delete":null,"city":"Richmond","category":"Working","subcategory":null,"latitude":49.166994,"photo url":null,"title":"A281","directions":"FALSE","order":9999,"street1":null,"zipcode":"V6Y 4J5","photo height":null,"freeform address":"Richmond, BC, V6Y 4J5, CA","street2":null,"country":"CA","website":null,"description":null,"photo width":null,"neighborhood":null,"photo description":null,"identifying number":10927919,"longitude":-123.12145,"link":"http://www.communitywalk.com/map/1605311#0004Y[l_","id":"aez25lxudqsx","phone number":null,"state":"BC","photo title":null},"type":"Feature","geometry":{"type":"Point","coordinates":[-123.12145,49.166994]}},{"properties":{"delete":null,"city":"Vancouver","category":"Working","subcategory":null,"latitude":49.261112,"photo url":null,"title":"A282","directions":"FALSE","order":9999,"street1":null,"zipcode":"V6R 3J2","photo height":null,"freeform address":"Vancouver, BC, V6R 3J2, CA","street2":null,"country":"CA","website":null,"description":null,"photo width":null,"neighborhood":null,"photo description":null,"identifying number":10927920,"longitude":-123.180217,"link":"http://www.communitywalk.com/map/1605311#0004Y[l`","id":"aez25lndd82m","phone number":null,"state":"BC","photo title":null},"type":"Feature","geometry":{"type":"Point","coordinates":[-123.180217,49.261112]}},{"properties":{"delete":null,"city":"Surrey","category":"Working","subcategory":null,"latitude":49.140557,"photo url":null,"title":"A283","directions":"FALSE","order":9999,"street1":null,"zipcode":"V3W 9P6","photo height":null,"freeform address":"Surrey, BC, V3W 9P6, CA","street2":null,"country":"CA","website":null,"description":null,"photo width":null,"neighborhood":null,"photo description":null,"identifying number":10927921,"longitude":-122.880892,"link":"http://www.communitywalk.com/map/1605311#0004Y[la","id":"aez25lv55ttl","phone number":null,"state":"BC","photo title":null},"type":"Feature","geometry":{"type":"Point","coordinates":[-122.880892,49.140557]}},{"properties":{"delete":null,"city":"Vancouver","category":"Working","subcategory":null,"latitude":49.267317,"photo url":null,"title":"A285","directions":"FALSE","order":9999,"street1":null,"zipcode":"V5N 4A8","photo height":null,"freeform address":"Vancouver, BC, V5N 4A8, CA","street2":null,"country":"CA","website":null,"description":null,"photo width":null,"neighborhood":null,"photo description":null,"identifying number":10927923,"longitude":-123.070121,"link":"http://www.communitywalk.com/map/1605311#0004Y[lc","id":"aez25lvj7iy4","phone number":null,"state":"BC","photo title":null},"type":"Feature","geometry":{"type":"Point","coordinates":[-123.070121,49.267317]}},{"properties":{"delete":null,"city":"Burnaby","category":"Working","subcategory":null,"latitude":49.215003,"photo url":null,"title":"A286","directions":"FALSE","order":9999,"street1":null,"zipcode":"V5E 1A8","photo height":null,"freeform address":"Burnaby, BC, V5E 1A8, CA","street2":null,"country":"CA","website":null,"description":null,"photo width":null,"neighborhood":null,"photo description":null,"identifying number":10927924,"longitude":-122.965079,"link":"http://www.communitywalk.com/map/1605311#0004Y[ld","id":"aez25loiu081","phone number":null,"state":"BC","photo title":null},"type":"Feature","geometry":{"type":"Point","coordinates":[-122.965079,49.215003]}},{"properties":{"delete":null,"city":"Surrey","category":"Working","subcategory":null,"latitude":49.182455,"photo url":null,"title":"A287","directions":"FALSE","order":9999,"street1":null,"zipcode":"V3T 3L4","photo height":null,"freeform address":"Surrey, BC, V3T 3L4, CA","street2":null,"country":"CA","website":null,"description":null,"photo width":null,"neighborhood":null,"photo description":null,"identifying number":10927925,"longitude":-122.861966,"link":"http://www.communitywalk.com/map/1605311#0004Y[le","id":"aez25lupssg5","phone number":null,"state":"BC","photo title":null},"type":"Feature","geometry":{"type":"Point","coordinates":[-122.861966,49.182455]}},{"properties":{"delete":null,"city":"Coquitlam","category":"Working","subcategory":null,"latitude":49.283425,"photo url":null,"title":"A289","directions":"FALSE","order":9999,"street1":null,"zipcode":"V3B 7T9","photo height":null,"freeform address":"Coquitlam, BC, V3B 7T9, CA","street2":null,"country":"CA","website":null,"description":null,"photo width":null,"neighborhood":null,"photo description":null,"identifying number":10927927,"longitude":-122.786229,"link":"http://www.communitywalk.com/map/1605311#0004Y[lg","id":"aez25lxpk6l1","phone number":null,"state":"BC","photo title":null},"type":"Feature","geometry":{"type":"Point","coordinates":[-122.786229,49.283425]}},{"properties":{"delete":null,"city":"Surrey","category":"Working","subcategory":null,"latitude":49.190757,"photo url":null,"title":"A290","directions":"FALSE","order":9999,"street1":null,"zipcode":"V3R 0M5","photo height":null,"freeform address":"Surrey, BC, V3R 0M5, CA","street2":null,"country":"CA","website":null,"description":null,"photo width":null,"neighborhood":null,"photo description":null,"identifying number":10927928,"longitude":-122.809892,"link":"http://www.communitywalk.com/map/1605311#0004Y[lh","id":"aez25lyisi0y","phone number":null,"state":"BC","photo title":null},"type":"Feature","geometry":{"type":"Point","coordinates":[-122.809892,49.190757]}},{"properties":{"delete":null,"city":"Vancouver","category":"Working","subcategory":null,"latitude":49.274535,"photo url":null,"title":"A291","directions":"FALSE","order":9999,"street1":null,"zipcode":"V5L 2N3","photo height":null,"freeform address":"Vancouver, BC, V5L 2N3, CA","street2":null,"country":"CA","website":null,"description":null,"photo width":null,"neighborhood":null,"photo description":null,"identifying number":10927929,"longitude":-123.066461,"link":"http://www.communitywalk.com/map/1605311#0004Y[li","id":"aez25lrjc0ib","phone number":null,"state":"BC","photo title":null},"type":"Feature","geometry":{"type":"Point","coordinates":[-123.066461,49.274535]}},{"properties":{"delete":null,"city":"Vancouver","category":"Working","subcategory":null,"latitude":49.225553,"photo url":null,"title":"A292","directions":"FALSE","order":9999,"street1":null,"zipcode":"V5S 1H4","photo height":null,"freeform address":"Vancouver, BC, V5S 1H4, CA","street2":null,"country":"CA","website":null,"description":null,"photo width":null,"neighborhood":null,"photo description":null,"identifying number":10927930,"longitude":-123.037712,"link":"http://www.communitywalk.com/map/1605311#0004Y[lj","id":"aez25ljl79u4","phone number":null,"state":"BC","photo title":null},"type":"Feature","geometry":{"type":"Point","coordinates":[-123.037712,49.225553]}},{"properties":{"delete":null,"city":"Surrey","category":"Working","subcategory":null,"latitude":49.133336,"photo url":null,"title":"A293","directions":"FALSE","order":9999,"street1":null,"zipcode":"V3W 7Z5","photo height":null,"freeform address":"Surrey, BC, V3W 7Z5, CA","street2":null,"country":"CA","website":null,"description":null,"photo width":null,"neighborhood":null,"photo description":null,"identifying number":10927931,"longitude":-122.854501,"link":"http://www.communitywalk.com/map/1605311#0004Y[lk","id":"aez25lppr616","phone number":null,"state":"BC","photo title":null},"type":"Feature","geometry":{"type":"Point","coordinates":[-122.854501,49.133336]}},{"properties":{"delete":null,"city":"Vancouver","category":"Working","subcategory":null,"latitude":49.229056,"photo url":null,"title":"A294","directions":"FALSE","order":9999,"street1":null,"zipcode":"V5R 3E7","photo height":null,"freeform address":"Vancouver, BC, V5R 3E7, CA","street2":null,"country":"CA","website":null,"description":null,"photo width":null,"neighborhood":null,"photo description":null,"identifying number":10927932,"longitude":-123.033713,"link":"http://www.communitywalk.com/map/1605311#0004Y[ll","id":"aez25lo5cpwt","phone number":null,"state":"BC","photo title":null},"type":"Feature","geometry":{"type":"Point","coordinates":[-123.033713,49.229056]}},{"properties":{"delete":null,"city":"Vancouver","category":"Working","subcategory":null,"latitude":49.258914,"photo url":null,"title":"A297","directions":"FALSE","order":9999,"street1":null,"zipcode":"V5N 2B7","photo height":null,"freeform address":"Vancouver, BC, V5N 2B7, CA","street2":null,"country":"CA","website":null,"description":null,"photo width":null,"neighborhood":null,"photo description":null,"identifying number":10927935,"longitude":-123.071122,"link":"http://www.communitywalk.com/map/1605311#0004Y[lo","id":"aez25lllnatu","phone number":null,"state":"BC","photo title":null},"type":"Feature","geometry":{"type":"Point","coordinates":[-123.071122,49.258914]}}],"is_temporal":false,"author":{"url":"","metadata":"","contact_name":"","contact_address":"","source":"","contact_phone":""},"source":"","pagination":{"sort":null,"start":0,"total":216,"limit":1000000},"state":"complete","tags":"","published":"2014-08-16T21:54:23-04:00","id":366542}