{"type":"FeatureCollection","data_type":"Dataset","url_type":null,"permissions":[{"permissions":{"download":true,"view":true},"group_id":"everyone"}],"classification":null,"title":"CSV_GT_90_Completed","count":29,"stream_id":367122,"contributor":{"url":"http://geocommons.com/users/74787","name":"stevendosanjh"},"data_attributes":null,"calculation_params":null,"icon_link":null,"link":"http://geocommons.com/overlays/367122.json","extent":[-123.133,43.5367,-64.3645,49.9468],"geometry_types":["point"],"unique_name":null,"name":"CSV_GT_90_Completed","feature_count":29,"description":"","next_feature":null,"is_raster":false,"short_classification":"Y","stats":{"latitude":{"max":49.946817,"mean":45.2926033103448,"variance":6.54736453364344,"stdev":2.55878184565301,"median":43.763044,"min":43.536687},"distance from centre":{"max":284.5,"mean":28.8241379310345,"variance":2636.68403940887,"stdev":51.3486517779081,"median":14.7,"min":4.1},"longitude":{"max":-64.364546,"mean":-85.3715456551724,"variance":228.255047815446,"stdev":15.1081119871229,"median":-79.664946,"min":-123.132756}},"features":[{"properties":{"city":"Mississauga","category":"90+","subcategory":null,"latitude":43.58789,"title":"A35","work history (months)":"FE:105/7 PE:/ H:18","location of education":"Canada","zipcode":"L5A 2A5","freeform address":"Mississauga, ON, L5A 2A5, CA","country":"CA","work experience type":"C.C./Shift/Mgt./","distance from centre":14.7,"description":null,"education":"High School-Non Bus","longitude":-79.619856,"id":"af0pchl27g71","state":"ON"},"type":"Feature","geometry":{"type":"Point","coordinates":[-79.619856,43.58789]}},{"properties":{"city":"Brampton","category":"90+","subcategory":null,"latitude":43.659312,"title":"A36","work history (months)":"FE:96/2 PE:/ H:0","location of education":"Canada","zipcode":"L6Y 2V1","freeform address":"Brampton, ON, L6Y 2V1, CA","country":"CA","work experience type":"Shift/Retail/","distance from centre":7.2,"description":null,"education":"University-Bus","longitude":-79.756373,"id":"af0pchi1aj9n","state":"ON"},"type":"Feature","geometry":{"type":"Point","coordinates":[-79.756373,43.659312]}},{"properties":{"city":"Mississauga","category":"90+","subcategory":null,"latitude":43.574453,"title":"A39","work history (months)":"FE:33/4 PE:72/1 H:0","location of education":"Canada","zipcode":"L5M 5K7","freeform address":"Mississauga, ON, L5M 5K7, CA","country":"CA","work experience type":"C.C./Shift/Retail/","distance from centre":6.1,"description":null,"education":"University-Bus","longitude":-79.733503,"id":"af0pchqzjzat","state":"ON"},"type":"Feature","geometry":{"type":"Point","coordinates":[-79.733503,43.574453]}},{"properties":{"city":"Brampton","category":"90+","subcategory":null,"latitude":43.643396,"title":"A52","work history (months)":"FE:216/3 PE:/ H:12","location of education":"India","zipcode":"L6Y 4Z8","freeform address":"Brampton, ON, L6Y 4Z8, CA","country":"CA","work experience type":"C.C./Shift/Retail/Mgt./","distance from centre":7.4,"description":null,"education":"University-Non Bus","longitude":-79.735431,"id":"af0pchmicbyk","state":"ON"},"type":"Feature","geometry":{"type":"Point","coordinates":[-79.735431,43.643396]}},{"properties":{"city":"Toronto","category":"90+","subcategory":null,"latitude":43.808501,"title":"A45","work history (months)":"FE:/ PE:95/6 H:16","location of education":"Canada","zipcode":"M1B 6G3","freeform address":"Toronto, ON, M1B 6G3, CA","country":"CA","work experience type":"Shift/Retail/","distance from centre":54.3,"description":null,"education":"University-Non Bus","longitude":-79.183951,"id":"af0pchpttlmu","state":"ON"},"type":"Feature","geometry":{"type":"Point","coordinates":[-79.183951,43.808501]}},{"properties":{"city":"Mississauga","category":"90+","subcategory":null,"latitude":43.626531,"title":"A47","work history (months)":"FE:34/1 PE:58/2 H:13","location of education":"Canada","zipcode":"L5W 1R1","freeform address":"Mississauga, ON, L5W 1R1, CA","country":"CA","work experience type":"C.C./Shift/Retail/","distance from centre":5.6,"description":null,"education":"University-Bus","longitude":-79.709838,"id":"af0pchtyb8fq","state":"ON"},"type":"Feature","geometry":{"type":"Point","coordinates":[-79.709838,43.626531]}},{"properties":{"city":"Mississauga","category":"90+","subcategory":null,"latitude":43.536687,"title":"A65","work history (months)":"FE:120/4 PE:/ H:","location of education":"Canada","zipcode":"L5M 8A5","freeform address":"Mississauga, ON, L5M 8A5, CA","country":"CA","work experience type":"C.C./Shift/Retail/","distance from centre":11.7,"description":null,"education":"College-Non Bus","longitude":-79.733503,"id":"af0pchrhfs53","state":"ON"},"type":"Feature","geometry":{"type":"Point","coordinates":[-79.733503,43.536687]}},{"properties":{"city":"Toronto","category":"90+","subcategory":null,"latitude":43.761324,"title":"A70","work history (months)":"FE:16/2 PE:6/1 H:2","location of education":"Canada","zipcode":"M3J 1K6","freeform address":"Toronto, ON, M3J 1K6, CA","country":"CA","work experience type":"Shift/Retail/","distance from centre":31.5,"description":null,"education":"College-Bus","longitude":-79.501672,"id":"af0pchqe4t3c","state":"ON"},"type":"Feature","geometry":{"type":"Point","coordinates":[-79.501672,43.761324]}},{"properties":{"city":"Mississauga","category":"90+","subcategory":null,"latitude":43.603531,"title":"A71","work history (months)":"FE:92/3 PE:50/3 H:0","location of education":"Canada","zipcode":"L5A 3H8","freeform address":"Mississauga, ON, L5A 3H8, CA","country":"CA","work experience type":"C.C./Shift/","distance from centre":14.8,"description":null,"education":"College-Bus","longitude":-79.621961,"id":"af0pchgvdczv","state":"ON"},"type":"Feature","geometry":{"type":"Point","coordinates":[-79.621961,43.603531]}},{"properties":{"city":"Brampton","category":"90+","subcategory":null,"latitude":43.763044,"title":"A81","work history (months)":"FE:48/2 PE:20/4 H:16","location of education":"Canada","zipcode":"L6R 2L2","freeform address":"Brampton, ON, L6R 2L2, CA","country":"CA","work experience type":"C.C./Shift/Retail/","distance from centre":24.0,"description":null,"education":"College-Non Bus","longitude":-79.725791,"id":"af0pchkazxx9","state":"ON"},"type":"Feature","geometry":{"type":"Point","coordinates":[-79.725791,43.763044]}},{"properties":{"city":"Mississauga","category":"90+","subcategory":null,"latitude":43.715462,"title":"A83","work history (months)":"FE:96/3 PE:/ H:24","location of education":"India","zipcode":"L4T 2R5","freeform address":"Mississauga, ON, L4T 2R5, CA","country":"CA","work experience type":"Mgt./","distance from centre":21.1,"description":null,"education":"University-Bus","longitude":-79.642316,"id":"af0pchfkizhc","state":"ON"},"type":"Feature","geometry":{"type":"Point","coordinates":[-79.642316,43.715462]}},{"properties":{"city":"Toronto","category":"90+","subcategory":null,"latitude":43.691215,"title":"A84","work history (months)":"FE:30/4 PE:/ H:24","location of education":"Bangladesh","zipcode":"M1L 2X3","freeform address":"Toronto, ON, M1L 2X3, CA","country":"CA","work experience type":"Shift/Retail/","distance from centre":52.3,"description":null,"education":"University-Bus","longitude":-79.284841,"id":"af0pchm9qoxe","state":"ON"},"type":"Feature","geometry":{"type":"Point","coordinates":[-79.284841,43.691215]}},{"properties":{"city":"Toronto","category":"90+","subcategory":null,"latitude":43.781033,"title":"A87","work history (months)":"FE:15/3 PE:/ H:42","location of education":"Canada","zipcode":"M2M 4L6","freeform address":"Toronto, ON, M2M 4L6, CA","country":"CA","work experience type":"Shift/","distance from centre":37.4,"description":null,"education":"University-Non Bus","longitude":-79.41289,"id":"af0pchs25hx1","state":"ON"},"type":"Feature","geometry":{"type":"Point","coordinates":[-79.41289,43.781033]}},{"properties":{"city":"Brampton","category":"90+","subcategory":null,"latitude":43.76127,"title":"A102","work history (months)":"FE:55/3 PE:/ H:0","location of education":"Canada","zipcode":"L6R 3C5","freeform address":"Brampton, ON, L6R 3C5, CA","country":"CA","work experience type":"Shift/Retail/","distance from centre":23.5,"description":null,"education":"University-Non Bus","longitude":-79.753657,"id":"af0pchu207bd","state":"ON"},"type":"Feature","geometry":{"type":"Point","coordinates":[-79.753657,43.76127]}},{"properties":{"city":"Toronto","category":"90+","subcategory":null,"latitude":43.676168,"title":"A106","work history (months)":"FE:73/3 PE:/ H:19","location of education":"Canada","zipcode":"M9R 0A3","freeform address":"Toronto, ON, M9R 0A3, CA","country":"CA","work experience type":"Shift/Retail/","distance from centre":18.3,"description":null,"education":"College-Bus","longitude":-79.566139,"id":"af0pchq6v7qm","state":"ON"},"type":"Feature","geometry":{"type":"Point","coordinates":[-79.566139,43.676168]}},{"properties":{"city":"Toronto","category":"90+","subcategory":null,"latitude":43.766649,"title":"A117","work history (months)":"FE:120/1 PE:60/2 H:0","location of education":"Canada","zipcode":"M3J 0A4","freeform address":"Toronto, ON, M3J 0A4, CA","country":"CA","work experience type":"Shift/Retail/","distance from centre":32.2,"description":null,"education":"University-Bus","longitude":-79.504044,"id":"af0pchgnot70","state":"ON"},"type":"Feature","geometry":{"type":"Point","coordinates":[-79.504044,43.766649]}},{"properties":{"city":"Mississauga","category":"90+","subcategory":null,"latitude":43.590689,"title":"A118","work history (months)":"FE:48/3 PE:/ H:7","location of education":"India","zipcode":"L5B 3Y7","freeform address":"Mississauga, ON, L5B 3Y7, CA","country":"CA","work experience type":"Shift/Retail/","distance from centre":13.4,"description":null,"education":"College-Bus","longitude":-79.635034,"id":"af0pchfh55vw","state":"ON"},"type":"Feature","geometry":{"type":"Point","coordinates":[-79.635034,43.590689]}},{"properties":{"city":"Mississauga","category":"90+","subcategory":null,"latitude":43.601718,"title":"A140","work history (months)":"FE:24/1 PE:72/3 H:0","location of education":"Canada","zipcode":"L5E 2Y1","freeform address":"Mississauga, ON, L5E 2Y1, CA","country":"CA","work experience type":"Shift/Retail/","distance from centre":26.2,"description":null,"education":"College-Non Bus","longitude":-79.562539,"id":"af0pchgxb64v","state":"ON"},"type":"Feature","geometry":{"type":"Point","coordinates":[-79.562539,43.601718]}},{"properties":{"city":"Brampton","category":"90+","subcategory":null,"latitude":43.765957,"title":"A151","work history (months)":"FE:58/4 PE:6/1 H:55","location of education":"Canada","zipcode":"L6P 2R4","freeform address":"Brampton, ON, L6P 2R4, CA","country":"CA","work experience type":"C.C./Shift/","distance from centre":23.0,"description":null,"education":"College-Non Bus","longitude":-79.664946,"id":"af0pchkqtave","state":"ON"},"type":"Feature","geometry":{"type":"Point","coordinates":[-79.664946,43.765957]}},{"properties":{"city":"Vancouver","category":"90+","subcategory":null,"latitude":49.288886,"title":"A191","work history (months)":"FE:69/5 PE:/ H:0","location of education":"Canada","zipcode":"V6G 2G5","freeform address":"Vancouver, BC, V6G 2G5, CA","country":"CA","work experience type":"C.C./Shift/","distance from centre":4.1,"description":null,"education":"University-Non Bus","longitude":-123.132756,"id":"af0pchon66fn","state":"BC"},"type":"Feature","geometry":{"type":"Point","coordinates":[-123.132756,49.288886]}},{"properties":{"city":"Burnaby","category":"90+","subcategory":null,"latitude":49.222107,"title":"A188","work history (months)":"FE:/ PE:37/3 H:3","location of education":"Canada","zipcode":"V3N 1P9","freeform address":"Burnaby, BC, V3N 1P9, CA","country":"CA","work experience type":"Shift/Retail/Mgt./","distance from centre":14.2,"description":null,"education":"University-Non Bus","longitude":-122.936283,"id":"af0pchq0615r","state":"BC"},"type":"Feature","geometry":{"type":"Point","coordinates":[-122.936283,49.222107]}},{"properties":{"city":"Winnipeg","category":"90+","subcategory":null,"latitude":49.836906,"title":"A217","work history (months)":"FE:156/3 PE:/ H:24","location of education":"Canada","zipcode":"R2M 4B5","freeform address":"Winnipeg, MB, R2M 4B5, CA","country":"CA","work experience type":"C.C./Shift/Mgt./","distance from centre":8.0,"description":null,"education":"College-Non Bus","longitude":-97.101282,"id":"af0pchtq074q","state":"MB"},"type":"Feature","geometry":{"type":"Point","coordinates":[-97.101282,49.836906]}},{"properties":{"city":"Winnipeg","category":"90+","subcategory":null,"latitude":49.910771,"title":"A205","work history (months)":"FE:202/3 PE:/ H:29","location of education":"Canada","zipcode":"R2K 2C4","freeform address":"Winnipeg, MB, R2K 2C4, CA","country":"CA","work experience type":"C.C./Shift/","distance from centre":10.4,"description":null,"education":"High School-Non Bus","longitude":-97.091303,"id":"af0pchnehti4","state":"MB"},"type":"Feature","geometry":{"type":"Point","coordinates":[-97.091303,49.910771]}},{"properties":{"city":null,"category":"90+","subcategory":null,"latitude":49.890326,"title":"A220","work history (months)":"FE:?/4 PE:/ H:","location of education":"Canada","zipcode":"R3J 4M5","freeform address":"MB, R3J 4M5, CA","country":"CA","work experience type":"Retail/Mgt./","distance from centre":9.8,"description":null,"education":"High School-Non Bus","longitude":-97.243392,"id":"af0pchm0fd8b","state":"MB"},"type":"Feature","geometry":{"type":"Point","coordinates":[-97.243392,49.890326]}},{"properties":{"city":"Winnipeg","category":"90+","subcategory":null,"latitude":49.946817,"title":"A228","work history (months)":"FE:44/2 PE:12/1 H:0","location of education":"Canada","zipcode":"R2P 1H9","freeform address":"Winnipeg, MB, R2P 1H9, CA","country":"CA","work experience type":"Shift/Mgt./","distance from centre":12.6,"description":null,"education":"University-Non Bus","longitude":-97.158156,"id":"af0pchjprcik","state":"MB"},"type":"Feature","geometry":{"type":"Point","coordinates":[-97.158156,49.946817]}},{"properties":{"city":"Kingston","category":"90+","subcategory":null,"latitude":44.231656,"title":"A252","work history (months)":"FE:49/5 PE:5/1 H:0","location of education":"Canada","zipcode":"K7L 4S1","freeform address":"Kingston, ON, K7L 4S1, CA","country":"CA","work experience type":"C.C./Shift/Retail/","distance from centre":284.5,"description":null,"education":"University-Non Bus","longitude":-76.512096,"id":"af0pchqpq6y9","state":"ON"},"type":"Feature","geometry":{"type":"Point","coordinates":[-76.512096,44.231656]}},{"properties":{"city":"Sackville","category":"90+","subcategory":null,"latitude":45.921662,"title":"A267","work history (months)":"FE:96/4 PE:/ H:12","location of education":"Canada","zipcode":"E4L 3G7","freeform address":"Sackville, NB, E4L 3G7, CA","country":"CA","work experience type":"Shift/","distance from centre":55.7,"description":null,"education":"College-Bus","longitude":-64.364546,"id":"af0pchtnev9f","state":"NB"},"type":"Feature","geometry":{"type":"Point","coordinates":[-64.364546,45.921662]}},{"properties":{"city":"Moncton","category":"90+","subcategory":null,"latitude":46.104419,"title":"A272","work history (months)":"FE:122/3 PE:/5 H:0","location of education":"Canada","zipcode":"E1C 6P3","freeform address":"Moncton, NB, E1C 6P3, CA","country":"CA","work experience type":"Shift/","distance from centre":5.7,"description":null,"education":"College-Non Bus","longitude":-64.800485,"id":"af0pchmbik2k","state":"NB"},"type":"Feature","geometry":{"type":"Point","coordinates":[-64.800485,46.104419]}},{"properties":{"city":"Vancouver","category":"90+","subcategory":null,"latitude":49.217116,"title":"A280","work history (months)":"FE:23/3 PE:8/ H:33","location of education":"Canada","zipcode":"V5X 1W5","freeform address":"Vancouver, BC, V5X 1W5, CA","country":"CA","work experience type":"C.C./Shift/Retail/","distance from centre":6.2,"description":null,"education":"University-Non Bus","longitude":-123.08624,"id":"af0pchklnbcc","state":"BC"},"type":"Feature","geometry":{"type":"Point","coordinates":[-123.08624,49.217116]}}],"is_temporal":false,"author":{"url":"","metadata":"","contact_name":"","contact_address":"","source":"","contact_phone":""},"source":"","pagination":{"sort":null,"start":0,"total":29,"limit":1000000},"state":"complete","tags":"","published":"2014-08-16T22:46:11-04:00","id":367122}