{"type":"FeatureCollection","data_type":"Dataset","url_type":null,"permissions":[{"permissions":{"download":true,"view":true},"group_id":"everyone"}],"classification":null,"title":"CSV_LT_30_Completed","count":13,"stream_id":367123,"contributor":{"url":"http://geocommons.com/users/74787","name":"stevendosanjh"},"data_attributes":null,"calculation_params":null,"icon_link":null,"link":"http://geocommons.com/overlays/367123.json","extent":[-122.941,43.5039,-64.798,49.3172],"geometry_types":["point"],"unique_name":null,"name":"CSV_LT_30_Completed","feature_count":13,"description":"","next_feature":null,"is_raster":false,"short_classification":"Y","stats":{"latitude":{"max":49.317182,"mean":45.087641,"variance":5.98073732790917,"stdev":2.44555460538283,"median":43.616635,"min":43.503948},"distance from c.c.":{"max":46.9,"mean":19.5846153846154,"variance":197.608076923077,"stdev":14.057314001013,"median":13.8,"min":4.5},"longitude":{"max":-64.797985,"mean":-88.5352156923077,"variance":398.78866797946,"stdev":19.9696937377482,"median":-79.74174,"min":-122.940969}},"features":[{"properties":{"city":"Mississauga","distance from c.c.":13.8,"category":"LT 30","subcategory":null,"latitude":43.588233,"title":"A37","work history (months)":"F: 119/4 H: 6","zipcode":"L5B 4P2","freeform address":"Mississauga, ON, L5B 4P2, CA","country":"CA","work experience type":"C.C. &amp; Shift &amp; Retail &amp; Mgt.","education":"College-Non Bus","longitude":-79.639859,"id":"af0pcrpr0set","location":"Canada","state":"ON"},"type":"Feature","geometry":{"type":"Point","coordinates":[-79.639859,43.588233]}},{"properties":{"city":"Mississauga","distance from c.c.":10.7,"category":"LT 30","subcategory":null,"latitude":43.554479,"title":"A24","work history (months)":"F: 169/4 P:?/1 H:175","zipcode":"L5L 2X3","freeform address":"Mississauga, ON, L5L 2X3, CA","country":"CA","work experience type":"C.C. &amp; Shift &amp; Retail","education":"University-Non Bus","longitude":-79.683712,"id":"af0pcrvie7p9","location":"Canada","state":"ON"},"type":"Feature","geometry":{"type":"Point","coordinates":[-79.683712,43.554479]}},{"properties":{"city":"Mississauga","distance from c.c.":11.6,"category":"LT 30","subcategory":null,"latitude":43.602016,"title":"A53","work history (months)":"F: 157/6 H: 12","zipcode":"L5R 1K9","freeform address":"Mississauga, ON, L5R 1K9, CA","country":"CA","work experience type":"Shift &amp; Retail &amp; Mgt.","education":"University-Bus","longitude":-79.656614,"id":"af0pcrsw47uo","location":"India","state":"ON"},"type":"Feature","geometry":{"type":"Point","coordinates":[-79.656614,43.602016]}},{"properties":{"city":"Mississauga","distance from c.c.":10.7,"category":"LT 30","subcategory":null,"latitude":43.544125,"title":"A43","work history (months)":"F: 8/1 P: 51/5 H: 3","zipcode":"L5M 7Y3","freeform address":"Mississauga, ON, L5M 7Y3, CA","country":"CA","work experience type":"Shift &amp; Retail","education":"University-Non Bus","longitude":-79.74174,"id":"af0pcrj2dsvd","location":"Canada","state":"ON"},"type":"Feature","geometry":{"type":"Point","coordinates":[-79.74174,43.544125]}},{"properties":{"city":"Mississauga","distance from c.c.":6.0,"category":"LT 30","subcategory":null,"latitude":43.616635,"title":"A73","work history (months)":"F: 84/4 H: 32","zipcode":"L5V 2J2","freeform address":"Mississauga, ON, L5V 2J2, CA","country":"CA","work experience type":"C.C. &amp; Shift &amp; Retail","education":"College-Non Bus","longitude":-79.708786,"id":"af0pcrmkq1k4","location":"Pakistan","state":"ON"},"type":"Feature","geometry":{"type":"Point","coordinates":[-79.708786,43.616635]}},{"properties":{"city":"Mississauga","distance from c.c.":5.4,"category":"LT 30","subcategory":null,"latitude":43.589788,"title":"A75","work history (months)":"F: 74/2 P: 12/1 H: 1","zipcode":"L5N 8M9","freeform address":"Mississauga, ON, L5N 8M9, CA","country":"CA","work experience type":"C.C. &amp; Shift &amp; Retail","education":"College-Non Bus","longitude":-79.78817,"id":"af0pcrkwmta3","location":"Canada","state":"ON"},"type":"Feature","geometry":{"type":"Point","coordinates":[-79.78817,43.589788]}},{"properties":{"city":"Toronto","distance from c.c.":27.7,"category":"LT 30","subcategory":null,"latitude":43.730587,"title":"A89","work history (months)":"F: 75/4 H: 55","zipcode":"M3M 1A9","freeform address":"Toronto, ON, M3M 1A9, CA","country":"CA","work experience type":"C.C. &amp; Shift","education":"High School-Non Bus","longitude":-79.510282,"id":"af0pcrrb1yx2","location":"Canada","state":"ON"},"type":"Feature","geometry":{"type":"Point","coordinates":[-79.510282,43.730587]}},{"properties":{"city":"Brampton","distance from c.c.":19.1,"category":"LT 30","subcategory":null,"latitude":43.715823,"title":"A96","work history (months)":"F: 50/2 H: 11","zipcode":"L6V 3V6","freeform address":"Brampton, ON, L6V 3V6, CA","country":"CA","work experience type":"C.C. &amp; Shift","education":"University-Non Bus","longitude":-79.775383,"id":"af0pcruxmylc","location":"Unknown","state":"ON"},"type":"Feature","geometry":{"type":"Point","coordinates":[-79.775383,43.715823]}},{"properties":{"city":"Guelph","distance from c.c.":46.9,"category":"LT 30","subcategory":null,"latitude":43.503948,"title":"A121","work history (months)":"F: 55/2 H: 1","zipcode":"N1G 5J2","freeform address":"Guelph, ON, N1G 5J2, CA","country":"CA","work experience type":"C.C. &amp; Shift &amp; Retail","education":"University-Bus","longitude":-80.196922,"id":"af0pcrn6b33a","location":"Unknown","state":"ON"},"type":"Feature","geometry":{"type":"Point","coordinates":[-80.196922,43.503948]}},{"properties":{"city":"Riverview","distance from c.c.":4.5,"category":"LT 30","subcategory":null,"latitude":46.065706,"title":"A261","work history (months)":"F: 226/5 P: 24/1","zipcode":"E1B 1X5","freeform address":"Riverview, NB, E1B 1X5, CA","country":"CA","work experience type":"Retail &amp; Mgt.","education":"College-Bus","longitude":-64.797985,"id":"af0pcriz7aso","location":"Canada","state":"NB"},"type":"Feature","geometry":{"type":"Point","coordinates":[-64.797985,46.065706]}},{"properties":{"city":"Surrey","distance from c.c.":40.8,"category":"LT 30","subcategory":null,"latitude":49.120161,"title":"A288","work history (months)":"F: 168/4","zipcode":"V3S 4P8","freeform address":"Surrey, BC, V3S 4P8, CA","country":"CA","work experience type":"Retail &amp; Mgt.","education":"College-Bus","longitude":-122.745832,"id":"af0pcrwjug0v","location":"Canada","state":"BC"},"type":"Feature","geometry":{"type":"Point","coordinates":[-122.745832,49.120161]}},{"properties":{"city":"New Westminster","distance from c.c.":22.6,"category":"LT 30","subcategory":null,"latitude":49.19065,"title":"A295","work history (months)":"F: 140/4 P: 19/1 H: 3","zipcode":"V3M 6P4","freeform address":"New Westminster, BC, V3M 6P4, CA","country":"CA","work experience type":"Shift &amp; Retail","education":"College-Non Bus","longitude":-122.940969,"id":"af0pcrwff1v4","location":"Canada","state":"BC"},"type":"Feature","geometry":{"type":"Point","coordinates":[-122.940969,49.19065]}},{"properties":{"city":"Coquitlam","distance from c.c.":34.8,"category":"LT 30","subcategory":null,"latitude":49.317182,"title":"A296","work history (months)":"F: 48/4 H: 11","zipcode":"V3E 2X1","freeform address":"Coquitlam, BC, V3E 2X1, CA","country":"CA","work experience type":"C.C. &amp; Shift &amp; Retail","education":"College-Non Bus","longitude":-122.77155,"id":"af0pcrjixtgq","location":"Canada","state":"BC"},"type":"Feature","geometry":{"type":"Point","coordinates":[-122.77155,49.317182]}}],"is_temporal":false,"author":{"url":"","metadata":"","contact_name":"","contact_address":"","source":"","contact_phone":""},"source":"","pagination":{"sort":null,"start":0,"total":13,"limit":1000000},"state":"complete","tags":"","published":"2014-08-16T22:46:12-04:00","id":367123}