{"type":"FeatureCollection","data_type":"Dataset","url_type":null,"permissions":[{"permissions":{"download":true,"view":true},"group_id":"everyone"}],"classification":null,"title":"cos csv 061312 homes lost","count":356,"stream_id":367232,"contributor":{"url":"http://geocommons.com/users/70069","name":"matthew.makens@kmgh.com"},"data_attributes":null,"calculation_params":null,"icon_link":null,"link":"http://geocommons.com/overlays/367232.json","extent":[-104.865,38.7914,-104.62,39.0467],"geometry_types":["point"],"unique_name":null,"name":"cos csv 061312 homes lost","feature_count":356,"description":"","next_feature":null,"is_raster":false,"short_classification":"Y","stats":{},"features":[{"properties":{"city":"Black Forest","address of home lost to fire":"12775 Black Lane","geo_score":0.463,"zip code":"80908","id":"af0tntjlyp01","geo_precision":"street","state":"Colorado"},"type":"Feature","geometry":{"type":"Point","coordinates":[-104.736439,38.79138]}},{"properties":{"city":"Black Forest","address of home lost to fire":"12780 Black Lane","geo_score":0.463,"zip code":"80908","id":"af0tntiiijde","geo_precision":"street","state":"Colorado"},"type":"Feature","geometry":{"type":"Point","coordinates":[-104.736439,38.79138]}},{"properties":{"city":"Black Forest","address of home lost to fire":"12905 Black Lane","geo_score":0.463,"zip code":"80908","id":"af0tntaiu7l7","geo_precision":"street","state":"Colorado"},"type":"Feature","geometry":{"type":"Point","coordinates":[-104.736439,38.79138]}},{"properties":{"city":"Black Forest","address of home lost to fire":"12910 Black Lane","geo_score":0.463,"zip code":"80908","id":"af0tntf79dvq","geo_precision":"street","state":"Colorado"},"type":"Feature","geometry":{"type":"Point","coordinates":[-104.736439,38.79138]}},{"properties":{"city":"Colorado Springs","address of home lost to fire":"6309 Trappers Pass Trail","geo_score":0.489,"zip code":"80908","id":"af0tnt6z24rf","geo_precision":"street","state":"Colorado"},"type":"Feature","geometry":{"type":"Point","coordinates":[-104.864699,38.937571]}},{"properties":{"city":"Colorado Springs","address of home lost to fire":"6310 Trappers Pass Trail","geo_score":0.489,"zip code":"80908","id":"af0tnt7qi4er","geo_precision":"street","state":"Colorado"},"type":"Feature","geometry":{"type":"Point","coordinates":[-104.864699,38.937571]}},{"properties":{"city":"Colorado Springs","address of home lost to fire":"6311 Trappers Pass Trail","geo_score":0.489,"zip code":"80908","id":"af0tnt8198yx","geo_precision":"street","state":"Colorado"},"type":"Feature","geometry":{"type":"Point","coordinates":[-104.864699,38.937571]}},{"properties":{"city":"Colorado Springs","address of home lost to fire":"6312 Trappers Pass Trail","geo_score":0.489,"zip code":"80908","id":"af0tnthalxam","geo_precision":"street","state":"Colorado"},"type":"Feature","geometry":{"type":"Point","coordinates":[-104.864699,38.937571]}},{"properties":{"city":"Colorado Springs","address of home lost to fire":"6313 Trappers Pass Trail","geo_score":0.489,"zip code":"80908","id":"af0tnt8fxdt0","geo_precision":"street","state":"Colorado"},"type":"Feature","geometry":{"type":"Point","coordinates":[-104.864699,38.937571]}},{"properties":{"city":"Colorado Springs","address of home lost to fire":"6314 Trappers Pass Trail","geo_score":0.489,"zip code":"80908","id":"af0tntkxxlf4","geo_precision":"street","state":"Colorado"},"type":"Feature","geometry":{"type":"Point","coordinates":[-104.864699,38.937571]}},{"properties":{"city":"Colorado Springs","address of home lost to fire":"1275? Goodson Dr","geo_score":0.571,"zip code":"80908","id":"af0tntkdidv6","geo_precision":"street","state":"Colorado"},"type":"Feature","geometry":{"type":"Point","coordinates":[-104.626082,38.993224]}},{"properties":{"city":"Colorado Springs","address of home lost to fire":"6305 Highline Pl","geo_score":0.585,"zip code":"80908","id":"af0tnt8vjir0","geo_precision":"zip","state":"Colorado"},"type":"Feature","geometry":{"type":"Point","coordinates":[-104.705498,39.020647]}},{"properties":{"city":"Colorado Springs","address of home lost to fire":"6395 Highline Pl","geo_score":0.585,"zip code":"80908","id":"af0tntes9500","geo_precision":"zip","state":"Colorado"},"type":"Feature","geometry":{"type":"Point","coordinates":[-104.705498,39.020647]}},{"properties":{"city":"Colorado Springs","address of home lost to fire":"6425 Highline Pl","geo_score":0.585,"zip code":"80908","id":"af0tntd7dbjt","geo_precision":"zip","state":"Colorado"},"type":"Feature","geometry":{"type":"Point","coordinates":[-104.705498,39.020647]}},{"properties":{"city":"Colorado Springs","address of home lost to fire":"6440 Highline Pl","geo_score":0.585,"zip code":"80908","id":"af0tntg994vu","geo_precision":"zip","state":"Colorado"},"type":"Feature","geometry":{"type":"Point","coordinates":[-104.705498,39.020647]}},{"properties":{"city":"Colorado Springs","address of home lost to fire":"6465 Highline Pl","geo_score":0.585,"zip code":"80908","id":"af0tnt8dy81t","geo_precision":"zip","state":"Colorado"},"type":"Feature","geometry":{"type":"Point","coordinates":[-104.705498,39.020647]}},{"properties":{"city":"Colorado Springs","address of home lost to fire":"6535 Highline Pl","geo_score":0.585,"zip code":"80908","id":"af0tntgdwb74","geo_precision":"zip","state":"Colorado"},"type":"Feature","geometry":{"type":"Point","coordinates":[-104.705498,39.020647]}},{"properties":{"city":"Colorado Springs","address of home lost to fire":"13125 Highline Dr","geo_score":0.585,"zip code":"80908","id":"af0tnt6m6fbb","geo_precision":"zip","state":"Colorado"},"type":"Feature","geometry":{"type":"Point","coordinates":[-104.705498,39.020647]}},{"properties":{"city":"Colorado Springs","address of home lost to fire":"13505 Highline Dr","geo_score":0.585,"zip code":"80908","id":"af0tntk5d07p","geo_precision":"zip","state":"Colorado"},"type":"Feature","geometry":{"type":"Point","coordinates":[-104.705498,39.020647]}},{"properties":{"city":"Colorado Springs","address of home lost to fire":"13565 Highline Dr","geo_score":0.585,"zip code":"80908","id":"af0tntgw0hi2","geo_precision":"zip","state":"Colorado"},"type":"Feature","geometry":{"type":"Point","coordinates":[-104.705498,39.020647]}},{"properties":{"city":"Colorado Springs","address of home lost to fire":"13620 Highline Dr","geo_score":0.585,"zip code":"80908","id":"af0tntj8u7dx","geo_precision":"zip","state":"Colorado"},"type":"Feature","geometry":{"type":"Point","coordinates":[-104.705498,39.020647]}},{"properties":{"city":"Colorado Springs","address of home lost to fire":"13710 Highline Dr","geo_score":0.585,"zip code":"80908","id":"af0tntdzf1sn","geo_precision":"zip","state":"Colorado"},"type":"Feature","geometry":{"type":"Point","coordinates":[-104.705498,39.020647]}},{"properties":{"city":"Colorado Springs","address of home lost to fire":"13725 Highline Dr","geo_score":0.585,"zip code":"80908","id":"af0tnt5jr77q","geo_precision":"zip","state":"Colorado"},"type":"Feature","geometry":{"type":"Point","coordinates":[-104.705498,39.020647]}},{"properties":{"city":"Colorado Springs","address of home lost to fire":"13775 Highline Dr","geo_score":0.585,"zip code":"80908","id":"af0tntgnylfi","geo_precision":"zip","state":"Colorado"},"type":"Feature","geometry":{"type":"Point","coordinates":[-104.705498,39.020647]}},{"properties":{"city":"Colorado Springs","address of home lost to fire":"13790 Highline Dr","geo_score":0.585,"zip code":"80908","id":"af0tnt7jya4p","geo_precision":"zip","state":"Colorado"},"type":"Feature","geometry":{"type":"Point","coordinates":[-104.705498,39.020647]}},{"properties":{"city":"Colorado Springs","address of home lost to fire":"13870 Highline Dr","geo_score":0.585,"zip code":"80908","id":"af0tntk9a9b5","geo_precision":"zip","state":"Colorado"},"type":"Feature","geometry":{"type":"Point","coordinates":[-104.705498,39.020647]}},{"properties":{"city":"Colorado Springs","address of home lost to fire":"13955 Highline Dr","geo_score":0.585,"zip code":"80908","id":"af0tnt5kvr8v","geo_precision":"zip","state":"Colorado"},"type":"Feature","geometry":{"type":"Point","coordinates":[-104.705498,39.020647]}},{"properties":{"city":"Colorado Springs","address of home lost to fire":"11425 Brinkerhoff Rd","geo_score":0.585,"zip code":"80908","id":"af0tnt63d62k","geo_precision":"zip","state":"Colorado"},"type":"Feature","geometry":{"type":"Point","coordinates":[-104.705498,39.020647]}},{"properties":{"city":"Colorado Springs","address of home lost to fire":"11435 Roslyn Rd","geo_score":0.585,"zip code":"80908","id":"af0tnt6ms16u","geo_precision":"zip","state":"Colorado"},"type":"Feature","geometry":{"type":"Point","coordinates":[-104.705498,39.020647]}},{"properties":{"city":"Colorado Springs","address of home lost to fire":"5850 Schwenks Pl","geo_score":0.585,"zip code":"80908","id":"af0tntcupawk","geo_precision":"zip","state":"Colorado"},"type":"Feature","geometry":{"type":"Point","coordinates":[-104.705498,39.020647]}},{"properties":{"city":"Colorado Springs","address of home lost to fire":"5890 Schwenks Pl","geo_score":0.585,"zip code":"80908","id":"af0tnt73a1hf","geo_precision":"zip","state":"Colorado"},"type":"Feature","geometry":{"type":"Point","coordinates":[-104.705498,39.020647]}},{"properties":{"city":"Colorado Springs","address of home lost to fire":"5895 Schwenks Pl","geo_score":0.585,"zip code":"80908","id":"af0tnt552uaq","geo_precision":"zip","state":"Colorado"},"type":"Feature","geometry":{"type":"Point","coordinates":[-104.705498,39.020647]}},{"properties":{"city":"Colorado Springs","address of home lost to fire":"5910 Schwenks Pl","geo_score":0.585,"zip code":"80908","id":"af0tntk0yltu","geo_precision":"zip","state":"Colorado"},"type":"Feature","geometry":{"type":"Point","coordinates":[-104.705498,39.020647]}},{"properties":{"city":"Colorado Springs","address of home lost to fire":"5915 Schwenks Pl","geo_score":0.585,"zip code":"80908","id":"af0tntjxtx8m","geo_precision":"zip","state":"Colorado"},"type":"Feature","geometry":{"type":"Point","coordinates":[-104.705498,39.020647]}},{"properties":{"city":"Colorado Springs","address of home lost to fire":"5960 Schwenks Pl","geo_score":0.585,"zip code":"80908","id":"af0tntb0ixjz","geo_precision":"zip","state":"Colorado"},"type":"Feature","geometry":{"type":"Point","coordinates":[-104.705498,39.020647]}},{"properties":{"city":"Colorado Springs","address of home lost to fire":"13350 Altaneda Rd","geo_score":0.585,"zip code":"80908","id":"af0tnt863w4a","geo_precision":"zip","state":"Colorado"},"type":"Feature","geometry":{"type":"Point","coordinates":[-104.705498,39.020647]}},{"properties":{"city":"Colorado Springs","address of home lost to fire":"7935 Forest Heights Cir","geo_score":0.935,"zip code":"80908","id":"af0tntdfbybm","geo_precision":"range","state":"Colorado"},"type":"Feature","geometry":{"type":"Point","coordinates":[-104.679852,39.018873]}},{"properties":{"city":"Colorado Springs","address of home lost to fire":"7936 Forest Heights Cir","geo_score":0.935,"zip code":"80908","id":"af0tntajeyft","geo_precision":"range","state":"Colorado"},"type":"Feature","geometry":{"type":"Point","coordinates":[-104.679873,39.019024]}},{"properties":{"city":"Colorado Springs","address of home lost to fire":"7937 Forest Heights Cir","geo_score":0.935,"zip code":"80908","id":"af0tntfkd7ni","geo_precision":"range","state":"Colorado"},"type":"Feature","geometry":{"type":"Point","coordinates":[-104.679873,39.018874]}},{"properties":{"city":"Colorado Springs","address of home lost to fire":"7938 Forest Heights Cir","geo_score":0.935,"zip code":"80908","id":"af0tntheswqz","geo_precision":"range","state":"Colorado"},"type":"Feature","geometry":{"type":"Point","coordinates":[-104.679894,39.019024]}},{"properties":{"city":"Colorado Springs","address of home lost to fire":"7939 Forest Heights Cir","geo_score":0.935,"zip code":"80908","id":"af0tntiuttzz","geo_precision":"range","state":"Colorado"},"type":"Feature","geometry":{"type":"Point","coordinates":[-104.679894,39.018874]}},{"properties":{"city":"Colorado Springs","address of home lost to fire":"12580 Black Forest Rd","geo_score":0.688,"zip code":"80908","id":"af0tnt9d6g1t","geo_precision":"street","state":"Colorado"},"type":"Feature","geometry":{"type":"Point","coordinates":[-104.72418,38.987255]}},{"properties":{"city":"Colorado Springs","address of home lost to fire":"12740 Black Forest Rd","geo_score":0.688,"zip code":"80908","id":"af0tnt8hpvef","geo_precision":"street","state":"Colorado"},"type":"Feature","geometry":{"type":"Point","coordinates":[-104.72418,38.987255]}},{"properties":{"city":"Colorado Springs","address of home lost to fire":"12850 Black Forest Rd","geo_score":0.688,"zip code":"80908","id":"af0tntbsretm","geo_precision":"street","state":"Colorado"},"type":"Feature","geometry":{"type":"Point","coordinates":[-104.72418,38.987255]}},{"properties":{"city":"Colorado Springs","address of home lost to fire":"12950 Black Forest Rd","geo_score":0.688,"zip code":"80908","id":"af0tntdg2wwa","geo_precision":"street","state":"Colorado"},"type":"Feature","geometry":{"type":"Point","coordinates":[-104.72418,38.987255]}},{"properties":{"city":"Colorado Springs","address of home lost to fire":"13050 Black Forest Rd","geo_score":0.688,"zip code":"80908","id":"af0tnt8xkwh5","geo_precision":"street","state":"Colorado"},"type":"Feature","geometry":{"type":"Point","coordinates":[-104.72418,38.987255]}},{"properties":{"city":"Colorado Springs","address of home lost to fire":"13055 Black Forest Rd","geo_score":0.688,"zip code":"80908","id":"af0tnti57ula","geo_precision":"street","state":"Colorado"},"type":"Feature","geometry":{"type":"Point","coordinates":[-104.72418,38.987255]}},{"properties":{"city":"Colorado Springs","address of home lost to fire":"13125 Black Forest Rd","geo_score":0.688,"zip code":"80908","id":"af0tntb5spsv","geo_precision":"street","state":"Colorado"},"type":"Feature","geometry":{"type":"Point","coordinates":[-104.72418,38.987255]}},{"properties":{"city":"Colorado Springs","address of home lost to fire":"13130 Black Forest Rd","geo_score":0.688,"zip code":"80908","id":"af0tnt6nuy0p","geo_precision":"street","state":"Colorado"},"type":"Feature","geometry":{"type":"Point","coordinates":[-104.72418,38.987255]}},{"properties":{"city":"Colorado Springs","address of home lost to fire":"13135 Black Forest Rd","geo_score":0.688,"zip code":"80908","id":"af0tnt7yhafd","geo_precision":"street","state":"Colorado"},"type":"Feature","geometry":{"type":"Point","coordinates":[-104.72418,38.987255]}},{"properties":{"city":"Colorado Springs","address of home lost to fire":"13165 Black Forest Rd","geo_score":0.688,"zip code":"80908","id":"af0tntki3tbl","geo_precision":"street","state":"Colorado"},"type":"Feature","geometry":{"type":"Point","coordinates":[-104.72418,38.987255]}},{"properties":{"city":"Colorado Springs","address of home lost to fire":"13230 Black Forest Rd","geo_score":0.688,"zip code":"80908","id":"af0tnth7n0r0","geo_precision":"street","state":"Colorado"},"type":"Feature","geometry":{"type":"Point","coordinates":[-104.72418,38.987255]}},{"properties":{"city":"Colorado Springs","address of home lost to fire":"13265 Black Forest Rd","geo_score":0.688,"zip code":"80908","id":"af0tnt6pc68r","geo_precision":"street","state":"Colorado"},"type":"Feature","geometry":{"type":"Point","coordinates":[-104.72418,38.987255]}},{"properties":{"city":"Colorado Springs","address of home lost to fire":"13325 Black Forest Rd","geo_score":0.688,"zip code":"80908","id":"af0tnthoghze","geo_precision":"street","state":"Colorado"},"type":"Feature","geometry":{"type":"Point","coordinates":[-104.72418,38.987255]}},{"properties":{"city":"Colorado Springs","address of home lost to fire":"4170 Ravine Dr","geo_score":0.752,"zip code":"80908","id":"af0tntce1spw","geo_precision":"street","state":"Colorado"},"type":"Feature","geometry":{"type":"Point","coordinates":[-104.697673,39.023202]}},{"properties":{"city":"Colorado Springs","address of home lost to fire":"6080 Jicarila Dr","geo_score":0.781,"zip code":"80908","id":"af0tntdpdon6","geo_precision":"street","state":"Colorado"},"type":"Feature","geometry":{"type":"Point","coordinates":[-104.703232,39.032762]}},{"properties":{"city":"Colorado Springs","address of home lost to fire":"13870 Wild Oak Dr","geo_score":0.782,"zip code":"80908","id":"af0tntgw9l9f","geo_precision":"street","state":"Colorado"},"type":"Feature","geometry":{"type":"Point","coordinates":[-104.714319,39.032505]}},{"properties":{"city":"Colorado Springs","address of home lost to fire":"12275 Peregrine Way","geo_score":0.806,"zip code":"80908","id":"af0tntgtp9kp","geo_precision":"street","state":"Colorado"},"type":"Feature","geometry":{"type":"Point","coordinates":[-104.743996,39.013624]}},{"properties":{"city":"Colorado Springs","address of home lost to fire":"14725 Vessey Cir","geo_score":0.806,"zip code":"80908","id":"af0tnt52v7bp","geo_precision":"street","state":"Colorado"},"type":"Feature","geometry":{"type":"Point","coordinates":[-104.703335,39.038069]}},{"properties":{"city":"Colorado Springs","address of home lost to fire":"6820 Elementary Dr","geo_score":0.814,"zip code":"80908","id":"af0tnt8ddd1j","geo_precision":"street","state":"Colorado"},"type":"Feature","geometry":{"type":"Point","coordinates":[-104.702655,39.029068]}},{"properties":{"city":"Colorado Springs","address of home lost to fire":"13290 Wild Oak Dr","geo_score":0.851,"zip code":"80908","id":"af0tntfj5dz2","geo_precision":"range","state":"Colorado"},"type":"Feature","geometry":{"type":"Point","coordinates":[-104.714218,39.028209]}},{"properties":{"city":"Colorado Springs","address of home lost to fire":"13290 Wild Oak Dr","geo_score":0.851,"zip code":"80908","id":"af0tnth08z0i","geo_precision":"range","state":"Colorado"},"type":"Feature","geometry":{"type":"Point","coordinates":[-104.714218,39.028209]}},{"properties":{"city":"Colorado Springs","address of home lost to fire":"13290 Wild Oak Dr","geo_score":0.851,"zip code":"80908","id":"af0tnt5mzszj","geo_precision":"range","state":"Colorado"},"type":"Feature","geometry":{"type":"Point","coordinates":[-104.714218,39.028209]}},{"properties":{"city":"Colorado Springs","address of home lost to fire":"13290 Wild Oak Dr","geo_score":0.851,"zip code":"80908","id":"af0tnt94xlf5","geo_precision":"range","state":"Colorado"},"type":"Feature","geometry":{"type":"Point","coordinates":[-104.714218,39.028209]}},{"properties":{"city":"Colorado Springs","address of home lost to fire":"13060 Ward Ln","geo_score":0.878,"zip code":"80908","id":"af0tnt7bh8ts","geo_precision":"range","state":"Colorado"},"type":"Feature","geometry":{"type":"Point","coordinates":[-104.668858,39.025474]}},{"properties":{"city":"Colorado Springs","address of home lost to fire":"7145 Brentwood Drive","geo_score":0.878,"zip code":"80908","id":"af0tntaufjdr","geo_precision":"range","state":"Colorado"},"type":"Feature","geometry":{"type":"Point","coordinates":[-104.693854,39.020213]}},{"properties":{"city":"Colorado Springs","address of home lost to fire":"12760 Milam","geo_score":0.89,"zip code":"80908","id":"af0tntcyzibk","geo_precision":"range","state":"Colorado"},"type":"Feature","geometry":{"type":"Point","coordinates":[-104.733929,39.025166]}},{"properties":{"city":"Colorado Springs","address of home lost to fire":"12840 Milam","geo_score":0.89,"zip code":"80908","id":"af0tntdtmhx0","geo_precision":"range","state":"Colorado"},"type":"Feature","geometry":{"type":"Point","coordinates":[-104.735842,39.022961]}},{"properties":{"city":"Colorado Springs","address of home lost to fire":"5270 Shoup","geo_score":0.89,"zip code":"80908","id":"af0tntktfh6f","geo_precision":"range","state":"Colorado"},"type":"Feature","geometry":{"type":"Point","coordinates":[-104.728642,39.012861]}},{"properties":{"city":"Colorado Springs","address of home lost to fire":"7080 Shoup","geo_score":0.89,"zip code":"80908","id":"af0tntfob8n8","geo_precision":"range","state":"Colorado"},"type":"Feature","geometry":{"type":"Point","coordinates":[-104.695889,39.012851]}},{"properties":{"city":"Colorado Springs","address of home lost to fire":"7220 Shoup","geo_score":0.89,"zip code":"80908","id":"af0tnthecslo","geo_precision":"range","state":"Colorado"},"type":"Feature","geometry":{"type":"Point","coordinates":[-104.692306,39.012854]}},{"properties":{"city":"Colorado Springs","address of home lost to fire":"7270 Shoup","geo_score":0.89,"zip code":"80908","id":"af0tnt507uxy","geo_precision":"range","state":"Colorado"},"type":"Feature","geometry":{"type":"Point","coordinates":[-104.69197,39.012933]}},{"properties":{"city":"Colorado Springs","address of home lost to fire":"7380 Shoup","geo_score":0.89,"zip code":"80908","id":"af0tnt6afu9r","geo_precision":"range","state":"Colorado"},"type":"Feature","geometry":{"type":"Point","coordinates":[-104.689293,39.012964]}},{"properties":{"city":"Colorado Springs","address of home lost to fire":"7450 Shoup","geo_score":0.89,"zip code":"80908","id":"af0tntc3ny7x","geo_precision":"range","state":"Colorado"},"type":"Feature","geometry":{"type":"Point","coordinates":[-104.68818,39.012974]}},{"properties":{"city":"Colorado Springs","address of home lost to fire":"7680 Shoup","geo_score":0.89,"zip code":"80908","id":"af0tntf6p5as","geo_precision":"range","state":"Colorado"},"type":"Feature","geometry":{"type":"Point","coordinates":[-104.683944,39.012996]}},{"properties":{"city":"Colorado Springs","address of home lost to fire":"8480 Shoup","geo_score":0.89,"zip code":"80908","id":"af0tnti3qsts","geo_precision":"range","state":"Colorado"},"type":"Feature","geometry":{"type":"Point","coordinates":[-104.66977,39.013053]}},{"properties":{"city":"Black Forest","address of home lost to fire":"8640 Shoup","geo_score":0.89,"zip code":"80908","id":"af0tntg06aem","geo_precision":"range","state":"Colorado"},"type":"Feature","geometry":{"type":"Point","coordinates":[-104.666539,39.013116]}},{"properties":{"city":"Black Forest","address of home lost to fire":"6990 Snowmass","geo_score":0.902,"zip code":"80908","id":"af0tntgfoarn","geo_precision":"range","state":"Colorado"},"type":"Feature","geometry":{"type":"Point","coordinates":[-104.698118,39.039183]}},{"properties":{"city":"Black Forest","address of home lost to fire":"7085 Snowmass","geo_score":0.902,"zip code":"80908","id":"af0tnt93y4hh","geo_precision":"range","state":"Colorado"},"type":"Feature","geometry":{"type":"Point","coordinates":[-104.69749,39.039118]}},{"properties":{"city":"Black Forest","address of home lost to fire":"7250 Snowmass","geo_score":0.902,"zip code":"80908","id":"af0tntf6yu5b","geo_precision":"range","state":"Colorado"},"type":"Feature","geometry":{"type":"Point","coordinates":[-104.692436,39.036753]}},{"properties":{"city":"Black Forest","address of home lost to fire":"7260 Snowmass","geo_score":0.902,"zip code":"80908","id":"af0tnt7vda19","geo_precision":"range","state":"Colorado"},"type":"Feature","geometry":{"type":"Point","coordinates":[-104.692771,39.036725]}},{"properties":{"city":"Black Forest","address of home lost to fire":"7385 Snowmass","geo_score":0.902,"zip code":"80908","id":"af0tnth0xpce","geo_precision":"range","state":"Colorado"},"type":"Feature","geometry":{"type":"Point","coordinates":[-104.689493,39.035459]}},{"properties":{"city":"Black Forest","address of home lost to fire":"7430 Snowmass","geo_score":0.902,"zip code":"80908","id":"af0tnt89na4a","geo_precision":"range","state":"Colorado"},"type":"Feature","geometry":{"type":"Point","coordinates":[-104.691021,39.036694]}},{"properties":{"city":"Black Forest","address of home lost to fire":"7145 Circle Dr","geo_score":0.902,"zip code":"80908","id":"af0tnt94s9ht","geo_precision":"range","state":"Colorado"},"type":"Feature","geometry":{"type":"Point","coordinates":[-104.694305,39.022807]}},{"properties":{"city":"Black Forest","address of home lost to fire":"10302 Burgess","geo_score":0.912,"zip code":"80908","id":"af0tntbg5cco","geo_precision":"range","state":"Colorado"},"type":"Feature","geometry":{"type":"Point","coordinates":[-104.63551,38.998736]}},{"properties":{"city":"Black Forest","address of home lost to fire":"14495 E Pine Glen Dr","geo_score":0.916,"zip code":"80908","id":"af0tnt6e5gik","geo_precision":"range","state":"Colorado"},"type":"Feature","geometry":{"type":"Point","coordinates":[-104.655422,39.040434]}},{"properties":{"city":"Black Forest","address of home lost to fire":"6888 Wildridge","geo_score":0.927,"zip code":"80908","id":"af0tnt7ui6wp","geo_precision":"range","state":"Colorado"},"type":"Feature","geometry":{"type":"Point","coordinates":[-104.698194,39.030982]}},{"properties":{"city":"Black Forest","address of home lost to fire":"6905 Wildridge","geo_score":0.927,"zip code":"80908","id":"af0tntc28b2u","geo_precision":"range","state":"Colorado"},"type":"Feature","geometry":{"type":"Point","coordinates":[-104.698632,39.030906]}},{"properties":{"city":"Black Forest","address of home lost to fire":"6965 Wildridge","geo_score":0.927,"zip code":"80908","id":"af0tnt9vkghw","geo_precision":"range","state":"Colorado"},"type":"Feature","geometry":{"type":"Point","coordinates":[-104.697347,39.030861]}},{"properties":{"city":"Black Forest","address of home lost to fire":"6980 Wildridge","geo_score":0.927,"zip code":"80908","id":"af0tntax1q2g","geo_precision":"range","state":"Colorado"},"type":"Feature","geometry":{"type":"Point","coordinates":[-104.695841,39.031279]}},{"properties":{"city":"Black Forest","address of home lost to fire":"7035 Wildridge","geo_score":0.927,"zip code":"80908","id":"af0tnt9ro6j7","geo_precision":"range","state":"Colorado"},"type":"Feature","geometry":{"type":"Point","coordinates":[-104.694252,39.031397]}},{"properties":{"city":"Black Forest","address of home lost to fire":"7060 Wildridge","geo_score":0.927,"zip code":"80908","id":"af0tntjaidus","geo_precision":"range","state":"Colorado"},"type":"Feature","geometry":{"type":"Point","coordinates":[-104.693262,39.031978]}},{"properties":{"city":"Black Forest","address of home lost to fire":"7075 Wildridge","geo_score":0.927,"zip code":"80908","id":"af0tnt8lrhu4","geo_precision":"range","state":"Colorado"},"type":"Feature","geometry":{"type":"Point","coordinates":[-104.692714,39.032262]}},{"properties":{"city":"Black Forest","address of home lost to fire":"7080 Wildridge","geo_score":0.927,"zip code":"80908","id":"af0tntdid2qq","geo_precision":"range","state":"Colorado"},"type":"Feature","geometry":{"type":"Point","coordinates":[-104.692725,39.032526]}},{"properties":{"city":"Black Forest","address of home lost to fire":"7115 Wildridge","geo_score":0.927,"zip code":"80908","id":"af0tntgmdyec","geo_precision":"range","state":"Colorado"},"type":"Feature","geometry":{"type":"Point","coordinates":[-104.692308,39.033643]}},{"properties":{"city":"Black Forest","address of home lost to fire":"7120 Wildridge","geo_score":0.927,"zip code":"80908","id":"af0tnt5r9hvd","geo_precision":"range","state":"Colorado"},"type":"Feature","geometry":{"type":"Point","coordinates":[-104.692499,39.033831]}},{"properties":{"city":"Black Forest","address of home lost to fire":"7160 Wildridge","geo_score":0.927,"zip code":"80908","id":"af0tntf8uh7d","geo_precision":"range","state":"Colorado"},"type":"Feature","geometry":{"type":"Point","coordinates":[-104.692967,39.035211]}},{"properties":{"city":"Black Forest","address of home lost to fire":"7230 Wildridge","geo_score":0.927,"zip code":"80908","id":"af0tnt6huhbj","geo_precision":"range","state":"Colorado"},"type":"Feature","geometry":{"type":"Point","coordinates":[-104.693444,39.037476]}},{"properties":{"city":"Black Forest","address of home lost to fire":"13430 Sierra Madre","geo_score":0.941,"zip code":"80908","id":"af0tnt5gxd77","geo_precision":"range","state":"Colorado"},"type":"Feature","geometry":{"type":"Point","coordinates":[-104.695319,39.026282]}},{"properties":{"city":"Black Forest","address of home lost to fire":"6985 Ravine Dr","geo_score":0.947,"zip code":"80908","id":"af0tntkh7x7n","geo_precision":"range","state":"Colorado"},"type":"Feature","geometry":{"type":"Point","coordinates":[-104.695121,39.023381]}},{"properties":{"city":"Black Forest","address of home lost to fire":"7020 Ravine Dr","geo_score":0.947,"zip code":"80908","id":"af0tntbf85g0","geo_precision":"range","state":"Colorado"},"type":"Feature","geometry":{"type":"Point","coordinates":[-104.697477,39.021035]}},{"properties":{"city":"Black Forest","address of home lost to fire":"7020 Ravine Dr","geo_score":0.947,"zip code":"80908","id":"af0tnta7r7gm","geo_precision":"range","state":"Colorado"},"type":"Feature","geometry":{"type":"Point","coordinates":[-104.697477,39.021035]}},{"properties":{"city":"Black Forest","address of home lost to fire":"7025 Ravine Dr","geo_score":0.947,"zip code":"80908","id":"af0tntijnw2c","geo_precision":"range","state":"Colorado"},"type":"Feature","geometry":{"type":"Point","coordinates":[-104.694041,39.023563]}},{"properties":{"city":"Black Forest","address of home lost to fire":"7070 Ravine Dr","geo_score":0.947,"zip code":"80908","id":"af0tnthcjy9h","geo_precision":"range","state":"Colorado"},"type":"Feature","geometry":{"type":"Point","coordinates":[-104.697476,39.021048]}},{"properties":{"city":"Black Forest","address of home lost to fire":"7110 Ravine Dr","geo_score":0.947,"zip code":"80908","id":"af0tntel8t39","geo_precision":"range","state":"Colorado"},"type":"Feature","geometry":{"type":"Point","coordinates":[-104.694245,39.02365]}},{"properties":{"city":"Black Forest","address of home lost to fire":"7115 Ravine Dr","geo_score":0.947,"zip code":"80908","id":"af0tntevvggy","geo_precision":"range","state":"Colorado"},"type":"Feature","geometry":{"type":"Point","coordinates":[-104.694203,39.023506]}},{"properties":{"city":"Black Forest","address of home lost to fire":"7150 Ravine Dr","geo_score":0.947,"zip code":"80908","id":"af0tnt8pruc1","geo_precision":"range","state":"Colorado"},"type":"Feature","geometry":{"type":"Point","coordinates":[-104.694028,39.02372]}},{"properties":{"city":"Black Forest","address of home lost to fire":"7175 Ravine Dr","geo_score":0.947,"zip code":"80908","id":"af0tntklqmws","geo_precision":"range","state":"Colorado"},"type":"Feature","geometry":{"type":"Point","coordinates":[-104.693472,39.023718]}},{"properties":{"city":"Black Forest","address of home lost to fire":"7180 Ravine Dr","geo_score":0.947,"zip code":"80908","id":"af0tnth38s4o","geo_precision":"range","state":"Colorado"},"type":"Feature","geometry":{"type":"Point","coordinates":[-104.693766,39.023802]}},{"properties":{"city":"Black Forest","address of home lost to fire":"7220 Ravine Dr","geo_score":0.947,"zip code":"80908","id":"af0tnthvqtl4","geo_precision":"range","state":"Colorado"},"type":"Feature","geometry":{"type":"Point","coordinates":[-104.691462,39.024332]}},{"properties":{"city":"Black Forest","address of home lost to fire":"13080 Ravine Dr","geo_score":0.947,"zip code":"80908","id":"af0tnt590dqb","geo_precision":"range","state":"Colorado"},"type":"Feature","geometry":{"type":"Point","coordinates":[-104.697612,39.022528]}},{"properties":{"city":"Black Forest","address of home lost to fire":"13085 Ravine Dr","geo_score":0.947,"zip code":"80908","id":"af0tntjwy1e3","geo_precision":"range","state":"Colorado"},"type":"Feature","geometry":{"type":"Point","coordinates":[-104.697388,39.021901]}},{"properties":{"city":"Black Forest","address of home lost to fire":"13158 Ravine Dr","geo_score":0.947,"zip code":"80908","id":"af0tntbu2tjj","geo_precision":"range","state":"Colorado"},"type":"Feature","geometry":{"type":"Point","coordinates":[-104.697647,39.022684]}},{"properties":{"city":"Black Forest","address of home lost to fire":"13170 Ravine Dr","geo_score":0.947,"zip code":"80908","id":"af0tntetwt21","geo_precision":"range","state":"Colorado"},"type":"Feature","geometry":{"type":"Point","coordinates":[-104.697685,39.0229]}},{"properties":{"city":"Black Forest","address of home lost to fire":"13185 Ravine Dr","geo_score":0.947,"zip code":"80908","id":"af0tnt7nv01n","geo_precision":"range","state":"Colorado"},"type":"Feature","geometry":{"type":"Point","coordinates":[-104.697593,39.023171]}},{"properties":{"city":"Black Forest","address of home lost to fire":"13210 Ravine Dr","geo_score":0.947,"zip code":"80908","id":"af0tntke3cuh","geo_precision":"range","state":"Colorado"},"type":"Feature","geometry":{"type":"Point","coordinates":[-104.697451,39.023606]}},{"properties":{"city":"Black Forest","address of home lost to fire":"13215 Ravine Dr","geo_score":0.947,"zip code":"80908","id":"af0tntl0ri2c","geo_precision":"range","state":"Colorado"},"type":"Feature","geometry":{"type":"Point","coordinates":[-104.697311,39.023511]}},{"properties":{"city":"Black Forest","address of home lost to fire":"13285 Ravine Dr","geo_score":0.947,"zip code":"80908","id":"af0tnthsxdv7","geo_precision":"range","state":"Colorado"},"type":"Feature","geometry":{"type":"Point","coordinates":[-104.696692,39.02477]}},{"properties":{"city":"Black Forest","address of home lost to fire":"13435 Ravine Dr","geo_score":0.947,"zip code":"80908","id":"af0tnti4k7u7","geo_precision":"range","state":"Colorado"},"type":"Feature","geometry":{"type":"Point","coordinates":[-104.696542,39.02665]}},{"properties":{"city":"Black Forest","address of home lost to fire":"13455 Ravine Dr","geo_score":0.947,"zip code":"80908","id":"af0tnt9ylup9","geo_precision":"range","state":"Colorado"},"type":"Feature","geometry":{"type":"Point","coordinates":[-104.696259,39.026828]}},{"properties":{"city":"Black Forest","address of home lost to fire":"12640 Sylvan Meadows","geo_score":0.948,"zip code":"80908","id":"af0tnth1kgz5","geo_precision":"range","state":"Colorado"},"type":"Feature","geometry":{"type":"Point","coordinates":[-104.619796,39.014391]}},{"properties":{"city":"Black Forest","address of home lost to fire":"13135 Frank Dr","geo_score":0.963,"zip code":"80908","id":"af0tnt96f1ck","geo_precision":"range","state":"Colorado"},"type":"Feature","geometry":{"type":"Point","coordinates":[-104.665639,39.024511]}},{"properties":{"city":"Black Forest","address of home lost to fire":"13150 Frank Dr","geo_score":0.963,"zip code":"80908","id":"af0tnteeuvkn","geo_precision":"range","state":"Colorado"},"type":"Feature","geometry":{"type":"Point","coordinates":[-104.665944,39.024672]}},{"properties":{"city":"Black Forest","address of home lost to fire":"13345 Frank Dr","geo_score":0.963,"zip code":"80908","id":"af0tntiqlco2","geo_precision":"range","state":"Colorado"},"type":"Feature","geometry":{"type":"Point","coordinates":[-104.665571,39.023057]}},{"properties":{"city":"Black Forest","address of home lost to fire":"13395 Frank Dr","geo_score":0.963,"zip code":"80908","id":"af0tnt6grf12","geo_precision":"range","state":"Colorado"},"type":"Feature","geometry":{"type":"Point","coordinates":[-104.665575,39.022762]}},{"properties":{"city":"Black Forest","address of home lost to fire":"12692 Goodson Dr","geo_score":0.971,"zip code":"80908","id":"af0tntk0yj4w","geo_precision":"range","state":"Colorado"},"type":"Feature","geometry":{"type":"Point","coordinates":[-104.623965,39.015534]}},{"properties":{"city":"Black Forest","address of home lost to fire":"12811 Goodson Dr","geo_score":0.971,"zip code":"80908","id":"af0tntfpjwbe","geo_precision":"range","state":"Colorado"},"type":"Feature","geometry":{"type":"Point","coordinates":[-104.624012,39.018275]}},{"properties":{"city":"Black Forest","address of home lost to fire":"12812 Goodson Dr","geo_score":0.971,"zip code":"80908","id":"af0tnt8atvno","geo_precision":"range","state":"Colorado"},"type":"Feature","geometry":{"type":"Point","coordinates":[-104.624163,39.018281]}},{"properties":{"city":"Black Forest","address of home lost to fire":"13165 Herring Dr","geo_score":0.971,"zip code":"80908","id":"af0tntcp7n4v","geo_precision":"range","state":"Colorado"},"type":"Feature","geometry":{"type":"Point","coordinates":[-104.681645,39.02267]}},{"properties":{"city":"Black Forest","address of home lost to fire":"13385 Herring Dr","geo_score":0.971,"zip code":"80908","id":"af0tntjnmmr4","geo_precision":"range","state":"Colorado"},"type":"Feature","geometry":{"type":"Point","coordinates":[-104.681662,39.025769]}},{"properties":{"city":"Black Forest","address of home lost to fire":"13060 Wild Oak Dr","geo_score":0.973,"zip code":"80908","id":"af0tnt8opg9p","geo_precision":"range","state":"Colorado"},"type":"Feature","geometry":{"type":"Point","coordinates":[-104.714354,39.02401]}},{"properties":{"city":"Black Forest","address of home lost to fire":"13725 Wild Oak Dr","geo_score":0.973,"zip code":"80908","id":"af0tnt4zcmej","geo_precision":"range","state":"Colorado"},"type":"Feature","geometry":{"type":"Point","coordinates":[-104.714241,39.031801]}},{"properties":{"city":"Black Forest","address of home lost to fire":"13780 Wild Oak Dr","geo_score":0.973,"zip code":"80908","id":"af0tnt6vadu8","geo_precision":"range","state":"Colorado"},"type":"Feature","geometry":{"type":"Point","coordinates":[-104.714418,39.021142]}},{"properties":{"city":"Black Forest","address of home lost to fire":"13810 Wild Oak Dr","geo_score":0.973,"zip code":"80908","id":"af0tntim4zrk","geo_precision":"range","state":"Colorado"},"type":"Feature","geometry":{"type":"Point","coordinates":[-104.714395,39.033548]}},{"properties":{"city":"Black Forest","address of home lost to fire":"6715 Jicarila Dr","geo_score":0.976,"zip code":"80908","id":"af0tnt78ae3y","geo_precision":"range","state":"Colorado"},"type":"Feature","geometry":{"type":"Point","coordinates":[-104.702132,39.03267]}},{"properties":{"city":"Black Forest","address of home lost to fire":"6720 Jicarila Dr","geo_score":0.976,"zip code":"80908","id":"af0tnt7eisku","geo_precision":"range","state":"Colorado"},"type":"Feature","geometry":{"type":"Point","coordinates":[-104.701921,39.032821]}},{"properties":{"city":"Black Forest","address of home lost to fire":"6770 Jicarila Dr","geo_score":0.976,"zip code":"80908","id":"af0tnthyqjut","geo_precision":"range","state":"Colorado"},"type":"Feature","geometry":{"type":"Point","coordinates":[-104.700956,39.032811]}},{"properties":{"city":"Black Forest","address of home lost to fire":"6150 Gun Club Tr","geo_score":0.976,"zip code":"80908","id":"af0tntjtyw4c","geo_precision":"range","state":"Colorado"},"type":"Feature","geometry":{"type":"Point","coordinates":[-104.713436,39.02653]}},{"properties":{"city":"Black Forest","address of home lost to fire":"6155 Gun Club Tr","geo_score":0.976,"zip code":"80908","id":"af0tnt8ohtic","geo_precision":"range","state":"Colorado"},"type":"Feature","geometry":{"type":"Point","coordinates":[-104.713016,39.02638]}},{"properties":{"city":"Black Forest","address of home lost to fire":"6550 Gun Club Tr","geo_score":0.976,"zip code":"80908","id":"af0tntj920gp","geo_precision":"range","state":"Colorado"},"type":"Feature","geometry":{"type":"Point","coordinates":[-104.704967,39.024584]}},{"properties":{"city":"Black Forest","address of home lost to fire":"6575 Gun Club Tr","geo_score":0.976,"zip code":"80908","id":"af0tntbrjedo","geo_precision":"range","state":"Colorado"},"type":"Feature","geometry":{"type":"Point","coordinates":[-104.701477,39.024622]}},{"properties":{"city":"Black Forest","address of home lost to fire":"6625 Gun Club Tr","geo_score":0.976,"zip code":"80908","id":"af0tntfyn48f","geo_precision":"range","state":"Colorado"},"type":"Feature","geometry":{"type":"Point","coordinates":[-104.700972,39.024991]}},{"properties":{"city":"Black Forest","address of home lost to fire":"6745 Gun Club Tr","geo_score":0.976,"zip code":"80908","id":"af0tnta0e9th","geo_precision":"range","state":"Colorado"},"type":"Feature","geometry":{"type":"Point","coordinates":[-104.700731,39.025137]}},{"properties":{"city":"Black Forest","address of home lost to fire":"6765 Gun Club Tr","geo_score":0.976,"zip code":"80908","id":"af0tntl1mlti","geo_precision":"range","state":"Colorado"},"type":"Feature","geometry":{"type":"Point","coordinates":[-104.700632,39.025162]}},{"properties":{"city":"Black Forest","address of home lost to fire":"5560 Blue Bell Ln","geo_score":0.976,"zip code":"80908","id":"af0tnt9fwao4","geo_precision":"range","state":"Colorado"},"type":"Feature","geometry":{"type":"Point","coordinates":[-104.720625,39.021059]}},{"properties":{"city":"Black Forest","address of home lost to fire":"14210 Snow Drift Ln","geo_score":0.977,"zip code":"80908","id":"af0tntgxrr2b","geo_precision":"range","state":"Colorado"},"type":"Feature","geometry":{"type":"Point","coordinates":[-104.705065,39.038938]}},{"properties":{"city":"Black Forest","address of home lost to fire":"7520 Pinery Cir","geo_score":1.0,"zip code":"80908","id":"af0tnt7gag6o","geo_precision":"range","state":"Colorado"},"type":"Feature","geometry":{"type":"Point","coordinates":[-104.684294,39.031169]}},{"properties":{"city":"Black Forest","address of home lost to fire":"7525 Pinery Cir","geo_score":1.0,"zip code":"80908","id":"af0tntc3gy45","geo_precision":"range","state":"Colorado"},"type":"Feature","geometry":{"type":"Point","coordinates":[-104.686094,39.030044]}},{"properties":{"city":"Black Forest","address of home lost to fire":"7535 Pinery Cir","geo_score":1.0,"zip code":"80908","id":"af0tntew0rjk","geo_precision":"range","state":"Colorado"},"type":"Feature","geometry":{"type":"Point","coordinates":[-104.686074,39.030044]}},{"properties":{"city":"Black Forest","address of home lost to fire":"7545 Pinery Cir","geo_score":1.0,"zip code":"80908","id":"af0tntkx13w7","geo_precision":"range","state":"Colorado"},"type":"Feature","geometry":{"type":"Point","coordinates":[-104.686053,39.030045]}},{"properties":{"city":"Black Forest","address of home lost to fire":"7575 Pinery Cir","geo_score":1.0,"zip code":"80908","id":"af0tntf3f69l","geo_precision":"range","state":"Colorado"},"type":"Feature","geometry":{"type":"Point","coordinates":[-104.685993,39.030046]}},{"properties":{"city":"Black Forest","address of home lost to fire":"7585 Pinery Cir","geo_score":1.0,"zip code":"80908","id":"af0tntdzpjyi","geo_precision":"range","state":"Colorado"},"type":"Feature","geometry":{"type":"Point","coordinates":[-104.685973,39.030047]}},{"properties":{"city":"Black Forest","address of home lost to fire":"7595 Pinery Cir","geo_score":1.0,"zip code":"80908","id":"af0tntl3cu2o","geo_precision":"range","state":"Colorado"},"type":"Feature","geometry":{"type":"Point","coordinates":[-104.685952,39.030047]}},{"properties":{"city":"Black Forest","address of home lost to fire":"7615 Pinery Cir","geo_score":1.0,"zip code":"80908","id":"af0tntjnvgbo","geo_precision":"range","state":"Colorado"},"type":"Feature","geometry":{"type":"Point","coordinates":[-104.685912,39.030048]}},{"properties":{"city":"Black Forest","address of home lost to fire":"7635 Pinery Cir","geo_score":1.0,"zip code":"80908","id":"af0tnteqt93i","geo_precision":"range","state":"Colorado"},"type":"Feature","geometry":{"type":"Point","coordinates":[-104.685871,39.030049]}},{"properties":{"city":"Black Forest","address of home lost to fire":"7655 Pinery Cir","geo_score":1.0,"zip code":"80908","id":"af0tnthmomey","geo_precision":"range","state":"Colorado"},"type":"Feature","geometry":{"type":"Point","coordinates":[-104.685831,39.03005]}},{"properties":{"city":"Black Forest","address of home lost to fire":"13545 Homestead Rd","geo_score":1.0,"zip code":"80908","id":"af0tntb00el0","geo_precision":"range","state":"Colorado"},"type":"Feature","geometry":{"type":"Point","coordinates":[-104.69394,39.030946]}},{"properties":{"city":"Black Forest","address of home lost to fire":"13595 Homestead Rd","geo_score":1.0,"zip code":"80908","id":"af0tnt9mdud8","geo_precision":"range","state":"Colorado"},"type":"Feature","geometry":{"type":"Point","coordinates":[-104.693236,39.030424]}},{"properties":{"city":"Black Forest","address of home lost to fire":"13610 Homestead Rd","geo_score":1.0,"zip code":"80908","id":"af0tnt7efy93","geo_precision":"range","state":"Colorado"},"type":"Feature","geometry":{"type":"Point","coordinates":[-104.693305,39.030139]}},{"properties":{"city":"Black Forest","address of home lost to fire":"13750 Homestead Rd","geo_score":1.0,"zip code":"80908","id":"af0tntapjamj","geo_precision":"range","state":"Colorado"},"type":"Feature","geometry":{"type":"Point","coordinates":[-104.693273,39.028044]}},{"properties":{"city":"Black Forest","address of home lost to fire":"13755 Homestead Rd","geo_score":1.0,"zip code":"80908","id":"af0tntily7tf","geo_precision":"range","state":"Colorado"},"type":"Feature","geometry":{"type":"Point","coordinates":[-104.693121,39.027991]}},{"properties":{"city":"Black Forest","address of home lost to fire":"13970 Wyandotte Dr","geo_score":1.0,"zip code":"80908","id":"af0tnthmq1t1","geo_precision":"range","state":"Colorado"},"type":"Feature","geometry":{"type":"Point","coordinates":[-104.698,39.032399]}},{"properties":{"city":"Black Forest","address of home lost to fire":"13975 Wyandotte Dr","geo_score":1.0,"zip code":"80908","id":"af0tntbqwmp2","geo_precision":"range","state":"Colorado"},"type":"Feature","geometry":{"type":"Point","coordinates":[-104.697867,39.035725]}},{"properties":{"city":"Black Forest","address of home lost to fire":"14050 Wyandotte Dr","geo_score":1.0,"zip code":"80908","id":"af0tnthvaz7x","geo_precision":"range","state":"Colorado"},"type":"Feature","geometry":{"type":"Point","coordinates":[-104.698015,39.035536]}},{"properties":{"city":"Black Forest","address of home lost to fire":"14150 Wyandotte Dr","geo_score":1.0,"zip code":"80908","id":"af0tnt8m7b6x","geo_precision":"range","state":"Colorado"},"type":"Feature","geometry":{"type":"Point","coordinates":[-104.697575,39.03895]}},{"properties":{"city":"Black Forest","address of home lost to fire":"14255 Wyandotte Dr","geo_score":1.0,"zip code":"80908","id":"af0tnt7myc92","geo_precision":"range","state":"Colorado"},"type":"Feature","geometry":{"type":"Point","coordinates":[-104.697878,39.036527]}},{"properties":{"city":"Black Forest","address of home lost to fire":"13035 Ward Ln","geo_score":1.0,"zip code":"80908","id":"af0tnthtn35u","geo_precision":"range","state":"Colorado"},"type":"Feature","geometry":{"type":"Point","coordinates":[-104.669109,39.024916]}},{"properties":{"city":"Black Forest","address of home lost to fire":"13115 Ward Ln","geo_score":1.0,"zip code":"80908","id":"af0tnt8nu68j","geo_precision":"range","state":"Colorado"},"type":"Feature","geometry":{"type":"Point","coordinates":[-104.669901,39.024124]}},{"properties":{"city":"Black Forest","address of home lost to fire":"13175 Ward Ln","geo_score":1.0,"zip code":"80908","id":"af0tnt7wqfiw","geo_precision":"range","state":"Colorado"},"type":"Feature","geometry":{"type":"Point","coordinates":[-104.669854,39.023393]}},{"properties":{"city":"Black Forest","address of home lost to fire":"13350 Ward Ln","geo_score":1.0,"zip code":"80908","id":"af0tnte3v3s2","geo_precision":"range","state":"Colorado"},"type":"Feature","geometry":{"type":"Point","coordinates":[-104.670019,39.021359]}},{"properties":{"city":"Black Forest","address of home lost to fire":"14745 Camp Robber Ct","geo_score":1.0,"zip code":"80908","id":"af0tntc797no","geo_precision":"range","state":"Colorado"},"type":"Feature","geometry":{"type":"Point","coordinates":[-104.652321,39.046658]}},{"properties":{"city":"Black Forest","address of home lost to fire":"6145 Coolwell Dr","geo_score":1.0,"zip code":"80908","id":"af0tntgh3p3a","geo_precision":"range","state":"Colorado"},"type":"Feature","geometry":{"type":"Point","coordinates":[-104.705491,39.034535]}},{"properties":{"city":"Black Forest","address of home lost to fire":"6150 Coolwell Dr","geo_score":1.0,"zip code":"80908","id":"af0tntboo3w9","geo_precision":"range","state":"Colorado"},"type":"Feature","geometry":{"type":"Point","coordinates":[-104.705033,39.034521]}},{"properties":{"city":"Black Forest","address of home lost to fire":"6205 Coolwell Dr","geo_score":1.0,"zip code":"80908","id":"af0tnt90h4o7","geo_precision":"range","state":"Colorado"},"type":"Feature","geometry":{"type":"Point","coordinates":[-104.706206,39.034463]}},{"properties":{"city":"Black Forest","address of home lost to fire":"6255 Coolwell Dr","geo_score":1.0,"zip code":"80908","id":"af0tnt747jwc","geo_precision":"range","state":"Colorado"},"type":"Feature","geometry":{"type":"Point","coordinates":[-104.707274,39.034471]}},{"properties":{"city":"Black Forest","address of home lost to fire":"6360 Coolwell Dr","geo_score":1.0,"zip code":"80908","id":"af0tntgka5yf","geo_precision":"range","state":"Colorado"},"type":"Feature","geometry":{"type":"Point","coordinates":[-104.710166,39.034633]}},{"properties":{"city":"Black Forest","address of home lost to fire":"6420 Coolwell Dr","geo_score":1.0,"zip code":"80908","id":"af0tntkf7f6j","geo_precision":"range","state":"Colorado"},"type":"Feature","geometry":{"type":"Point","coordinates":[-104.711872,39.034641]}},{"properties":{"city":"Black Forest","address of home lost to fire":"6445 Coolwell Dr","geo_score":1.0,"zip code":"80908","id":"af0tnt6e5rhk","geo_precision":"range","state":"Colorado"},"type":"Feature","geometry":{"type":"Point","coordinates":[-104.71276,39.034498]}},{"properties":{"city":"Black Forest","address of home lost to fire":"6455 Coolwell Dr","geo_score":1.0,"zip code":"80908","id":"af0tntgera9r","geo_precision":"range","state":"Colorado"},"type":"Feature","geometry":{"type":"Point","coordinates":[-104.712978,39.0345]}},{"properties":{"city":"Black Forest","address of home lost to fire":"12030 Meadow Glen Ln","geo_score":1.0,"zip code":"80908","id":"af0tntb3s8yv","geo_precision":"range","state":"Colorado"},"type":"Feature","geometry":{"type":"Point","coordinates":[-104.674835,39.020478]}},{"properties":{"city":"Black Forest","address of home lost to fire":"13025 Meadow Glen Ln","geo_score":1.0,"zip code":"80908","id":"af0tntc10m83","geo_precision":"range","state":"Colorado"},"type":"Feature","geometry":{"type":"Point","coordinates":[-104.674678,39.025192]}},{"properties":{"city":"Black Forest","address of home lost to fire":"13070 Meadow Glen Ln","geo_score":1.0,"zip code":"80908","id":"af0tnthencsc","geo_precision":"range","state":"Colorado"},"type":"Feature","geometry":{"type":"Point","coordinates":[-104.674829,39.025413]}},{"properties":{"city":"Black Forest","address of home lost to fire":"13110 Meadow Glen Ln","geo_score":1.0,"zip code":"80908","id":"af0tntgb40ef","geo_precision":"range","state":"Colorado"},"type":"Feature","geometry":{"type":"Point","coordinates":[-104.674832,39.025596]}},{"properties":{"city":"Black Forest","address of home lost to fire":"13130 Meadow Glen Ln","geo_score":1.0,"zip code":"80908","id":"af0tnte4u8hg","geo_precision":"range","state":"Colorado"},"type":"Feature","geometry":{"type":"Point","coordinates":[-104.674833,39.025692]}},{"properties":{"city":"Black Forest","address of home lost to fire":"13145 Meadow Glen Ln","geo_score":1.0,"zip code":"80908","id":"af0tntc6uc08","geo_precision":"range","state":"Colorado"},"type":"Feature","geometry":{"type":"Point","coordinates":[-104.674683,39.02576]}},{"properties":{"city":"Black Forest","address of home lost to fire":"13175 Meadow Glen Ln","geo_score":1.0,"zip code":"80908","id":"af0tntgsw1n9","geo_precision":"range","state":"Colorado"},"type":"Feature","geometry":{"type":"Point","coordinates":[-104.674684,39.025904]}},{"properties":{"city":"Black Forest","address of home lost to fire":"13180 Meadow Glen Ln","geo_score":1.0,"zip code":"80908","id":"af0tntfy74ej","geo_precision":"range","state":"Colorado"},"type":"Feature","geometry":{"type":"Point","coordinates":[-104.674834,39.025932]}},{"properties":{"city":"Black Forest","address of home lost to fire":"13220 Meadow Glen Ln","geo_score":1.0,"zip code":"80908","id":"af0tntdtu9xp","geo_precision":"range","state":"Colorado"},"type":"Feature","geometry":{"type":"Point","coordinates":[-104.674836,39.026124]}},{"properties":{"city":"Black Forest","address of home lost to fire":"13255 Meadow Glen Ln","geo_score":1.0,"zip code":"80908","id":"af0tntearaqp","geo_precision":"range","state":"Colorado"},"type":"Feature","geometry":{"type":"Point","coordinates":[-104.674688,39.026279]}},{"properties":{"city":"Black Forest","address of home lost to fire":"13390 Meadow Glen Ln","geo_score":1.0,"zip code":"80908","id":"af0tntjoabw1","geo_precision":"range","state":"Colorado"},"type":"Feature","geometry":{"type":"Point","coordinates":[-104.674834,39.026931]}},{"properties":{"city":"Black Forest","address of home lost to fire":"13215 Peregrine Cir","geo_score":1.0,"zip code":"80908","id":"af0tnt8ptefz","geo_precision":"range","state":"Colorado"},"type":"Feature","geometry":{"type":"Point","coordinates":[-104.74393,39.023779]}},{"properties":{"city":"Black Forest","address of home lost to fire":"14210 Snowdrift Lane","geo_score":1.0,"zip code":"80908","id":"af0tnth18o0j","geo_precision":"range","state":"Colorado"},"type":"Feature","geometry":{"type":"Point","coordinates":[-104.705065,39.038938]}},{"properties":{"city":"Black Forest","address of home lost to fire":"14420 Snowdrift Lane","geo_score":1.0,"zip code":"80908","id":"af0tnt85p0ye","geo_precision":"range","state":"Colorado"},"type":"Feature","geometry":{"type":"Point","coordinates":[-104.705075,39.03973]}},{"properties":{"city":"Black Forest","address of home lost to fire":"12985 Darr Dr","geo_score":1.0,"zip code":"80908","id":"af0tntaz63mz","geo_precision":"range","state":"Colorado"},"type":"Feature","geometry":{"type":"Point","coordinates":[-104.74302,39.026366]}},{"properties":{"city":"Black Forest","address of home lost to fire":"13095 Darr Dr","geo_score":1.0,"zip code":"80908","id":"af0tnthqa02k","geo_precision":"range","state":"Colorado"},"type":"Feature","geometry":{"type":"Point","coordinates":[-104.739565,39.026071]}},{"properties":{"city":"Black Forest","address of home lost to fire":"13140 Darr Dr","geo_score":1.0,"zip code":"80908","id":"af0tntbnf7vr","geo_precision":"range","state":"Colorado"},"type":"Feature","geometry":{"type":"Point","coordinates":[-104.739446,39.02551]}},{"properties":{"city":"Black Forest","address of home lost to fire":"13230 Darr Dr","geo_score":1.0,"zip code":"80908","id":"af0tntidm5sq","geo_precision":"range","state":"Colorado"},"type":"Feature","geometry":{"type":"Point","coordinates":[-104.739476,39.022447]}},{"properties":{"city":"Black Forest","address of home lost to fire":"13320 Darr Dr","geo_score":1.0,"zip code":"80908","id":"af0tntkfjoa0","geo_precision":"range","state":"Colorado"},"type":"Feature","geometry":{"type":"Point","coordinates":[-104.739472,39.021535]}},{"properties":{"city":"Black Forest","address of home lost to fire":"4525 Darr Cir","geo_score":1.0,"zip code":"80908","id":"af0tnt7gxoed","geo_precision":"range","state":"Colorado"},"type":"Feature","geometry":{"type":"Point","coordinates":[-104.746532,39.0199]}},{"properties":{"city":"Black Forest","address of home lost to fire":"4455 Darr Cir","geo_score":1.0,"zip code":"80908","id":"af0tntfjfent","geo_precision":"range","state":"Colorado"},"type":"Feature","geometry":{"type":"Point","coordinates":[-104.744956,39.019516]}},{"properties":{"city":"Black Forest","address of home lost to fire":"12810 Peregrine Way","geo_score":1.0,"zip code":"80908","id":"af0tntddi5oj","geo_precision":"range","state":"Colorado"},"type":"Feature","geometry":{"type":"Point","coordinates":[-104.74363,39.016395]}},{"properties":{"city":"Black Forest","address of home lost to fire":"13055 Peregrine Way","geo_score":1.0,"zip code":"80908","id":"af0tnt7xjai7","geo_precision":"range","state":"Colorado"},"type":"Feature","geometry":{"type":"Point","coordinates":[-104.742559,39.019309]}},{"properties":{"city":"Black Forest","address of home lost to fire":"13145 Peregrine Way","geo_score":1.0,"zip code":"80908","id":"af0tnt8y77y4","geo_precision":"range","state":"Colorado"},"type":"Feature","geometry":{"type":"Point","coordinates":[-104.742567,39.021276]}},{"properties":{"city":"Black Forest","address of home lost to fire":"13150 Peregrine Way","geo_score":1.0,"zip code":"80908","id":"af0tnt9mt6bw","geo_precision":"range","state":"Colorado"},"type":"Feature","geometry":{"type":"Point","coordinates":[-104.742643,39.021003]}},{"properties":{"city":"Black Forest","address of home lost to fire":"13185 Peregrine Way","geo_score":1.0,"zip code":"80908","id":"af0tnt8454bq","geo_precision":"range","state":"Colorado"},"type":"Feature","geometry":{"type":"Point","coordinates":[-104.744356,39.022798]}},{"properties":{"city":"Black Forest","address of home lost to fire":"13195 Peregrine Way","geo_score":1.0,"zip code":"80908","id":"af0tnthwmptm","geo_precision":"range","state":"Colorado"},"type":"Feature","geometry":{"type":"Point","coordinates":[-104.7437,39.022786]}},{"properties":{"city":"Black Forest","address of home lost to fire":"13520 New Discovery Rd","geo_score":1.0,"zip code":"80908","id":"af0tnt77u7kd","geo_precision":"range","state":"Colorado"},"type":"Feature","geometry":{"type":"Point","coordinates":[-104.66723,39.027766]}},{"properties":{"city":"Black Forest","address of home lost to fire":"13525 New Discovery Rd","geo_score":1.0,"zip code":"80908","id":"af0tnt6i9j8f","geo_precision":"range","state":"Colorado"},"type":"Feature","geometry":{"type":"Point","coordinates":[-104.66708,39.027703]}},{"properties":{"city":"Black Forest","address of home lost to fire":"13675 New Discovery Rd","geo_score":1.0,"zip code":"80908","id":"af0tntkflk52","geo_precision":"range","state":"Colorado"},"type":"Feature","geometry":{"type":"Point","coordinates":[-104.667161,39.029418]}},{"properties":{"city":"Black Forest","address of home lost to fire":"6385 Vessey Road","geo_score":1.0,"zip code":"80908","id":"af0tntfjs6fc","geo_precision":"range","state":"Colorado"},"type":"Feature","geometry":{"type":"Point","coordinates":[-104.708662,39.038146]}},{"properties":{"city":"Black Forest","address of home lost to fire":"6555 Vessey Road","geo_score":1.0,"zip code":"80908","id":"af0tnt4vw1cl","geo_precision":"range","state":"Colorado"},"type":"Feature","geometry":{"type":"Point","coordinates":[-104.706752,39.038088]}},{"properties":{"city":"Black Forest","address of home lost to fire":"6680 Vessey Road","geo_score":1.0,"zip code":"80908","id":"af0tnt9n7rgr","geo_precision":"range","state":"Colorado"},"type":"Feature","geometry":{"type":"Point","coordinates":[-104.702853,39.038125]}},{"properties":{"city":"Black Forest","address of home lost to fire":"6750 Vessey Road","geo_score":1.0,"zip code":"80908","id":"af0tntgpzele","geo_precision":"range","state":"Colorado"},"type":"Feature","geometry":{"type":"Point","coordinates":[-104.70136,39.038085]}},{"properties":{"city":"Black Forest","address of home lost to fire":"6750 Vessey Road","geo_score":1.0,"zip code":"80908","id":"af0tnt7rm8pc","geo_precision":"range","state":"Colorado"},"type":"Feature","geometry":{"type":"Point","coordinates":[-104.70136,39.038085]}},{"properties":{"city":"Black Forest","address of home lost to fire":"13195 Tahosa Lane","geo_score":1.0,"zip code":"80908","id":"af0tntg8q4jl","geo_precision":"range","state":"Colorado"},"type":"Feature","geometry":{"type":"Point","coordinates":[-104.749556,39.021114]}},{"properties":{"city":"Black Forest","address of home lost to fire":"13555 Pinery Dr","geo_score":1.0,"zip code":"80908","id":"af0tntbh3n8u","geo_precision":"range","state":"Colorado"},"type":"Feature","geometry":{"type":"Point","coordinates":[-104.686358,39.027387]}},{"properties":{"city":"Black Forest","address of home lost to fire":"13065 Pinery Dr","geo_score":1.0,"zip code":"80908","id":"af0tnti0x0bg","geo_precision":"range","state":"Colorado"},"type":"Feature","geometry":{"type":"Point","coordinates":[-104.689936,39.020973]}},{"properties":{"city":"Black Forest","address of home lost to fire":"13210 Pinery Dr","geo_score":1.0,"zip code":"80908","id":"af0tntkr7s9b","geo_precision":"range","state":"Colorado"},"type":"Feature","geometry":{"type":"Point","coordinates":[-104.686491,39.021139]}},{"properties":{"city":"Black Forest","address of home lost to fire":"13225 Pinery Dr","geo_score":1.0,"zip code":"80908","id":"af0tnt6cvuch","geo_precision":"range","state":"Colorado"},"type":"Feature","geometry":{"type":"Point","coordinates":[-104.687091,39.020972]}},{"properties":{"city":"Black Forest","address of home lost to fire":"13285 Pinery Dr","geo_score":1.0,"zip code":"80908","id":"af0tntgwqlcz","geo_precision":"range","state":"Colorado"},"type":"Feature","geometry":{"type":"Point","coordinates":[-104.686302,39.021488]}},{"properties":{"city":"Black Forest","address of home lost to fire":"13310 Pinery Dr","geo_score":1.0,"zip code":"80908","id":"af0tntezmen6","geo_precision":"range","state":"Colorado"},"type":"Feature","geometry":{"type":"Point","coordinates":[-104.686434,39.022903]}},{"properties":{"city":"Black Forest","address of home lost to fire":"13355 Pinery Dr","geo_score":1.0,"zip code":"80908","id":"af0tntjxef0v","geo_precision":"range","state":"Colorado"},"type":"Feature","geometry":{"type":"Point","coordinates":[-104.68629,39.022496]}},{"properties":{"city":"Black Forest","address of home lost to fire":"13360 Pinery Dr","geo_score":1.0,"zip code":"80908","id":"af0tnt8nsybf","geo_precision":"range","state":"Colorado"},"type":"Feature","geometry":{"type":"Point","coordinates":[-104.686415,39.023748]}},{"properties":{"city":"Black Forest","address of home lost to fire":"13450 Pinery Dr","geo_score":1.0,"zip code":"80908","id":"af0tntfbif1i","geo_precision":"range","state":"Colorado"},"type":"Feature","geometry":{"type":"Point","coordinates":[-104.686359,39.025285]}},{"properties":{"city":"Black Forest","address of home lost to fire":"13645 Pinery Dr","geo_score":1.0,"zip code":"80908","id":"af0tntg3b9ar","geo_precision":"range","state":"Colorado"},"type":"Feature","geometry":{"type":"Point","coordinates":[-104.68604,39.029071]}},{"properties":{"city":"Black Forest","address of home lost to fire":"6985 Swan Road","geo_score":1.0,"zip code":"80908","id":"af0tnt6ux0b3","geo_precision":"range","state":"Colorado"},"type":"Feature","geometry":{"type":"Point","coordinates":[-104.697033,39.027236]}},{"properties":{"city":"Black Forest","address of home lost to fire":"7425 Swan Road","geo_score":1.0,"zip code":"80908","id":"af0tnt5neclq","geo_precision":"range","state":"Colorado"},"type":"Feature","geometry":{"type":"Point","coordinates":[-104.689151,39.027299]}},{"properties":{"city":"Black Forest","address of home lost to fire":"7465 Swan Road","geo_score":1.0,"zip code":"80908","id":"af0tntgo9kpq","geo_precision":"range","state":"Colorado"},"type":"Feature","geometry":{"type":"Point","coordinates":[-104.688537,39.027303]}},{"properties":{"city":"Black Forest","address of home lost to fire":"7725 Swan Road","geo_score":1.0,"zip code":"80908","id":"af0tntaz1ii7","geo_precision":"range","state":"Colorado"},"type":"Feature","geometry":{"type":"Point","coordinates":[-104.683034,39.027347]}},{"properties":{"city":"Black Forest","address of home lost to fire":"8025 Swan Road","geo_score":1.0,"zip code":"80908","id":"af0tntc5u22g","geo_precision":"range","state":"Colorado"},"type":"Feature","geometry":{"type":"Point","coordinates":[-104.678036,39.027367]}},{"properties":{"city":"Black Forest","address of home lost to fire":"8150 Swan Road","geo_score":1.0,"zip code":"80908","id":"af0tntdj95jo","geo_precision":"range","state":"Colorado"},"type":"Feature","geometry":{"type":"Point","coordinates":[-104.675625,39.027522]}},{"properties":{"city":"Black Forest","address of home lost to fire":"8385 Swan Road","geo_score":1.0,"zip code":"80908","id":"af0tntj3jpib","geo_precision":"range","state":"Colorado"},"type":"Feature","geometry":{"type":"Point","coordinates":[-104.671243,39.027373]}},{"properties":{"city":"Black Forest","address of home lost to fire":"8470 Swan Road","geo_score":1.0,"zip code":"80908","id":"af0tntck6lu8","geo_precision":"range","state":"Colorado"},"type":"Feature","geometry":{"type":"Point","coordinates":[-104.668937,39.027466]}},{"properties":{"city":"Black Forest","address of home lost to fire":"8535 Swan Road","geo_score":1.0,"zip code":"80908","id":"af0tntjs6myw","geo_precision":"range","state":"Colorado"},"type":"Feature","geometry":{"type":"Point","coordinates":[-104.668551,39.027393]}},{"properties":{"city":"Black Forest","address of home lost to fire":"13270 Altadena Dr","geo_score":1.0,"zip code":"80908","id":"af0tntihqtzk","geo_precision":"range","state":"Colorado"},"type":"Feature","geometry":{"type":"Point","coordinates":[-104.694526,39.024522]}},{"properties":{"city":"Black Forest","address of home lost to fire":"13345 Altadena Dr","geo_score":1.0,"zip code":"80908","id":"af0tnt9eiqbw","geo_precision":"range","state":"Colorado"},"type":"Feature","geometry":{"type":"Point","coordinates":[-104.694357,39.025536]}},{"properties":{"city":"Black Forest","address of home lost to fire":"13420 Rhine Dr","geo_score":1.0,"zip code":"80908","id":"af0tntc4zmbh","geo_precision":"range","state":"Colorado"},"type":"Feature","geometry":{"type":"Point","coordinates":[-104.6993,39.026288]}},{"properties":{"city":"Black Forest","address of home lost to fire":"13220 Pine Dr","geo_score":1.0,"zip code":"80908","id":"af0tnt5m2n65","geo_precision":"range","state":"Colorado"},"type":"Feature","geometry":{"type":"Point","coordinates":[-104.698716,39.023574]}},{"properties":{"city":"Black Forest","address of home lost to fire":"13345 Pine Dr","geo_score":1.0,"zip code":"80908","id":"af0tntezlrtk","geo_precision":"range","state":"Colorado"},"type":"Feature","geometry":{"type":"Point","coordinates":[-104.697707,39.024996]}},{"properties":{"city":"Black Forest","address of home lost to fire":"13080 Columbine St","geo_score":1.0,"zip code":"80908","id":"af0tnt5uqkog","geo_precision":"range","state":"Colorado"},"type":"Feature","geometry":{"type":"Point","coordinates":[-104.69479,39.020382]}},{"properties":{"city":"Black Forest","address of home lost to fire":"6910 Inez St","geo_score":1.0,"zip code":"80908","id":"af0tntf3osn6","geo_precision":"range","state":"Colorado"},"type":"Feature","geometry":{"type":"Point","coordinates":[-104.699735,39.025005]}},{"properties":{"city":"Black Forest","address of home lost to fire":"12680 Herring Road","geo_score":1.0,"zip code":"80908","id":"af0tnte324oz","geo_precision":"range","state":"Colorado"},"type":"Feature","geometry":{"type":"Point","coordinates":[-104.681801,39.017054]}},{"properties":{"city":"Black Forest","address of home lost to fire":"12760 Herring Road","geo_score":1.0,"zip code":"80908","id":"af0tntengcec","geo_precision":"range","state":"Colorado"},"type":"Feature","geometry":{"type":"Point","coordinates":[-104.681805,39.01774]}},{"properties":{"city":"Black Forest","address of home lost to fire":"12790 Herring Road","geo_score":1.0,"zip code":"80908","id":"af0tntc0ccis","geo_precision":"range","state":"Colorado"},"type":"Feature","geometry":{"type":"Point","coordinates":[-104.681805,39.018]}},{"properties":{"city":"Black Forest","address of home lost to fire":"12930 Herring Road","geo_score":1.0,"zip code":"80908","id":"af0tntaqhb1t","geo_precision":"range","state":"Colorado"},"type":"Feature","geometry":{"type":"Point","coordinates":[-104.681797,39.019376]}},{"properties":{"city":"Black Forest","address of home lost to fire":"13030 Herring Road","geo_score":1.0,"zip code":"80908","id":"af0tntj6l6ev","geo_precision":"range","state":"Colorado"},"type":"Feature","geometry":{"type":"Point","coordinates":[-104.681797,39.020794]}},{"properties":{"city":"Black Forest","address of home lost to fire":"13380 Herring Road","geo_score":1.0,"zip code":"80908","id":"af0tntjejitx","geo_precision":"range","state":"Colorado"},"type":"Feature","geometry":{"type":"Point","coordinates":[-104.681812,39.025712]}},{"properties":{"city":"Black Forest","address of home lost to fire":"13440 Herring Road","geo_score":1.0,"zip code":"80908","id":"af0tntat4dxm","geo_precision":"range","state":"Colorado"},"type":"Feature","geometry":{"type":"Point","coordinates":[-104.681809,39.026587]}},{"properties":{"city":"Black Forest","address of home lost to fire":"12155 Windmill Ln","geo_score":1.0,"zip code":"80908","id":"af0tnt9sxivk","geo_precision":"range","state":"Colorado"},"type":"Feature","geometry":{"type":"Point","coordinates":[-104.637716,39.008495]}},{"properties":{"city":"Black Forest","address of home lost to fire":"12160 Windmill Ln","geo_score":1.0,"zip code":"80908","id":"af0tntghb2b6","geo_precision":"range","state":"Colorado"},"type":"Feature","geometry":{"type":"Point","coordinates":[-104.637523,39.008419]}},{"properties":{"city":"Black Forest","address of home lost to fire":"12185 Windmill Ln","geo_score":1.0,"zip code":"80908","id":"af0tnt4vl2az","geo_precision":"range","state":"Colorado"},"type":"Feature","geometry":{"type":"Point","coordinates":[-104.637479,39.007897]}},{"properties":{"city":"Black Forest","address of home lost to fire":"12610 Crump Road","geo_score":1.0,"zip code":"80908","id":"af0tntj714hw","geo_precision":"range","state":"Colorado"},"type":"Feature","geometry":{"type":"Point","coordinates":[-104.725987,39.01282]}},{"properties":{"city":"Black Forest","address of home lost to fire":"12685 Crump Road","geo_score":1.0,"zip code":"80908","id":"af0tnte5idg5","geo_precision":"range","state":"Colorado"},"type":"Feature","geometry":{"type":"Point","coordinates":[-104.725214,39.016768]}},{"properties":{"city":"Black Forest","address of home lost to fire":"12850 Crump Road","geo_score":1.0,"zip code":"80908","id":"af0tntin8dhu","geo_precision":"range","state":"Colorado"},"type":"Feature","geometry":{"type":"Point","coordinates":[-104.724991,39.018779]}},{"properties":{"city":"Black Forest","address of home lost to fire":"12865 Crump Road","geo_score":1.0,"zip code":"80908","id":"af0tntdiolmc","geo_precision":"range","state":"Colorado"},"type":"Feature","geometry":{"type":"Point","coordinates":[-104.72502,39.018513]}},{"properties":{"city":"Black Forest","address of home lost to fire":"13010 Crump Road","geo_score":1.0,"zip code":"80908","id":"af0tnt8ji92c","geo_precision":"range","state":"Colorado"},"type":"Feature","geometry":{"type":"Point","coordinates":[-104.724257,39.021368]}},{"properties":{"city":"Black Forest","address of home lost to fire":"13040 Crump Road","geo_score":1.0,"zip code":"80908","id":"af0tntbnzst7","geo_precision":"range","state":"Colorado"},"type":"Feature","geometry":{"type":"Point","coordinates":[-104.724257,39.021095]}},{"properties":{"city":"Black Forest","address of home lost to fire":"13060 Crump Road","geo_score":1.0,"zip code":"80908","id":"af0tntkbno71","geo_precision":"range","state":"Colorado"},"type":"Feature","geometry":{"type":"Point","coordinates":[-104.724258,39.020912]}},{"properties":{"city":"Black Forest","address of home lost to fire":"13110 Crump Road","geo_score":1.0,"zip code":"80908","id":"af0tnt842mtn","geo_precision":"range","state":"Colorado"},"type":"Feature","geometry":{"type":"Point","coordinates":[-104.724254,39.020456]}},{"properties":{"city":"Black Forest","address of home lost to fire":"13120 Crump Road","geo_score":1.0,"zip code":"80908","id":"af0tntb89vun","geo_precision":"range","state":"Colorado"},"type":"Feature","geometry":{"type":"Point","coordinates":[-104.724253,39.020365]}},{"properties":{"city":"Black Forest","address of home lost to fire":"13210 Crump Road","geo_score":1.0,"zip code":"80908","id":"af0tnthe6cj2","geo_precision":"range","state":"Colorado"},"type":"Feature","geometry":{"type":"Point","coordinates":[-104.724336,39.023389]}},{"properties":{"city":"Black Forest","address of home lost to fire":"13230 Crump Road","geo_score":1.0,"zip code":"80908","id":"af0tntd7ra7i","geo_precision":"range","state":"Colorado"},"type":"Feature","geometry":{"type":"Point","coordinates":[-104.724217,39.023106]}},{"properties":{"city":"Black Forest","address of home lost to fire":"12810 Tia Lane","geo_score":1.0,"zip code":"80908","id":"af0tntka7df8","geo_precision":"range","state":"Colorado"},"type":"Feature","geometry":{"type":"Point","coordinates":[-104.729971,39.017631]}},{"properties":{"city":"Black Forest","address of home lost to fire":"12815 Tia Lane","geo_score":1.0,"zip code":"80908","id":"af0tnte0g3us","geo_precision":"range","state":"Colorado"},"type":"Feature","geometry":{"type":"Point","coordinates":[-104.730123,39.017549]}},{"properties":{"city":"Black Forest","address of home lost to fire":"12890 Tia Lane","geo_score":1.0,"zip code":"80908","id":"af0tntgquljd","geo_precision":"range","state":"Colorado"},"type":"Feature","geometry":{"type":"Point","coordinates":[-104.729834,39.018332]}},{"properties":{"city":"Black Forest","address of home lost to fire":"12260 Domino Way","geo_score":1.0,"zip code":"80908","id":"af0tnt5xjwaw","geo_precision":"range","state":"Colorado"},"type":"Feature","geometry":{"type":"Point","coordinates":[-104.651465,39.009881]}},{"properties":{"city":"Black Forest","address of home lost to fire":"12275 Domino Way","geo_score":1.0,"zip code":"80908","id":"af0tnt9161pr","geo_precision":"range","state":"Colorado"},"type":"Feature","geometry":{"type":"Point","coordinates":[-104.651643,39.009712]}},{"properties":{"city":"Black Forest","address of home lost to fire":"12260 Domino Way","geo_score":1.0,"zip code":"80908","id":"af0tnt58uk64","geo_precision":"range","state":"Colorado"},"type":"Feature","geometry":{"type":"Point","coordinates":[-104.651465,39.009881]}},{"properties":{"city":"Black Forest","address of home lost to fire":"12275 Domino Way","geo_score":1.0,"zip code":"80908","id":"af0tnt8outmy","geo_precision":"range","state":"Colorado"},"type":"Feature","geometry":{"type":"Point","coordinates":[-104.651643,39.009712]}},{"properties":{"city":"Black Forest","address of home lost to fire":"5565 Piedra Vista","geo_score":1.0,"zip code":"80908","id":"af0tntat31mm","geo_precision":"range","state":"Colorado"},"type":"Feature","geometry":{"type":"Point","coordinates":[-104.724143,39.032666]}},{"properties":{"city":"Black Forest","address of home lost to fire":"5630 Piedra Vista","geo_score":1.0,"zip code":"80908","id":"af0tnt820u4g","geo_precision":"range","state":"Colorado"},"type":"Feature","geometry":{"type":"Point","coordinates":[-104.725363,39.03282]}},{"properties":{"city":"Black Forest","address of home lost to fire":"14165 Neva Ln","geo_score":1.0,"zip code":"80908","id":"af0tnthzkxu5","geo_precision":"range","state":"Colorado"},"type":"Feature","geometry":{"type":"Point","coordinates":[-104.71363,39.037928]}},{"properties":{"city":"Black Forest","address of home lost to fire":"12850 Rusk Ln","geo_score":1.0,"zip code":"80908","id":"af0tnth7nqom","geo_precision":"range","state":"Colorado"},"type":"Feature","geometry":{"type":"Point","coordinates":[-104.712089,39.015342]}},{"properties":{"city":"Black Forest","address of home lost to fire":"12875 Rusk Ln","geo_score":1.0,"zip code":"80908","id":"af0tntklfial","geo_precision":"range","state":"Colorado"},"type":"Feature","geometry":{"type":"Point","coordinates":[-104.711981,39.016431]}},{"properties":{"city":"Black Forest","address of home lost to fire":"12885 Rusk Ln","geo_score":1.0,"zip code":"80908","id":"af0tntbrwr6j","geo_precision":"range","state":"Colorado"},"type":"Feature","geometry":{"type":"Point","coordinates":[-104.711983,39.016324]}},{"properties":{"city":"Black Forest","address of home lost to fire":"12890 Rusk Ln","geo_score":1.0,"zip code":"80908","id":"af0tntetzuty","geo_precision":"range","state":"Colorado"},"type":"Feature","geometry":{"type":"Point","coordinates":[-104.712135,39.017697]}},{"properties":{"city":"Black Forest","address of home lost to fire":"12950 Rusk Ln","geo_score":1.0,"zip code":"80908","id":"af0tntbzsjde","geo_precision":"range","state":"Colorado"},"type":"Feature","geometry":{"type":"Point","coordinates":[-104.712138,39.016057]}},{"properties":{"city":"Black Forest","address of home lost to fire":"14320 Vessey Cir","geo_score":1.0,"zip code":"80908","id":"af0tnt8dfjtj","geo_precision":"range","state":"Colorado"},"type":"Feature","geometry":{"type":"Point","coordinates":[-104.702393,39.040144]}},{"properties":{"city":"Black Forest","address of home lost to fire":"14355 Vessey Cir","geo_score":1.0,"zip code":"80908","id":"af0tnta8wdj5","geo_precision":"range","state":"Colorado"},"type":"Feature","geometry":{"type":"Point","coordinates":[-104.702614,39.040705]}},{"properties":{"city":"Black Forest","address of home lost to fire":"14405 Vessey Cir","geo_score":1.0,"zip code":"80908","id":"af0tntc6iqwz","geo_precision":"range","state":"Colorado"},"type":"Feature","geometry":{"type":"Point","coordinates":[-104.703173,39.039897]}},{"properties":{"city":"Black Forest","address of home lost to fire":"14415 Vessey Cir","geo_score":1.0,"zip code":"80908","id":"af0tntejuvvq","geo_precision":"range","state":"Colorado"},"type":"Feature","geometry":{"type":"Point","coordinates":[-104.70325,39.039693]}},{"properties":{"city":"Black Forest","address of home lost to fire":"14445 Vessey Cir","geo_score":1.0,"zip code":"80908","id":"af0tntdu5u86","geo_precision":"range","state":"Colorado"},"type":"Feature","geometry":{"type":"Point","coordinates":[-104.703379,39.039121]}},{"properties":{"city":"Black Forest","address of home lost to fire":"14475 Vessey Cir","geo_score":1.0,"zip code":"80908","id":"af0tnted81d4","geo_precision":"range","state":"Colorado"},"type":"Feature","geometry":{"type":"Point","coordinates":[-104.703409,39.038533]}},{"properties":{"city":"Black Forest","address of home lost to fire":"12285 Lazy H Way","geo_score":1.0,"zip code":"80908","id":"af0tntivt20h","geo_precision":"range","state":"Colorado"},"type":"Feature","geometry":{"type":"Point","coordinates":[-104.655978,39.009785]}},{"properties":{"city":"Black Forest","address of home lost to fire":"12290 Lazy H Way","geo_score":1.0,"zip code":"80908","id":"af0tnt6vhkki","geo_precision":"range","state":"Colorado"},"type":"Feature","geometry":{"type":"Point","coordinates":[-104.656119,39.009694]}},{"properties":{"city":"Black Forest","address of home lost to fire":"8975 Hardin Rd","geo_score":1.0,"zip code":"80908","id":"af0tntkigfhj","geo_precision":"range","state":"Colorado"},"type":"Feature","geometry":{"type":"Point","coordinates":[-104.647225,39.010113]}},{"properties":{"city":"Black Forest","address of home lost to fire":"9580 Hardin Rd","geo_score":1.0,"zip code":"80908","id":"af0tnt95vlly","geo_precision":"range","state":"Colorado"},"type":"Feature","geometry":{"type":"Point","coordinates":[-104.660155,39.006876]}},{"properties":{"city":"Black Forest","address of home lost to fire":"9645 Hardin Rd","geo_score":1.0,"zip code":"80908","id":"af0tntihuxn3","geo_precision":"range","state":"Colorado"},"type":"Feature","geometry":{"type":"Point","coordinates":[-104.661751,39.006675]}},{"properties":{"city":"Black Forest","address of home lost to fire":"13055 Vollmer Rd","geo_score":1.0,"zip code":"80908","id":"af0tnt68n5g4","geo_precision":"range","state":"Colorado"},"type":"Feature","geometry":{"type":"Point","coordinates":[-104.663171,39.021248]}},{"properties":{"city":"Black Forest","address of home lost to fire":"13251 Vollmer Rd","geo_score":1.0,"zip code":"80908","id":"af0tntencziv","geo_precision":"range","state":"Colorado"},"type":"Feature","geometry":{"type":"Point","coordinates":[-104.663136,39.025842]}},{"properties":{"city":"Black Forest","address of home lost to fire":"12755 Thiebaud Ln","geo_score":1.0,"zip code":"80908","id":"af0tntclwyj9","geo_precision":"range","state":"Colorado"},"type":"Feature","geometry":{"type":"Point","coordinates":[-104.714609,39.017616]}},{"properties":{"city":"Black Forest","address of home lost to fire":"12850 Thiebaud Ln","geo_score":1.0,"zip code":"80908","id":"af0tntkz8lt0","geo_precision":"range","state":"Colorado"},"type":"Feature","geometry":{"type":"Point","coordinates":[-104.714799,39.016865]}},{"properties":{"city":"Black Forest","address of home lost to fire":"12950 Thiebaud Ln","geo_score":1.0,"zip code":"80908","id":"af0tntgascsx","geo_precision":"range","state":"Colorado"},"type":"Feature","geometry":{"type":"Point","coordinates":[-104.714764,39.016073]}},{"properties":{"city":"Black Forest","address of home lost to fire":"12955 Thiebaud Ln","geo_score":1.0,"zip code":"80908","id":"af0tntjncvn7","geo_precision":"range","state":"Colorado"},"type":"Feature","geometry":{"type":"Point","coordinates":[-104.714614,39.016043]}},{"properties":{"city":"Black Forest","address of home lost to fire":"12660 Wolford Ln","geo_score":1.0,"zip code":"80908","id":"af0tnti63nt3","geo_precision":"range","state":"Colorado"},"type":"Feature","geometry":{"type":"Point","coordinates":[-104.704468,39.015737]}},{"properties":{"city":"Black Forest","address of home lost to fire":"8140 Danford Rd","geo_score":1.0,"zip code":"80908","id":"af0tntdf8qdz","geo_precision":"range","state":"Colorado"},"type":"Feature","geometry":{"type":"Point","coordinates":[-104.676757,39.03003]}},{"properties":{"city":"Black Forest","address of home lost to fire":"8045 Danford Rd","geo_score":1.0,"zip code":"80908","id":"af0tntd01knf","geo_precision":"range","state":"Colorado"},"type":"Feature","geometry":{"type":"Point","coordinates":[-104.677759,39.029873]}},{"properties":{"city":"Black Forest","address of home lost to fire":"6820 Brentwood Drive","geo_score":1.0,"zip code":"80908","id":"af0tntd390r5","geo_precision":"range","state":"Colorado"},"type":"Feature","geometry":{"type":"Point","coordinates":[-104.700185,39.020146]}},{"properties":{"city":"Black Forest","address of home lost to fire":"6840 Brentwood Drive","geo_score":1.0,"zip code":"80908","id":"af0tntcmns2m","geo_precision":"range","state":"Colorado"},"type":"Feature","geometry":{"type":"Point","coordinates":[-104.69983,39.020153]}},{"properties":{"city":"Black Forest","address of home lost to fire":"6950 Brentwood Drive","geo_score":1.0,"zip code":"80908","id":"af0tntbnoc4o","geo_precision":"range","state":"Colorado"},"type":"Feature","geometry":{"type":"Point","coordinates":[-104.697628,39.020191]}},{"properties":{"city":"Black Forest","address of home lost to fire":"6980 Brentwood Drive","geo_score":1.0,"zip code":"80908","id":"af0tnt9eiatm","geo_precision":"range","state":"Colorado"},"type":"Feature","geometry":{"type":"Point","coordinates":[-104.697096,39.020202]}},{"properties":{"city":"Black Forest","address of home lost to fire":"7110 Brentwood Drive","geo_score":1.0,"zip code":"80908","id":"af0tnt6vo88q","geo_precision":"range","state":"Colorado"},"type":"Feature","geometry":{"type":"Point","coordinates":[-104.694146,39.02021]}},{"properties":{"city":"Black Forest","address of home lost to fire":"7150 Brentwood Drive","geo_score":1.0,"zip code":"80908","id":"af0tnt6047nh","geo_precision":"range","state":"Colorado"},"type":"Feature","geometry":{"type":"Point","coordinates":[-104.693823,39.020213]}},{"properties":{"city":"Black Forest","address of home lost to fire":"7210 Brentwood Drive","geo_score":1.0,"zip code":"80908","id":"af0tntiqfq3m","geo_precision":"range","state":"Colorado"},"type":"Feature","geometry":{"type":"Point","coordinates":[-104.693267,39.02022]}},{"properties":{"city":"Black Forest","address of home lost to fire":"7230 Brentwood Drive","geo_score":1.0,"zip code":"80908","id":"af0tntedps0h","geo_precision":"range","state":"Colorado"},"type":"Feature","geometry":{"type":"Point","coordinates":[-104.693004,39.020223]}},{"properties":{"city":"Black Forest","address of home lost to fire":"13025 Brentwood Drive","geo_score":1.0,"zip code":"80908","id":"af0tntgs26q8","geo_precision":"range","state":"Colorado"},"type":"Feature","geometry":{"type":"Point","coordinates":[-104.690962,39.021007]}},{"properties":{"city":"Black Forest","address of home lost to fire":"13030 Brentwood Drive","geo_score":1.0,"zip code":"80908","id":"af0tntjfmmqt","geo_precision":"range","state":"Colorado"},"type":"Feature","geometry":{"type":"Point","coordinates":[-104.69112,39.020843]}},{"properties":{"city":"Black Forest","address of home lost to fire":"13060 Brentwood Drive","geo_score":1.0,"zip code":"80908","id":"af0tntjwezpu","geo_precision":"range","state":"Colorado"},"type":"Feature","geometry":{"type":"Point","coordinates":[-104.691108,39.02109]}},{"properties":{"city":"Black Forest","address of home lost to fire":"13085 Brentwood Drive","geo_score":1.0,"zip code":"80908","id":"af0tnt7jr4wz","geo_precision":"range","state":"Colorado"},"type":"Feature","geometry":{"type":"Point","coordinates":[-104.690841,39.021994]}},{"properties":{"city":"Black Forest","address of home lost to fire":"13085 Brentwood Drive","geo_score":1.0,"zip code":"80908","id":"af0tntkc7flf","geo_precision":"range","state":"Colorado"},"type":"Feature","geometry":{"type":"Point","coordinates":[-104.690841,39.021994]}},{"properties":{"city":"Black Forest","address of home lost to fire":"13120 Brentwood Drive","geo_score":1.0,"zip code":"80908","id":"af0tntgnl2fs","geo_precision":"range","state":"Colorado"},"type":"Feature","geometry":{"type":"Point","coordinates":[-104.691073,39.02255]}},{"properties":{"city":"Black Forest","address of home lost to fire":"13140 Brentwood Drive","geo_score":1.0,"zip code":"80908","id":"af0tntl2bdwp","geo_precision":"range","state":"Colorado"},"type":"Feature","geometry":{"type":"Point","coordinates":[-104.691079,39.022633]}},{"properties":{"city":"Black Forest","address of home lost to fire":"13210 Brentwood Drive","geo_score":1.0,"zip code":"80908","id":"af0tntc5iu0h","geo_precision":"range","state":"Colorado"},"type":"Feature","geometry":{"type":"Point","coordinates":[-104.69111,39.023078]}},{"properties":{"city":"Black Forest","address of home lost to fire":"13225 Brentwood Drive","geo_score":1.0,"zip code":"80908","id":"af0tntgzmxht","geo_precision":"range","state":"Colorado"},"type":"Feature","geometry":{"type":"Point","coordinates":[-104.690975,39.023372]}},{"properties":{"city":"Black Forest","address of home lost to fire":"13260 Brentwood Drive","geo_score":1.0,"zip code":"80908","id":"af0tntdv68i0","geo_precision":"range","state":"Colorado"},"type":"Feature","geometry":{"type":"Point","coordinates":[-104.691243,39.024071]}},{"properties":{"city":"Black Forest","address of home lost to fire":"13285 Brentwood Drive","geo_score":1.0,"zip code":"80908","id":"af0tntirazsc","geo_precision":"range","state":"Colorado"},"type":"Feature","geometry":{"type":"Point","coordinates":[-104.690937,39.024951]}},{"properties":{"city":"Black Forest","address of home lost to fire":"13290 Brentwood Drive","geo_score":1.0,"zip code":"80908","id":"af0tntgh6nz3","geo_precision":"range","state":"Colorado"},"type":"Feature","geometry":{"type":"Point","coordinates":[-104.691078,39.025432]}},{"properties":{"city":"Black Forest","address of home lost to fire":"13295 Brentwood Drive","geo_score":1.0,"zip code":"80908","id":"af0tnta96ra2","geo_precision":"range","state":"Colorado"},"type":"Feature","geometry":{"type":"Point","coordinates":[-104.690922,39.025747]}},{"properties":{"city":"Black Forest","address of home lost to fire":"13335 Brentwood Drive","geo_score":1.0,"zip code":"80908","id":"af0tnta8za75","geo_precision":"range","state":"Colorado"},"type":"Feature","geometry":{"type":"Point","coordinates":[-104.690909,39.026232]}},{"properties":{"city":"Black Forest","address of home lost to fire":"13385 Brentwood Drive","geo_score":1.0,"zip code":"80908","id":"af0tntde2mx9","geo_precision":"range","state":"Colorado"},"type":"Feature","geometry":{"type":"Point","coordinates":[-104.690915,39.026475]}},{"properties":{"city":"Black Forest","address of home lost to fire":"13415 Brentwood Drive","geo_score":1.0,"zip code":"80908","id":"af0tntg8ao08","geo_precision":"range","state":"Colorado"},"type":"Feature","geometry":{"type":"Point","coordinates":[-104.690928,39.02704]}},{"properties":{"city":"Black Forest","address of home lost to fire":"13440 Brentwood Drive","geo_score":1.0,"zip code":"80908","id":"af0tnt99jvvr","geo_precision":"range","state":"Colorado"},"type":"Feature","geometry":{"type":"Point","coordinates":[-104.691071,39.02673]}},{"properties":{"city":"Black Forest","address of home lost to fire":"13455 Brentwood Drive","geo_score":1.0,"zip code":"80908","id":"af0tntfzkgrn","geo_precision":"range","state":"Colorado"},"type":"Feature","geometry":{"type":"Point","coordinates":[-104.690931,39.027201]}},{"properties":{"city":"Black Forest","address of home lost to fire":"13475 Brentwood Drive","geo_score":1.0,"zip code":"80908","id":"af0tnt83p218","geo_precision":"range","state":"Colorado"},"type":"Feature","geometry":{"type":"Point","coordinates":[-104.690933,39.027281]}},{"properties":{"city":"Black Forest","address of home lost to fire":"13390 Holmes Road","geo_score":1.0,"zip code":"80908","id":"af0tnt6o9d4j","geo_precision":"range","state":"Colorado"},"type":"Feature","geometry":{"type":"Point","coordinates":[-104.719506,39.024839]}},{"properties":{"city":"Black Forest","address of home lost to fire":"13525 Holmes Road","geo_score":1.0,"zip code":"80908","id":"af0tntj5g3dt","geo_precision":"range","state":"Colorado"},"type":"Feature","geometry":{"type":"Point","coordinates":[-104.719342,39.026947]}},{"properties":{"city":"Black Forest","address of home lost to fire":"13560 Holmes Road","geo_score":1.0,"zip code":"80908","id":"af0tntjt0lhh","geo_precision":"range","state":"Colorado"},"type":"Feature","geometry":{"type":"Point","coordinates":[-104.719495,39.027744]}},{"properties":{"city":"Black Forest","address of home lost to fire":"13590 Holmes Road","geo_score":1.0,"zip code":"80908","id":"af0tnt6guknr","geo_precision":"range","state":"Colorado"},"type":"Feature","geometry":{"type":"Point","coordinates":[-104.7195,39.02841]}},{"properties":{"city":"Black Forest","address of home lost to fire":"13750 Holmes Road","geo_score":1.0,"zip code":"80908","id":"af0tntfv3h8y","geo_precision":"range","state":"Colorado"},"type":"Feature","geometry":{"type":"Point","coordinates":[-104.719513,39.030885]}},{"properties":{"city":"Black Forest","address of home lost to fire":"13830 Holmes Road","geo_score":1.0,"zip code":"80908","id":"af0tnt7dizmc","geo_precision":"range","state":"Colorado"},"type":"Feature","geometry":{"type":"Point","coordinates":[-104.719518,39.032094]}},{"properties":{"city":"Black Forest","address of home lost to fire":"14145 Holmes Road","geo_score":1.0,"zip code":"80908","id":"af0tnt8hj8z3","geo_precision":"range","state":"Colorado"},"type":"Feature","geometry":{"type":"Point","coordinates":[-104.719452,39.036989]}},{"properties":{"city":"Black Forest","address of home lost to fire":"12635 Holmes Road","geo_score":1.0,"zip code":"80908","id":"af0tntaxb43e","geo_precision":"range","state":"Colorado"},"type":"Feature","geometry":{"type":"Point","coordinates":[-104.719435,39.01439]}},{"properties":{"city":"Black Forest","address of home lost to fire":"12660 Holmes Road","geo_score":1.0,"zip code":"80908","id":"af0tnt8u3ldy","geo_precision":"range","state":"Colorado"},"type":"Feature","geometry":{"type":"Point","coordinates":[-104.719585,39.014697]}},{"properties":{"city":"Black Forest","address of home lost to fire":"12720 Holmes Road","geo_score":1.0,"zip code":"80908","id":"af0tntkvnotu","geo_precision":"range","state":"Colorado"},"type":"Feature","geometry":{"type":"Point","coordinates":[-104.719584,39.015407]}},{"properties":{"city":"Black Forest","address of home lost to fire":"12745 Holmes Road","geo_score":1.0,"zip code":"80908","id":"af0tntjfyeve","geo_precision":"range","state":"Colorado"},"type":"Feature","geometry":{"type":"Point","coordinates":[-104.719431,39.015677]}},{"properties":{"city":"Black Forest","address of home lost to fire":"12775 Holmes Road","geo_score":1.0,"zip code":"80908","id":"af0tnta5wpk7","geo_precision":"range","state":"Colorado"},"type":"Feature","geometry":{"type":"Point","coordinates":[-104.719427,39.01605]}},{"properties":{"city":"Black Forest","address of home lost to fire":"12780 Holmes Road","geo_score":1.0,"zip code":"80908","id":"af0tnt53yo1c","geo_precision":"range","state":"Colorado"},"type":"Feature","geometry":{"type":"Point","coordinates":[-104.719576,39.016102]}},{"properties":{"city":"Black Forest","address of home lost to fire":"12810 Holmes Road","geo_score":1.0,"zip code":"80908","id":"af0tnt7djaxm","geo_precision":"range","state":"Colorado"},"type":"Feature","geometry":{"type":"Point","coordinates":[-104.719568,39.016614]}},{"properties":{"city":"Black Forest","address of home lost to fire":"12820 Holmes Road","geo_score":1.0,"zip code":"80908","id":"af0tntheix11","geo_precision":"range","state":"Colorado"},"type":"Feature","geometry":{"type":"Point","coordinates":[-104.719566,39.016865]}},{"properties":{"city":"Black Forest","address of home lost to fire":"12845 Holmes Road","geo_score":1.0,"zip code":"80908","id":"af0tnt6ajzrh","geo_precision":"range","state":"Colorado"},"type":"Feature","geometry":{"type":"Point","coordinates":[-104.719485,39.01752]}},{"properties":{"city":"Black Forest","address of home lost to fire":"12850 Holmes Road","geo_score":1.0,"zip code":"80908","id":"af0tnt9q4bsr","geo_precision":"range","state":"Colorado"},"type":"Feature","geometry":{"type":"Point","coordinates":[-104.71956,39.017619]}},{"properties":{"city":"Black Forest","address of home lost to fire":"12875 Holmes Road","geo_score":1.0,"zip code":"80908","id":"af0tnt5feiqq","geo_precision":"range","state":"Colorado"},"type":"Feature","geometry":{"type":"Point","coordinates":[-104.719408,39.018012]}},{"properties":{"city":"Black Forest","address of home lost to fire":"12890 Holmes Road","geo_score":1.0,"zip code":"80908","id":"af0tntkw18kg","geo_precision":"range","state":"Colorado"},"type":"Feature","geometry":{"type":"Point","coordinates":[-104.719557,39.018243]}},{"properties":{"city":"Black Forest","address of home lost to fire":"12925 Holmes Road","geo_score":1.0,"zip code":"80908","id":"af0tntc4w0tz","geo_precision":"range","state":"Colorado"},"type":"Feature","geometry":{"type":"Point","coordinates":[-104.719402,39.018777]}},{"properties":{"city":"Black Forest","address of home lost to fire":"12930 Holmes Road","geo_score":1.0,"zip code":"80908","id":"af0tnt7ffdwk","geo_precision":"range","state":"Colorado"},"type":"Feature","geometry":{"type":"Point","coordinates":[-104.719552,39.018875]}},{"properties":{"city":"Black Forest","address of home lost to fire":"12975 Holmes Road","geo_score":1.0,"zip code":"80908","id":"af0tntkqy5lk","geo_precision":"range","state":"Colorado"},"type":"Feature","geometry":{"type":"Point","coordinates":[-104.719399,39.019595]}},{"properties":{"city":"Black Forest","address of home lost to fire":"13050 Holmes Road","geo_score":1.0,"zip code":"80908","id":"af0tnt8lhzxd","geo_precision":"range","state":"Colorado"},"type":"Feature","geometry":{"type":"Point","coordinates":[-104.719542,39.020914]}},{"properties":{"city":"Black Forest","address of home lost to fire":"13055 Holmes Road","geo_score":1.0,"zip code":"80908","id":"af0tntg373i9","geo_precision":"range","state":"Colorado"},"type":"Feature","geometry":{"type":"Point","coordinates":[-104.719392,39.020888]}},{"properties":{"city":"Black Forest","address of home lost to fire":"13220 Holmes Road","geo_score":1.0,"zip code":"80908","id":"af0tnt6vu363","geo_precision":"range","state":"Colorado"},"type":"Feature","geometry":{"type":"Point","coordinates":[-104.719514,39.022989]}},{"properties":{"city":"Black Forest","address of home lost to fire":"13330 Holmes Road","geo_score":1.0,"zip code":"80908","id":"af0tnth7xupq","geo_precision":"range","state":"Colorado"},"type":"Feature","geometry":{"type":"Point","coordinates":[-104.719509,39.024143]}},{"properties":{"city":"Black Forest","address of home lost to fire":"13360 Holmes Road","geo_score":1.0,"zip code":"80908","id":"af0tntkwvrx1","geo_precision":"range","state":"Colorado"},"type":"Feature","geometry":{"type":"Point","coordinates":[-104.719507,39.024426]}},{"properties":{"city":"Black Forest","address of home lost to fire":"13375 Holmes Road","geo_score":1.0,"zip code":"80908","id":"af0tntelp32q","geo_precision":"range","state":"Colorado"},"type":"Feature","geometry":{"type":"Point","coordinates":[-104.719354,39.025093]}},{"properties":{"city":"Black Forest","address of home lost to fire":"13380 Holmes Road","geo_score":1.0,"zip code":"80908","id":"af0tnt814yd2","geo_precision":"range","state":"Colorado"},"type":"Feature","geometry":{"type":"Point","coordinates":[-104.719505,39.024998]}},{"properties":{"city":"Black Forest","address of home lost to fire":"12530 Holmes Road","geo_score":1.0,"zip code":"80908","id":"af0tntkygkig","geo_precision":"range","state":"Colorado"},"type":"Feature","geometry":{"type":"Point","coordinates":[-104.719597,39.013161]}},{"properties":{"city":"Black Forest","address of home lost to fire":"12590 Holmes Road","geo_score":1.0,"zip code":"80908","id":"af0tnti0wwhz","geo_precision":"range","state":"Colorado"},"type":"Feature","geometry":{"type":"Point","coordinates":[-104.719588,39.01387]}},{"properties":{"city":"Black Forest","address of home lost to fire":"14625 E Coachman Dr","geo_score":1.0,"zip code":"80908","id":"af0tntfkgy9l","geo_precision":"range","state":"Colorado"},"type":"Feature","geometry":{"type":"Point","coordinates":[-104.647988,39.043495]}}],"is_temporal":false,"author":{"url":"","metadata":"","contact_name":"","contact_address":"","source":"","contact_phone":""},"source":"","pagination":{"sort":null,"start":0,"total":356,"limit":1000000},"state":"complete","tags":"","published":"2014-08-16T22:51:42-04:00","id":367232}