{"type":"FeatureCollection","data_type":"Dataset","url_type":null,"permissions":[{"permissions":{"download":true,"edit":true,"view":true},"group_id":76815},{"permissions":{"download":true,"view":true},"group_id":"everyone"}],"classification":null,"title":"GEO RETRY 2","count":244,"stream_id":367208,"contributor":{"url":"http://geocommons.com/users/74482","name":"cmthomison"},"data_attributes":null,"calculation_params":null,"icon_link":null,"link":"http://geocommons.com/overlays/367208.json","extent":[-87.6873,41.8119,-87.6873,41.8119],"geometry_types":["point"],"unique_name":null,"name":"GEO RETRY 2","feature_count":244,"description":"","next_feature":null,"is_raster":false,"short_classification":"Y","stats":{"ward":{"max":27,"variance":123.784709572961,"mean":20.233606557377,"stdev":11.1258577005533,"min":2,"median":27},"street_num":{"max":3156,"variance":1193489.18847399,"mean":2083.47131147541,"stdev":1092.46930779496,"min":127,"median":2540}},"features":[{"properties":{"street_name":"SACRAMENTO","city":"Chicago","comm_area":"HUMBOLDT PARK","dir":"N","type":"BLVD","geo_score":0.714,"zone_class_1":"RS-3","tif_district":"Kinzie Industrial Corridor","zone_class_2":"M1-2","id":"af0snd9oo0f0","geo_precision":"city","street_num":892,"state":"IL","pin":"16-01-318-009-0000","ward":26},"type":"Feature","geometry":{"type":"Point","coordinates":[-87.68732,41.811929]}},{"properties":{"street_name":"KEDZIE","city":"Chicago","comm_area":"HUMBOLDT PARK","dir":"N","type":"AVE","geo_score":0.714,"zone_class_1":"B3-2","tif_district":"Kinzie Industrial Corridor","zone_class_2":null,"id":"af0sndhe4ld5","geo_precision":"city","street_num":721,"state":"IL","pin":"16-12-100-016-0000","ward":27},"type":"Feature","geometry":{"type":"Point","coordinates":[-87.68732,41.811929]}},{"properties":{"street_name":"HURON","city":"Chicago","comm_area":"HUMBOLDT PARK","dir":"W","type":"ST","geo_score":0.714,"zone_class_1":"PD 855","tif_district":"Kinzie Industrial Corridor","zone_class_2":null,"id":"af0sndawugfs","geo_precision":"city","street_num":3146,"state":"IL","pin":"16-12-100-035-0000","ward":27},"type":"Feature","geometry":{"type":"Point","coordinates":[-87.68732,41.811929]}},{"properties":{"street_name":"HURON","city":"Chicago","comm_area":"HUMBOLDT PARK","dir":"W","type":"ST","geo_score":0.714,"zone_class_1":"PD 855","tif_district":"Kinzie Industrial Corridor","zone_class_2":null,"id":"af0snd8lag8d","geo_precision":"city","street_num":3126,"state":"IL","pin":"16-12-101-018-0000","ward":27},"type":"Feature","geometry":{"type":"Point","coordinates":[-87.68732,41.811929]}},{"properties":{"street_name":"HURON","city":"Chicago","comm_area":"HUMBOLDT PARK","dir":"W","type":"ST","geo_score":0.714,"zone_class_1":"PD 855","tif_district":"Kinzie Industrial Corridor","zone_class_2":null,"id":"af0sndiv3ke9","geo_precision":"city","street_num":3124,"state":"IL","pin":"16-12-101-019-0000","ward":27},"type":"Feature","geometry":{"type":"Point","coordinates":[-87.68732,41.811929]}},{"properties":{"street_name":"HURON","city":"Chicago","comm_area":"HUMBOLDT PARK","dir":"W","type":"ST","geo_score":0.714,"zone_class_1":"PD 855","tif_district":"Kinzie Industrial Corridor","zone_class_2":null,"id":"af0sndhk5x3x","geo_precision":"city","street_num":3116,"state":"IL","pin":"16-12-101-021-0000","ward":27},"type":"Feature","geometry":{"type":"Point","coordinates":[-87.68732,41.811929]}},{"properties":{"street_name":"HURON","city":"Chicago","comm_area":"HUMBOLDT PARK","dir":"W","type":"ST","geo_score":0.714,"zone_class_1":"PD 855","tif_district":"Kinzie Industrial Corridor","zone_class_2":null,"id":"af0sndc2mts9","geo_precision":"city","street_num":3114,"state":"IL","pin":"16-12-101-022-0000","ward":27},"type":"Feature","geometry":{"type":"Point","coordinates":[-87.68732,41.811929]}},{"properties":{"street_name":"KEDZIE","city":"Chicago","comm_area":"HUMBOLDT PARK","dir":"N","type":"AVE","geo_score":0.714,"zone_class_1":"C1-1","tif_district":"Kinzie Industrial Corridor","zone_class_2":null,"id":"af0sndex07me","geo_precision":"city","street_num":627,"state":"IL","pin":"16-12-102-009-0000","ward":27},"type":"Feature","geometry":{"type":"Point","coordinates":[-87.68732,41.811929]}},{"properties":{"street_name":"KEDZIE","city":"Chicago","comm_area":"HUMBOLDT PARK","dir":"N","type":"AVE","geo_score":0.714,"zone_class_1":"C1-1","tif_district":"Kinzie Industrial Corridor","zone_class_2":null,"id":"af0sndeom22u","geo_precision":"city","street_num":625,"state":"IL","pin":"16-12-102-010-0000","ward":27},"type":"Feature","geometry":{"type":"Point","coordinates":[-87.68732,41.811929]}},{"properties":{"street_name":"KEDZIE","city":"Chicago","comm_area":"HUMBOLDT PARK","dir":"N","type":"AVE","geo_score":0.714,"zone_class_1":"C1-1","tif_district":"Kinzie Industrial Corridor","zone_class_2":null,"id":"af0sndjyb1bw","geo_precision":"city","street_num":619,"state":"IL","pin":"16-12-102-011-0000","ward":27},"type":"Feature","geometry":{"type":"Point","coordinates":[-87.68732,41.811929]}},{"properties":{"street_name":"KEDZIE","city":"Chicago","comm_area":"HUMBOLDT PARK","dir":"N","type":"AVE","geo_score":0.714,"zone_class_1":"C1-1","tif_district":"Kinzie Industrial Corridor","zone_class_2":null,"id":"af0sndar0wm6","geo_precision":"city","street_num":615,"state":"IL","pin":"16-12-102-012-0000","ward":27},"type":"Feature","geometry":{"type":"Point","coordinates":[-87.68732,41.811929]}},{"properties":{"street_name":"TROY","city":"Chicago","comm_area":"HUMBOLDT PARK","dir":"N","type":"ST","geo_score":0.714,"zone_class_1":"RT-4","tif_district":"Kinzie Industrial Corridor","zone_class_2":null,"id":"af0snd9lozub","geo_precision":"city","street_num":604,"state":"IL","pin":"16-12-102-039-0000","ward":27},"type":"Feature","geometry":{"type":"Point","coordinates":[-87.68732,41.811929]}},{"properties":{"street_name":"OHIO","city":"Chicago","comm_area":"HUMBOLDT PARK","dir":"W","type":"ST","geo_score":0.714,"zone_class_1":"RT-4","tif_district":"Kinzie Industrial Corridor","zone_class_2":null,"id":"af0snd6kcwwu","geo_precision":"city","street_num":3136,"state":"IL","pin":"16-12-102-040-0000","ward":27},"type":"Feature","geometry":{"type":"Point","coordinates":[-87.68732,41.811929]}},{"properties":{"street_name":"HURON","city":"Chicago","comm_area":"HUMBOLDT PARK","dir":"W","type":"ST","geo_score":0.714,"zone_class_1":"PD 855","tif_district":"Kinzie Industrial Corridor","zone_class_2":null,"id":"af0snd5eorwz","geo_precision":"city","street_num":3123,"state":"IL","pin":"16-12-103-001-0000","ward":27},"type":"Feature","geometry":{"type":"Point","coordinates":[-87.68732,41.811929]}},{"properties":{"street_name":"HURON","city":"Chicago","comm_area":"HUMBOLDT PARK","dir":"W","type":"ST","geo_score":0.714,"zone_class_1":"PD 855","tif_district":"Kinzie Industrial Corridor","zone_class_2":null,"id":"af0sndbqttbj","geo_precision":"city","street_num":3123,"state":"IL","pin":"16-12-103-002-0000","ward":27},"type":"Feature","geometry":{"type":"Point","coordinates":[-87.68732,41.811929]}},{"properties":{"street_name":"HURON","city":"Chicago","comm_area":"HUMBOLDT PARK","dir":"W","type":"ST","geo_score":0.714,"zone_class_1":"PD 855","tif_district":"Kinzie Industrial Corridor","zone_class_2":null,"id":"af0snd8rmhtz","geo_precision":"city","street_num":3117,"state":"IL","pin":"16-12-103-003-0000","ward":27},"type":"Feature","geometry":{"type":"Point","coordinates":[-87.68732,41.811929]}},{"properties":{"street_name":"HURON","city":"Chicago","comm_area":"HUMBOLDT PARK","dir":"W","type":"ST","geo_score":0.714,"zone_class_1":"PD 855","tif_district":"Kinzie Industrial Corridor","zone_class_2":null,"id":"af0snd969qfn","geo_precision":"city","street_num":3117,"state":"IL","pin":"16-12-103-004-0000","ward":27},"type":"Feature","geometry":{"type":"Point","coordinates":[-87.68732,41.811929]}},{"properties":{"street_name":"HURON","city":"Chicago","comm_area":"HUMBOLDT PARK","dir":"W","type":"ST","geo_score":0.714,"zone_class_1":"PD 855","tif_district":"Kinzie Industrial Corridor","zone_class_2":null,"id":"af0sndi3pir6","geo_precision":"city","street_num":3117,"state":"IL","pin":"16-12-103-005-0000","ward":27},"type":"Feature","geometry":{"type":"Point","coordinates":[-87.68732,41.811929]}},{"properties":{"street_name":"TROY","city":"Chicago","comm_area":"HUMBOLDT PARK","dir":"N","type":"ST","geo_score":0.714,"zone_class_1":"PD 855","tif_district":"Kinzie Industrial Corridor","zone_class_2":null,"id":"af0snd9n095b","geo_precision":"city","street_num":649,"state":"IL","pin":"16-12-103-007-0000","ward":27},"type":"Feature","geometry":{"type":"Point","coordinates":[-87.68732,41.811929]}},{"properties":{"street_name":"TROY","city":"Chicago","comm_area":"HUMBOLDT PARK","dir":"N","type":"ST","geo_score":0.714,"zone_class_1":"PD 855","tif_district":"Kinzie Industrial Corridor","zone_class_2":null,"id":"af0sndb1bk16","geo_precision":"city","street_num":647,"state":"IL","pin":"16-12-103-008-0000","ward":27},"type":"Feature","geometry":{"type":"Point","coordinates":[-87.68732,41.811929]}},{"properties":{"street_name":"TROY","city":"Chicago","comm_area":"HUMBOLDT PARK","dir":"N","type":"ST","geo_score":0.714,"zone_class_1":"RS-3","tif_district":"Kinzie Industrial Corridor","zone_class_2":null,"id":"af0sndgf8rj0","geo_precision":"city","street_num":621,"state":"IL","pin":"16-12-103-018-0000","ward":27},"type":"Feature","geometry":{"type":"Point","coordinates":[-87.68732,41.811929]}},{"properties":{"street_name":"TROY","city":"Chicago","comm_area":"HUMBOLDT PARK","dir":"N","type":"ST","geo_score":0.714,"zone_class_1":"RS-3","tif_district":"Kinzie Industrial Corridor","zone_class_2":null,"id":"af0sndcmbpqv","geo_precision":"city","street_num":619,"state":"IL","pin":"16-12-103-019-0000","ward":27},"type":"Feature","geometry":{"type":"Point","coordinates":[-87.68732,41.811929]}},{"properties":{"street_name":"OHIO","city":"Chicago","comm_area":"HUMBOLDT PARK","dir":"W","type":"ST","geo_score":0.714,"zone_class_1":"RM-5","tif_district":"Kinzie Industrial Corridor","zone_class_2":null,"id":"af0snd996fw7","geo_precision":"city","street_num":3120,"state":"IL","pin":"16-12-103-025-0000","ward":27},"type":"Feature","geometry":{"type":"Point","coordinates":[-87.68732,41.811929]}},{"properties":{"street_name":"ALBANY","city":"Chicago","comm_area":"HUMBOLDT PARK","dir":"N","type":"AVE","geo_score":0.714,"zone_class_1":"RT-4","tif_district":"Kinzie Industrial Corridor","zone_class_2":null,"id":"af0sndfgdoj9","geo_precision":"city","street_num":636,"state":"IL","pin":"16-12-103-032-0000","ward":27},"type":"Feature","geometry":{"type":"Point","coordinates":[-87.68732,41.811929]}},{"properties":{"street_name":"ALBANY","city":"Chicago","comm_area":"HUMBOLDT PARK","dir":"N","type":"AVE","geo_score":0.714,"zone_class_1":"RT-4","tif_district":"Kinzie Industrial Corridor","zone_class_2":null,"id":"af0snd7d7w7l","geo_precision":"city","street_num":626,"state":"IL","pin":"16-12-103-035-0000","ward":27},"type":"Feature","geometry":{"type":"Point","coordinates":[-87.68732,41.811929]}},{"properties":{"street_name":"ALBANY","city":"Chicago","comm_area":"HUMBOLDT PARK","dir":"N","type":"AVE","geo_score":0.714,"zone_class_1":"RT-4","tif_district":"Kinzie Industrial Corridor","zone_class_2":null,"id":"af0sndftqv6s","geo_precision":"city","street_num":626,"state":"IL","pin":"16-12-103-036-0000","ward":27},"type":"Feature","geometry":{"type":"Point","coordinates":[-87.68732,41.811929]}},{"properties":{"street_name":"KEDZIE","city":"Chicago","comm_area":"HUMBOLDT PARK","dir":"N","type":"AVE","geo_score":0.714,"zone_class_1":"B3-2","tif_district":"Kinzie Industrial Corridor","zone_class_2":null,"id":"af0sndfeagg7","geo_precision":"city","street_num":543,"state":"IL","pin":"16-12-106-002-0000","ward":27},"type":"Feature","geometry":{"type":"Point","coordinates":[-87.68732,41.811929]}},{"properties":{"street_name":"KEDZIE","city":"Chicago","comm_area":"HUMBOLDT PARK","dir":"N","type":"AVE","geo_score":0.714,"zone_class_1":"B3-2","tif_district":"Kinzie Industrial Corridor","zone_class_2":null,"id":"af0sndf2ob76","geo_precision":"city","street_num":537,"state":"IL","pin":"16-12-106-005-0000","ward":27},"type":"Feature","geometry":{"type":"Point","coordinates":[-87.68732,41.811929]}},{"properties":{"street_name":"KEDZIE","city":"Chicago","comm_area":"HUMBOLDT PARK","dir":"N","type":"AVE","geo_score":0.714,"zone_class_1":"B3-2","tif_district":"Kinzie Industrial Corridor","zone_class_2":null,"id":"af0snda6n4gh","geo_precision":"city","street_num":525,"state":"IL","pin":"16-12-106-008-0000","ward":27},"type":"Feature","geometry":{"type":"Point","coordinates":[-87.68732,41.811929]}},{"properties":{"street_name":"TROY","city":"Chicago","comm_area":"HUMBOLDT PARK","dir":"N","type":"ST","geo_score":0.714,"zone_class_1":"RS-3","tif_district":"Kinzie Industrial Corridor","zone_class_2":null,"id":"af0sndj3gzhl","geo_precision":"city","street_num":524,"state":"IL","pin":"16-12-106-021-0000","ward":27},"type":"Feature","geometry":{"type":"Point","coordinates":[-87.68732,41.811929]}},{"properties":{"street_name":"FRANKLIN","city":"Chicago","comm_area":"HUMBOLDT PARK","dir":"W","type":"BLVD","geo_score":0.714,"zone_class_1":"RT-4","tif_district":"Kinzie Industrial Corridor","zone_class_2":null,"id":"af0snd5dv9qs","geo_precision":"city","street_num":3138,"state":"IL","pin":"16-12-106-033-0000","ward":27},"type":"Feature","geometry":{"type":"Point","coordinates":[-87.68732,41.811929]}},{"properties":{"street_name":"FRANKLIN","city":"Chicago","comm_area":"HUMBOLDT PARK","dir":"W","type":"BLVD","geo_score":0.714,"zone_class_1":"RT-4","tif_district":"Kinzie Industrial Corridor","zone_class_2":null,"id":"af0sndb7xp6e","geo_precision":"city","street_num":3134,"state":"IL","pin":"16-12-106-035-0000","ward":27},"type":"Feature","geometry":{"type":"Point","coordinates":[-87.68732,41.811929]}},{"properties":{"street_name":"TROY","city":"Chicago","comm_area":"HUMBOLDT PARK","dir":"N","type":"ST","geo_score":0.714,"zone_class_1":"RS-3","tif_district":"Kinzie Industrial Corridor","zone_class_2":null,"id":"af0sndermkyr","geo_precision":"city","street_num":530,"state":"IL","pin":"16-12-106-036-0000","ward":27},"type":"Feature","geometry":{"type":"Point","coordinates":[-87.68732,41.811929]}},{"properties":{"street_name":"TROY","city":"Chicago","comm_area":"HUMBOLDT PARK","dir":"N","type":"ST","geo_score":0.714,"zone_class_1":"RS-3","tif_district":"Kinzie Industrial Corridor","zone_class_2":null,"id":"af0sndeqmugi","geo_precision":"city","street_num":519,"state":"IL","pin":"16-12-107-012-0000","ward":27},"type":"Feature","geometry":{"type":"Point","coordinates":[-87.68732,41.811929]}},{"properties":{"street_name":"ALBANY","city":"Chicago","comm_area":"HUMBOLDT PARK","dir":"N","type":"AVE","geo_score":0.714,"zone_class_1":"RS-3","tif_district":"Kinzie Industrial Corridor","zone_class_2":null,"id":"af0snd8ili4m","geo_precision":"city","street_num":524,"state":"IL","pin":"16-12-107-023-0000","ward":27},"type":"Feature","geometry":{"type":"Point","coordinates":[-87.68732,41.811929]}},{"properties":{"street_name":"FRANKLIN","city":"Chicago","comm_area":"HUMBOLDT PARK","dir":"W","type":"BLVD","geo_score":0.714,"zone_class_1":"RT-4","tif_district":"Kinzie Industrial Corridor","zone_class_2":null,"id":"af0sndeawo1u","geo_precision":"city","street_num":3124,"state":"IL","pin":"16-12-107-026-0000","ward":27},"type":"Feature","geometry":{"type":"Point","coordinates":[-87.68732,41.811929]}},{"properties":{"street_name":"FRANKLIN","city":"Chicago","comm_area":"HUMBOLDT PARK","dir":"W","type":"BLVD","geo_score":0.714,"zone_class_1":"RT-4","tif_district":"Kinzie Industrial Corridor","zone_class_2":null,"id":"af0snda4zt0v","geo_precision":"city","street_num":3120,"state":"IL","pin":"16-12-107-027-0000","ward":27},"type":"Feature","geometry":{"type":"Point","coordinates":[-87.68732,41.811929]}},{"properties":{"street_name":"FRANKLIN","city":"Chicago","comm_area":"HUMBOLDT PARK","dir":"W","type":"BLVD","geo_score":0.714,"zone_class_1":"RT-4","tif_district":"Kinzie Industrial Corridor","zone_class_2":null,"id":"af0sndfzdxod","geo_precision":"city","street_num":3116,"state":"IL","pin":"16-12-107-028-0000","ward":27},"type":"Feature","geometry":{"type":"Point","coordinates":[-87.68732,41.811929]}},{"properties":{"street_name":"FRANKLIN","city":"Chicago","comm_area":"HUMBOLDT PARK","dir":"W","type":"BLVD","geo_score":0.714,"zone_class_1":"RT-4","tif_district":"Kinzie Industrial Corridor","zone_class_2":null,"id":"af0sndaue0oe","geo_precision":"city","street_num":3110,"state":"IL","pin":"16-12-107-031-0000","ward":27},"type":"Feature","geometry":{"type":"Point","coordinates":[-87.68732,41.811929]}},{"properties":{"street_name":"FRANKLIN","city":"Chicago","comm_area":"HUMBOLDT PARK","dir":"W","type":"BLVD","geo_score":0.714,"zone_class_1":"RT-4","tif_district":"Kinzie Industrial Corridor","zone_class_2":null,"id":"af0sndj7idkr","geo_precision":"city","street_num":3106,"state":"IL","pin":"16-12-107-032-0000","ward":27},"type":"Feature","geometry":{"type":"Point","coordinates":[-87.68732,41.811929]}},{"properties":{"street_name":"FRANKLIN","city":"Chicago","comm_area":"HUMBOLDT PARK","dir":"W","type":"BLVD","geo_score":0.714,"zone_class_1":"RT-4","tif_district":"Kinzie Industrial Corridor","zone_class_2":null,"id":"af0snd6ad82t","geo_precision":"city","street_num":3104,"state":"IL","pin":"16-12-107-033-0000","ward":27},"type":"Feature","geometry":{"type":"Point","coordinates":[-87.68732,41.811929]}},{"properties":{"street_name":"ALBANY","city":"Chicago","comm_area":"HUMBOLDT PARK","dir":"N","type":"AVE","geo_score":0.714,"zone_class_1":"RS-3","tif_district":"Kinzie Industrial Corridor","zone_class_2":null,"id":"af0snd96md9q","geo_precision":"city","street_num":535,"state":"IL","pin":"16-12-108-009-0000","ward":27},"type":"Feature","geometry":{"type":"Point","coordinates":[-87.68732,41.811929]}},{"properties":{"street_name":"ALBANY","city":"Chicago","comm_area":"HUMBOLDT PARK","dir":"N","type":"AVE","geo_score":0.714,"zone_class_1":"RS-3","tif_district":"Kinzie Industrial Corridor","zone_class_2":null,"id":"af0snd60ip87","geo_precision":"city","street_num":529,"state":"IL","pin":"16-12-108-011-0000","ward":27},"type":"Feature","geometry":{"type":"Point","coordinates":[-87.68732,41.811929]}},{"properties":{"street_name":"ALBANY","city":"Chicago","comm_area":"HUMBOLDT PARK","dir":"N","type":"AVE","geo_score":0.714,"zone_class_1":"RS-3","tif_district":"Kinzie Industrial Corridor","zone_class_2":null,"id":"af0sndii06ss","geo_precision":"city","street_num":525,"state":"IL","pin":"16-12-108-012-0000","ward":27},"type":"Feature","geometry":{"type":"Point","coordinates":[-87.68732,41.811929]}},{"properties":{"street_name":"FRANKLIN","city":"Chicago","comm_area":"HUMBOLDT PARK","dir":"W","type":"BLVD","geo_score":0.714,"zone_class_1":"B3-3","tif_district":"Kinzie Industrial Corridor","zone_class_2":"RT-4","id":"af0sndjb7p2f","geo_precision":"city","street_num":3149,"state":"IL","pin":"16-12-109-002-0000","ward":27},"type":"Feature","geometry":{"type":"Point","coordinates":[-87.68732,41.811929]}},{"properties":{"street_name":"FRANKLIN","city":"Chicago","comm_area":"HUMBOLDT PARK","dir":"W","type":"BLVD","geo_score":0.714,"zone_class_1":"RT-4","tif_district":"Kinzie Industrial Corridor","zone_class_2":null,"id":"af0snd69nyc2","geo_precision":"city","street_num":3145,"state":"IL","pin":"16-12-109-003-0000","ward":27},"type":"Feature","geometry":{"type":"Point","coordinates":[-87.68732,41.811929]}},{"properties":{"street_name":"KEDZIE","city":"Chicago","comm_area":"HUMBOLDT PARK","dir":"N","type":"AVE","geo_score":0.714,"zone_class_1":"B3-2","tif_district":"Kinzie Industrial Corridor","zone_class_2":null,"id":"af0snd5zq9tj","geo_precision":"city","street_num":425,"state":"IL","pin":"16-12-109-009-0000","ward":27},"type":"Feature","geometry":{"type":"Point","coordinates":[-87.68732,41.811929]}},{"properties":{"street_name":"KEDZIE","city":"Chicago","comm_area":"HUMBOLDT PARK","dir":"N","type":"AVE","geo_score":0.714,"zone_class_1":"B3-2","tif_district":"Kinzie Industrial Corridor","zone_class_2":null,"id":"af0sndizvzfw","geo_precision":"city","street_num":419,"state":"IL","pin":"16-12-109-011-0000","ward":27},"type":"Feature","geometry":{"type":"Point","coordinates":[-87.68732,41.811929]}},{"properties":{"street_name":"KEDZIE","city":"Chicago","comm_area":"HUMBOLDT PARK","dir":"N","type":"AVE","geo_score":0.714,"zone_class_1":"B3-2","tif_district":"Kinzie Industrial Corridor","zone_class_2":null,"id":"af0snd7029sd","geo_precision":"city","street_num":415,"state":"IL","pin":"16-12-109-013-0000","ward":27},"type":"Feature","geometry":{"type":"Point","coordinates":[-87.68732,41.811929]}},{"properties":{"street_name":"KEDZIE","city":"Chicago","comm_area":"HUMBOLDT PARK","dir":"N","type":"AVE","geo_score":0.714,"zone_class_1":"B3-2","tif_district":"Kinzie Industrial Corridor","zone_class_2":null,"id":"af0sndakzaz6","geo_precision":"city","street_num":413,"state":"IL","pin":"16-12-109-014-0000","ward":27},"type":"Feature","geometry":{"type":"Point","coordinates":[-87.68732,41.811929]}},{"properties":{"street_name":"TROY","city":"Chicago","comm_area":"HUMBOLDT PARK","dir":"N","type":"ST","geo_score":0.714,"zone_class_1":"RS-3","tif_district":"Kinzie Industrial Corridor","zone_class_2":null,"id":"af0snddse67p","geo_precision":"city","street_num":428,"state":"IL","pin":"16-12-109-018-0000","ward":27},"type":"Feature","geometry":{"type":"Point","coordinates":[-87.68732,41.811929]}},{"properties":{"street_name":"KEDZIE","city":"Chicago","comm_area":"HUMBOLDT PARK","dir":"N","type":"AVE","geo_score":0.714,"zone_class_1":"M1-2","tif_district":"Kinzie Industrial Corridor","zone_class_2":null,"id":"af0snd95ge1z","geo_precision":"city","street_num":407,"state":"IL","pin":"16-12-109-028-0000","ward":27},"type":"Feature","geometry":{"type":"Point","coordinates":[-87.68732,41.811929]}},{"properties":{"street_name":"FRANKLIN","city":"Chicago","comm_area":"HUMBOLDT PARK","dir":"W","type":"BLVD","geo_score":0.714,"zone_class_1":"RT-4","tif_district":"Kinzie Industrial Corridor","zone_class_2":null,"id":"af0sndfklelb","geo_precision":"city","street_num":3111,"state":"IL","pin":"16-12-110-007-0000","ward":27},"type":"Feature","geometry":{"type":"Point","coordinates":[-87.68732,41.811929]}},{"properties":{"street_name":"ALBANY","city":"Chicago","comm_area":"HUMBOLDT PARK","dir":"N","type":"AVE","geo_score":0.714,"zone_class_1":"M1-2","tif_district":"Kinzie Industrial Corridor","zone_class_2":null,"id":"af0snd5roabu","geo_precision":"city","street_num":3012,"state":"IL","pin":"16-12-111-008-0000","ward":27},"type":"Feature","geometry":{"type":"Point","coordinates":[-87.68732,41.811929]}},{"properties":{"street_name":"WHIPPLE","city":"Chicago","comm_area":"HUMBOLDT PARK","dir":"N","type":"ST","geo_score":0.714,"zone_class_1":"M1-2","tif_district":"Kinzie Industrial Corridor","zone_class_2":null,"id":"af0snddohnmn","geo_precision":"city","street_num":428,"state":"IL","pin":"16-12-111-011-0000","ward":27},"type":"Feature","geometry":{"type":"Point","coordinates":[-87.68732,41.811929]}},{"properties":{"street_name":"WHIPPLE","city":"Chicago","comm_area":"HUMBOLDT PARK","dir":"N","type":"ST","geo_score":0.714,"zone_class_1":"M1-2","tif_district":"Kinzie Industrial Corridor","zone_class_2":null,"id":"af0sndfly3hn","geo_precision":"city","street_num":426,"state":"IL","pin":"16-12-111-012-0000","ward":27},"type":"Feature","geometry":{"type":"Point","coordinates":[-87.68732,41.811929]}},{"properties":{"street_name":"WHIPPLE","city":"Chicago","comm_area":"HUMBOLDT PARK","dir":"N","type":"ST","geo_score":0.714,"zone_class_1":"M1-2","tif_district":"Kinzie Industrial Corridor","zone_class_2":null,"id":"af0snd861odb","geo_precision":"city","street_num":424,"state":"IL","pin":"16-12-111-013-0000","ward":27},"type":"Feature","geometry":{"type":"Point","coordinates":[-87.68732,41.811929]}},{"properties":{"street_name":"WHIPPLE","city":"Chicago","comm_area":"HUMBOLDT PARK","dir":"N","type":"ST","geo_score":0.714,"zone_class_1":"M1-2","tif_district":"Kinzie Industrial Corridor","zone_class_2":null,"id":"af0snd4iefha","geo_precision":"city","street_num":420,"state":"IL","pin":"16-12-111-014-0000","ward":27},"type":"Feature","geometry":{"type":"Point","coordinates":[-87.68732,41.811929]}},{"properties":{"street_name":"WHIPPLE","city":"Chicago","comm_area":"HUMBOLDT PARK","dir":"N","type":"ST","geo_score":0.714,"zone_class_1":"M1-2","tif_district":"Kinzie Industrial Corridor","zone_class_2":null,"id":"af0sndepsgp1","geo_precision":"city","street_num":418,"state":"IL","pin":"16-12-111-015-0000","ward":27},"type":"Feature","geometry":{"type":"Point","coordinates":[-87.68732,41.811929]}},{"properties":{"street_name":"WHIPPLE","city":"Chicago","comm_area":"HUMBOLDT PARK","dir":"N","type":"ST","geo_score":0.714,"zone_class_1":"M1-2","tif_district":"Kinzie Industrial Corridor","zone_class_2":null,"id":"af0snd7hmxpc","geo_precision":"city","street_num":416,"state":"IL","pin":"16-12-111-016-0000","ward":27},"type":"Feature","geometry":{"type":"Point","coordinates":[-87.68732,41.811929]}},{"properties":{"street_name":"TROY","city":"Chicago","comm_area":"HUMBOLDT PARK","dir":"N","type":"ST","geo_score":0.714,"zone_class_1":"RM-5","tif_district":"Kinzie Industrial Corridor","zone_class_2":null,"id":"af0sndfl2uqv","geo_precision":"city","street_num":3045,"state":"IL","pin":"16-12-111-020-0000","ward":27},"type":"Feature","geometry":{"type":"Point","coordinates":[-87.68732,41.811929]}},{"properties":{"street_name":"SACRAMENTO","city":"Chicago","comm_area":"HUMBOLDT PARK","dir":"N","type":"BLVD","geo_score":0.714,"zone_class_1":"PMD 4","tif_district":"Kinzie Industrial Corridor","zone_class_2":null,"id":"af0sndbbfqvw","geo_precision":"city","street_num":455,"state":"IL","pin":"16-12-114-010-0000","ward":27},"type":"Feature","geometry":{"type":"Point","coordinates":[-87.68732,41.811929]}},{"properties":{"street_name":"SACRAMENTO","city":"Chicago","comm_area":"HUMBOLDT PARK","dir":"N","type":null,"geo_score":0.714,"zone_class_1":"PMD 4","tif_district":"Kinzie Industrial Corridor","zone_class_2":null,"id":"af0snd9wkpop","geo_precision":"city","street_num":425,"state":"IL","pin":"16-12-114-015-0000","ward":27},"type":"Feature","geometry":{"type":"Point","coordinates":[-87.68732,41.811929]}},{"properties":{"street_name":"KEDZIE","city":"Chicago","comm_area":"EAST GARFIELD PARK","dir":"N","type":"AVE","geo_score":0.714,"zone_class_1":"M1-2","tif_district":"Kinzie Industrial Corridor","zone_class_2":null,"id":"af0sndclzeuo","geo_precision":"city","street_num":347,"state":"IL","pin":"16-12-300-002-0000","ward":27},"type":"Feature","geometry":{"type":"Point","coordinates":[-87.68732,41.811929]}},{"properties":{"street_name":"KEDZIE","city":"Chicago","comm_area":"EAST GARFIELD PARK","dir":"N","type":"AVE","geo_score":0.714,"zone_class_1":"M1-2","tif_district":"Kinzie Industrial Corridor","zone_class_2":null,"id":"af0sndjf94m2","geo_precision":"city","street_num":343,"state":"IL","pin":"16-12-300-004-0000","ward":27},"type":"Feature","geometry":{"type":"Point","coordinates":[-87.68732,41.811929]}},{"properties":{"street_name":"KEDZIE","city":"Chicago","comm_area":"EAST GARFIELD PARK","dir":"N","type":"AVE","geo_score":0.714,"zone_class_1":"M1-2","tif_district":"Kinzie Industrial Corridor","zone_class_2":null,"id":"af0snd6ftzmv","geo_precision":"city","street_num":341,"state":"IL","pin":"16-12-300-005-0000","ward":27},"type":"Feature","geometry":{"type":"Point","coordinates":[-87.68732,41.811929]}},{"properties":{"street_name":"KEDZIE","city":"Chicago","comm_area":"EAST GARFIELD PARK","dir":"N","type":"AVE","geo_score":0.714,"zone_class_1":"M1-2","tif_district":"Kinzie Industrial Corridor","zone_class_2":null,"id":"af0snd7n8lhl","geo_precision":"city","street_num":356,"state":"IL","pin":"16-12-300-014-0000","ward":27},"type":"Feature","geometry":{"type":"Point","coordinates":[-87.68732,41.811929]}},{"properties":{"street_name":"CARROLL","city":"Chicago","comm_area":"EAST GARFIELD PARK","dir":"W","type":"AVE","geo_score":0.714,"zone_class_1":"PMD 4","tif_district":"Kinzie Industrial Corridor","zone_class_2":null,"id":"af0snddujps5","geo_precision":"city","street_num":2900,"state":"IL","pin":"16-12-302-007-0000","ward":27},"type":"Feature","geometry":{"type":"Point","coordinates":[-87.68732,41.811929]}},{"properties":{"street_name":"FULTON","city":"Chicago","comm_area":"EAST GARFIELD PARK","dir":"W","type":"BLVD","geo_score":0.714,"zone_class_1":"RT-4","tif_district":"Kinzie Industrial Corridor","zone_class_2":null,"id":"af0snd6kl96l","geo_precision":"city","street_num":3018,"state":"IL","pin":"16-12-305-008-0000","ward":27},"type":"Feature","geometry":{"type":"Point","coordinates":[-87.68732,41.811929]}},{"properties":{"street_name":"FRANCISCO","city":"Chicago","comm_area":"EAST GARFIELD PARK","dir":"N","type":"AVE","geo_score":0.714,"zone_class_1":"PMD 4","tif_district":"Kinzie Industrial Corridor","zone_class_2":null,"id":"af0sndg10gtn","geo_precision":"city","street_num":324,"state":"IL","pin":"16-12-306-020-0000","ward":27},"type":"Feature","geometry":{"type":"Point","coordinates":[-87.68732,41.811929]}},{"properties":{"street_name":"FRANCISCO","city":"Chicago","comm_area":"EAST GARFIELD PARK","dir":"N","type":"AVE","geo_score":0.714,"zone_class_1":"PMD 4","tif_district":"Kinzie Industrial Corridor","zone_class_2":null,"id":"af0sndcxrxmn","geo_precision":"city","street_num":318,"state":"IL","pin":"16-12-306-023-0000","ward":27},"type":"Feature","geometry":{"type":"Point","coordinates":[-87.68732,41.811929]}},{"properties":{"street_name":"SACRAMENTO","city":"Chicago","comm_area":"EAST GARFIELD PARK","dir":"N","type":"BLVD","geo_score":0.714,"zone_class_1":"RT-4","tif_district":"Kinzie Industrial Corridor","zone_class_2":null,"id":"af0snd9n2dxp","geo_precision":"city","street_num":301,"state":"IL","pin":"16-12-306-024-0000","ward":27},"type":"Feature","geometry":{"type":"Point","coordinates":[-87.68732,41.811929]}},{"properties":{"street_name":"FULTON","city":"Chicago","comm_area":"EAST GARFIELD PARK","dir":"W","type":"ST","geo_score":0.714,"zone_class_1":"RT-4","tif_district":"Kinzie Industrial Corridor","zone_class_2":null,"id":"af0snd5hkfbs","geo_precision":"city","street_num":2948,"state":"IL","pin":"16-12-306-027-0000","ward":27},"type":"Feature","geometry":{"type":"Point","coordinates":[-87.68732,41.811929]}},{"properties":{"street_name":"FULTON","city":"Chicago","comm_area":"EAST GARFIELD PARK","dir":"W","type":"ST","geo_score":0.714,"zone_class_1":"RT-4","tif_district":"Kinzie Industrial Corridor","zone_class_2":null,"id":"af0snda4pvku","geo_precision":"city","street_num":2946,"state":"IL","pin":"16-12-306-028-0000","ward":27},"type":"Feature","geometry":{"type":"Point","coordinates":[-87.68732,41.811929]}},{"properties":{"street_name":"FULTON","city":"Chicago","comm_area":"EAST GARFIELD PARK","dir":"W","type":"ST","geo_score":0.714,"zone_class_1":"RT-4","tif_district":"Kinzie Industrial Corridor","zone_class_2":null,"id":"af0snd68xz9j","geo_precision":"city","street_num":2902,"state":"IL","pin":"16-12-306-048-0000","ward":27},"type":"Feature","geometry":{"type":"Point","coordinates":[-87.68732,41.811929]}},{"properties":{"street_name":"FULTON","city":"Chicago","comm_area":"EAST GARFIELD PARK","dir":"W","type":"ST","geo_score":0.714,"zone_class_1":"RT-4","tif_district":"Kinzie Industrial Corridor","zone_class_2":null,"id":"af0snd4ybdax","geo_precision":"city","street_num":2848,"state":"IL","pin":"16-12-307-005-0000","ward":27},"type":"Feature","geometry":{"type":"Point","coordinates":[-87.68732,41.811929]}},{"properties":{"street_name":"FULTON","city":"Chicago","comm_area":"EAST GARFIELD PARK","dir":"W","type":"ST","geo_score":0.714,"zone_class_1":"PD684","tif_district":"Kinzie Industrial Corridor","zone_class_2":"RT-4","id":"af0snde2z4mf","geo_precision":"city","street_num":2824,"state":"IL","pin":"16-12-307-025-0000","ward":27},"type":"Feature","geometry":{"type":"Point","coordinates":[-87.68732,41.811929]}},{"properties":{"street_name":"FULTON","city":"Chicago","comm_area":"EAST GARFIELD PARK","dir":"W","type":"BLVD","geo_score":0.714,"zone_class_1":"RT-4","tif_district":"Kinzie Industrial Corridor","zone_class_2":null,"id":"af0snda5ytia","geo_precision":"city","street_num":3143,"state":"IL","pin":"16-12-308-007-0000","ward":27},"type":"Feature","geometry":{"type":"Point","coordinates":[-87.68732,41.811929]}},{"properties":{"street_name":"WALNUT","city":"Chicago","comm_area":"EAST GARFIELD PARK","dir":"W","type":"ST","geo_score":0.714,"zone_class_1":"B3-2","tif_district":"Kinzie Industrial Corridor","zone_class_2":null,"id":"af0sndhnvx3g","geo_precision":"city","street_num":3154,"state":"IL","pin":"16-12-308-025-0000","ward":27},"type":"Feature","geometry":{"type":"Point","coordinates":[-87.68732,41.811929]}},{"properties":{"street_name":"WALNUT","city":"Chicago","comm_area":"EAST GARFIELD PARK","dir":"W","type":"ST","geo_score":0.714,"zone_class_1":"RT-4","tif_district":"Kinzie Industrial Corridor","zone_class_2":null,"id":"af0snd8pscra","geo_precision":"city","street_num":3134,"state":"IL","pin":"16-12-308-034-0000","ward":27},"type":"Feature","geometry":{"type":"Point","coordinates":[-87.68732,41.811929]}},{"properties":{"street_name":"WALNUT","city":"Chicago","comm_area":"EAST GARFIELD PARK","dir":"W","type":"ST","geo_score":0.714,"zone_class_1":"RT-4","tif_district":"Kinzie Industrial Corridor","zone_class_2":null,"id":"af0sndbugkyk","geo_precision":"city","street_num":3128,"state":"IL","pin":"16-12-308-037-0000","ward":27},"type":"Feature","geometry":{"type":"Point","coordinates":[-87.68732,41.811929]}},{"properties":{"street_name":"WALNUT","city":"Chicago","comm_area":"EAST GARFIELD PARK","dir":"W","type":"ST","geo_score":0.714,"zone_class_1":"RT-4","tif_district":"Kinzie Industrial Corridor","zone_class_2":null,"id":"af0snd8x7a1d","geo_precision":"city","street_num":3120,"state":"IL","pin":"16-12-308-041-0000","ward":27},"type":"Feature","geometry":{"type":"Point","coordinates":[-87.68732,41.811929]}},{"properties":{"street_name":"WALNUT","city":"Chicago","comm_area":"EAST GARFIELD PARK","dir":"W","type":"ST","geo_score":0.714,"zone_class_1":"RT-4","tif_district":"Kinzie Industrial Corridor","zone_class_2":null,"id":"af0sndje6f1x","geo_precision":"city","street_num":3118,"state":"IL","pin":"16-12-308-042-0000","ward":27},"type":"Feature","geometry":{"type":"Point","coordinates":[-87.68732,41.811929]}},{"properties":{"street_name":"WALNUT","city":"Chicago","comm_area":"EAST GARFIELD PARK","dir":"W","type":"ST","geo_score":0.714,"zone_class_1":"RT-4","tif_district":"Kinzie Industrial Corridor","zone_class_2":null,"id":"af0sndf89sd8","geo_precision":"city","street_num":3112,"state":"IL","pin":"16-12-308-045-0000","ward":27},"type":"Feature","geometry":{"type":"Point","coordinates":[-87.68732,41.811929]}},{"properties":{"street_name":"WALNUT","city":"Chicago","comm_area":"EAST GARFIELD PARK","dir":"W","type":"ST","geo_score":0.714,"zone_class_1":"RT-4","tif_district":"Kinzie Industrial Corridor","zone_class_2":null,"id":"af0snd89syr4","geo_precision":"city","street_num":3108,"state":"IL","pin":"16-12-308-047-0000","ward":27},"type":"Feature","geometry":{"type":"Point","coordinates":[-87.68732,41.811929]}},{"properties":{"street_name":"WALNUT","city":"Chicago","comm_area":"EAST GARFIELD PARK","dir":"W","type":"ST","geo_score":0.714,"zone_class_1":"RT-4","tif_district":"Kinzie Industrial Corridor","zone_class_2":null,"id":"af0sndell6hd","geo_precision":"city","street_num":3106,"state":"IL","pin":"16-12-308-048-0000","ward":27},"type":"Feature","geometry":{"type":"Point","coordinates":[-87.68732,41.811929]}},{"properties":{"street_name":"FULTON","city":"Chicago","comm_area":"EAST GARFIELD PARK","dir":"W","type":"ST","geo_score":0.714,"zone_class_1":"RT-4","tif_district":"Kinzie Industrial Corridor","zone_class_2":null,"id":"af0snd8mdpyv","geo_precision":"city","street_num":2945,"state":"IL","pin":"16-12-310-007-0000","ward":27},"type":"Feature","geometry":{"type":"Point","coordinates":[-87.68732,41.811929]}},{"properties":{"street_name":"FULTON","city":"Chicago","comm_area":"EAST GARFIELD PARK","dir":"W","type":"ST","geo_score":0.714,"zone_class_1":"RT-4","tif_district":"Kinzie Industrial Corridor","zone_class_2":null,"id":"af0snd9oop7u","geo_precision":"city","street_num":2943,"state":"IL","pin":"16-12-310-008-0000","ward":27},"type":"Feature","geometry":{"type":"Point","coordinates":[-87.68732,41.811929]}},{"properties":{"street_name":"FULTON","city":"Chicago","comm_area":"EAST GARFIELD PARK","dir":"W","type":"ST","geo_score":0.714,"zone_class_1":"RT-4","tif_district":"Kinzie Industrial Corridor","zone_class_2":null,"id":"af0sndd1otu7","geo_precision":"city","street_num":2917,"state":"IL","pin":"16-12-310-018-0000","ward":27},"type":"Feature","geometry":{"type":"Point","coordinates":[-87.68732,41.811929]}},{"properties":{"street_name":"WALNUT","city":"Chicago","comm_area":"EAST GARFIELD PARK","dir":"W","type":"ST","geo_score":0.714,"zone_class_1":"RT-4","tif_district":"Kinzie Industrial Corridor","zone_class_2":null,"id":"af0snd44l7za","geo_precision":"city","street_num":2924,"state":"IL","pin":"16-12-310-037-0000","ward":27},"type":"Feature","geometry":{"type":"Point","coordinates":[-87.68732,41.811929]}},{"properties":{"street_name":"WALNUT","city":"Chicago","comm_area":"EAST GARFIELD PARK","dir":"W","type":"ST","geo_score":0.714,"zone_class_1":"RT-4","tif_district":"Kinzie Industrial Corridor","zone_class_2":null,"id":"af0snde3379c","geo_precision":"city","street_num":2914,"state":"IL","pin":"16-12-310-042-0000","ward":27},"type":"Feature","geometry":{"type":"Point","coordinates":[-87.68732,41.811929]}},{"properties":{"street_name":"WALNUT","city":"Chicago","comm_area":"EAST GARFIELD PARK","dir":"W","type":"ST","geo_score":0.714,"zone_class_1":"RT-4","tif_district":"Kinzie Industrial Corridor","zone_class_2":null,"id":"af0snd9clbpp","geo_precision":"city","street_num":2906,"state":"IL","pin":"16-12-310-044-0000","ward":27},"type":"Feature","geometry":{"type":"Point","coordinates":[-87.68732,41.811929]}},{"properties":{"street_name":"LAKE","city":"Chicago","comm_area":"EAST GARFIELD PARK","dir":"W","type":"ST","geo_score":0.714,"zone_class_1":"C1-3","tif_district":"Kinzie Industrial Corridor","zone_class_2":null,"id":"af0sndhyne16","geo_precision":"city","street_num":3156,"state":"IL","pin":"16-12-312-008-0000","ward":27},"type":"Feature","geometry":{"type":"Point","coordinates":[-87.68732,41.811929]}},{"properties":{"street_name":"LAKE","city":"Chicago","comm_area":"EAST GARFIELD PARK","dir":"W","type":"ST","geo_score":0.714,"zone_class_1":"C1-3","tif_district":"Kinzie Industrial Corridor","zone_class_2":null,"id":"af0sndgd5bh0","geo_precision":"city","street_num":3152,"state":"IL","pin":"16-12-312-009-0000","ward":27},"type":"Feature","geometry":{"type":"Point","coordinates":[-87.68732,41.811929]}},{"properties":{"street_name":"LAKE","city":"Chicago","comm_area":"EAST GARFIELD PARK","dir":"W","type":"ST","geo_score":0.714,"zone_class_1":"C1-3","tif_district":"Kinzie Industrial Corridor","zone_class_2":null,"id":"af0sndaqglsi","geo_precision":"city","street_num":3148,"state":"IL","pin":"16-12-312-010-0000","ward":27},"type":"Feature","geometry":{"type":"Point","coordinates":[-87.68732,41.811929]}},{"properties":{"street_name":"LAKE","city":"Chicago","comm_area":"EAST GARFIELD PARK","dir":"W","type":"ST","geo_score":0.714,"zone_class_1":"M1-3","tif_district":"Kinzie Industrial Corridor","zone_class_2":null,"id":"af0sndaxvloe","geo_precision":"city","street_num":3152,"state":"IL","pin":"16-12-312-012-0000","ward":27},"type":"Feature","geometry":{"type":"Point","coordinates":[-87.68732,41.811929]}},{"properties":{"street_name":"LAKE","city":"Chicago","comm_area":"EAST GARFIELD PARK","dir":"W","type":"ST","geo_score":0.714,"zone_class_1":"M1-3","tif_district":"Kinzie Industrial Corridor","zone_class_2":null,"id":"af0sndfgt26r","geo_precision":"city","street_num":3132,"state":"IL","pin":"16-12-312-014-0000","ward":27},"type":"Feature","geometry":{"type":"Point","coordinates":[-87.68732,41.811929]}},{"properties":{"street_name":"LAKE","city":"Chicago","comm_area":"EAST GARFIELD PARK","dir":"W","type":"ST","geo_score":0.714,"zone_class_1":"M1-3","tif_district":"Kinzie Industrial Corridor","zone_class_2":null,"id":"af0sndj3ti6z","geo_precision":"city","street_num":3130,"state":"IL","pin":"16-12-312-015-0000","ward":27},"type":"Feature","geometry":{"type":"Point","coordinates":[-87.68732,41.811929]}},{"properties":{"street_name":"LAKE","city":"Chicago","comm_area":"EAST GARFIELD PARK","dir":"W","type":"ST","geo_score":0.714,"zone_class_1":"M1-3","tif_district":"Kinzie Industrial Corridor","zone_class_2":"RT-4","id":"af0snd6ofon6","geo_precision":"city","street_num":3126,"state":"IL","pin":"16-12-312-016-0000","ward":27},"type":"Feature","geometry":{"type":"Point","coordinates":[-87.68732,41.811929]}},{"properties":{"street_name":"LAKE","city":"Chicago","comm_area":"EAST GARFIELD PARK","dir":"W","type":"ST","geo_score":0.714,"zone_class_1":"M1-3","tif_district":"Kinzie Industrial Corridor","zone_class_2":null,"id":"af0snda69msd","geo_precision":"city","street_num":3128,"state":"IL","pin":"16-12-312-017-0000","ward":27},"type":"Feature","geometry":{"type":"Point","coordinates":[-87.68732,41.811929]}},{"properties":{"street_name":"LAKE","city":"Chicago","comm_area":"EAST GARFIELD PARK","dir":"W","type":"ST","geo_score":0.714,"zone_class_1":"M1-3","tif_district":"Kinzie Industrial Corridor","zone_class_2":null,"id":"af0snd9zhl8c","geo_precision":"city","street_num":3126,"state":"IL","pin":"16-12-312-018-0000","ward":27},"type":"Feature","geometry":{"type":"Point","coordinates":[-87.68732,41.811929]}},{"properties":{"street_name":"LAKE","city":"Chicago","comm_area":"EAST GARFIELD PARK","dir":"W","type":"ST","geo_score":0.714,"zone_class_1":"RT-4","tif_district":"Kinzie Industrial Corridor","zone_class_2":null,"id":"af0sndk07yi7","geo_precision":"city","street_num":3124,"state":"IL","pin":"16-12-312-019-0000","ward":27},"type":"Feature","geometry":{"type":"Point","coordinates":[-87.68732,41.811929]}},{"properties":{"street_name":"LAKE","city":"Chicago","comm_area":"EAST GARFIELD PARK","dir":"W","type":"ST","geo_score":0.714,"zone_class_1":"RT-4","tif_district":"Kinzie Industrial Corridor","zone_class_2":null,"id":"af0sndhi8gne","geo_precision":"city","street_num":3120,"state":"IL","pin":"16-12-312-020-0000","ward":27},"type":"Feature","geometry":{"type":"Point","coordinates":[-87.68732,41.811929]}},{"properties":{"street_name":"LAKE","city":"Chicago","comm_area":"EAST GARFIELD PARK","dir":"W","type":"ST","geo_score":0.714,"zone_class_1":"RT-4","tif_district":"Kinzie Industrial Corridor","zone_class_2":null,"id":"af0snd8y4b9u","geo_precision":"city","street_num":3118,"state":"IL","pin":"16-12-312-021-0000","ward":27},"type":"Feature","geometry":{"type":"Point","coordinates":[-87.68732,41.811929]}},{"properties":{"street_name":"ALBANY","city":"Chicago","comm_area":"EAST GARFIELD PARK","dir":"N","type":"AVE","geo_score":0.714,"zone_class_1":"RT-4","tif_district":"Kinzie Industrial Corridor","zone_class_2":null,"id":"af0snd6c2kk5","geo_precision":"city","street_num":214,"state":"IL","pin":"16-12-312-027-0000","ward":27},"type":"Feature","geometry":{"type":"Point","coordinates":[-87.68732,41.811929]}},{"properties":{"street_name":"ALBANY","city":"Chicago","comm_area":"EAST GARFIELD PARK","dir":"N","type":"AVE","geo_score":0.714,"zone_class_1":"RT-4","tif_district":"Kinzie Industrial Corridor","zone_class_2":null,"id":"af0snd6ty9u7","geo_precision":"city","street_num":220,"state":"IL","pin":"16-12-312-029-0000","ward":27},"type":"Feature","geometry":{"type":"Point","coordinates":[-87.68732,41.811929]}},{"properties":{"street_name":"ALBANY","city":"Chicago","comm_area":"EAST GARFIELD PARK","dir":"N","type":"AVE","geo_score":0.714,"zone_class_1":"RT-4","tif_district":"Kinzie Industrial Corridor","zone_class_2":null,"id":"af0sndeyarg8","geo_precision":"city","street_num":216,"state":"IL","pin":"16-12-312-035-0000","ward":27},"type":"Feature","geometry":{"type":"Point","coordinates":[-87.68732,41.811929]}},{"properties":{"street_name":"ALBANY","city":"Chicago","comm_area":"EAST GARFIELD PARK","dir":"N","type":"AVE","geo_score":0.714,"zone_class_1":"RT-4","tif_district":"Kinzie Industrial Corridor","zone_class_2":null,"id":"af0snd5qfbd9","geo_precision":"city","street_num":218,"state":"IL","pin":"16-12-312-036-0000","ward":27},"type":"Feature","geometry":{"type":"Point","coordinates":[-87.68732,41.811929]}},{"properties":{"street_name":"WALNUT","city":"Chicago","comm_area":"EAST GARFIELD PARK","dir":"W","type":"ST","geo_score":0.714,"zone_class_1":"RT-4","tif_district":"Kinzie Industrial Corridor","zone_class_2":null,"id":"af0snd6m95iz","geo_precision":"city","street_num":3031,"state":"IL","pin":"16-12-313-014-0000","ward":2},"type":"Feature","geometry":{"type":"Point","coordinates":[-87.68732,41.811929]}},{"properties":{"street_name":"SACRAMENTO","city":"Chicago","comm_area":"EAST GARFIELD PARK","dir":"N","type":"BLVD","geo_score":0.714,"zone_class_1":"M1-2","tif_district":"Kinzie Industrial Corridor","zone_class_2":null,"id":"af0snd5qm1ey","geo_precision":"city","street_num":219,"state":"IL","pin":"16-12-314-025-0000","ward":2},"type":"Feature","geometry":{"type":"Point","coordinates":[-87.68732,41.811929]}},{"properties":{"street_name":"SACRAMENTO","city":"Chicago","comm_area":"EAST GARFIELD PARK","dir":"N","type":"BLVD","geo_score":0.714,"zone_class_1":"M1-2","tif_district":"Kinzie Industrial Corridor","zone_class_2":null,"id":"af0sndd60qu1","geo_precision":"city","street_num":217,"state":"IL","pin":"16-12-314-026-0000","ward":2},"type":"Feature","geometry":{"type":"Point","coordinates":[-87.68732,41.811929]}},{"properties":{"street_name":"FRANCISCO","city":"Chicago","comm_area":"EAST GARFIELD PARK","dir":"N","type":"AVE","geo_score":0.714,"zone_class_1":"M1-2","tif_district":"Kinzie Industrial Corridor","zone_class_2":null,"id":"af0snd7vg5a4","geo_precision":"city","street_num":216,"state":"IL","pin":"16-12-314-042-0000","ward":2},"type":"Feature","geometry":{"type":"Point","coordinates":[-87.68732,41.811929]}},{"properties":{"street_name":"LAKE","city":"Chicago","comm_area":"EAST GARFIELD PARK","dir":"W","type":"ST","geo_score":0.714,"zone_class_1":"M1-2","tif_district":"Kinzie Industrial Corridor","zone_class_2":null,"id":"af0sndd0vpws","geo_precision":"city","street_num":2852,"state":"IL","pin":"16-12-315-028-0000","ward":2},"type":"Feature","geometry":{"type":"Point","coordinates":[-87.68732,41.811929]}},{"properties":{"street_name":"WALNUT","city":"Chicago","comm_area":"EAST GARFIELD PARK","dir":"W","type":"ST","geo_score":0.714,"zone_class_1":"RT-4","tif_district":"Kinzie Industrial Corridor","zone_class_2":null,"id":"af0sndbc08d0","geo_precision":"city","street_num":2819,"state":"IL","pin":"16-12-316-004-0000","ward":2},"type":"Feature","geometry":{"type":"Point","coordinates":[-87.68732,41.811929]}},{"properties":{"street_name":"MOZART","city":"Chicago","comm_area":"EAST GARFIELD PARK","dir":"N","type":"ST","geo_score":0.714,"zone_class_1":"M1-2","tif_district":"Kinzie Industrial Corridor","zone_class_2":null,"id":"af0sndfe4e4v","geo_precision":"city","street_num":209,"state":"IL","pin":"16-12-316-011-0000","ward":2},"type":"Feature","geometry":{"type":"Point","coordinates":[-87.68732,41.811929]}},{"properties":{"street_name":"KEDZIE","city":"Chicago","comm_area":"EAST GARFIELD PARK","dir":"N","type":"AVE","geo_score":0.714,"zone_class_1":"C1-3","tif_district":"Kinzie Industrial Corridor","zone_class_2":null,"id":"af0sndidnfs4","geo_precision":"city","street_num":135,"state":"IL","pin":"16-12-317-002-0000","ward":27},"type":"Feature","geometry":{"type":"Point","coordinates":[-87.68732,41.811929]}},{"properties":{"street_name":"KEDZIE","city":"Chicago","comm_area":"EAST GARFIELD PARK","dir":"N","type":"AVE","geo_score":0.714,"zone_class_1":"C1-3","tif_district":"Kinzie Industrial Corridor","zone_class_2":null,"id":"af0sndfai8rh","geo_precision":"city","street_num":131,"state":"IL","pin":"16-12-317-003-0000","ward":27},"type":"Feature","geometry":{"type":"Point","coordinates":[-87.68732,41.811929]}},{"properties":{"street_name":"KEDZIE","city":"Chicago","comm_area":"EAST GARFIELD PARK","dir":"N","type":"AVE","geo_score":0.714,"zone_class_1":"C1-3","tif_district":"Kinzie Industrial Corridor","zone_class_2":null,"id":"af0sndk4zhjf","geo_precision":"city","street_num":127,"state":"IL","pin":"16-12-317-004-0000","ward":27},"type":"Feature","geometry":{"type":"Point","coordinates":[-87.68732,41.811929]}},{"properties":{"street_name":"LAKE","city":"Chicago","comm_area":"EAST GARFIELD PARK","dir":"W","type":"ST","geo_score":0.714,"zone_class_1":"M1-3","tif_district":"Kinzie Industrial Corridor","zone_class_2":null,"id":"af0sndaqjiml","geo_precision":"city","street_num":3137,"state":"IL","pin":"16-12-317-005-0000","ward":27},"type":"Feature","geometry":{"type":"Point","coordinates":[-87.68732,41.811929]}},{"properties":{"street_name":"LAKE","city":"Chicago","comm_area":"EAST GARFIELD PARK","dir":"W","type":"ST","geo_score":0.714,"zone_class_1":"M1-3","tif_district":"Kinzie Industrial Corridor","zone_class_2":null,"id":"af0snd8b0mqj","geo_precision":"city","street_num":3141,"state":"IL","pin":"16-12-317-006-0000","ward":27},"type":"Feature","geometry":{"type":"Point","coordinates":[-87.68732,41.811929]}},{"properties":{"street_name":"MAYPOLE","city":"Chicago","comm_area":"EAST GARFIELD PARK","dir":"W","type":"AVE","geo_score":0.714,"zone_class_1":"M1-3","tif_district":"Kinzie Industrial Corridor","zone_class_2":null,"id":"af0sndk71qu4","geo_precision":"city","street_num":3140,"state":"IL","pin":"16-12-317-007-0000","ward":27},"type":"Feature","geometry":{"type":"Point","coordinates":[-87.68732,41.811929]}},{"properties":{"street_name":"LAKE","city":"Chicago","comm_area":"EAST GARFIELD PARK","dir":"W","type":"ST","geo_score":0.714,"zone_class_1":"M1-3","tif_district":"Kinzie Industrial Corridor","zone_class_2":null,"id":"af0snd8igt2h","geo_precision":"city","street_num":3139,"state":"IL","pin":"16-12-317-008-0000","ward":27},"type":"Feature","geometry":{"type":"Point","coordinates":[-87.68732,41.811929]}},{"properties":{"street_name":"LAKE","city":"Chicago","comm_area":"EAST GARFIELD PARK","dir":"W","type":"ST","geo_score":0.714,"zone_class_1":"M1-3","tif_district":"Kinzie Industrial Corridor","zone_class_2":null,"id":"af0snd4d4kut","geo_precision":"city","street_num":3137,"state":"IL","pin":"16-12-317-009-0000","ward":27},"type":"Feature","geometry":{"type":"Point","coordinates":[-87.68732,41.811929]}},{"properties":{"street_name":"LAKE","city":"Chicago","comm_area":"EAST GARFIELD PARK","dir":"W","type":"ST","geo_score":0.714,"zone_class_1":"M1-3","tif_district":"Kinzie Industrial Corridor","zone_class_2":null,"id":"af0sndg880sg","geo_precision":"city","street_num":3131,"state":"IL","pin":"16-12-317-010-0000","ward":27},"type":"Feature","geometry":{"type":"Point","coordinates":[-87.68732,41.811929]}},{"properties":{"street_name":"LAKE","city":"Chicago","comm_area":"EAST GARFIELD PARK","dir":"W","type":"ST","geo_score":0.714,"zone_class_1":"M1-3","tif_district":"Kinzie Industrial Corridor","zone_class_2":null,"id":"af0snd42cxcp","geo_precision":"city","street_num":3127,"state":"IL","pin":"16-12-317-012-0000","ward":27},"type":"Feature","geometry":{"type":"Point","coordinates":[-87.68732,41.811929]}},{"properties":{"street_name":"LAKE","city":"Chicago","comm_area":"EAST GARFIELD PARK","dir":"W","type":"ST","geo_score":0.714,"zone_class_1":"M1-3","tif_district":"Kinzie Industrial Corridor","zone_class_2":null,"id":"af0snd5gh30y","geo_precision":"city","street_num":3123,"state":"IL","pin":"16-12-317-013-0000","ward":27},"type":"Feature","geometry":{"type":"Point","coordinates":[-87.68732,41.811929]}},{"properties":{"street_name":"LAKE","city":"Chicago","comm_area":"EAST GARFIELD PARK","dir":"W","type":"ST","geo_score":0.714,"zone_class_1":"M1-3","tif_district":"Kinzie Industrial Corridor","zone_class_2":null,"id":"af0snd994yxl","geo_precision":"city","street_num":3119,"state":"IL","pin":"16-12-317-014-0000","ward":27},"type":"Feature","geometry":{"type":"Point","coordinates":[-87.68732,41.811929]}},{"properties":{"street_name":"LAKE","city":"Chicago","comm_area":"EAST GARFIELD PARK","dir":"W","type":"ST","geo_score":0.714,"zone_class_1":"M1-3","tif_district":"Kinzie Industrial Corridor","zone_class_2":null,"id":"af0sndgz8mrw","geo_precision":"city","street_num":3117,"state":"IL","pin":"16-12-317-015-0000","ward":27},"type":"Feature","geometry":{"type":"Point","coordinates":[-87.68732,41.811929]}},{"properties":{"street_name":"WASHINGTON","city":"Chicago","comm_area":"EAST GARFIELD PARK","dir":"W","type":"BLVD","geo_score":0.714,"zone_class_1":"PD 25","tif_district":"Kinzie Industrial Corridor","zone_class_2":null,"id":"af0snd5jpvt4","geo_precision":"city","street_num":3146,"state":"IL","pin":"16-12-319-005-0000","ward":27},"type":"Feature","geometry":{"type":"Point","coordinates":[-87.68732,41.811929]}},{"properties":{"street_name":"WASHINGTON","city":"Chicago","comm_area":"EAST GARFIELD PARK","dir":"W","type":"BLVD","geo_score":0.714,"zone_class_1":"RM-5","tif_district":"Kinzie Industrial Corridor","zone_class_2":null,"id":"af0sndhsbak6","geo_precision":"city","street_num":3136,"state":"IL","pin":"16-12-319-009-0000","ward":27},"type":"Feature","geometry":{"type":"Point","coordinates":[-87.68732,41.811929]}},{"properties":{"street_name":"WASHINGTON","city":"Chicago","comm_area":"EAST GARFIELD PARK","dir":"W","type":"BLVD","geo_score":0.714,"zone_class_1":"RM-5","tif_district":"Kinzie Industrial Corridor","zone_class_2":null,"id":"af0snd4t1m9u","geo_precision":"city","street_num":3130,"state":"IL","pin":"16-12-319-011-0000","ward":27},"type":"Feature","geometry":{"type":"Point","coordinates":[-87.68732,41.811929]}},{"properties":{"street_name":"WASHINGTON","city":"Chicago","comm_area":"EAST GARFIELD PARK","dir":"W","type":"BLVD","geo_score":0.714,"zone_class_1":"PD 25","tif_district":"Kinzie Industrial Corridor","zone_class_2":null,"id":"af0snde70gix","geo_precision":"city","street_num":3118,"state":"IL","pin":"16-12-319-014-0000","ward":27},"type":"Feature","geometry":{"type":"Point","coordinates":[-87.68732,41.811929]}},{"properties":{"street_name":"WASHINGTON","city":"Chicago","comm_area":"EAST GARFIELD PARK","dir":"W","type":"BLVD","geo_score":0.714,"zone_class_1":"PD 25","tif_district":"Kinzie Industrial Corridor","zone_class_2":null,"id":"af0sndbualry","geo_precision":"city","street_num":3100,"state":"IL","pin":"16-12-319-016-0000","ward":27},"type":"Feature","geometry":{"type":"Point","coordinates":[-87.68732,41.811929]}},{"properties":{"street_name":"ALBANY","city":"Chicago","comm_area":"EAST GARFIELD PARK","dir":"N","type":"AVE","geo_score":0.714,"zone_class_1":"M1-2","tif_district":"Kinzie Industrial Corridor","zone_class_2":null,"id":"af0sndc3ownl","geo_precision":"city","street_num":133,"state":"IL","pin":"16-12-320-001-0000","ward":2},"type":"Feature","geometry":{"type":"Point","coordinates":[-87.68732,41.811929]}},{"properties":{"street_name":"LAKE","city":"Chicago","comm_area":"EAST GARFIELD PARK","dir":"W","type":"ST","geo_score":0.714,"zone_class_1":"M1-2","tif_district":"Kinzie Industrial Corridor","zone_class_2":null,"id":"af0snd9c8dyz","geo_precision":"city","street_num":3049,"state":"IL","pin":"16-12-320-002-0000","ward":2},"type":"Feature","geometry":{"type":"Point","coordinates":[-87.68732,41.811929]}},{"properties":{"street_name":"LAKE","city":"Chicago","comm_area":"EAST GARFIELD PARK","dir":"W","type":"ST","geo_score":0.714,"zone_class_1":"M1-2","tif_district":"Kinzie Industrial Corridor","zone_class_2":null,"id":"af0snd8iy3ka","geo_precision":"city","street_num":3047,"state":"IL","pin":"16-12-320-003-0000","ward":2},"type":"Feature","geometry":{"type":"Point","coordinates":[-87.68732,41.811929]}},{"properties":{"street_name":"LAKE","city":"Chicago","comm_area":"EAST GARFIELD PARK","dir":"W","type":"ST","geo_score":0.714,"zone_class_1":"M1-2","tif_district":"Kinzie Industrial Corridor","zone_class_2":null,"id":"af0snd3qyvgm","geo_precision":"city","street_num":3045,"state":"IL","pin":"16-12-320-004-0000","ward":2},"type":"Feature","geometry":{"type":"Point","coordinates":[-87.68732,41.811929]}},{"properties":{"street_name":"LAKE","city":"Chicago","comm_area":"EAST GARFIELD PARK","dir":"W","type":"ST","geo_score":0.714,"zone_class_1":"M1-2","tif_district":"Kinzie Industrial Corridor","zone_class_2":null,"id":"af0snd6lwudp","geo_precision":"city","street_num":3041,"state":"IL","pin":"16-12-320-005-0000","ward":2},"type":"Feature","geometry":{"type":"Point","coordinates":[-87.68732,41.811929]}},{"properties":{"street_name":"LAKE","city":"Chicago","comm_area":"EAST GARFIELD PARK","dir":"W","type":"ST","geo_score":0.714,"zone_class_1":"M1-2","tif_district":"Kinzie Industrial Corridor","zone_class_2":null,"id":"af0snd82lx38","geo_precision":"city","street_num":3035,"state":"IL","pin":"16-12-320-006-0000","ward":2},"type":"Feature","geometry":{"type":"Point","coordinates":[-87.68732,41.811929]}},{"properties":{"street_name":"LAKE","city":"Chicago","comm_area":"EAST GARFIELD PARK","dir":"W","type":"ST","geo_score":0.714,"zone_class_1":"M1-2","tif_district":"Kinzie Industrial Corridor","zone_class_2":null,"id":"af0snd52i7wo","geo_precision":"city","street_num":3011,"state":"IL","pin":"16-12-320-009-0000","ward":2},"type":"Feature","geometry":{"type":"Point","coordinates":[-87.68732,41.811929]}},{"properties":{"street_name":"LAKE","city":"Chicago","comm_area":"EAST GARFIELD PARK","dir":"W","type":"ST","geo_score":0.714,"zone_class_1":"M1-2","tif_district":"Kinzie Industrial Corridor","zone_class_2":null,"id":"af0sndjkyxqq","geo_precision":"city","street_num":3007,"state":"IL","pin":"16-12-320-010-0000","ward":2},"type":"Feature","geometry":{"type":"Point","coordinates":[-87.68732,41.811929]}},{"properties":{"street_name":"LAKE","city":"Chicago","comm_area":"EAST GARFIELD PARK","dir":"W","type":"ST","geo_score":0.714,"zone_class_1":"M1-2","tif_district":"Kinzie Industrial Corridor","zone_class_2":null,"id":"af0sndcsf6er","geo_precision":"city","street_num":2857,"state":"IL","pin":"16-12-322-001-0000","ward":2},"type":"Feature","geometry":{"type":"Point","coordinates":[-87.68732,41.811929]}},{"properties":{"street_name":"LAKE","city":"Chicago","comm_area":"EAST GARFIELD PARK","dir":"W","type":"ST","geo_score":0.714,"zone_class_1":"M1-2","tif_district":"Kinzie Industrial Corridor","zone_class_2":null,"id":"af0snd8g38l3","geo_precision":"city","street_num":2855,"state":"IL","pin":"16-12-322-002-0000","ward":2},"type":"Feature","geometry":{"type":"Point","coordinates":[-87.68732,41.811929]}},{"properties":{"street_name":"LAKE","city":"Chicago","comm_area":"EAST GARFIELD PARK","dir":"W","type":"ST","geo_score":0.714,"zone_class_1":"M1-2","tif_district":"Kinzie Industrial Corridor","zone_class_2":null,"id":"af0snd50dz0i","geo_precision":"city","street_num":2851,"state":"IL","pin":"16-12-322-003-0000","ward":2},"type":"Feature","geometry":{"type":"Point","coordinates":[-87.68732,41.811929]}},{"properties":{"street_name":"LAKE","city":"Chicago","comm_area":"EAST GARFIELD PARK","dir":"W","type":"ST","geo_score":0.714,"zone_class_1":"M1-2","tif_district":"Kinzie Industrial Corridor","zone_class_2":null,"id":"af0sndcb9p72","geo_precision":"city","street_num":2849,"state":"IL","pin":"16-12-322-004-0000","ward":2},"type":"Feature","geometry":{"type":"Point","coordinates":[-87.68732,41.811929]}},{"properties":{"street_name":"LAKE","city":"Chicago","comm_area":"EAST GARFIELD PARK","dir":"W","type":"ST","geo_score":0.714,"zone_class_1":"M1-2","tif_district":"Kinzie Industrial Corridor","zone_class_2":null,"id":"af0sndd2b151","geo_precision":"city","street_num":2845,"state":"IL","pin":"16-12-322-005-0000","ward":2},"type":"Feature","geometry":{"type":"Point","coordinates":[-87.68732,41.811929]}},{"properties":{"street_name":"LAKE","city":"Chicago","comm_area":"EAST GARFIELD PARK","dir":"W","type":"ST","geo_score":0.714,"zone_class_1":"M1-2","tif_district":"Kinzie Industrial Corridor","zone_class_2":null,"id":"af0snd842ond","geo_precision":"city","street_num":2843,"state":"IL","pin":"16-12-322-006-0000","ward":2},"type":"Feature","geometry":{"type":"Point","coordinates":[-87.68732,41.811929]}},{"properties":{"street_name":"LAKE","city":"Chicago","comm_area":"EAST GARFIELD PARK","dir":"W","type":"ST","geo_score":0.714,"zone_class_1":"M1-2","tif_district":"Kinzie Industrial Corridor","zone_class_2":null,"id":"af0sndcv9z1l","geo_precision":"city","street_num":2841,"state":"IL","pin":"16-12-322-007-0000","ward":2},"type":"Feature","geometry":{"type":"Point","coordinates":[-87.68732,41.811929]}},{"properties":{"street_name":"LAKE","city":"Chicago","comm_area":"EAST GARFIELD PARK","dir":"W","type":"ST","geo_score":0.714,"zone_class_1":"M1-2","tif_district":"Kinzie Industrial Corridor","zone_class_2":null,"id":"af0sndab6wyw","geo_precision":"city","street_num":2833,"state":"IL","pin":"16-12-322-008-0000","ward":2},"type":"Feature","geometry":{"type":"Point","coordinates":[-87.68732,41.811929]}},{"properties":{"street_name":"MOZART","city":"Chicago","comm_area":"EAST GARFIELD PARK","dir":"N","type":"ST","geo_score":0.714,"zone_class_1":"M1-2","tif_district":"Kinzie Industrial Corridor","zone_class_2":null,"id":"af0sndexksru","geo_precision":"city","street_num":139,"state":"IL","pin":"16-12-323-001-0000","ward":2},"type":"Feature","geometry":{"type":"Point","coordinates":[-87.68732,41.811929]}},{"properties":{"street_name":"MOZART","city":"Chicago","comm_area":"EAST GARFIELD PARK","dir":"N","type":"ST","geo_score":0.714,"zone_class_1":"M1-2","tif_district":"Kinzie Industrial Corridor","zone_class_2":null,"id":"af0snd4hx16l","geo_precision":"city","street_num":131,"state":"IL","pin":"16-12-323-005-0000","ward":2},"type":"Feature","geometry":{"type":"Point","coordinates":[-87.68732,41.811929]}},{"properties":{"street_name":"MOZART","city":"Chicago","comm_area":"EAST GARFIELD PARK","dir":"N","type":"ST","geo_score":0.714,"zone_class_1":"M1-2","tif_district":"Kinzie Industrial Corridor","zone_class_2":null,"id":"af0snd4uq6og","geo_precision":"city","street_num":129,"state":"IL","pin":"16-12-323-006-0000","ward":2},"type":"Feature","geometry":{"type":"Point","coordinates":[-87.68732,41.811929]}},{"properties":{"street_name":"LAKE","city":"Chicago","comm_area":"EAST GARFIELD PARK","dir":"W","type":"ST","geo_score":0.714,"zone_class_1":"M1-2","tif_district":"Kinzie Industrial Corridor","zone_class_2":null,"id":"af0snd7iuvm3","geo_precision":"city","street_num":134,"state":"IL","pin":"16-12-323-028-0000","ward":2},"type":"Feature","geometry":{"type":"Point","coordinates":[-87.68732,41.811929]}},{"properties":{"street_name":"LAKE","city":"Chicago","comm_area":"EAST GARFIELD PARK","dir":"W","type":"ST","geo_score":0.714,"zone_class_1":"M1-2","tif_district":"Kinzie Industrial Corridor","zone_class_2":null,"id":"af0sndj7gq1y","geo_precision":"city","street_num":128,"state":"IL","pin":"16-12-323-029-0000","ward":2},"type":"Feature","geometry":{"type":"Point","coordinates":[-87.68732,41.811929]}},{"properties":{"street_name":"LAKE","city":"Chicago","comm_area":"EAST GARFIELD PARK","dir":"W","type":"ST","geo_score":0.714,"zone_class_1":"M1-2","tif_district":"Kinzie Industrial Corridor","zone_class_2":null,"id":"af0sndhrclml","geo_precision":"city","street_num":2741,"state":"IL","pin":"16-12-415-007-0000","ward":27},"type":"Feature","geometry":{"type":"Point","coordinates":[-87.68732,41.811929]}},{"properties":{"street_name":"LAKE","city":"Chicago","comm_area":"EAST GARFIELD PARK","dir":"W","type":"ST","geo_score":0.714,"zone_class_1":"M1-2","tif_district":"Kinzie Industrial Corridor","zone_class_2":null,"id":"af0sndg0rhbe","geo_precision":"city","street_num":2733,"state":"IL","pin":"16-12-415-010-0000","ward":27},"type":"Feature","geometry":{"type":"Point","coordinates":[-87.68732,41.811929]}},{"properties":{"street_name":"LAKE","city":"Chicago","comm_area":"EAST GARFIELD PARK","dir":"W","type":"ST","geo_score":0.714,"zone_class_1":"M1-2","tif_district":"Kinzie Industrial Corridor","zone_class_2":null,"id":"af0sndiuu3jy","geo_precision":"city","street_num":2703,"state":"IL","pin":"16-12-415-024-0000","ward":27},"type":"Feature","geometry":{"type":"Point","coordinates":[-87.68732,41.811929]}},{"properties":{"street_name":"LAKE","city":"Chicago","comm_area":"EAST GARFIELD PARK","dir":"W","type":"ST","geo_score":0.714,"zone_class_1":"M1-2","tif_district":"Kinzie Industrial Corridor","zone_class_2":null,"id":"af0sndcdtpew","geo_precision":"city","street_num":2665,"state":"IL","pin":"16-12-415-028-0000","ward":27},"type":"Feature","geometry":{"type":"Point","coordinates":[-87.68732,41.811929]}},{"properties":{"street_name":"LAKE","city":"Chicago","comm_area":"EAST GARFIELD PARK","dir":"W","type":"ST","geo_score":0.714,"zone_class_1":"M1-2","tif_district":"Kinzie Industrial Corridor","zone_class_2":null,"id":"af0sndjljaki","geo_precision":"city","street_num":2659,"state":"IL","pin":"16-12-415-031-0000","ward":27},"type":"Feature","geometry":{"type":"Point","coordinates":[-87.68732,41.811929]}},{"properties":{"street_name":"MAYPOLE","city":"Chicago","comm_area":"EAST GARFIELD PARK","dir":"W","type":"AVE","geo_score":0.714,"zone_class_1":"RT-4","tif_district":"Kinzie Industrial Corridor","zone_class_2":null,"id":"af0sndhgqpkd","geo_precision":"city","street_num":2760,"state":"IL","pin":"16-12-415-044-0000","ward":27},"type":"Feature","geometry":{"type":"Point","coordinates":[-87.68732,41.811929]}},{"properties":{"street_name":"MAYPOLE","city":"Chicago","comm_area":"EAST GARFIELD PARK","dir":"W","type":"AVE","geo_score":0.714,"zone_class_1":"RT-4","tif_district":"Kinzie Industrial Corridor","zone_class_2":null,"id":"af0sndi2lglr","geo_precision":"city","street_num":2738,"state":"IL","pin":"16-12-415-055-0000","ward":27},"type":"Feature","geometry":{"type":"Point","coordinates":[-87.68732,41.811929]}},{"properties":{"street_name":"MAYPOLE","city":"Chicago","comm_area":"EAST GARFIELD PARK","dir":"W","type":"AVE","geo_score":0.714,"zone_class_1":"RT-4","tif_district":"Kinzie Industrial Corridor","zone_class_2":null,"id":"af0sndhhkrls","geo_precision":"city","street_num":2674,"state":"IL","pin":"16-12-415-073-0000","ward":27},"type":"Feature","geometry":{"type":"Point","coordinates":[-87.68732,41.811929]}},{"properties":{"street_name":"MAYPOLE","city":"Chicago","comm_area":"EAST GARFIELD PARK","dir":"W","type":"AVE","geo_score":0.714,"zone_class_1":"RT-4","tif_district":"Kinzie Industrial Corridor","zone_class_2":null,"id":"af0snd7jjgew","geo_precision":"city","street_num":2670,"state":"IL","pin":"16-12-415-074-0000","ward":27},"type":"Feature","geometry":{"type":"Point","coordinates":[-87.68732,41.811929]}},{"properties":{"street_name":"MAYPOLE","city":"Chicago","comm_area":"EAST GARFIELD PARK","dir":"W","type":"AVE","geo_score":0.714,"zone_class_1":"RT-4","tif_district":"Kinzie Industrial Corridor","zone_class_2":null,"id":"af0snd41tjs4","geo_precision":"city","street_num":2666,"state":"IL","pin":"16-12-415-076-0000","ward":27},"type":"Feature","geometry":{"type":"Point","coordinates":[-87.68732,41.811929]}},{"properties":{"street_name":"MAYPOLE","city":"Chicago","comm_area":"EAST GARFIELD PARK","dir":"W","type":"AVE","geo_score":0.714,"zone_class_1":"RT-4","tif_district":"Kinzie Industrial Corridor","zone_class_2":null,"id":"af0snd4xgw0t","geo_precision":"city","street_num":2656,"state":"IL","pin":"16-12-415-080-0000","ward":27},"type":"Feature","geometry":{"type":"Point","coordinates":[-87.68732,41.811929]}},{"properties":{"street_name":"LAKE","city":"Chicago","comm_area":"NEAR WEST SIDE","dir":"W","type":"ST","geo_score":0.714,"zone_class_1":"PMD 4","tif_district":"Kinzie Industrial Corridor","zone_class_2":null,"id":"af0sndialrcp","geo_precision":"city","street_num":2563,"state":"IL","pin":"16-12-416-004-0000","ward":2},"type":"Feature","geometry":{"type":"Point","coordinates":[-87.68732,41.811929]}},{"properties":{"street_name":"LAKE","city":"Chicago","comm_area":"NEAR WEST SIDE","dir":"W","type":"ST","geo_score":0.714,"zone_class_1":"PMD 4","tif_district":"Kinzie Industrial Corridor","zone_class_2":null,"id":"af0snddwpn1u","geo_precision":"city","street_num":2561,"state":"IL","pin":"16-12-416-005-0000","ward":2},"type":"Feature","geometry":{"type":"Point","coordinates":[-87.68732,41.811929]}},{"properties":{"street_name":"LAKE","city":"Chicago","comm_area":"NEAR WEST SIDE","dir":"W","type":"ST","geo_score":0.714,"zone_class_1":"PMD 4","tif_district":"Kinzie Industrial Corridor","zone_class_2":null,"id":"af0snd50k2r9","geo_precision":"city","street_num":2559,"state":"IL","pin":"16-12-416-006-0000","ward":2},"type":"Feature","geometry":{"type":"Point","coordinates":[-87.68732,41.811929]}},{"properties":{"street_name":"LAKE","city":"Chicago","comm_area":"NEAR WEST SIDE","dir":"W","type":"ST","geo_score":0.714,"zone_class_1":"PMD 4","tif_district":"Kinzie Industrial Corridor","zone_class_2":null,"id":"af0sndfb8ne5","geo_precision":"city","street_num":2557,"state":"IL","pin":"16-12-416-007-0000","ward":2},"type":"Feature","geometry":{"type":"Point","coordinates":[-87.68732,41.811929]}},{"properties":{"street_name":"LAKE","city":"Chicago","comm_area":"NEAR WEST SIDE","dir":"W","type":"ST","geo_score":0.714,"zone_class_1":"PMD 4","tif_district":"Kinzie Industrial Corridor","zone_class_2":null,"id":"af0sndji1rw8","geo_precision":"city","street_num":2555,"state":"IL","pin":"16-12-416-008-0000","ward":2},"type":"Feature","geometry":{"type":"Point","coordinates":[-87.68732,41.811929]}},{"properties":{"street_name":"LAKE","city":"Chicago","comm_area":"NEAR WEST SIDE","dir":"W","type":"ST","geo_score":0.714,"zone_class_1":"PMD 4","tif_district":"Kinzie Industrial Corridor","zone_class_2":null,"id":"af0snd3tv104","geo_precision":"city","street_num":2551,"state":"IL","pin":"16-12-416-009-0000","ward":2},"type":"Feature","geometry":{"type":"Point","coordinates":[-87.68732,41.811929]}},{"properties":{"street_name":"LAKE","city":"Chicago","comm_area":"NEAR WEST SIDE","dir":"W","type":"ST","geo_score":0.714,"zone_class_1":"PMD 4","tif_district":"Kinzie Industrial Corridor","zone_class_2":null,"id":"af0sndcb7kvs","geo_precision":"city","street_num":2549,"state":"IL","pin":"16-12-416-010-0000","ward":2},"type":"Feature","geometry":{"type":"Point","coordinates":[-87.68732,41.811929]}},{"properties":{"street_name":"LAKE","city":"Chicago","comm_area":"NEAR WEST SIDE","dir":"W","type":"ST","geo_score":0.714,"zone_class_1":"PMD 4","tif_district":"Kinzie Industrial Corridor","zone_class_2":null,"id":"af0sndjnmcm1","geo_precision":"city","street_num":2547,"state":"IL","pin":"16-12-416-011-0000","ward":2},"type":"Feature","geometry":{"type":"Point","coordinates":[-87.68732,41.811929]}},{"properties":{"street_name":"LAKE","city":"Chicago","comm_area":"NEAR WEST SIDE","dir":"W","type":"ST","geo_score":0.714,"zone_class_1":"PMD 4","tif_district":"Kinzie Industrial Corridor","zone_class_2":null,"id":"af0sndcm2xwu","geo_precision":"city","street_num":2545,"state":"IL","pin":"16-12-416-012-0000","ward":2},"type":"Feature","geometry":{"type":"Point","coordinates":[-87.68732,41.811929]}},{"properties":{"street_name":"LAKE","city":"Chicago","comm_area":"NEAR WEST SIDE","dir":"W","type":"ST","geo_score":0.714,"zone_class_1":"PMD 4","tif_district":"Kinzie Industrial Corridor","zone_class_2":null,"id":"af0sndgw8g7z","geo_precision":"city","street_num":2539,"state":"IL","pin":"16-12-416-013-0000","ward":2},"type":"Feature","geometry":{"type":"Point","coordinates":[-87.68732,41.811929]}},{"properties":{"street_name":"LAKE","city":"Chicago","comm_area":"NEAR WEST SIDE","dir":"W","type":"ST","geo_score":0.714,"zone_class_1":"PMD 4","tif_district":"Kinzie Industrial Corridor","zone_class_2":null,"id":"af0sndgdze58","geo_precision":"city","street_num":2531,"state":"IL","pin":"16-12-416-014-0000","ward":2},"type":"Feature","geometry":{"type":"Point","coordinates":[-87.68732,41.811929]}},{"properties":{"street_name":"LAKE","city":"Chicago","comm_area":"NEAR WEST SIDE","dir":"W","type":"ST","geo_score":0.714,"zone_class_1":"PMD 4","tif_district":"Kinzie Industrial Corridor","zone_class_2":null,"id":"af0sndg1psej","geo_precision":"city","street_num":2527,"state":"IL","pin":"16-12-416-015-0000","ward":2},"type":"Feature","geometry":{"type":"Point","coordinates":[-87.68732,41.811929]}},{"properties":{"street_name":"LAKE","city":"Chicago","comm_area":"NEAR WEST SIDE","dir":"W","type":"ST","geo_score":0.714,"zone_class_1":"PMD 4","tif_district":"Kinzie Industrial Corridor","zone_class_2":null,"id":"af0snd46khag","geo_precision":"city","street_num":2523,"state":"IL","pin":"16-12-416-016-0000","ward":2},"type":"Feature","geometry":{"type":"Point","coordinates":[-87.68732,41.811929]}},{"properties":{"street_name":"LAKE","city":"Chicago","comm_area":"NEAR WEST SIDE","dir":"W","type":"ST","geo_score":0.714,"zone_class_1":"PMD 4","tif_district":"Kinzie Industrial Corridor","zone_class_2":null,"id":"af0sndgsrwtt","geo_precision":"city","street_num":2521,"state":"IL","pin":"16-12-416-017-0000","ward":2},"type":"Feature","geometry":{"type":"Point","coordinates":[-87.68732,41.811929]}},{"properties":{"street_name":"LAKE","city":"Chicago","comm_area":"NEAR WEST SIDE","dir":"W","type":"ST","geo_score":0.714,"zone_class_1":"PMD 4","tif_district":"Kinzie Industrial Corridor","zone_class_2":null,"id":"af0snddgqbcn","geo_precision":"city","street_num":2519,"state":"IL","pin":"16-12-416-018-0000","ward":2},"type":"Feature","geometry":{"type":"Point","coordinates":[-87.68732,41.811929]}},{"properties":{"street_name":"LAKE","city":"Chicago","comm_area":"NEAR WEST SIDE","dir":"W","type":"ST","geo_score":0.714,"zone_class_1":"PMD 4","tif_district":"Kinzie Industrial Corridor","zone_class_2":null,"id":"af0snddllkti","geo_precision":"city","street_num":2517,"state":"IL","pin":"16-12-416-019-0000","ward":2},"type":"Feature","geometry":{"type":"Point","coordinates":[-87.68732,41.811929]}},{"properties":{"street_name":"LAKE","city":"Chicago","comm_area":"NEAR WEST SIDE","dir":"W","type":"ST","geo_score":0.714,"zone_class_1":"PMD 4","tif_district":"Kinzie Industrial Corridor","zone_class_2":null,"id":"af0snd5a1hcc","geo_precision":"city","street_num":2515,"state":"IL","pin":"16-12-416-020-0000","ward":2},"type":"Feature","geometry":{"type":"Point","coordinates":[-87.68732,41.811929]}},{"properties":{"street_name":"LAKE","city":"Chicago","comm_area":"NEAR WEST SIDE","dir":"W","type":"ST","geo_score":0.714,"zone_class_1":"PMD 4","tif_district":"Kinzie Industrial Corridor","zone_class_2":null,"id":"af0sndew70rv","geo_precision":"city","street_num":2511,"state":"IL","pin":"16-12-416-021-0000","ward":2},"type":"Feature","geometry":{"type":"Point","coordinates":[-87.68732,41.811929]}},{"properties":{"street_name":"LAKE","city":"Chicago","comm_area":"NEAR WEST SIDE","dir":"W","type":"ST","geo_score":0.714,"zone_class_1":"PMD 4","tif_district":"Kinzie Industrial Corridor","zone_class_2":null,"id":"af0sndgw07uq","geo_precision":"city","street_num":2509,"state":"IL","pin":"16-12-416-022-0000","ward":2},"type":"Feature","geometry":{"type":"Point","coordinates":[-87.68732,41.811929]}},{"properties":{"street_name":"LAKE","city":"Chicago","comm_area":"NEAR WEST SIDE","dir":"W","type":"ST","geo_score":0.714,"zone_class_1":"PMD 4","tif_district":"Kinzie Industrial Corridor","zone_class_2":null,"id":"af0snd8kvab0","geo_precision":"city","street_num":2507,"state":"IL","pin":"16-12-416-023-0000","ward":2},"type":"Feature","geometry":{"type":"Point","coordinates":[-87.68732,41.811929]}},{"properties":{"street_name":"LAKE","city":"Chicago","comm_area":"NEAR WEST SIDE","dir":"W","type":"ST","geo_score":0.714,"zone_class_1":"PMD 4","tif_district":"Kinzie Industrial Corridor","zone_class_2":null,"id":"af0snd9ege79","geo_precision":"city","street_num":2503,"state":"IL","pin":"16-12-416-024-0000","ward":2},"type":"Feature","geometry":{"type":"Point","coordinates":[-87.68732,41.811929]}},{"properties":{"street_name":"MAYPOLE","city":"Chicago","comm_area":"NEAR WEST SIDE","dir":"W","type":"AVE","geo_score":0.714,"zone_class_1":"PMD 4","tif_district":"Kinzie Industrial Corridor","zone_class_2":null,"id":"af0sndb2zkn3","geo_precision":"city","street_num":2564,"state":"IL","pin":"16-12-416-028-0000","ward":2},"type":"Feature","geometry":{"type":"Point","coordinates":[-87.68732,41.811929]}},{"properties":{"street_name":"MAYPOLE","city":"Chicago","comm_area":"NEAR WEST SIDE","dir":"W","type":"AVE","geo_score":0.714,"zone_class_1":"PMD 4","tif_district":"Kinzie Industrial Corridor","zone_class_2":null,"id":"af0snd5c0rts","geo_precision":"city","street_num":2560,"state":"IL","pin":"16-12-416-029-0000","ward":2},"type":"Feature","geometry":{"type":"Point","coordinates":[-87.68732,41.811929]}},{"properties":{"street_name":"MAYPOLE","city":"Chicago","comm_area":"NEAR WEST SIDE","dir":"W","type":"AVE","geo_score":0.714,"zone_class_1":"PMD 4","tif_district":"Kinzie Industrial Corridor","zone_class_2":null,"id":"af0sndilb248","geo_precision":"city","street_num":2558,"state":"IL","pin":"16-12-416-030-0000","ward":2},"type":"Feature","geometry":{"type":"Point","coordinates":[-87.68732,41.811929]}},{"properties":{"street_name":"MAYPOLE","city":"Chicago","comm_area":"NEAR WEST SIDE","dir":"W","type":"AVE","geo_score":0.714,"zone_class_1":"PMD 4","tif_district":"Kinzie Industrial Corridor","zone_class_2":null,"id":"af0snd4pjz59","geo_precision":"city","street_num":2556,"state":"IL","pin":"16-12-416-031-0000","ward":2},"type":"Feature","geometry":{"type":"Point","coordinates":[-87.68732,41.811929]}},{"properties":{"street_name":"MAYPOLE","city":"Chicago","comm_area":"NEAR WEST SIDE","dir":"W","type":"AVE","geo_score":0.714,"zone_class_1":"PMD 4","tif_district":"Kinzie Industrial Corridor","zone_class_2":null,"id":"af0sndh7s0mp","geo_precision":"city","street_num":2554,"state":"IL","pin":"16-12-416-032-0000","ward":2},"type":"Feature","geometry":{"type":"Point","coordinates":[-87.68732,41.811929]}},{"properties":{"street_name":"MAYPOLE","city":"Chicago","comm_area":"NEAR WEST SIDE","dir":"W","type":"AVE","geo_score":0.714,"zone_class_1":"PMD 4","tif_district":"Kinzie Industrial Corridor","zone_class_2":null,"id":"af0snd6a672r","geo_precision":"city","street_num":2552,"state":"IL","pin":"16-12-416-033-0000","ward":2},"type":"Feature","geometry":{"type":"Point","coordinates":[-87.68732,41.811929]}},{"properties":{"street_name":"MAYPOLE","city":"Chicago","comm_area":"NEAR WEST SIDE","dir":"W","type":"AVE","geo_score":0.714,"zone_class_1":"PMD 4","tif_district":"Kinzie Industrial Corridor","zone_class_2":null,"id":"af0sndj1raef","geo_precision":"city","street_num":2548,"state":"IL","pin":"16-12-416-034-0000","ward":2},"type":"Feature","geometry":{"type":"Point","coordinates":[-87.68732,41.811929]}},{"properties":{"street_name":"MAYPOLE","city":"Chicago","comm_area":"NEAR WEST SIDE","dir":"W","type":"AVE","geo_score":0.714,"zone_class_1":"PMD 4","tif_district":"Kinzie Industrial Corridor","zone_class_2":null,"id":"af0sndagnfja","geo_precision":"city","street_num":2544,"state":"IL","pin":"16-12-416-035-0000","ward":2},"type":"Feature","geometry":{"type":"Point","coordinates":[-87.68732,41.811929]}},{"properties":{"street_name":"MAYPOLE","city":"Chicago","comm_area":"NEAR WEST SIDE","dir":"W","type":"AVE","geo_score":0.714,"zone_class_1":"PMD 4","tif_district":"Kinzie Industrial Corridor","zone_class_2":null,"id":"af0sndjb7p8y","geo_precision":"city","street_num":2540,"state":"IL","pin":"16-12-416-036-0000","ward":2},"type":"Feature","geometry":{"type":"Point","coordinates":[-87.68732,41.811929]}},{"properties":{"street_name":"MAYPOLE","city":"Chicago","comm_area":"NEAR WEST SIDE","dir":"W","type":"AVE","geo_score":0.714,"zone_class_1":"PMD 4","tif_district":"Kinzie Industrial Corridor","zone_class_2":null,"id":"af0snd6tqg9n","geo_precision":"city","street_num":2538,"state":"IL","pin":"16-12-416-037-0000","ward":2},"type":"Feature","geometry":{"type":"Point","coordinates":[-87.68732,41.811929]}},{"properties":{"street_name":"MAYPOLE","city":"Chicago","comm_area":"NEAR WEST SIDE","dir":"W","type":"AVE","geo_score":0.714,"zone_class_1":"PMD 4","tif_district":"Kinzie Industrial Corridor","zone_class_2":null,"id":"af0sndinvgtr","geo_precision":"city","street_num":2536,"state":"IL","pin":"16-12-416-038-0000","ward":2},"type":"Feature","geometry":{"type":"Point","coordinates":[-87.68732,41.811929]}},{"properties":{"street_name":"MAYPOLE","city":"Chicago","comm_area":"NEAR WEST SIDE","dir":"W","type":"AVE","geo_score":0.714,"zone_class_1":"PMD 4","tif_district":"Kinzie Industrial Corridor","zone_class_2":null,"id":"af0snd8prfko","geo_precision":"city","street_num":2532,"state":"IL","pin":"16-12-416-039-0000","ward":2},"type":"Feature","geometry":{"type":"Point","coordinates":[-87.68732,41.811929]}},{"properties":{"street_name":"MAYPOLE","city":"Chicago","comm_area":"NEAR WEST SIDE","dir":"W","type":"AVE","geo_score":0.714,"zone_class_1":"PMD 4","tif_district":"Kinzie Industrial Corridor","zone_class_2":null,"id":"af0sndgywqys","geo_precision":"city","street_num":2530,"state":"IL","pin":"16-12-416-040-0000","ward":2},"type":"Feature","geometry":{"type":"Point","coordinates":[-87.68732,41.811929]}},{"properties":{"street_name":"MAYPOLE","city":"Chicago","comm_area":"NEAR WEST SIDE","dir":"W","type":"AVE","geo_score":0.714,"zone_class_1":"PMD 4","tif_district":"Kinzie Industrial Corridor","zone_class_2":null,"id":"af0snd6eynzh","geo_precision":"city","street_num":2528,"state":"IL","pin":"16-12-416-041-0000","ward":2},"type":"Feature","geometry":{"type":"Point","coordinates":[-87.68732,41.811929]}},{"properties":{"street_name":"MAYPOLE","city":"Chicago","comm_area":"NEAR WEST SIDE","dir":"W","type":"AVE","geo_score":0.714,"zone_class_1":"PMD 4","tif_district":"Kinzie Industrial Corridor","zone_class_2":null,"id":"af0snd5sc87h","geo_precision":"city","street_num":2526,"state":"IL","pin":"16-12-416-042-0000","ward":2},"type":"Feature","geometry":{"type":"Point","coordinates":[-87.68732,41.811929]}},{"properties":{"street_name":"MAYPOLE","city":"Chicago","comm_area":"NEAR WEST SIDE","dir":"W","type":"AVE","geo_score":0.714,"zone_class_1":"PMD 4","tif_district":"Kinzie Industrial Corridor","zone_class_2":null,"id":"af0sndcf43q6","geo_precision":"city","street_num":2522,"state":"IL","pin":"16-12-416-043-0000","ward":2},"type":"Feature","geometry":{"type":"Point","coordinates":[-87.68732,41.811929]}},{"properties":{"street_name":"MAYPOLE","city":"Chicago","comm_area":"NEAR WEST SIDE","dir":"W","type":"AVE","geo_score":0.714,"zone_class_1":"PMD 4","tif_district":"Kinzie Industrial Corridor","zone_class_2":null,"id":"af0sndbi1c4c","geo_precision":"city","street_num":2567,"state":"IL","pin":"16-12-416-051-0000","ward":2},"type":"Feature","geometry":{"type":"Point","coordinates":[-87.68732,41.811929]}},{"properties":{"street_name":"FULTON","city":"Chicago","comm_area":"NEAR WEST SIDE","dir":"W","type":"ST","geo_score":0.714,"zone_class_1":"PMD 4","tif_district":"Kinzie Industrial Corridor","zone_class_2":null,"id":"af0snd5o3knr","geo_precision":"city","street_num":2227,"state":"IL","pin":"17-07-309-014-0000","ward":27},"type":"Feature","geometry":{"type":"Point","coordinates":[-87.68732,41.811929]}},{"properties":{"street_name":"WALNUT","city":"Chicago","comm_area":"NEAR WEST SIDE","dir":"W","type":"ST","geo_score":0.714,"zone_class_1":"PMD 4","tif_district":"Kinzie Industrial Corridor","zone_class_2":null,"id":"af0snd5m6uzp","geo_precision":"city","street_num":2234,"state":"IL","pin":"17-07-309-029-0000","ward":27},"type":"Feature","geometry":{"type":"Point","coordinates":[-87.68732,41.811929]}},{"properties":{"street_name":"WALNUT","city":"Chicago","comm_area":"NEAR WEST SIDE","dir":"W","type":"ST","geo_score":0.714,"zone_class_1":"PMD 4","tif_district":"Kinzie Industrial Corridor","zone_class_2":null,"id":"af0sndfbwwnc","geo_precision":"city","street_num":2234,"state":"IL","pin":"17-07-309-031-0000","ward":27},"type":"Feature","geometry":{"type":"Point","coordinates":[-87.68732,41.811929]}},{"properties":{"street_name":"FULTON","city":"Chicago","comm_area":"NEAR WEST SIDE","dir":"W","type":"ST","geo_score":0.714,"zone_class_1":"PMD 4","tif_district":"Kinzie Industrial Corridor","zone_class_2":null,"id":"af0snd5inrju","geo_precision":"city","street_num":2201,"state":"IL","pin":"17-07-309-049-0000","ward":27},"type":"Feature","geometry":{"type":"Point","coordinates":[-87.68732,41.811929]}},{"properties":{"street_name":"WALNUT","city":"Chicago","comm_area":"NEAR WEST SIDE","dir":"W","type":"ST","geo_score":0.714,"zone_class_1":"PMD 4","tif_district":"Kinzie Industrial Corridor","zone_class_2":null,"id":"af0snd6epjmm","geo_precision":"city","street_num":2125,"state":"IL","pin":"17-07-314-010-0000","ward":27},"type":"Feature","geometry":{"type":"Point","coordinates":[-87.68732,41.811929]}},{"properties":{"street_name":"WALNUT","city":"Chicago","comm_area":"NEAR WEST SIDE","dir":"W","type":"ST","geo_score":0.714,"zone_class_1":"PMD 4","tif_district":"Kinzie Industrial Corridor","zone_class_2":null,"id":"af0snd8gr4ld","geo_precision":"city","street_num":2123,"state":"IL","pin":"17-07-314-011-0000","ward":27},"type":"Feature","geometry":{"type":"Point","coordinates":[-87.68732,41.811929]}},{"properties":{"street_name":"WALNUT","city":"Chicago","comm_area":"NEAR WEST SIDE","dir":"W","type":"ST","geo_score":0.714,"zone_class_1":"PMD 4","tif_district":"Kinzie Industrial Corridor","zone_class_2":null,"id":"af0snd4atc4d","geo_precision":"city","street_num":2121,"state":"IL","pin":"17-07-314-012-0000","ward":27},"type":"Feature","geometry":{"type":"Point","coordinates":[-87.68732,41.811929]}},{"properties":{"street_name":"WALNUT","city":"Chicago","comm_area":"NEAR WEST SIDE","dir":"W","type":"ST","geo_score":0.714,"zone_class_1":"PMD 4","tif_district":"Kinzie Industrial Corridor","zone_class_2":null,"id":"af0snde9668o","geo_precision":"city","street_num":2113,"state":"IL","pin":"17-07-314-014-0000","ward":27},"type":"Feature","geometry":{"type":"Point","coordinates":[-87.68732,41.811929]}},{"properties":{"street_name":"LAKE","city":"Chicago","comm_area":"NEAR WEST SIDE","dir":"W","type":"ST","geo_score":0.714,"zone_class_1":"PMD 4","tif_district":"Kinzie Industrial Corridor","zone_class_2":null,"id":"af0sndiiv09m","geo_precision":"city","street_num":2112,"state":"IL","pin":"17-07-314-026-0000","ward":27},"type":"Feature","geometry":{"type":"Point","coordinates":[-87.68732,41.811929]}},{"properties":{"street_name":"LAKE","city":"Chicago","comm_area":"NEAR WEST SIDE","dir":"W","type":"ST","geo_score":0.714,"zone_class_1":"PMD 4","tif_district":"Kinzie Industrial Corridor","zone_class_2":null,"id":"af0snd4fyucj","geo_precision":"city","street_num":2126,"state":"IL","pin":"17-07-314-027-0000","ward":27},"type":"Feature","geometry":{"type":"Point","coordinates":[-87.68732,41.811929]}},{"properties":{"street_name":"LAKE","city":"Chicago","comm_area":"NEAR WEST SIDE","dir":"W","type":"ST","geo_score":0.714,"zone_class_1":"PMD 4","tif_district":"Kinzie Industrial Corridor","zone_class_2":null,"id":"af0snd43wubm","geo_precision":"city","street_num":2120,"state":"IL","pin":"17-07-314-028-0000","ward":27},"type":"Feature","geometry":{"type":"Point","coordinates":[-87.68732,41.811929]}},{"properties":{"street_name":"LAKE","city":"Chicago","comm_area":"NEAR WEST SIDE","dir":"W","type":"ST","geo_score":0.714,"zone_class_1":"PMD 4","tif_district":"Kinzie Industrial Corridor","zone_class_2":null,"id":"af0sndjgs5xx","geo_precision":"city","street_num":2120,"state":"IL","pin":"17-07-314-029-0000","ward":27},"type":"Feature","geometry":{"type":"Point","coordinates":[-87.68732,41.811929]}},{"properties":{"street_name":"LAKE","city":"Chicago","comm_area":"NEAR WEST SIDE","dir":"W","type":"ST","geo_score":0.714,"zone_class_1":"PMD 4","tif_district":"Kinzie Industrial Corridor","zone_class_2":null,"id":"af0sndk3w8re","geo_precision":"city","street_num":2100,"state":"IL","pin":"17-07-314-030-0000","ward":27},"type":"Feature","geometry":{"type":"Point","coordinates":[-87.68732,41.811929]}},{"properties":{"street_name":"WALNUT","city":"Chicago","comm_area":"NEAR WEST SIDE","dir":"W","type":"ST","geo_score":0.714,"zone_class_1":"PMD 4","tif_district":"Kinzie Industrial Corridor","zone_class_2":null,"id":"af0snd66m5pk","geo_precision":"city","street_num":2129,"state":"IL","pin":"17-07-314-039-0000","ward":27},"type":"Feature","geometry":{"type":"Point","coordinates":[-87.68732,41.811929]}},{"properties":{"street_name":"WALNUT","city":"Chicago","comm_area":"NEAR WEST SIDE","dir":"W","type":"ST","geo_score":0.714,"zone_class_1":"PMD 4","tif_district":"Kinzie Industrial Corridor","zone_class_2":null,"id":"af0sndblntq4","geo_precision":"city","street_num":2135,"state":"IL","pin":"17-07-314-041-0000","ward":27},"type":"Feature","geometry":{"type":"Point","coordinates":[-87.68732,41.811929]}},{"properties":{"street_name":"WALNUT","city":"Chicago","comm_area":"NEAR WEST SIDE","dir":"W","type":"ST","geo_score":0.714,"zone_class_1":"PMD 4","tif_district":"Kinzie Industrial Corridor","zone_class_2":null,"id":"af0snd8c0zzj","geo_precision":"city","street_num":2137,"state":"IL","pin":"17-07-314-042-0000","ward":27},"type":"Feature","geometry":{"type":"Point","coordinates":[-87.68732,41.811929]}},{"properties":{"street_name":"WALNUT","city":"Chicago","comm_area":"NEAR WEST SIDE","dir":"W","type":"ST","geo_score":0.714,"zone_class_1":"PMD 4","tif_district":"Kinzie Industrial Corridor","zone_class_2":null,"id":"af0sndif17c1","geo_precision":"city","street_num":2141,"state":"IL","pin":"17-07-314-043-0000","ward":27},"type":"Feature","geometry":{"type":"Point","coordinates":[-87.68732,41.811929]}},{"properties":{"street_name":"LAKE","city":"Chicago","comm_area":"NEAR WEST SIDE","dir":"W","type":"ST","geo_score":0.714,"zone_class_1":"PMD 4","tif_district":"Kinzie Industrial Corridor","zone_class_2":null,"id":"af0snda4vxld","geo_precision":"city","street_num":2118,"state":"IL","pin":"17-07-314-047-0000","ward":27},"type":"Feature","geometry":{"type":"Point","coordinates":[-87.68732,41.811929]}},{"properties":{"street_name":"LAKE","city":"Chicago","comm_area":"NEAR WEST SIDE","dir":"W","type":"ST","geo_score":0.714,"zone_class_1":"PMD 4","tif_district":"Kinzie Industrial Corridor","zone_class_2":null,"id":"af0sndcayxa9","geo_precision":"city","street_num":2140,"state":"IL","pin":"17-07-314-048-0000","ward":27},"type":"Feature","geometry":{"type":"Point","coordinates":[-87.68732,41.811929]}},{"properties":{"street_name":"DAMEN","city":"Chicago","comm_area":"NEAR WEST SIDE","dir":"N","type":"AVE","geo_score":0.714,"zone_class_1":"PMD 4","tif_district":"Kinzie Industrial Corridor","zone_class_2":null,"id":"af0sndfdeq6a","geo_precision":"city","street_num":216,"state":"IL","pin":"17-07-315-021-0000","ward":27},"type":"Feature","geometry":{"type":"Point","coordinates":[-87.68732,41.811929]}},{"properties":{"street_name":"LAKE","city":"Chicago","comm_area":"NEAR WEST SIDE","dir":"W","type":"ST","geo_score":0.714,"zone_class_1":"PMD 4","tif_district":"Kinzie Industrial Corridor","zone_class_2":null,"id":"af0snd6jtvxz","geo_precision":"city","street_num":2048,"state":"IL","pin":"17-07-315-025-0000","ward":27},"type":"Feature","geometry":{"type":"Point","coordinates":[-87.68732,41.811929]}},{"properties":{"street_name":"LAKE","city":"Chicago","comm_area":"NEAR WEST SIDE","dir":"W","type":"ST","geo_score":0.714,"zone_class_1":"PMD 4","tif_district":"Kinzie Industrial Corridor","zone_class_2":null,"id":"af0sndekmbot","geo_precision":"city","street_num":2046,"state":"IL","pin":"17-07-315-026-0000","ward":27},"type":"Feature","geometry":{"type":"Point","coordinates":[-87.68732,41.811929]}},{"properties":{"street_name":"LAKE","city":"Chicago","comm_area":"NEAR WEST SIDE","dir":"W","type":"ST","geo_score":0.714,"zone_class_1":"PMD 4","tif_district":"Kinzie Industrial Corridor","zone_class_2":null,"id":"af0snd8d9bxu","geo_precision":"city","street_num":2044,"state":"IL","pin":"17-07-315-027-0000","ward":27},"type":"Feature","geometry":{"type":"Point","coordinates":[-87.68732,41.811929]}},{"properties":{"street_name":"LAKE","city":"Chicago","comm_area":"NEAR WEST SIDE","dir":"W","type":"ST","geo_score":0.714,"zone_class_1":"PMD 4","tif_district":"Kinzie Industrial Corridor","zone_class_2":null,"id":"af0sndf7536l","geo_precision":"city","street_num":2022,"state":"IL","pin":"17-07-315-032-0000","ward":27},"type":"Feature","geometry":{"type":"Point","coordinates":[-87.68732,41.811929]}},{"properties":{"street_name":"LAKE","city":"Chicago","comm_area":"NEAR WEST SIDE","dir":"W","type":"ST","geo_score":0.714,"zone_class_1":"PMD 4","tif_district":"Kinzie Industrial Corridor","zone_class_2":null,"id":"af0sndeuemzn","geo_precision":"city","street_num":2016,"state":"IL","pin":"17-07-315-033-0000","ward":27},"type":"Feature","geometry":{"type":"Point","coordinates":[-87.68732,41.811929]}},{"properties":{"street_name":"LAKE","city":"Chicago","comm_area":"NEAR WEST SIDE","dir":"W","type":"ST","geo_score":0.714,"zone_class_1":"PMD 4","tif_district":"Kinzie Industrial Corridor","zone_class_2":null,"id":"af0sndj3z6wn","geo_precision":"city","street_num":2012,"state":"IL","pin":"17-07-315-034-0000","ward":27},"type":"Feature","geometry":{"type":"Point","coordinates":[-87.68732,41.811929]}},{"properties":{"street_name":"WALNUT","city":"Chicago","comm_area":"NEAR WEST SIDE","dir":"W","type":"ST","geo_score":0.714,"zone_class_1":"PMD 4","tif_district":"Kinzie Industrial Corridor","zone_class_2":null,"id":"af0snd4y82is","geo_precision":"city","street_num":1920,"state":"IL","pin":"17-07-408-024-0000","ward":27},"type":"Feature","geometry":{"type":"Point","coordinates":[-87.68732,41.811929]}},{"properties":{"street_name":"WALNUT","city":"Chicago","comm_area":"NEAR WEST SIDE","dir":"W","type":"ST","geo_score":0.714,"zone_class_1":"PMD 4","tif_district":"Kinzie Industrial Corridor","zone_class_2":null,"id":"af0snd5c10q6","geo_precision":"city","street_num":1918,"state":"IL","pin":"17-07-408-025-0000","ward":27},"type":"Feature","geometry":{"type":"Point","coordinates":[-87.68732,41.811929]}},{"properties":{"street_name":"WALNUT","city":"Chicago","comm_area":"NEAR WEST SIDE","dir":"W","type":"ST","geo_score":0.714,"zone_class_1":"PMD 4","tif_district":"Kinzie Industrial Corridor","zone_class_2":null,"id":"af0sndh66fjd","geo_precision":"city","street_num":1912,"state":"IL","pin":"17-07-408-027-0000","ward":27},"type":"Feature","geometry":{"type":"Point","coordinates":[-87.68732,41.811929]}},{"properties":{"street_name":"WOLCOTT","city":"Chicago","comm_area":"NEAR WEST SIDE","dir":"N","type":"AVE","geo_score":0.714,"zone_class_1":"PMD 4","tif_district":"Kinzie Industrial Corridor","zone_class_2":null,"id":"af0snd89i32n","geo_precision":"city","street_num":238,"state":"IL","pin":"17-07-408-029-0000","ward":27},"type":"Feature","geometry":{"type":"Point","coordinates":[-87.68732,41.811929]}},{"properties":{"street_name":"WOLCOTT","city":"Chicago","comm_area":"NEAR WEST SIDE","dir":"N","type":"AVE","geo_score":0.714,"zone_class_1":"PMD 4","tif_district":"Kinzie Industrial Corridor","zone_class_2":null,"id":"af0sndj6jk8e","geo_precision":"city","street_num":232,"state":"IL","pin":"17-07-408-030-0000","ward":27},"type":"Feature","geometry":{"type":"Point","coordinates":[-87.68732,41.811929]}},{"properties":{"street_name":"WALNUT","city":"Chicago","comm_area":"NEAR WEST SIDE","dir":"W","type":"ST","geo_score":0.714,"zone_class_1":"PMD 4","tif_district":"Kinzie Industrial Corridor","zone_class_2":null,"id":"af0snd7g66qw","geo_precision":"city","street_num":1836,"state":"IL","pin":"17-07-409-031-0000","ward":27},"type":"Feature","geometry":{"type":"Point","coordinates":[-87.68732,41.811929]}},{"properties":{"street_name":"WALNUT","city":"Chicago","comm_area":"NEAR WEST SIDE","dir":"W","type":"ST","geo_score":0.714,"zone_class_1":"PMD 4","tif_district":"Kinzie Industrial Corridor","zone_class_2":null,"id":"af0sndipynl6","geo_precision":"city","street_num":1816,"state":"IL","pin":"17-07-409-039-0000","ward":27},"type":"Feature","geometry":{"type":"Point","coordinates":[-87.68732,41.811929]}},{"properties":{"street_name":"WALNUT","city":"Chicago","comm_area":"NEAR WEST SIDE","dir":"W","type":"ST","geo_score":0.714,"zone_class_1":"PMD 4","tif_district":"Kinzie Industrial Corridor","zone_class_2":null,"id":"af0snd7mivwu","geo_precision":"city","street_num":1810,"state":"IL","pin":"17-07-409-041-0000","ward":27},"type":"Feature","geometry":{"type":"Point","coordinates":[-87.68732,41.811929]}},{"properties":{"street_name":"WALNUT","city":"Chicago","comm_area":"NEAR WEST SIDE","dir":"W","type":"ST","geo_score":0.714,"zone_class_1":"PMD 4","tif_district":"Kinzie Industrial Corridor","zone_class_2":null,"id":"af0sndg4jatm","geo_precision":"city","street_num":1719,"state":"IL","pin":"17-07-414-010-0000","ward":27},"type":"Feature","geometry":{"type":"Point","coordinates":[-87.68732,41.811929]}},{"properties":{"street_name":"WALNUT","city":"Chicago","comm_area":"NEAR WEST SIDE","dir":"W","type":"ST","geo_score":0.714,"zone_class_1":"PMD 4","tif_district":"Kinzie Industrial Corridor","zone_class_2":null,"id":"af0sndcyy1b0","geo_precision":"city","street_num":1715,"state":"IL","pin":"17-07-414-011-0000","ward":27},"type":"Feature","geometry":{"type":"Point","coordinates":[-87.68732,41.811929]}},{"properties":{"street_name":"WALNUT","city":"Chicago","comm_area":"NEAR WEST SIDE","dir":"W","type":"ST","geo_score":0.714,"zone_class_1":"PMD 4","tif_district":"Kinzie Industrial Corridor","zone_class_2":null,"id":"af0snddn7glp","geo_precision":"city","street_num":1711,"state":"IL","pin":"17-07-414-012-0000","ward":27},"type":"Feature","geometry":{"type":"Point","coordinates":[-87.68732,41.811929]}},{"properties":{"street_name":"LAKE","city":"Chicago","comm_area":"NEAR WEST SIDE","dir":"W","type":"ST","geo_score":0.714,"zone_class_1":"PMD 4","tif_district":"Kinzie Industrial Corridor","zone_class_2":null,"id":"af0snd3t87yq","geo_precision":"city","street_num":1716,"state":"IL","pin":"17-07-414-030-0000","ward":27},"type":"Feature","geometry":{"type":"Point","coordinates":[-87.68732,41.811929]}},{"properties":{"street_name":"LAKE","city":"Chicago","comm_area":"NEAR WEST SIDE","dir":"W","type":"ST","geo_score":0.714,"zone_class_1":"PMD 4","tif_district":"Kinzie Industrial Corridor","zone_class_2":null,"id":"af0sndcflh6d","geo_precision":"city","street_num":1706,"state":"IL","pin":"17-07-414-032-0000","ward":27},"type":"Feature","geometry":{"type":"Point","coordinates":[-87.68732,41.811929]}},{"properties":{"street_name":"LAKE","city":"Chicago","comm_area":"NEAR WEST SIDE","dir":"W","type":"ST","geo_score":0.714,"zone_class_1":"PMD 4","tif_district":"Kinzie Industrial Corridor","zone_class_2":null,"id":"af0sndiqwlr4","geo_precision":"city","street_num":1700,"state":"IL","pin":"17-07-414-033-0000","ward":27},"type":"Feature","geometry":{"type":"Point","coordinates":[-87.68732,41.811929]}},{"properties":{"street_name":"HALSTED","city":"Chicago","comm_area":"NEAR WEST SIDE","dir":"N","type":"ST","geo_score":0.714,"zone_class_1":"PMD 4","tif_district":"Kinzie Industrial Corridor","zone_class_2":null,"id":"af0snd4pc4in","geo_precision":"city","street_num":331,"state":"IL","pin":"17-08-415-001-0000","ward":27},"type":"Feature","geometry":{"type":"Point","coordinates":[-87.68732,41.811929]}}],"is_temporal":false,"author":{"url":"","metadata":"","contact_name":"","contact_address":"","source":"","contact_phone":""},"source":"","pagination":{"sort":null,"start":0,"total":244,"limit":1000000},"state":"complete","tags":"","published":"2014-08-16T22:50:36-04:00","id":367208}