{"type":"FeatureCollection","data_type":"Dataset","url_type":null,"permissions":[{"permissions":{"download":true,"view":true},"group_id":"everyone"}],"classification":null,"title":"OpenHeatMap_Spring_2013","count":48,"stream_id":368480,"contributor":{"url":"http://geocommons.com/users/75439","name":"ria-dawn"},"data_attributes":null,"calculation_params":null,"icon_link":null,"link":"http://geocommons.com/overlays/368480.json","extent":[0.0,0.0,0.0,0.0],"geometry_types":null,"unique_name":null,"name":"OpenHeatMap_Spring_2013","feature_count":48,"description":"","next_feature":null,"is_raster":false,"short_classification":"Y","features":[{"properties":{"column_4":"","column_5":"","column_6":"","column_7":"","column_8":"","value":"-1.0","id":"af4ir0vxi9xz","column_3":"","state":"AL"},"type":"Feature","geometry":null},{"properties":{"column_4":"","column_5":"","column_6":"","column_7":"","column_8":"","value":"-0.7","id":"af4ir0s2p309","column_3":"","state":"AR"},"type":"Feature","geometry":null},{"properties":{"column_4":"","column_5":"","column_6":"","column_7":"","column_8":"","value":"-1.1","id":"af4ir0vpr0yr","column_3":"","state":"AZ"},"type":"Feature","geometry":null},{"properties":{"column_4":"","column_5":"","column_6":"","column_7":"","column_8":"","value":"-1.6","id":"af4ir0o7h48m","column_3":"","state":"CA"},"type":"Feature","geometry":null},{"properties":{"column_4":"","column_5":"","column_6":"","column_7":"","column_8":"","value":"-1.1","id":"af4ir0tsptno","column_3":"","state":"CO"},"type":"Feature","geometry":null},{"properties":{"column_4":"","column_5":"","column_6":"","column_7":"","column_8":"","value":"-1.4","id":"af4ir0spl9cm","column_3":"","state":"CT"},"type":"Feature","geometry":null},{"properties":{"column_4":"","column_5":"","column_6":"","column_7":"","column_8":"","value":"-1.4","id":"af4ir0vcetmv","column_3":"","state":"DE"},"type":"Feature","geometry":null},{"properties":{"column_4":"","column_5":"","column_6":"","column_7":"","column_8":"","value":"-1.0","id":"af4ir0pj274f","column_3":"","state":"FL"},"type":"Feature","geometry":null},{"properties":{"column_4":"","column_5":"","column_6":"","column_7":"","column_8":"","value":"-1.0","id":"af4ir0nclpzy","column_3":"","state":"GA"},"type":"Feature","geometry":null},{"properties":{"column_4":"","column_5":"","column_6":"","column_7":"","column_8":"","value":"-1.0","id":"af4ir0yziylz","column_3":"","state":"IA"},"type":"Feature","geometry":null},{"properties":{"column_4":"","column_5":"","column_6":"","column_7":"","column_8":"","value":"-0.8","id":"af4ir0trskew","column_3":"","state":"ID"},"type":"Feature","geometry":null},{"properties":{"column_4":"","column_5":"","column_6":"","column_7":"","column_8":"","value":"-1.0","id":"af4ir0sord6m","column_3":"","state":"IL"},"type":"Feature","geometry":null},{"properties":{"column_4":"","column_5":"","column_6":"","column_7":"","column_8":"","value":"-1.0","id":"af4ir0uakbk2","column_3":"","state":"IN"},"type":"Feature","geometry":null},{"properties":{"column_4":"","column_5":"","column_6":"","column_7":"","column_8":"","value":"-0.7","id":"af4ir0wj18pc","column_3":"","state":"KS"},"type":"Feature","geometry":null},{"properties":{"column_4":"","column_5":"","column_6":"","column_7":"","column_8":"","value":"-1.0","id":"af4ir0txycev","column_3":"","state":"KY"},"type":"Feature","geometry":null},{"properties":{"column_4":"","column_5":"","column_6":"","column_7":"","column_8":"","value":"-0.7","id":"af4ir0xs23oo","column_3":"","state":"LA"},"type":"Feature","geometry":null},{"properties":{"column_4":"","column_5":"","column_6":"","column_7":"","column_8":"","value":"-1.4","id":"af4ir0riupd4","column_3":"","state":"MA"},"type":"Feature","geometry":null},{"properties":{"column_4":"","column_5":"","column_6":"","column_7":"","column_8":"","value":"-1.4","id":"af4ir0q6p84t","column_3":"","state":"MD"},"type":"Feature","geometry":null},{"properties":{"column_4":"","column_5":"","column_6":"","column_7":"","column_8":"","value":"-1.4","id":"af4ir0ynptsy","column_3":"","state":"ME"},"type":"Feature","geometry":null},{"properties":{"column_4":"","column_5":"","column_6":"","column_7":"","column_8":"","value":"-1.0","id":"af4ir10mebkf","column_3":"","state":"MI"},"type":"Feature","geometry":null},{"properties":{"column_4":"","column_5":"","column_6":"","column_7":"","column_8":"","value":"-1.0","id":"af4ir0xqucn6","column_3":"","state":"MN"},"type":"Feature","geometry":null},{"properties":{"column_4":"","column_5":"","column_6":"","column_7":"","column_8":"","value":"-1.0","id":"af4ir0pyrjgi","column_3":"","state":"MO"},"type":"Feature","geometry":null},{"properties":{"column_4":"","column_5":"","column_6":"","column_7":"","column_8":"","value":"-0.7","id":"af4ir0yxhebk","column_3":"","state":"MS"},"type":"Feature","geometry":null},{"properties":{"column_4":"","column_5":"","column_6":"","column_7":"","column_8":"","value":"-2.1","id":"af4ir0uynadp","column_3":"","state":"MT"},"type":"Feature","geometry":null},{"properties":{"column_4":"","column_5":"","column_6":"","column_7":"","column_8":"","value":"-1.0","id":"af4ir10h6rt2","column_3":"","state":"NC"},"type":"Feature","geometry":null},{"properties":{"column_4":"","column_5":"","column_6":"","column_7":"","column_8":"","value":"-2.1","id":"af4ir0sdmguq","column_3":"","state":"ND"},"type":"Feature","geometry":null},{"properties":{"column_4":"","column_5":"","column_6":"","column_7":"","column_8":"","value":"-2.1","id":"af4ir0xzavwr","column_3":"","state":"NE"},"type":"Feature","geometry":null},{"properties":{"column_4":"","column_5":"","column_6":"","column_7":"","column_8":"","value":"-1.4","id":"af4ir12d3uwi","column_3":"","state":"NH"},"type":"Feature","geometry":null},{"properties":{"column_4":"","column_5":"","column_6":"","column_7":"","column_8":"","value":"-1.4","id":"af4ir0ogiezb","column_3":"","state":"NJ"},"type":"Feature","geometry":null},{"properties":{"column_4":"","column_5":"","column_6":"","column_7":"","column_8":"","value":"-1.1","id":"af4ir0wc3i54","column_3":"","state":"NM"},"type":"Feature","geometry":null},{"properties":{"column_4":"","column_5":"","column_6":"","column_7":"","column_8":"","value":"-1.6","id":"af4ir10r40o6","column_3":"","state":"NV"},"type":"Feature","geometry":null},{"properties":{"column_4":"","column_5":"","column_6":"","column_7":"","column_8":"","value":"-1.4","id":"af4ir0xbdq1n","column_3":"","state":"NY"},"type":"Feature","geometry":null},{"properties":{"column_4":"","column_5":"","column_6":"","column_7":"","column_8":"","value":"-1.0","id":"af4ir0sflbb2","column_3":"","state":"OH"},"type":"Feature","geometry":null},{"properties":{"column_4":"","column_5":"","column_6":"","column_7":"","column_8":"","value":"-0.7","id":"af4ir0y891wg","column_3":"","state":"OK"},"type":"Feature","geometry":null},{"properties":{"column_4":"","column_5":"","column_6":"","column_7":"","column_8":"","value":"-0.8","id":"af4ir0zddnf1","column_3":"","state":"OR"},"type":"Feature","geometry":null},{"properties":{"column_4":"","column_5":"","column_6":"","column_7":"","column_8":"","value":"-1.4","id":"af4ir0pwcunj","column_3":"","state":"PA"},"type":"Feature","geometry":null},{"properties":{"column_4":"","column_5":"","column_6":"","column_7":"","column_8":"","value":"-1.4","id":"af4ir0mwrdkh","column_3":"","state":"RI"},"type":"Feature","geometry":null},{"properties":{"column_4":"","column_5":"","column_6":"","column_7":"","column_8":"","value":"-1.0","id":"af4ir0qphioj","column_3":"","state":"SC"},"type":"Feature","geometry":null},{"properties":{"column_4":"","column_5":"","column_6":"","column_7":"","column_8":"","value":"-2.1","id":"af4ir10jkh2y","column_3":"","state":"SD"},"type":"Feature","geometry":null},{"properties":{"column_4":"","column_5":"","column_6":"","column_7":"","column_8":"","value":"-1.0","id":"af4ir0ssupau","column_3":"","state":"TN"},"type":"Feature","geometry":null},{"properties":{"column_4":"","column_5":"","column_6":"","column_7":"","column_8":"","value":"-0.7","id":"af4ir11njf6g","column_3":"","state":"TX"},"type":"Feature","geometry":null},{"properties":{"column_4":"","column_5":"","column_6":"","column_7":"","column_8":"","value":"-1.1","id":"af4ir0ypreog","column_3":"","state":"UT"},"type":"Feature","geometry":null},{"properties":{"column_4":"","column_5":"","column_6":"","column_7":"","column_8":"","value":"-1.0","id":"af4ir11l102d","column_3":"","state":"VA"},"type":"Feature","geometry":null},{"properties":{"column_4":"","column_5":"","column_6":"","column_7":"","column_8":"","value":"-1.4","id":"af4ir0sh9tcb","column_3":"","state":"VT"},"type":"Feature","geometry":null},{"properties":{"column_4":"","column_5":"","column_6":"","column_7":"","column_8":"","value":"-0.8","id":"af4ir0zibmzi","column_3":"","state":"WA"},"type":"Feature","geometry":null},{"properties":{"column_4":"","column_5":"","column_6":"","column_7":"","column_8":"","value":"-1.0","id":"af4ir0qjydne","column_3":"","state":"WI"},"type":"Feature","geometry":null},{"properties":{"column_4":"","column_5":"","column_6":"","column_7":"","column_8":"","value":"-1.0","id":"af4ir12dy59q","column_3":"","state":"WV"},"type":"Feature","geometry":null},{"properties":{"column_4":"","column_5":"","column_6":"","column_7":"","column_8":"","value":"-2.1","id":"af4ir0tgtsl9","column_3":"","state":"WY"},"type":"Feature","geometry":null}],"is_temporal":false,"author":{"url":"","metadata":null,"contact_name":null,"contact_address":null,"source":null,"contact_phone":null},"source":"","pagination":{"sort":null,"start":0,"total":48,"limit":1000000},"state":"parsed","tags":"","published":"2014-08-17T00:14:05-04:00","id":368480}