{"type":"FeatureCollection","data_type":"Dataset","url_type":null,"permissions":[{"permissions":{"download":true,"view":true},"group_id":"everyone"}],"classification":null,"title":"WA Trade Ares rev","count":17,"stream_id":368644,"contributor":{"url":"http://geocommons.com/users/71562","name":"csuch"},"data_attributes":null,"calculation_params":null,"icon_link":null,"link":"http://geocommons.com/overlays/368644.json","extent":[0.0,0.0,0.0,0.0],"geometry_types":[],"unique_name":null,"name":"WA Trade Ares rev","feature_count":17,"description":"","next_feature":null,"is_raster":false,"short_classification":"Y","stats":{"lat":{"max":null,"median":null,"min":null},"long":{"max":null,"median":null,"min":null}},"features":[{"properties":{"city":"BELLEVUE","intersection/address":"BELLEVUE WAY NE &amp; NE 8TH STREET","id":"af4zw27zkzqn","lat":null,"long":null},"type":"Feature","geometry":null},{"properties":{"city":"BELLEVUE","intersection/address":"FACTORIA BLVD &amp; FACTORIA SQUARE MALL SE","id":"af4zw2ks1pg9","lat":null,"long":null},"type":"Feature","geometry":null},{"properties":{"city":"BELLEVUE","intersection/address":"148TH AVENUE SE &amp; SE 24TH SREET","id":"af4zw2l5mlej","lat":null,"long":null},"type":"Feature","geometry":null},{"properties":{"city":"ISSAQUAH","intersection/address":"NE High STREET &amp; NE Federal Drive","id":"af4zw2ap3jzs","lat":null,"long":null},"type":"Feature","geometry":null},{"properties":{"city":"ISSAQUAH","intersection/address":"1495 11th AVE NW, 98027","id":"af4zw2g5qqru","lat":null,"long":null},"type":"Feature","geometry":null},{"properties":{"city":"KIRKLAND","intersection/address":"TOTEM LAKE BLVD, NE &amp; 120TH AVE NE","id":"af4zw2az8am5","lat":null,"long":null},"type":"Feature","geometry":null},{"properties":{"city":"LAKEWOOD","intersection/address":"5731 MAIN STREET SW LAKEWOOD, 98499","id":"af4zw2gnj3pa","lat":null,"long":null},"type":"Feature","geometry":null},{"properties":{"city":"PUYALLUP","intersection/address":"MERIDIAN &amp; 35TH AVE SE","id":"af4zw2kisjh2","lat":null,"long":null},"type":"Feature","geometry":null},{"properties":{"city":"REDMOND","intersection/address":"REDMOND WAY &amp; 160TH AVE NE","id":"af4zw2drz5jp","lat":null,"long":null},"type":"Feature","geometry":null},{"properties":{"city":"REDMOND, NORTH","intersection/address":"15932 Redmond Way, Redmond WA 98052","id":"af4zw2d5ktcz","lat":null,"long":null},"type":"Feature","geometry":null},{"properties":{"city":"SEATTLE","intersection/address":"WESTLAKE AVE N &amp; REPUBLICAN STREET","id":"af4zw26mwz69","lat":null,"long":null},"type":"Feature","geometry":null},{"properties":{"city":"SEATTLE","intersection/address":"NE NORTHGATE WAY &amp; 1ST AVENUE NE","id":"af4zw28ocw6f","lat":null,"long":null},"type":"Feature","geometry":null},{"properties":{"city":"SEATTLE","intersection/address":"UNIVERSITY WAY NE &amp; NE 45TH STREET","id":"af4zw25ilqe1","lat":null,"long":null},"type":"Feature","geometry":null},{"properties":{"city":"SEATTLE","intersection/address":"6TH AVE &amp; PINE STREET","id":"af4zw2ekfiya","lat":null,"long":null},"type":"Feature","geometry":null},{"properties":{"city":"SEATTLE","intersection/address":"QUEEN ANNE AVE NORTH &amp; MERCER ST","id":"af4zw28ggp2q","lat":null,"long":null},"type":"Feature","geometry":null},{"properties":{"city":"TUKWILA","intersection/address":"SOUTHCENTER PARKWAY &amp; MINKLER BLVD.","id":"af4zw29bpvog","lat":null,"long":null},"type":"Feature","geometry":null},{"properties":{"city":"WEST SEATTLE","intersection/address":"CALIFORNIA AVE SW &amp; SW ALASKA STREET","id":"af4zw24xkczi","lat":null,"long":null},"type":"Feature","geometry":null}],"is_temporal":false,"author":{"url":"","metadata":"","contact_name":"","contact_address":"","source":"","contact_phone":""},"source":"","pagination":{"sort":null,"start":0,"total":17,"limit":1000000},"state":"complete","tags":"","published":"2014-08-17T00:28:42-04:00","id":368644}