{"type":"FeatureCollection","data_type":"Dataset","url_type":null,"permissions":[{"permissions":{"download":true,"view":true},"group_id":"everyone"}],"classification":null,"title":"state_sample_for_map","count":51,"stream_id":368720,"contributor":{"url":"http://geocommons.com/users/75470","name":"Juicy1280"},"data_attributes":null,"calculation_params":null,"icon_link":null,"link":"http://geocommons.com/overlays/368720.json","extent":[0.0,0.0,0.0,0.0],"geometry_types":null,"unique_name":null,"name":"state_sample_for_map","feature_count":51,"description":"","next_feature":null,"is_raster":false,"short_classification":"Y","features":[{"properties":{"respondents":"3","id":"af51khdvbm3t","state":"AL"},"type":"Feature","geometry":null},{"properties":{"respondents":"1","id":"af51khlsdons","state":"AK"},"type":"Feature","geometry":null},{"properties":{"respondents":"2","id":"af51khn5hmo1","state":"AZ"},"type":"Feature","geometry":null},{"properties":{"respondents":"2","id":"af51khtiwerj","state":"AR"},"type":"Feature","geometry":null},{"properties":{"respondents":"20","id":"af51khdrpfen","state":"CA"},"type":"Feature","geometry":null},{"properties":{"respondents":"3","id":"af51khr6tkv8","state":"CO"},"type":"Feature","geometry":null},{"properties":{"respondents":"2","id":"af51kht5s52a","state":"CT"},"type":"Feature","geometry":null},{"properties":{"respondents":"0","id":"af51khgunejy","state":"DE"},"type":"Feature","geometry":null},{"properties":{"respondents":"2","id":"af51khssv6gf","state":"DC"},"type":"Feature","geometry":null},{"properties":{"respondents":"8","id":"af51khsz39dm","state":"FL"},"type":"Feature","geometry":null},{"properties":{"respondents":"3","id":"af51khk7c6je","state":"GA"},"type":"Feature","geometry":null},{"properties":{"respondents":"0","id":"af51khsehmvw","state":"HI"},"type":"Feature","geometry":null},{"properties":{"respondents":"2","id":"af51khll38s0","state":"ID"},"type":"Feature","geometry":null},{"properties":{"respondents":"7","id":"af51khoov0p2","state":"IL"},"type":"Feature","geometry":null},{"properties":{"respondents":"7","id":"af51khlej2n8","state":"IN"},"type":"Feature","geometry":null},{"properties":{"respondents":"3","id":"af51khfv9bau","state":"IA"},"type":"Feature","geometry":null},{"properties":{"respondents":"2","id":"af51khql0err","state":"KS"},"type":"Feature","geometry":null},{"properties":{"respondents":"0","id":"af51khoalvy0","state":"KY"},"type":"Feature","geometry":null},{"properties":{"respondents":"1","id":"af51khk6lfc3","state":"LA"},"type":"Feature","geometry":null},{"properties":{"respondents":"2","id":"af51khrtsak8","state":"ME"},"type":"Feature","geometry":null},{"properties":{"respondents":"3","id":"af51khd606go","state":"MD"},"type":"Feature","geometry":null},{"properties":{"respondents":"5","id":"af51khiq1zc0","state":"MA"},"type":"Feature","geometry":null},{"properties":{"respondents":"3","id":"af51khpt0s5a","state":"MI"},"type":"Feature","geometry":null},{"properties":{"respondents":"4","id":"af51khlijiuv","state":"MN"},"type":"Feature","geometry":null},{"properties":{"respondents":"0","id":"af51khglzrpb","state":"MS"},"type":"Feature","geometry":null},{"properties":{"respondents":"4","id":"af51khfnxozx","state":"MO"},"type":"Feature","geometry":null},{"properties":{"respondents":"1","id":"af51khejzk70","state":"MT"},"type":"Feature","geometry":null},{"properties":{"respondents":"1","id":"af51khfw8upw","state":"NE"},"type":"Feature","geometry":null},{"properties":{"respondents":"0","id":"af51khdqtu75","state":"NV"},"type":"Feature","geometry":null},{"properties":{"respondents":"1","id":"af51khjojo65","state":"NH"},"type":"Feature","geometry":null},{"properties":{"respondents":"4","id":"af51khg8sabl","state":"NJ"},"type":"Feature","geometry":null},{"properties":{"respondents":"0","id":"af51kht3o3vm","state":"NM"},"type":"Feature","geometry":null},{"properties":{"respondents":"11","id":"af51khg0z60w","state":"NY"},"type":"Feature","geometry":null},{"properties":{"respondents":"4","id":"af51khhtry7y","state":"NC"},"type":"Feature","geometry":null},{"properties":{"respondents":"1","id":"af51khh9b60q","state":"ND"},"type":"Feature","geometry":null},{"properties":{"respondents":"6","id":"af51khkv7qky","state":"OH"},"type":"Feature","geometry":null},{"properties":{"respondents":"4","id":"af51khsx4i8l","state":"OK"},"type":"Feature","geometry":null},{"properties":{"respondents":"1","id":"af51khh6qqcq","state":"OR"},"type":"Feature","geometry":null},{"properties":{"respondents":"8","id":"af51kht5p5ey","state":"PA"},"type":"Feature","geometry":null},{"properties":{"respondents":"3","id":"af51khm6pu7r","state":"RI"},"type":"Feature","geometry":null},{"properties":{"respondents":"1","id":"af51khq9onmz","state":"SC"},"type":"Feature","geometry":null},{"properties":{"respondents":"0","id":"af51khj5yh4a","state":"SD"},"type":"Feature","geometry":null},{"properties":{"respondents":"3","id":"af51khn4p4q9","state":"TN"},"type":"Feature","geometry":null},{"properties":{"respondents":"12","id":"af51khklpsqj","state":"TX"},"type":"Feature","geometry":null},{"properties":{"respondents":"1","id":"af51khixciwb","state":"UT"},"type":"Feature","geometry":null},{"properties":{"respondents":"1","id":"af51khpks7ok","state":"VT"},"type":"Feature","geometry":null},{"properties":{"respondents":"9","id":"af51kheg8eem","state":"VA"},"type":"Feature","geometry":null},{"properties":{"respondents":"2","id":"af51khmvmt84","state":"WA"},"type":"Feature","geometry":null},{"properties":{"respondents":"1","id":"af51khpgeh0o","state":"WV"},"type":"Feature","geometry":null},{"properties":{"respondents":"1","id":"af51khl0vpzo","state":"WI"},"type":"Feature","geometry":null},{"properties":{"respondents":"1","id":"af51khh576bq","state":"WY"},"type":"Feature","geometry":null}],"is_temporal":false,"author":{"url":"","metadata":null,"contact_name":null,"contact_address":null,"source":null,"contact_phone":null},"source":"","pagination":{"sort":null,"start":0,"total":51,"limit":1000000},"state":"parsed","tags":"","published":"2014-08-17T00:34:33-04:00","id":368720}