{"type":"FeatureCollection","data_type":"Dataset","url_type":null,"permissions":[{"permissions":{"download":true,"view":true},"group_id":"everyone"}],"classification":null,"title":"state_sample_for_map","count":51,"stream_id":368722,"contributor":{"url":"http://geocommons.com/users/75470","name":"Juicy1280"},"data_attributes":null,"calculation_params":null,"icon_link":null,"link":"http://geocommons.com/overlays/368722.json","extent":[0.0,0.0,0.0,0.0],"geometry_types":null,"unique_name":null,"name":"state_sample_for_map","feature_count":51,"description":"","next_feature":null,"is_raster":false,"short_classification":"Y","features":[{"properties":{"respondents":"3","id":"af51kqyphj86","state":"AL"},"type":"Feature","geometry":null},{"properties":{"respondents":"1","id":"af51kqo36x82","state":"AK"},"type":"Feature","geometry":null},{"properties":{"respondents":"2","id":"af51kqmu4d86","state":"AZ"},"type":"Feature","geometry":null},{"properties":{"respondents":"2","id":"af51kqz6yh18","state":"AR"},"type":"Feature","geometry":null},{"properties":{"respondents":"20","id":"af51kqt2szlf","state":"CA"},"type":"Feature","geometry":null},{"properties":{"respondents":"3","id":"af51kqogyuad","state":"CO"},"type":"Feature","geometry":null},{"properties":{"respondents":"2","id":"af51kqnq8ytu","state":"CT"},"type":"Feature","geometry":null},{"properties":{"respondents":"0","id":"af51kqyaz9nv","state":"DE"},"type":"Feature","geometry":null},{"properties":{"respondents":"2","id":"af51kqzfn6ch","state":"DC"},"type":"Feature","geometry":null},{"properties":{"respondents":"8","id":"af51kqw6n7yb","state":"FL"},"type":"Feature","geometry":null},{"properties":{"respondents":"3","id":"af51kqzw2mwi","state":"GA"},"type":"Feature","geometry":null},{"properties":{"respondents":"0","id":"af51kqppqocn","state":"HI"},"type":"Feature","geometry":null},{"properties":{"respondents":"2","id":"af51kqrbk5qn","state":"ID"},"type":"Feature","geometry":null},{"properties":{"respondents":"7","id":"af51kqrlkkre","state":"IL"},"type":"Feature","geometry":null},{"properties":{"respondents":"7","id":"af51kqpeofn0","state":"IN"},"type":"Feature","geometry":null},{"properties":{"respondents":"3","id":"af51kqt8xw8z","state":"IA"},"type":"Feature","geometry":null},{"properties":{"respondents":"2","id":"af51kqwavzgu","state":"KS"},"type":"Feature","geometry":null},{"properties":{"respondents":"0","id":"af51kqwlitg7","state":"KY"},"type":"Feature","geometry":null},{"properties":{"respondents":"1","id":"af51kqtz90ho","state":"LA"},"type":"Feature","geometry":null},{"properties":{"respondents":"2","id":"af51kqwxq4g4","state":"ME"},"type":"Feature","geometry":null},{"properties":{"respondents":"3","id":"af51kqs9dlpd","state":"MD"},"type":"Feature","geometry":null},{"properties":{"respondents":"5","id":"af51kqxu7ch0","state":"MA"},"type":"Feature","geometry":null},{"properties":{"respondents":"3","id":"af51kqmqqxge","state":"MI"},"type":"Feature","geometry":null},{"properties":{"respondents":"4","id":"af51kqmqqqk4","state":"MN"},"type":"Feature","geometry":null},{"properties":{"respondents":"0","id":"af51kqxoukb8","state":"MS"},"type":"Feature","geometry":null},{"properties":{"respondents":"4","id":"af51kqxj14pg","state":"MO"},"type":"Feature","geometry":null},{"properties":{"respondents":"1","id":"af51kqked8ro","state":"MT"},"type":"Feature","geometry":null},{"properties":{"respondents":"1","id":"af51kqkhwetq","state":"NE"},"type":"Feature","geometry":null},{"properties":{"respondents":"0","id":"af51kqt3ro5o","state":"NV"},"type":"Feature","geometry":null},{"properties":{"respondents":"1","id":"af51kqvue9p2","state":"NH"},"type":"Feature","geometry":null},{"properties":{"respondents":"4","id":"af51kqqo34dq","state":"NJ"},"type":"Feature","geometry":null},{"properties":{"respondents":"0","id":"af51kqq3lm39","state":"NM"},"type":"Feature","geometry":null},{"properties":{"respondents":"11","id":"af51kqw4knek","state":"NY"},"type":"Feature","geometry":null},{"properties":{"respondents":"4","id":"af51kqnrppjh","state":"NC"},"type":"Feature","geometry":null},{"properties":{"respondents":"1","id":"af51kqw8ar7t","state":"ND"},"type":"Feature","geometry":null},{"properties":{"respondents":"6","id":"af51kqltp390","state":"OH"},"type":"Feature","geometry":null},{"properties":{"respondents":"4","id":"af51kqxllb93","state":"OK"},"type":"Feature","geometry":null},{"properties":{"respondents":"1","id":"af51kqrvvunv","state":"OR"},"type":"Feature","geometry":null},{"properties":{"respondents":"8","id":"af51kqjx97za","state":"PA"},"type":"Feature","geometry":null},{"properties":{"respondents":"3","id":"af51kquc2j9k","state":"RI"},"type":"Feature","geometry":null},{"properties":{"respondents":"1","id":"af51kqwv0yby","state":"SC"},"type":"Feature","geometry":null},{"properties":{"respondents":"0","id":"af51kqy25z30","state":"SD"},"type":"Feature","geometry":null},{"properties":{"respondents":"3","id":"af51kqyl4kcf","state":"TN"},"type":"Feature","geometry":null},{"properties":{"respondents":"12","id":"af51kqmn0s80","state":"TX"},"type":"Feature","geometry":null},{"properties":{"respondents":"1","id":"af51kqolzs7y","state":"UT"},"type":"Feature","geometry":null},{"properties":{"respondents":"1","id":"af51kqygma6o","state":"VT"},"type":"Feature","geometry":null},{"properties":{"respondents":"9","id":"af51kqy6jv7a","state":"VA"},"type":"Feature","geometry":null},{"properties":{"respondents":"2","id":"af51kqsokwed","state":"WA"},"type":"Feature","geometry":null},{"properties":{"respondents":"1","id":"af51kqtv33rv","state":"WV"},"type":"Feature","geometry":null},{"properties":{"respondents":"1","id":"af51kqyxwor3","state":"WI"},"type":"Feature","geometry":null},{"properties":{"respondents":"1","id":"af51kqpt0arc","state":"WY"},"type":"Feature","geometry":null}],"is_temporal":false,"author":{"url":"","metadata":null,"contact_name":null,"contact_address":null,"source":null,"contact_phone":null},"source":"","pagination":{"sort":null,"start":0,"total":51,"limit":1000000},"state":"parsed","tags":"","published":"2014-08-17T00:34:59-04:00","id":368722}