{"type":"FeatureCollection","data_type":"Dataset Analysis","url_type":null,"permissions":[{"permissions":{"download":true,"view":true},"group_id":"everyone"}],"classification":null,"title":"Dataset from 'Book3' with a 50 to 50 km buffer","count":194,"stream_id":370353,"contributor":{"url":"http://geocommons.com/users/75733","name":"EVAN"},"data_attributes":null,"calculation_params":[{"calculation":"donut_buffer","input":{"min_distance":"50","ds1":"370344","unit":"km","distance":"50"}}],"icon_link":null,"link":"http://geocommons.com/overlays/370353.json","extent":[0.0,0.0,0.0,0.0],"geometry_types":[],"unique_name":null,"name":"Dataset from 'Book3' with a 50 to 50 km buffer","feature_count":194,"description":"Dataset created by adding a buffer of 50 to 50 km around the features in 'Book3'","next_feature":null,"is_raster":false,"short_classification":"Y","stats":{"risk ex. support":{"max":123,"variance":325.425717852684,"mean":10.1111111111111,"stdev":18.0395598020762,"min":1,"median":4},"geo_score":{"max":0.571,"variance":1.49916781809893e-30,"mean":0.570999999999999,"stdev":1.22440508741957e-15,"min":0.571,"median":0.571},"support":{"max":806,"variance":5507.84942816028,"mean":24.0490797546012,"stdev":74.2148868365389,"min":1,"median":4},"grand total":{"max":1071,"variance":8794.37203151989,"mean":32.3419689119171,"stdev":93.7783132260327,"min":1,"median":6},"lat":{"max":47.607306,"variance":24.9151244934257,"mean":37.5612441450777,"stdev":4.99150523323634,"min":25.758474,"median":38.900314},"bankers":{"max":142,"variance":338.317088879347,"mean":10.3065693430657,"stdev":18.3933979699061,"min":1,"median":4},"long":{"max":74.0089,"variance":411.581938142281,"mean":-93.2779825284974,"stdev":20.2874823017121,"min":-122.732392,"median":-87.949171}},"features":[{"properties":{"city":"Columbus","region":"CENTRAL","risk ex. support":8,"geo_score":0.571,"row labels":"100 East Broad Street","support":42,"id":"af7rllrgado1","grand total":63,"lat":39.96255,"group":"BRS","geo_precision":"city","state":"OH","bankers":13,"long":-82.997881},"type":"Feature","geometry":{"type":"GeometryCollection","geometries":[]}},{"properties":{"city":"Troy","region":"CENTRAL","risk ex. support":null,"geo_score":0.571,"row labels":"100 W Big Beaver - Suite 390","support":3,"id":"af7rlljugeji","grand total":3,"lat":42.562533,"group":"S","geo_precision":"city","state":"MI","bankers":null,"long":-83.148894},"type":"Feature","geometry":{"type":"GeometryCollection","geometries":[]}},{"properties":{"city":"Canton","region":"CENTRAL","risk ex. support":1,"geo_score":0.571,"row labels":"101 Central Plaza South","support":2,"id":"af7rlls225vb","grand total":4,"lat":40.798399,"group":"BRS","geo_precision":"city","state":"OH","bankers":1,"long":-81.374901},"type":"Feature","geometry":{"type":"GeometryCollection","geometries":[]}},{"properties":{"city":"Flint","region":"CENTRAL","risk ex. support":null,"geo_score":0.571,"row labels":"111 East Court Street","support":1,"id":"af7rllp2n5dm","grand total":1,"lat":43.012685,"group":"S","geo_precision":"city","state":"MI","bankers":null,"long":-83.687595},"type":"Feature","geometry":{"type":"GeometryCollection","geometries":[]}},{"properties":{"city":"Columbus","region":"CENTRAL","risk ex. support":null,"geo_score":0.571,"row labels":"1111 Polaris Parkway","support":129,"id":"af7rllojyn1o","grand total":137,"lat":40.144575,"group":"BS","geo_precision":"city","state":"OH","bankers":8,"long":-82.991193},"type":"Feature","geometry":{"type":"GeometryCollection","geometries":[]}},{"properties":{"city":"Ann Arbor","region":"CENTRAL","risk ex. support":5,"geo_score":0.571,"row labels":"125 South Main Street","support":6,"id":"af7rllogz7jt","grand total":18,"lat":42.281148,"group":"BRS","geo_precision":"city","state":"MI","bankers":7,"long":-83.748506},"type":"Feature","geometry":{"type":"GeometryCollection","geometries":[]}},{"properties":{"city":"Cleveland","region":"CENTRAL","risk ex. support":17,"geo_score":0.571,"row labels":"1300 East Ninth Street","support":27,"id":"af7rllgzsxtl","grand total":54,"lat":41.504667,"group":"BRS","geo_precision":"city","state":"OH","bankers":10,"long":-81.690704},"type":"Feature","geometry":{"type":"GeometryCollection","geometries":[]}},{"properties":{"city":"Nashville","region":"CENTRAL","risk ex. support":4,"geo_score":0.571,"row labels":"1600 Division St. Suite 620","support":2,"id":"af7rlllb5fts","grand total":11,"lat":36.152174,"group":"BRS","geo_precision":"city","state":"TN","bankers":5,"long":-86.792002},"type":"Feature","geometry":{"type":"GeometryCollection","geometries":[]}},{"properties":{"city":"Bowling Green","region":"CENTRAL","risk ex. support":1,"geo_score":0.571,"row labels":"1945 Scottsville Road","support":2,"id":"af7rllmdkcnw","grand total":5,"lat":36.961935,"group":"BRS","geo_precision":"city","state":"KY","bankers":2,"long":-86.430913},"type":"Feature","geometry":{"type":"GeometryCollection","geometries":[]}},{"properties":{"city":"Grand Rapids","region":"CENTRAL","risk ex. support":5,"geo_score":0.571,"row labels":"200 Ottawa Avenue Northwest","support":9,"id":"af7rllsclfuw","grand total":22,"lat":42.967584,"group":"BRS","geo_precision":"city","state":"MI","bankers":8,"long":-85.670053},"type":"Feature","geometry":{"type":"GeometryCollection","geometries":[]}},{"properties":{"city":"Troy","region":"CENTRAL","risk ex. support":1,"geo_score":0.571,"row labels":"2155 West Big Beaver","support":1,"id":"af7rlliebjbr","grand total":2,"lat":42.561399,"group":"RS","geo_precision":"city","state":"MI","bankers":null,"long":-83.176307},"type":"Feature","geometry":{"type":"GeometryCollection","geometries":[]}},{"properties":{"city":"Plymouth","region":"CENTRAL","risk ex. support":null,"geo_score":0.571,"row labels":"235 North Sheldon","support":1,"id":"af7rllm4vwy8","grand total":1,"lat":42.373974,"group":"S","geo_precision":"city","state":"MI","bankers":null,"long":-83.48038},"type":"Feature","geometry":{"type":"GeometryCollection","geometries":[]}},{"properties":{"city":"Kalamazoo","region":"CENTRAL","risk ex. support":1,"geo_score":0.571,"row labels":"242 E Kalamazoo Avenue","support":1,"id":"af7rllp1bjs8","grand total":5,"lat":42.294555,"group":"BRS","geo_precision":"city","state":"MI","bankers":3,"long":-85.580855},"type":"Feature","geometry":{"type":"GeometryCollection","geometries":[]}},{"properties":{"city":"Muskegon","region":"CENTRAL","risk ex. support":null,"geo_score":0.571,"row labels":"2855 Henry Street","support":null,"id":"af7rllnyen5o","grand total":1,"lat":43.200178,"group":"B","geo_precision":"city","state":"MI","bankers":1,"long":-86.263242},"type":"Feature","geometry":{"type":"GeometryCollection","geometries":[]}},{"properties":{"city":"Southfield","region":"CENTRAL","risk ex. support":9,"geo_score":0.571,"row labels":"28660 Northwestern Highway","support":14,"id":"af7rlls4cre2","grand total":36,"lat":42.498427,"group":"BRS","geo_precision":"city","state":"MI","bankers":13,"long":-83.302895},"type":"Feature","geometry":{"type":"GeometryCollection","geometries":[]}},{"properties":{"city":"Dover","region":"CENTRAL","risk ex. support":null,"geo_score":0.571,"row labels":"301 West Third Street","support":null,"id":"af7rllozmz31","grand total":1,"lat":40.520126,"group":"B","geo_precision":"city","state":"OH","bankers":1,"long":-81.479605},"type":"Feature","geometry":{"type":"GeometryCollection","geometries":[]}},{"properties":{"city":"Louisville","region":"CENTRAL","risk ex. support":null,"geo_score":0.571,"row labels":"312 South Fourth Street","support":166,"id":"af7rllg1l8m7","grand total":166,"lat":38.253697,"group":"S","geo_precision":"city","state":"KY","bankers":null,"long":-85.757024},"type":"Feature","geometry":{"type":"GeometryCollection","geometries":[]}},{"properties":{"city":"Columbus","region":"CENTRAL","risk ex. support":null,"geo_score":0.571,"row labels":"3415 Vision Drive","support":1,"id":"af7rllqo7386","grand total":2,"lat":40.044419,"group":"BS","geo_precision":"city","state":"OH","bankers":1,"long":-82.92126},"type":"Feature","geometry":{"type":"GeometryCollection","geometries":[]}},{"properties":{"city":"Farmington Hills","region":"CENTRAL","risk ex. support":null,"geo_score":0.571,"row labels":"38601 West 12 Mile Road","support":1,"id":"af7rllnxvhke","grand total":3,"lat":42.497261,"group":"BS","geo_precision":"city","state":"MI","bankers":2,"long":-83.427391},"type":"Feature","geometry":{"type":"GeometryCollection","geometries":[]}},{"properties":{"city":"Dayton","region":"CENTRAL","risk ex. support":3,"geo_score":0.571,"row labels":"40 North Main Street","support":7,"id":"af7rllq6eai1","grand total":15,"lat":39.76015,"group":"BRS","geo_precision":"city","state":"OH","bankers":5,"long":-84.19199},"type":"Feature","geometry":{"type":"GeometryCollection","geometries":[]}},{"properties":{"city":"Louisville","region":"CENTRAL","risk ex. support":11,"geo_score":0.571,"row labels":"416 West Jefferson","support":12,"id":"af7rllqqf2t2","grand total":37,"lat":38.253894,"group":"BRS","geo_precision":"city","state":"KY","bankers":14,"long":-85.757393},"type":"Feature","geometry":{"type":"GeometryCollection","geometries":[]}},{"properties":{"city":"Utica","region":"CENTRAL","risk ex. support":null,"geo_score":0.571,"row labels":"45303 Van Dyke","support":1,"id":"af7rllgnqm4g","grand total":1,"lat":42.628229,"group":"S","geo_precision":"city","state":"MI","bankers":null,"long":-83.032473},"type":"Feature","geometry":{"type":"GeometryCollection","geometries":[]}},{"properties":{"city":"Akron","region":"CENTRAL","risk ex. support":4,"geo_score":0.571,"row labels":"50 South Main Street","support":4,"id":"af7rlll9gfai","grand total":14,"lat":41.083828,"group":"BRS","geo_precision":"city","state":"OH","bankers":6,"long":-81.517382},"type":"Feature","geometry":{"type":"GeometryCollection","geometries":[]}},{"properties":{"city":"Youngstown","region":"CENTRAL","risk ex. support":null,"geo_score":0.571,"row labels":"6 Federal Plaza West","support":1,"id":"af7rllrarae3","grand total":4,"lat":41.100186,"group":"BS","geo_precision":"city","state":"OH","bankers":3,"long":-80.649639},"type":"Feature","geometry":{"type":"GeometryCollection","geometries":[]}},{"properties":{"city":"Detroit","region":"CENTRAL","risk ex. support":11,"geo_score":0.571,"row labels":"611 Woodward Avenue","support":36,"id":"af7rlljs4c5m","grand total":70,"lat":42.330269,"group":"BRS","geo_precision":"city","state":"MI","bankers":23,"long":-83.046003},"type":"Feature","geometry":{"type":"GeometryCollection","geometries":[]}},{"properties":{"city":"Grand Rapids","region":"CENTRAL","risk ex. support":null,"geo_score":0.571,"row labels":"6333 28th Street","support":1,"id":"af7rllsaj2om","grand total":1,"lat":42.913148,"group":"S","geo_precision":"city","state":"MI","bankers":null,"long":-85.511134},"type":"Feature","geometry":{"type":"GeometryCollection","geometries":[]}},{"properties":{"city":"Cincinnati","region":"CENTRAL","risk ex. support":4,"geo_score":0.571,"row labels":"8044 Montgomery Road","support":8,"id":"af7rlli9chll","grand total":19,"lat":39.202311,"group":"BRS","geo_precision":"city","state":"OH","bankers":7,"long":-84.371759},"type":"Feature","geometry":{"type":"GeometryCollection","geometries":[]}},{"properties":{"city":"Belleville","region":"CENTRAL","risk ex. support":null,"geo_score":0.571,"row labels":"9000 Haggerty Road","support":1,"id":"af7rllvbgmh2","grand total":1,"lat":42.239698,"group":"S","geo_precision":"city","state":"MI","bankers":null,"long":-83.445373},"type":"Feature","geometry":{"type":"GeometryCollection","geometries":[]}},{"properties":{"city":"Indianapolis","region":"MIDWEST","risk ex. support":12,"geo_score":0.571,"row labels":"1 E Ohio Street","support":101,"id":"af7rllmejglw","grand total":141,"lat":39.769888,"group":"BRS","geo_precision":"city","state":"IN","bankers":28,"long":-86.157751},"type":"Feature","geometry":{"type":"GeometryCollection","geometries":[]}},{"properties":{"city":"Springfield","region":"MIDWEST","risk ex. support":1,"geo_score":0.571,"row labels":"1 East Old State Capital Plaza","support":null,"id":"af7rllk7yw3d","grand total":3,"lat":39.801564,"group":"BR","geo_precision":"city","state":"IL","bankers":2,"long":-89.647898},"type":"Feature","geometry":{"type":"GeometryCollection","geometries":[]}},{"properties":{"city":"Chicago","region":"MIDWEST","risk ex. support":123,"geo_score":0.571,"row labels":"10 South Dearborn","support":806,"id":"af7rllp8j8c0","grand total":1071,"lat":41.881876,"group":"BRS","geo_precision":"city","state":"IL","bankers":142,"long":-87.629418},"type":"Feature","geometry":{"type":"GeometryCollection","geometries":[]}},{"properties":{"city":"Fort Wayne","region":"MIDWEST","risk ex. support":1,"geo_score":0.571,"row labels":"101 East Washington Boulevard","support":2,"id":"af7rllnq11yb","grand total":6,"lat":41.077263,"group":"BRS","geo_precision":"city","state":"IN","bankers":3,"long":-85.138935},"type":"Feature","geometry":{"type":"GeometryCollection","geometries":[]}},{"properties":{"city":"Mount Prospect","region":"MIDWEST","risk ex. support":5,"geo_score":0.571,"row labels":"111 East Busse Avenue","support":18,"id":"af7rllkd57or","grand total":32,"lat":42.06449,"group":"BRS","geo_precision":"city","state":"IL","bankers":9,"long":-87.93512},"type":"Feature","geometry":{"type":"GeometryCollection","geometries":[]}},{"properties":{"city":"Milwaukee","region":"MIDWEST","risk ex. support":14,"geo_score":0.571,"row labels":"111 East Wisconsin Avenue","support":32,"id":"af7rllq0rz6c","grand total":61,"lat":43.038612,"group":"BRS","geo_precision":"city","state":"WI","bankers":15,"long":-87.909631},"type":"Feature","geometry":{"type":"GeometryCollection","geometries":[]}},{"properties":{"city":"Mokena","region":"MIDWEST","risk ex. support":null,"geo_score":0.571,"row labels":"11205 Lincoln Hwy","support":1,"id":"af7rllq01d96","grand total":1,"lat":41.503399,"group":"S","geo_precision":"city","state":"IL","bankers":null,"long":-87.889235},"type":"Feature","geometry":{"type":"GeometryCollection","geometries":[]}},{"properties":{"city":"Overland Park","region":"MIDWEST","risk ex. support":null,"geo_score":0.571,"row labels":"11500 Outlook Street","support":null,"id":"af7rllj87k1t","grand total":1,"lat":38.92197,"group":"B","geo_precision":"city","state":"KS","bankers":1,"long":-94.654289},"type":"Feature","geometry":{"type":"GeometryCollection","geometries":[]}},{"properties":{"city":"Chicago","region":"MIDWEST","risk ex. support":null,"geo_score":0.571,"row labels":"120 S LaSalle St","support":null,"id":"af7rlluvhbo3","grand total":8,"lat":41.8803,"group":"B","geo_precision":"city","state":"IL","bankers":8,"long":-87.632301},"type":"Feature","geometry":{"type":"GeometryCollection","geometries":[]}},{"properties":{"city":"Libertyville","region":"MIDWEST","risk ex. support":3,"geo_score":0.571,"row labels":"1201 South Milwaukee","support":1,"id":"af7rllsdhv9n","grand total":9,"lat":42.263495,"group":"BRS","geo_precision":"city","state":"IL","bankers":5,"long":-87.949171},"type":"Feature","geometry":{"type":"GeometryCollection","geometries":[]}},{"properties":{"city":"Elkhart","region":"MIDWEST","risk ex. support":1,"geo_score":0.571,"row labels":"121 West Franklin","support":1,"id":"af7rllovedmm","grand total":4,"lat":41.684099,"group":"BRS","geo_precision":"city","state":"IN","bankers":2,"long":-85.972297},"type":"Feature","geometry":{"type":"GeometryCollection","geometries":[]}},{"properties":{"city":"Peoria","region":"MIDWEST","risk ex. support":1,"geo_score":0.571,"row labels":"124 Southwest Adams","support":1,"id":"af7rllmz4fdf","grand total":5,"lat":40.691556,"group":"BRS","geo_precision":"city","state":"IL","bankers":3,"long":-89.589932},"type":"Feature","geometry":{"type":"GeometryCollection","geometries":[]}},{"properties":{"city":"Chicago","region":"MIDWEST","risk ex. support":null,"geo_score":0.571,"row labels":"131 South Dearborn","support":1,"id":"af7rllqbigth","grand total":2,"lat":41.880029,"group":"BS","geo_precision":"city","state":"IL","bankers":1,"long":-87.629367},"type":"Feature","geometry":{"type":"GeometryCollection","geometries":[]}},{"properties":{"city":"Mooresville","region":"MIDWEST","risk ex. support":null,"geo_score":0.571,"row labels":"135 Fields St","support":4,"id":"af7rlllncgj9","grand total":4,"lat":39.61548,"group":"S","geo_precision":"city","state":"IN","bankers":null,"long":-86.356888},"type":"Feature","geometry":{"type":"GeometryCollection","geometries":[]}},{"properties":{"city":"Minneapolis","region":"MIDWEST","risk ex. support":null,"geo_score":0.571,"row labels":"1600 Utica AVE S","support":null,"id":"af7rllmk18sm","grand total":3,"lat":44.96658,"group":"B","geo_precision":"city","state":"MN","bankers":3,"long":-93.345387},"type":"Feature","geometry":{"type":"GeometryCollection","geometries":[]}},{"properties":{"city":"Saint Louis Park","region":"MIDWEST","risk ex. support":null,"geo_score":0.571,"row labels":"1600 Utica AVE S","support":4,"id":"af7rllkdalx6","grand total":4,"lat":44.96658,"group":"S","geo_precision":"city","state":"MN","bankers":null,"long":-93.345387},"type":"Feature","geometry":{"type":"GeometryCollection","geometries":[]}},{"properties":{"city":"Crawfordsville","region":"MIDWEST","risk ex. support":null,"geo_score":0.571,"row labels":"200 South Washington Street","support":1,"id":"af7rllozzig7","grand total":1,"lat":40.040459,"group":"S","geo_precision":"city","state":"IN","bankers":null,"long":-86.901373},"type":"Feature","geometry":{"type":"GeometryCollection","geometries":[]}},{"properties":{"city":"Appleton","region":"MIDWEST","risk ex. support":3,"geo_score":0.571,"row labels":"200 West College Avenue","support":5,"id":"af7rllingiu1","grand total":12,"lat":44.261829,"group":"BRS","geo_precision":"city","state":"WI","bankers":4,"long":-88.407442},"type":"Feature","geometry":{"type":"GeometryCollection","geometries":[]}},{"properties":{"city":"Wheaton","region":"MIDWEST","risk ex. support":7,"geo_score":0.571,"row labels":"2000 South Naperville Road","support":11,"id":"af7rllq8h6qk","grand total":28,"lat":41.833353,"group":"BRS","geo_precision":"city","state":"IL","bankers":10,"long":-88.102682},"type":"Feature","geometry":{"type":"GeometryCollection","geometries":[]}},{"properties":{"city":"Waukesha","region":"MIDWEST","risk ex. support":5,"geo_score":0.571,"row labels":"20935 Swenson Drive","support":9,"id":"af7rllmqpt1g","grand total":20,"lat":43.031992,"group":"BRS","geo_precision":"city","state":"WI","bankers":6,"long":-88.173623},"type":"Feature","geometry":{"type":"GeometryCollection","geometries":[]}},{"properties":{"city":"Madison","region":"MIDWEST","risk ex. support":null,"geo_score":0.571,"row labels":"22 East Mifflin Street","support":null,"id":"af7rllrymllk","grand total":3,"lat":43.075719,"group":"B","geo_precision":"city","state":"WI","bankers":3,"long":-89.384942},"type":"Feature","geometry":{"type":"GeometryCollection","geometries":[]}},{"properties":{"city":"Minneapolis","region":"MIDWEST","risk ex. support":2,"geo_score":0.571,"row labels":"225 S 6th Street","support":3,"id":"af7rllg7kr2x","grand total":16,"lat":44.976515,"group":"BRS","geo_precision":"city","state":"MN","bankers":11,"long":-93.268316},"type":"Feature","geometry":{"type":"GeometryCollection","geometries":[]}},{"properties":{"city":"Bloomington","region":"MIDWEST","risk ex. support":null,"geo_score":0.571,"row labels":"2404 East Oakland","support":1,"id":"af7rllubopw3","grand total":1,"lat":40.473678,"group":"S","geo_precision":"city","state":"IL","bankers":null,"long":-88.956956},"type":"Feature","geometry":{"type":"GeometryCollection","geometries":[]}},{"properties":{"city":"Elgin","region":"MIDWEST","risk ex. support":null,"geo_score":0.571,"row labels":"2500 Westfield Drive","support":1,"id":"af7rlltctm4k","grand total":1,"lat":42.077243,"group":"S","geo_precision":"city","state":"IL","bankers":null,"long":-88.339373},"type":"Feature","geometry":{"type":"GeometryCollection","geometries":[]}},{"properties":{"city":"Chicago","region":"MIDWEST","risk ex. support":null,"geo_score":0.571,"row labels":"420 West Van Buren Street","support":50,"id":"af7rllqsegu8","grand total":55,"lat":41.87679,"group":"BS","geo_precision":"city","state":"IL","bankers":5,"long":-87.637408},"type":"Feature","geometry":{"type":"GeometryCollection","geometries":[]}},{"properties":{"city":"Chicago","region":"MIDWEST","risk ex. support":null,"geo_score":0.571,"row labels":"5813 North Milwaukee Avenue","support":18,"id":"af7rllrr3iaw","grand total":21,"lat":41.987005,"group":"BS","geo_precision":"city","state":"IL","bankers":3,"long":-87.778079},"type":"Feature","geometry":{"type":"GeometryCollection","geometries":[]}},{"properties":{"city":"Westmont","region":"MIDWEST","risk ex. support":null,"geo_score":0.571,"row labels":"601 Oakmont Lane","support":2,"id":"af7rllo9bi9u","grand total":2,"lat":41.820937,"group":"S","geo_precision":"city","state":"IL","bankers":null,"long":-87.959731},"type":"Feature","geometry":{"type":"GeometryCollection","geometries":[]}},{"properties":{"city":"Clayton","region":"MIDWEST","risk ex. support":2,"geo_score":0.571,"row labels":"7700 Forsyth Blvd - Suite 1200","support":2,"id":"af7rllgt2dpl","grand total":9,"lat":38.649918,"group":"BRS","geo_precision":"city","state":"MO","bankers":5,"long":-90.334376},"type":"Feature","geometry":{"type":"GeometryCollection","geometries":[]}},{"properties":{"city":"Merrillville","region":"MIDWEST","risk ex. support":1,"geo_score":0.571,"row labels":"8585 Broadway","support":4,"id":"af7rllo307nq","grand total":8,"lat":41.462348,"group":"BRS","geo_precision":"city","state":"IN","bankers":3,"long":-87.335798},"type":"Feature","geometry":{"type":"GeometryCollection","geometries":[]}},{"properties":{"city":"New York","region":"NORTHEAST","risk ex. support":"2","geo_score":0.571,"row labels":"1 Chase Manhattan Plaza","support":"47","id":"af7rllnr4iz3","grand total":"65","lat":"#N/A","group":"BRS","geo_precision":"city","state":"NY","bankers":"16","long":"#N/A"},"type":"Feature","geometry":{"type":"GeometryCollection","geometries":[]}},{"properties":{"city":"Rochester","region":"NORTHEAST","risk ex. support":9,"geo_score":0.571,"row labels":"1 Chase Square","support":19,"id":"af7rllo4frvm","grand total":46,"lat":43.157145,"group":"BRS","geo_precision":"city","state":"NY","bankers":18,"long":-77.606398},"type":"Feature","geometry":{"type":"GeometryCollection","geometries":[]}},{"properties":{"city":"Princeton","region":"NORTHEAST","risk ex. support":1,"geo_score":0.571,"row labels":"103 College Road East","support":1,"id":"af7rlli9d2xm","grand total":8,"lat":40.356231,"group":"BRS","geo_precision":"city","state":"NJ","bankers":6,"long":-74.602083},"type":"Feature","geometry":{"type":"GeometryCollection","geometries":[]}},{"properties":{"city":"Richmond","region":"NORTHEAST","risk ex. support":null,"geo_score":0.571,"row labels":"1051 East Cary Street","support":1,"id":"af7rllpc5j53","grand total":3,"lat":37.53653,"group":"BS","geo_precision":"city","state":"VA","bankers":2,"long":-77.435812},"type":"Feature","geometry":{"type":"GeometryCollection","geometries":[]}},{"properties":{"city":"White Plains","region":"NORTHEAST","risk ex. support":9,"geo_score":0.571,"row labels":"106 Corporate Park Drive","support":42,"id":"af7rllrvbcrf","grand total":68,"lat":41.020309,"group":"BRS","geo_precision":"city","state":"NY","bankers":17,"long":-73.72},"type":"Feature","geometry":{"type":"GeometryCollection","geometries":[]}},{"properties":{"city":"Syracuse","region":"NORTHEAST","risk ex. support":null,"geo_score":0.571,"row labels":"110 W Fayette Street","support":2,"id":"af7rllgfwtv8","grand total":2,"lat":43.048704,"group":"S","geo_precision":"city","state":"NY","bankers":null,"long":-76.152469},"type":"Feature","geometry":{"type":"GeometryCollection","geometries":[]}},{"properties":{"city":"Richmond","region":"NORTHEAST","risk ex. support":null,"geo_score":0.571,"row labels":"116 West Main Street","support":1,"id":"af7rllk4qjqb","grand total":1,"lat":37.7475,"group":"S","geo_precision":"city","state":"KY","bankers":null,"long":-84.294549},"type":"Feature","geometry":{"type":"GeometryCollection","geometries":[]}},{"properties":{"city":"Albany","region":"NORTHEAST","risk ex. support":2,"geo_score":0.571,"row labels":"12 Corporate Woods Boulevard","support":16,"id":"af7rllhi5uql","grand total":27,"lat":42.684006,"group":"BRS","geo_precision":"city","state":"NY","bankers":9,"long":-73.765699},"type":"Feature","geometry":{"type":"GeometryCollection","geometries":[]}},{"properties":{"city":"Philadelphia","region":"NORTHEAST","risk ex. support":null,"geo_score":0.571,"row labels":"1650 Market Street","support":5,"id":"af7rllgmmnh7","grand total":17,"lat":39.95292,"group":"BS","geo_precision":"city","state":"PA","bankers":12,"long":-75.168131},"type":"Feature","geometry":{"type":"GeometryCollection","geometries":[]}},{"properties":{"city":"McLean","region":"NORTHEAST","risk ex. support":3,"geo_score":0.571,"row labels":"1750 Tysons Boulevard","support":1,"id":"af7rlltnat31","grand total":8,"lat":38.923887,"group":"BRS","geo_precision":"city","state":"VA","bankers":4,"long":-77.222181},"type":"Feature","geometry":{"type":"GeometryCollection","geometries":[]}},{"properties":{"city":"Iselin","region":"NORTHEAST","risk ex. support":null,"geo_score":0.571,"row labels":"194 Wood Avenue South","support":2,"id":"af7rllmanj5v","grand total":2,"lat":40.561152,"group":"S","geo_precision":"city","state":"NJ","bankers":null,"long":-74.326833},"type":"Feature","geometry":{"type":"GeometryCollection","geometries":[]}},{"properties":{"city":"New Hyde Park","region":"NORTHEAST","risk ex. support":15,"geo_score":0.571,"row labels":"1985 Marcus Avenue","support":47,"id":"af7rllhabexy","grand total":78,"lat":40.757257,"group":"BRS","geo_precision":"city","state":"NY","bankers":16,"long":-73.691973},"type":"Feature","geometry":{"type":"GeometryCollection","geometries":[]}},{"properties":{"city":"Shelton","region":"NORTHEAST","risk ex. support":4,"geo_score":0.571,"row labels":"2 Corporate Drive","support":7,"id":"af7rllr8cc9j","grand total":24,"lat":41.276088,"group":"BRS","geo_precision":"city","state":"CT","bankers":13,"long":-73.129376},"type":"Feature","geometry":{"type":"GeometryCollection","geometries":[]}},{"properties":{"city":"Albion","region":"NORTHEAST","risk ex. support":null,"geo_score":0.571,"row labels":"231 East Ave","support":1,"id":"af7rllnjfdpa","grand total":1,"lat":43.241124,"group":"S","geo_precision":"city","state":"NY","bankers":null,"long":-78.188842},"type":"Feature","geometry":{"type":"GeometryCollection","geometries":[]}},{"properties":{"city":"New York","region":"NORTHEAST","risk ex. support":59,"geo_score":0.571,"row labels":"270 Park Avenue","support":164,"id":"af7rlls1q9oe","grand total":313,"lat":40.755693,"group":"BRS","geo_precision":"city","state":"NY","bankers":90,"long":-73.975209},"type":"Feature","geometry":{"type":"GeometryCollection","geometries":[]}},{"properties":{"city":"New York","region":"NORTHEAST","risk ex. support":49,"geo_score":0.571,"row labels":"277 Park Avenue","support":112,"id":"af7rllo4bnq0","grand total":221,"lat":40.755732,"group":"BRS","geo_precision":"city","state":"NY","bankers":60,"long":-73.974891},"type":"Feature","geometry":{"type":"GeometryCollection","geometries":[]}},{"properties":{"city":"Brooklyn","region":"NORTHEAST","risk ex. support":null,"geo_score":0.571,"row labels":"3 Chase Metrotech Center","support":31,"id":"af7rllqmq08x","grand total":31,"lat":40.69344,"group":"S","geo_precision":"city","state":"NY","bankers":null,"long":-73.984287},"type":"Feature","geometry":{"type":"GeometryCollection","geometries":[]}},{"properties":{"city":"Pittsburgh","region":"NORTHEAST","risk ex. support":null,"geo_score":0.571,"row labels":"301 Grant Street","support":1,"id":"af7rllrpk6c3","grand total":3,"lat":40.437572,"group":"BS","geo_precision":"city","state":"PA","bankers":2,"long":-79.998036},"type":"Feature","geometry":{"type":"GeometryCollection","geometries":[]}},{"properties":{"city":"Buffalo","region":"NORTHEAST","risk ex. support":2,"geo_score":0.571,"row labels":"350 Main Street","support":6,"id":"af7rllnzozd6","grand total":14,"lat":42.88375,"group":"BRS","geo_precision":"city","state":"NY","bankers":6,"long":-78.875018},"type":"Feature","geometry":{"type":"GeometryCollection","geometries":[]}},{"properties":{"city":"New York","region":"NORTHEAST","risk ex. support":3,"geo_score":0.571,"row labels":"383 Madison Avenue","support":13,"id":"af7rllu1rsbj","grand total":20,"lat":40.755657,"group":"BRS","geo_precision":"city","state":"NY","bankers":4,"long":-73.977181},"type":"Feature","geometry":{"type":"GeometryCollection","geometries":[]}},{"properties":{"city":"Melville","region":"NORTHEAST","risk ex. support":15,"geo_score":0.571,"row labels":"395 North Service Road","support":32,"id":"af7rllowl3is","grand total":74,"lat":40.782921,"group":"BRS","geo_precision":"city","state":"NY","bankers":27,"long":-73.411389},"type":"Feature","geometry":{"type":"GeometryCollection","geometries":[]}},{"properties":{"city":"Brooklyn","region":"NORTHEAST","risk ex. support":null,"geo_score":0.571,"row labels":"4 Chase Metrotech Center","support":112,"id":"af7rllg55neh","grand total":122,"lat":40.693582,"group":"BS","geo_precision":"city","state":"NY","bankers":10,"long":-73.983917},"type":"Feature","geometry":{"type":"GeometryCollection","geometries":[]}},{"properties":{"city":"Vestal","region":"NORTHEAST","risk ex. support":1,"geo_score":0.571,"row labels":"4104 Vestal Road","support":4,"id":"af7rllsf1bus","grand total":6,"lat":42.097182,"group":"BRS","geo_precision":"city","state":"NY","bankers":1,"long":-75.975066},"type":"Feature","geometry":{"type":"GeometryCollection","geometries":[]}},{"properties":{"city":"Hyde Park","region":"NORTHEAST","risk ex. support":null,"geo_score":0.571,"row labels":"4277 Albany Post Rd","support":1,"id":"af7rllk5b68z","grand total":1,"lat":41.783615,"group":"S","geo_precision":"city","state":"NY","bankers":null,"long":-73.93294},"type":"Feature","geometry":{"type":"GeometryCollection","geometries":[]}},{"properties":{"city":"Metuchen","region":"NORTHEAST","risk ex. support":null,"geo_score":0.571,"row labels":"475 Main St","support":1,"id":"af7rllnnh80w","grand total":1,"lat":40.543377,"group":"S","geo_precision":"city","state":"NJ","bankers":null,"long":-74.362564},"type":"Feature","geometry":{"type":"GeometryCollection","geometries":[]}},{"properties":{"city":"Syracuse","region":"NORTHEAST","risk ex. support":2,"geo_score":0.571,"row labels":"500 Plum Street","support":2,"id":"af7rllgz2cat","grand total":10,"lat":43.0561,"group":"BRS","geo_precision":"city","state":"NY","bankers":6,"long":-76.158844},"type":"Feature","geometry":{"type":"GeometryCollection","geometries":[]}},{"properties":{"city":"Newark","region":"NORTHEAST","risk ex. support":null,"geo_score":0.571,"row labels":"500 Stanton Christiana Road","support":89,"id":"af7rlljnbnsh","grand total":89,"lat":40.7078,"group":"S","geo_precision":"city","state":"DE","bankers":null,"long":74.0089},"type":"Feature","geometry":{"type":"GeometryCollection","geometries":[]}},{"properties":{"city":"Newark","region":"NORTHEAST","risk ex. support":null,"geo_score":0.571,"row labels":"500 Stanton Christiana Road","support":1,"id":"af7rlltfbgms","grand total":1,"lat":39.697291,"group":"S","geo_precision":"city","state":"DE","bankers":null,"long":-75.651324},"type":"Feature","geometry":{"type":"GeometryCollection","geometries":[]}},{"properties":{"city":"Fairfield","region":"NORTHEAST","risk ex. support":9,"geo_score":0.571,"row labels":"695 Route 46","support":29,"id":"af7rllk3tsdc","grand total":58,"lat":40.891928,"group":"BRS","geo_precision":"city","state":"NJ","bankers":20,"long":-74.268218},"type":"Feature","geometry":{"type":"GeometryCollection","geometries":[]}},{"properties":{"city":"Washington","region":"NORTHEAST","risk ex. support":null,"geo_score":0.571,"row labels":"800 Connecticut Avenue NW","support":null,"id":"af7rllkpupa4","grand total":1,"lat":38.900314,"group":"B","geo_precision":"city","state":"DC","bankers":1,"long":-77.038048},"type":"Feature","geometry":{"type":"GeometryCollection","geometries":[]}},{"properties":{"city":"Lowell","region":"NORTHEAST","risk ex. support":null,"geo_score":0.571,"row labels":"900 Chelmsford Street","support":1,"id":"af7rlllkeh63","grand total":1,"lat":42.64927,"group":"S","geo_precision":"city","state":"MA","bankers":null,"long":-71.290219},"type":"Feature","geometry":{"type":"GeometryCollection","geometries":[]}},{"properties":{"city":"Washington","region":"NORTHEAST","risk ex. support":1,"geo_score":0.571,"row labels":"901 15th Street NW","support":4,"id":"af7rllicj0wc","grand total":14,"lat":38.901514,"group":"BRS","geo_precision":"city","state":"DC","bankers":9,"long":-77.033632},"type":"Feature","geometry":{"type":"GeometryCollection","geometries":[]}},{"properties":{"city":"Elmira","region":"NORTHEAST","risk ex. support":null,"geo_score":0.571,"row labels":"971 County Route 64 - Suite 200","support":null,"id":"af7rllncin2r","grand total":2,"lat":42.155281,"group":"B","geo_precision":"city","state":"NY","bankers":2,"long":-76.869043},"type":"Feature","geometry":{"type":"GeometryCollection","geometries":[]}},{"properties":{"city":"Boston","region":"NORTHEAST","risk ex. support":null,"geo_score":0.571,"row labels":"One Beacon Street","support":1,"id":"af7rllugik79","grand total":1,"lat":42.358028,"group":"S","geo_precision":"city","state":"MA","bankers":null,"long":-71.060551},"type":"Feature","geometry":{"type":"GeometryCollection","geometries":[]}},{"properties":{"city":"Boston","region":"NORTHEAST","risk ex. support":1,"geo_score":0.571,"row labels":"One Federal Street","support":2,"id":"af7rllk247u7","grand total":6,"lat":42.356576,"group":"BRS","geo_precision":"city","state":"MA","bankers":3,"long":-71.056688},"type":"Feature","geometry":{"type":"GeometryCollection","geometries":[]}},{"properties":{"city":"Boston","region":"NORTHEAST","risk ex. support":4,"geo_score":0.571,"row labels":"One International Place","support":6,"id":"af7rlltzdg7j","grand total":23,"lat":42.356683,"group":"BRS","geo_precision":"city","state":"MA","bankers":13,"long":-71.051497},"type":"Feature","geometry":{"type":"GeometryCollection","geometries":[]}},{"properties":{"city":"Oklahoma City","region":"SOUTH (TX/OK/LA)","risk ex. support":4,"geo_score":0.571,"row labels":"100 North Broadway Ave","support":8,"id":"af7rlllgcpbt","grand total":19,"lat":35.338308,"group":"BRS","geo_precision":"city","state":"OK","bankers":7,"long":-97.486691},"type":"Feature","geometry":{"type":"GeometryCollection","geometries":[]}},{"properties":{"city":"San Antonio","region":"SOUTH (TX/OK/LA)","risk ex. support":5,"geo_score":0.571,"row labels":"1020 North East Loop 410","support":10,"id":"af7rllrojjp6","grand total":21,"lat":29.515928,"group":"BRS","geo_precision":"city","state":"TX","bankers":6,"long":-98.458424},"type":"Feature","geometry":{"type":"GeometryCollection","geometries":[]}},{"properties":{"city":"Tulsa","region":"SOUTH (TX/OK/LA)","risk ex. support":3,"geo_score":0.571,"row labels":"110 West 7th St","support":7,"id":"af7rlls9evm8","grand total":15,"lat":36.149035,"group":"BRS","geo_precision":"city","state":"OK","bankers":5,"long":-95.990427},"type":"Feature","geometry":{"type":"GeometryCollection","geometries":[]}},{"properties":{"city":"Houston","region":"SOUTH (TX/OK/LA)","risk ex. support":null,"geo_score":0.571,"row labels":"1111 Fannin Street","support":10,"id":"af7rlltvojka","grand total":10,"lat":29.755543,"group":"S","geo_precision":"city","state":"TX","bankers":null,"long":-95.364758},"type":"Feature","geometry":{"type":"GeometryCollection","geometries":[]}},{"properties":{"city":"Oklahoma City","region":"SOUTH (TX/OK/LA)","risk ex. support":null,"geo_score":0.571,"row labels":"11920 South Western","support":1,"id":"af7rlllv6hjj","grand total":1,"lat":35.34941,"group":"S","geo_precision":"city","state":"OK","bankers":null,"long":-97.529941},"type":"Feature","geometry":{"type":"GeometryCollection","geometries":[]}},{"properties":{"city":"Fort Worth","region":"SOUTH (TX/OK/LA)","risk ex. support":null,"geo_score":0.571,"row labels":"14800 Frye Rd","support":4,"id":"af7rlliaq3gx","grand total":4,"lat":32.819645,"group":"S","geo_precision":"city","state":"TX","bankers":null,"long":-97.045999},"type":"Feature","geometry":{"type":"GeometryCollection","geometries":[]}},{"properties":{"city":"Tulsa","region":"SOUTH (TX/OK/LA)","risk ex. support":null,"geo_score":0.571,"row labels":"15 East 5th Street","support":null,"id":"af7rlltv23xr","grand total":2,"lat":36.151658,"group":"B","geo_precision":"city","state":"OK","bankers":2,"long":-95.98969},"type":"Feature","geometry":{"type":"GeometryCollection","geometries":[]}},{"properties":{"city":"Monroe","region":"SOUTH (TX/OK/LA)","risk ex. support":1,"geo_score":0.571,"row labels":"1900 North 18th Street","support":4,"id":"af7rllu82mdd","grand total":7,"lat":32.52743,"group":"BRS","geo_precision":"city","state":"LA","bankers":2,"long":-92.116273},"type":"Feature","geometry":{"type":"GeometryCollection","geometries":[]}},{"properties":{"city":"El Paso","region":"SOUTH (TX/OK/LA)","risk ex. support":4,"geo_score":0.571,"row labels":"201 East Main Street","support":7,"id":"af7rllug8hho","grand total":17,"lat":31.760317,"group":"BRS","geo_precision":"city","state":"TX","bankers":6,"long":-106.48835},"type":"Feature","geometry":{"type":"GeometryCollection","geometries":[]}},{"properties":{"city":"New Orleans","region":"SOUTH (TX/OK/LA)","risk ex. support":8,"geo_score":0.571,"row labels":"201 Saint Charles Avenue","support":17,"id":"af7rllihzs9r","grand total":38,"lat":29.952123,"group":"BRS","geo_precision":"city","state":"LA","bankers":13,"long":-90.069858},"type":"Feature","geometry":{"type":"GeometryCollection","geometries":[]}},{"properties":{"city":"San Antonio","region":"SOUTH (TX/OK/LA)","risk ex. support":null,"geo_score":0.571,"row labels":"20855 Stone Oak PKWY","support":1,"id":"af7rlljjdl2h","grand total":1,"lat":29.649492,"group":"S","geo_precision":"city","state":"TX","bankers":null,"long":-98.452395},"type":"Feature","geometry":{"type":"GeometryCollection","geometries":[]}},{"properties":{"city":"Dallas","region":"SOUTH (TX/OK/LA)","risk ex. support":44,"geo_score":0.571,"row labels":"2200 Ross Avenue","support":151,"id":"af7rllil5jgv","grand total":268,"lat":32.788246,"group":"BRS","geo_precision":"city","state":"TX","bankers":73,"long":-96.797718},"type":"Feature","geometry":{"type":"GeometryCollection","geometries":[]}},{"properties":{"city":"Austin","region":"SOUTH (TX/OK/LA)","risk ex. support":8,"geo_score":0.571,"row labels":"221 West Sixth Street","support":17,"id":"af7rllp0guti","grand total":41,"lat":30.268515,"group":"BRS","geo_precision":"city","state":"TX","bankers":16,"long":-97.744436},"type":"Feature","geometry":{"type":"GeometryCollection","geometries":[]}},{"properties":{"city":"Arlington","region":"SOUTH (TX/OK/LA)","risk ex. support":null,"geo_score":0.571,"row labels":"3801 S Collins Street","support":1,"id":"af7rllrp3ix4","grand total":1,"lat":32.683496,"group":"S","geo_precision":"city","state":"TX","bankers":null,"long":-97.094977},"type":"Feature","geometry":{"type":"GeometryCollection","geometries":[]}},{"properties":{"city":"Irving","region":"SOUTH (TX/OK/LA)","risk ex. support":19,"geo_score":0.571,"row labels":"3929 W John Carpenter FWY","support":282,"id":"af7rllqtdslq","grand total":302,"lat":32.910986,"group":"BRS","geo_precision":"city","state":"TX","bankers":1,"long":-97.000272},"type":"Feature","geometry":{"type":"GeometryCollection","geometries":[]}},{"properties":{"city":"Shreveport","region":"SOUTH (TX/OK/LA)","risk ex. support":3,"geo_score":0.571,"row labels":"400 Texas Street","support":4,"id":"af7rllha8fce","grand total":11,"lat":32.513533,"group":"BRS","geo_precision":"city","state":"LA","bankers":4,"long":-93.748841},"type":"Feature","geometry":{"type":"GeometryCollection","geometries":[]}},{"properties":{"city":"Fort Worth","region":"SOUTH (TX/OK/LA)","risk ex. support":5,"geo_score":0.571,"row labels":"420 Throckmorton Street","support":31,"id":"af7rllt28862","grand total":54,"lat":32.754195,"group":"BRS","geo_precision":"city","state":"TX","bankers":18,"long":-97.333042},"type":"Feature","geometry":{"type":"GeometryCollection","geometries":[]}},{"properties":{"city":"Baton Rouge","region":"SOUTH (TX/OK/LA)","risk ex. support":6,"geo_score":0.571,"row labels":"451 Florida Street","support":12,"id":"af7rllj2r749","grand total":27,"lat":30.449378,"group":"BRS","geo_precision":"city","state":"LA","bankers":9,"long":-91.186425},"type":"Feature","geometry":{"type":"GeometryCollection","geometries":[]}},{"properties":{"city":"Arlington","region":"SOUTH (TX/OK/LA)","risk ex. support":null,"geo_score":0.571,"row labels":"500 East Border Street","support":19,"id":"af7rlltzza2z","grand total":19,"lat":32.733649,"group":"S","geo_precision":"city","state":"TX","bankers":null,"long":-97.102468},"type":"Feature","geometry":{"type":"GeometryCollection","geometries":[]}},{"properties":{"city":"Tulsa","region":"SOUTH (TX/OK/LA)","risk ex. support":null,"geo_score":0.571,"row labels":"5307 East 41st Street","support":1,"id":"af7rllryx3sl","grand total":1,"lat":36.104396,"group":"S","geo_precision":"city","state":"OK","bankers":null,"long":-95.915961},"type":"Feature","geometry":{"type":"GeometryCollection","geometries":[]}},{"properties":{"city":"Greenville","region":"SOUTH (TX/OK/LA)","risk ex. support":null,"geo_score":0.571,"row labels":"5906 Wesley","support":1,"id":"af7rllnq2a7e","grand total":1,"lat":33.111048,"group":"S","geo_precision":"city","state":"TX","bankers":null,"long":-96.109542},"type":"Feature","geometry":{"type":"GeometryCollection","geometries":[]}},{"properties":{"city":"Lafayette","region":"SOUTH (TX/OK/LA)","risk ex. support":2,"geo_score":0.571,"row labels":"600 Jefferson Street","support":4,"id":"af7rlloshqmj","grand total":11,"lat":30.223945,"group":"BRS","geo_precision":"city","state":"LA","bankers":5,"long":-92.018778},"type":"Feature","geometry":{"type":"GeometryCollection","geometries":[]}},{"properties":{"city":"Houston","region":"SOUTH (TX/OK/LA)","risk ex. support":null,"geo_score":0.571,"row labels":"601 Travis Street","support":1,"id":"af7rllieo464","grand total":1,"lat":29.760418,"group":"S","geo_precision":"city","state":"TX","bankers":null,"long":-95.36354},"type":"Feature","geometry":{"type":"GeometryCollection","geometries":[]}},{"properties":{"city":"Dallas","region":"SOUTH (TX/OK/LA)","risk ex. support":7,"geo_score":0.571,"row labels":"700 North Pearl Street","support":111,"id":"af7rlltrh53c","grand total":118,"lat":32.786755,"group":"RS","geo_precision":"city","state":"TX","bankers":null,"long":-96.795996},"type":"Feature","geometry":{"type":"GeometryCollection","geometries":[]}},{"properties":{"city":"Houston","region":"SOUTH (TX/OK/LA)","risk ex. support":75,"geo_score":0.571,"row labels":"712 Main Street","support":195,"id":"af7rllsd5puv","grand total":356,"lat":29.759075,"group":"BRS","geo_precision":"city","state":"TX","bankers":86,"long":-95.363365},"type":"Feature","geometry":{"type":"GeometryCollection","geometries":[]}},{"properties":{"city":"Houma","region":"SOUTH (TX/OK/LA)","risk ex. support":null,"geo_score":0.571,"row labels":"8026 Main Street","support":1,"id":"af7rllpwvfu1","grand total":2,"lat":29.59842,"group":"BS","geo_precision":"city","state":"LA","bankers":1,"long":-90.718069},"type":"Feature","geometry":{"type":"GeometryCollection","geometries":[]}},{"properties":{"city":"Dallas","region":"SOUTH (TX/OK/LA)","risk ex. support":null,"geo_score":0.571,"row labels":"8111 Preston Road","support":1,"id":"af7rlliiskax","grand total":1,"lat":32.86124,"group":"S","geo_precision":"city","state":"TX","bankers":null,"long":-96.804157},"type":"Feature","geometry":{"type":"GeometryCollection","geometries":[]}},{"properties":{"city":"Tampa","region":"WEST AND SOUTHEAST","risk ex. support":2,"geo_score":0.571,"row labels":"100 North Tampa Street","support":5,"id":"af7rllspcqoj","grand total":21,"lat":27.945246,"group":"BRS","geo_precision":"city","state":"FL","bankers":14,"long":-82.457789},"type":"Feature","geometry":{"type":"GeometryCollection","geometries":[]}},{"properties":{"city":"San Diego","region":"WEST AND SOUTHEAST","risk ex. support":2,"geo_score":0.571,"row labels":"101 W Broadway","support":1,"id":"af7rllibseyn","grand total":7,"lat":32.715632,"group":"BRS","geo_precision":"city","state":"CA","bankers":4,"long":-117.163899},"type":"Feature","geometry":{"type":"GeometryCollection","geometries":[]}},{"properties":{"city":"Tampa","region":"WEST AND SOUTHEAST","risk ex. support":null,"geo_score":0.571,"row labels":"10410 Highland Manor Drive","support":1,"id":"af7rllndgmyj","grand total":1,"lat":27.984153,"group":"S","geo_precision":"city","state":"FL","bankers":null,"long":-82.329124},"type":"Feature","geometry":{"type":"GeometryCollection","geometries":[]}},{"properties":{"city":"Tampa","region":"WEST AND SOUTHEAST","risk ex. support":null,"geo_score":0.571,"row labels":"10420 Highland Manor Drive","support":2,"id":"af7rlls3t36d","grand total":3,"lat":27.984269,"group":"BS","geo_precision":"city","state":"FL","bankers":1,"long":-82.329047},"type":"Feature","geometry":{"type":"GeometryCollection","geometries":[]}},{"properties":{"city":"Tampa","region":"WEST AND SOUTHEAST","risk ex. support":null,"geo_score":0.571,"row labels":"10430 Highland Manor Drive","support":13,"id":"af7rllgdxwge","grand total":13,"lat":27.984384,"group":"S","geo_precision":"city","state":"FL","bankers":null,"long":-82.328969},"type":"Feature","geometry":{"type":"GeometryCollection","geometries":[]}},{"properties":{"city":"Tacoma","region":"WEST AND SOUTHEAST","risk ex. support":null,"geo_score":0.571,"row labels":"1102 Pacific AVE","support":null,"id":"af7rllnwpft5","grand total":2,"lat":47.253197,"group":"B","geo_precision":"city","state":"WA","bankers":2,"long":-122.438608},"type":"Feature","geometry":{"type":"GeometryCollection","geometries":[]}},{"properties":{"city":"Denver","region":"WEST AND SOUTHEAST","risk ex. support":13,"geo_score":0.571,"row labels":"1125 17th Street","support":20,"id":"af7rllpju5pv","grand total":50,"lat":39.749102,"group":"BRS","geo_precision":"city","state":"CO","bankers":17,"long":-104.99484},"type":"Feature","geometry":{"type":"GeometryCollection","geometries":[]}},{"properties":{"city":"San Francisco","region":"WEST AND SOUTHEAST","risk ex. support":null,"geo_score":0.571,"row labels":"123 Mission ST","support":null,"id":"af7rllt8jwcd","grand total":3,"lat":37.792148,"group":"B","geo_precision":"city","state":"CA","bankers":3,"long":-122.394578},"type":"Feature","geometry":{"type":"GeometryCollection","geometries":[]}},{"properties":{"city":"Los Angeles","region":"WEST AND SOUTHEAST","risk ex. support":null,"geo_score":0.571,"row labels":"12400 Wilshire Blvd","support":5,"id":"af7rllrgwxx3","grand total":8,"lat":34.04185,"group":"BS","geo_precision":"city","state":"CA","bankers":3,"long":-118.470211},"type":"Feature","geometry":{"type":"GeometryCollection","geometries":[]}},{"properties":{"city":"Seattle","region":"WEST AND SOUTHEAST","risk ex. support":13,"geo_score":0.571,"row labels":"1301 2nd AVE","support":93,"id":"af7rllvy8rxf","grand total":136,"lat":47.607306,"group":"BRS","geo_precision":"city","state":"WA","bankers":30,"long":-122.337141},"type":"Feature","geometry":{"type":"GeometryCollection","geometries":[]}},{"properties":{"city":"Boulder","region":"WEST AND SOUTHEAST","risk ex. support":null,"geo_score":0.571,"row labels":"1301 Canyon Boulevard","support":null,"id":"af7rlljlgsrh","grand total":1,"lat":40.016247,"group":"B","geo_precision":"city","state":"CO","bankers":1,"long":-105.277859},"type":"Feature","geometry":{"type":"GeometryCollection","geometries":[]}},{"properties":{"city":"Santa Barbara","region":"WEST AND SOUTHEAST","risk ex. support":null,"geo_score":0.571,"row labels":"1302 State ST","support":null,"id":"af7rllilhfcn","grand total":1,"lat":34.424394,"group":"B","geo_precision":"city","state":"CA","bankers":1,"long":-119.705853},"type":"Feature","geometry":{"type":"GeometryCollection","geometries":[]}},{"properties":{"city":"Charlotte","region":"WEST AND SOUTHEAST","risk ex. support":null,"geo_score":0.571,"row labels":"13777 Ballantyne Corporate Pl","support":3,"id":"af7rllnw3ykw","grand total":5,"lat":35.061767,"group":"BS","geo_precision":"city","state":"NC","bankers":2,"long":-80.852797},"type":"Feature","geometry":{"type":"GeometryCollection","geometries":[]}},{"properties":{"city":"Walnut Creek","region":"WEST AND SOUTHEAST","risk ex. support":null,"geo_score":0.571,"row labels":"1390 S Main ST","support":22,"id":"af7rllowl85z","grand total":22,"lat":37.89328,"group":"S","geo_precision":"city","state":"CA","bankers":null,"long":-122.058364},"type":"Feature","geometry":{"type":"GeometryCollection","geometries":[]}},{"properties":{"city":"Tampa","region":"WEST AND SOUTHEAST","risk ex. support":null,"geo_score":0.571,"row labels":"14055 Riveredge Drive Suite 350","support":1,"id":"af7rlls0e2xu","grand total":1,"lat":28.076807,"group":"S","geo_precision":"city","state":"FL","bankers":null,"long":-82.35586},"type":"Feature","geometry":{"type":"GeometryCollection","geometries":[]}},{"properties":{"city":"Sacramento","region":"WEST AND SOUTHEAST","risk ex. support":null,"geo_score":0.571,"row labels":"1415 L St  Ste 650","support":null,"id":"af7rllknwf6d","grand total":3,"lat":38.576506,"group":"B","geo_precision":"city","state":"CA","bankers":3,"long":-121.488295},"type":"Feature","geometry":{"type":"GeometryCollection","geometries":[]}},{"properties":{"city":"Miami","region":"WEST AND SOUTHEAST","risk ex. support":3,"geo_score":0.571,"row labels":"1450 Brickell Ave","support":4,"id":"af7rllvo3swn","grand total":15,"lat":25.758474,"group":"BRS","geo_precision":"city","state":"FL","bankers":8,"long":-80.19277},"type":"Feature","geometry":{"type":"GeometryCollection","geometries":[]}},{"properties":{"city":"Huntington Beach","region":"WEST AND SOUTHEAST","risk ex. support":null,"geo_score":0.571,"row labels":"16162 Beach Blvd","support":2,"id":"af7rllfsv6qt","grand total":4,"lat":33.72795,"group":"BS","geo_precision":"city","state":"CA","bankers":2,"long":-117.989145},"type":"Feature","geometry":{"type":"GeometryCollection","geometries":[]}},{"properties":{"city":"Encino","region":"WEST AND SOUTHEAST","risk ex. support":null,"geo_score":0.571,"row labels":"17107 Ventura BLVD","support":19,"id":"af7rllo2h0zs","grand total":19,"lat":34.160295,"group":"S","geo_precision":"city","state":"CA","bankers":null,"long":-118.50575},"type":"Feature","geometry":{"type":"GeometryCollection","geometries":[]}},{"properties":{"city":"Tucson","region":"WEST AND SOUTHEAST","risk ex. support":null,"geo_score":0.571,"row labels":"1725 E Skyline Drive  Suite 141","support":1,"id":"af7rllgpmw66","grand total":1,"lat":32.334547,"group":"S","geo_precision":"city","state":"AZ","bankers":null,"long":-110.946045},"type":"Feature","geometry":{"type":"GeometryCollection","geometries":[]}},{"properties":{"city":"San Mateo","region":"WEST AND SOUTHEAST","risk ex. support":null,"geo_score":0.571,"row labels":"1730 S El Camino Real and Bovet","support":3,"id":"af7rllmuaw3c","grand total":7,"lat":37.551834,"group":"BS","geo_precision":"city","state":"CA","bankers":4,"long":-122.313735},"type":"Feature","geometry":{"type":"GeometryCollection","geometries":[]}},{"properties":{"city":"Denver","region":"WEST AND SOUTHEAST","risk ex. support":null,"geo_score":0.571,"row labels":"1777 South Harrison Street","support":6,"id":"af7rlls7zm3h","grand total":9,"lat":39.684747,"group":"BS","geo_precision":"city","state":"CO","bankers":3,"long":-104.941844},"type":"Feature","geometry":{"type":"GeometryCollection","geometries":[]}},{"properties":{"city":"Irvine","region":"WEST AND SOUTHEAST","risk ex. support":null,"geo_score":0.571,"row labels":"1833 Alton Parkway","support":9,"id":"af7rllsmjvy3","grand total":9,"lat":33.696965,"group":"S","geo_precision":"city","state":"CA","bankers":null,"long":-117.844238},"type":"Feature","geometry":{"type":"GeometryCollection","geometries":[]}},{"properties":{"city":"Sacramento","region":"WEST AND SOUTHEAST","risk ex. support":null,"geo_score":0.571,"row labels":"1950 Arden WAY","support":5,"id":"af7rllnumqas","grand total":6,"lat":38.596522,"group":"BS","geo_precision":"city","state":"CA","bankers":1,"long":-121.42118},"type":"Feature","geometry":{"type":"GeometryCollection","geometries":[]}},{"properties":{"city":"Los Angeles","region":"WEST AND SOUTHEAST","risk ex. support":1,"geo_score":0.571,"row labels":"1999 Avenue Of The Stars","support":null,"id":"af7rlll2cmrw","grand total":1,"lat":34.058764,"group":"R","geo_precision":"city","state":"CA","bankers":null,"long":-118.416194},"type":"Feature","geometry":{"type":"GeometryCollection","geometries":[]}},{"properties":{"city":"Tucson","region":"WEST AND SOUTHEAST","risk ex. support":null,"geo_score":0.571,"row labels":"2 East Congress","support":3,"id":"af7rllgo0584","grand total":5,"lat":32.221899,"group":"BS","geo_precision":"city","state":"AZ","bankers":2,"long":-110.97111},"type":"Feature","geometry":{"type":"GeometryCollection","geometries":[]}},{"properties":{"city":"Tempe","region":"WEST AND SOUTHEAST","risk ex. support":null,"geo_score":0.571,"row labels":"20 East University Drive","support":null,"id":"af7rllsi5w1a","grand total":1,"lat":33.421933,"group":"B","geo_precision":"city","state":"AZ","bankers":1,"long":-111.939635},"type":"Feature","geometry":{"type":"GeometryCollection","geometries":[]}},{"properties":{"city":"Plantation","region":"WEST AND SOUTHEAST","risk ex. support":null,"geo_score":0.571,"row labels":"200 S Pine Island RD","support":1,"id":"af7rlliynrnw","grand total":1,"lat":26.11735,"group":"S","geo_precision":"city","state":"FL","bankers":null,"long":-80.26316},"type":"Feature","geometry":{"type":"GeometryCollection","geometries":[]}},{"properties":{"city":"Phoenix","region":"WEST AND SOUTHEAST","risk ex. support":22,"geo_score":0.571,"row labels":"201 North Central Avenue","support":120,"id":"af7rlltg9hqu","grand total":170,"lat":33.450433,"group":"BRS","geo_precision":"city","state":"AZ","bankers":28,"long":-112.07382},"type":"Feature","geometry":{"type":"GeometryCollection","geometries":[]}},{"properties":{"city":"Salt Lake City","region":"WEST AND SOUTHEAST","risk ex. support":6,"geo_score":0.571,"row labels":"201 S Main Street","support":10,"id":"af7rllkv1l5v","grand total":29,"lat":40.764785,"group":"BRS","geo_precision":"city","state":"UT","bankers":13,"long":-111.89099},"type":"Feature","geometry":{"type":"GeometryCollection","geometries":[]}},{"properties":{"city":"Los Angeles","region":"WEST AND SOUTHEAST","risk ex. support":9,"geo_score":0.571,"row labels":"2029 Century Park East","support":14,"id":"af7rllo1b22a","grand total":47,"lat":34.059699,"group":"BRS","geo_precision":"city","state":"CA","bankers":24,"long":-118.413045},"type":"Feature","geometry":{"type":"GeometryCollection","geometries":[]}},{"properties":{"city":"Palm Beach","region":"WEST AND SOUTHEAST","risk ex. support":null,"geo_score":0.571,"row labels":"205 Royal Palm Way","support":null,"id":"af7rllsitszn","grand total":1,"lat":26.705728,"group":"B","geo_precision":"city","state":"FL","bankers":1,"long":-80.036472},"type":"Feature","geometry":{"type":"GeometryCollection","geometries":[]}},{"properties":{"city":"Cupertino","region":"WEST AND SOUTHEAST","risk ex. support":null,"geo_score":0.571,"row labels":"20573 Stevens Creek BLVD","support":2,"id":"af7rllpt22y3","grand total":2,"lat":37.322988,"group":"S","geo_precision":"city","state":"CA","bankers":null,"long":-122.034217},"type":"Feature","geometry":{"type":"GeometryCollection","geometries":[]}},{"properties":{"city":"Birmingham","region":"WEST AND SOUTHEAST","risk ex. support":2,"geo_score":0.571,"row labels":"2100 Third Avenue North","support":null,"id":"af7rllnqfvnj","grand total":6,"lat":33.516998,"group":"BR","geo_precision":"city","state":"AL","bankers":4,"long":-86.805379},"type":"Feature","geometry":{"type":"GeometryCollection","geometries":[]}},{"properties":{"city":"El Segundo","region":"WEST AND SOUTHEAST","risk ex. support":null,"geo_score":0.571,"row labels":"2121 Rosecrans Ave","support":4,"id":"af7rllp1dygm","grand total":10,"lat":33.901974,"group":"BS","geo_precision":"city","state":"CA","bankers":6,"long":-118.387676},"type":"Feature","geometry":{"type":"GeometryCollection","geometries":[]}},{"properties":{"city":"Charlotte","region":"WEST AND SOUTHEAST","risk ex. support":1,"geo_score":0.571,"row labels":"214 North Tryon Street","support":null,"id":"af7rllktrm63","grand total":3,"lat":35.228159,"group":"BR","geo_precision":"city","state":"NC","bankers":2,"long":-80.841671},"type":"Feature","geometry":{"type":"GeometryCollection","geometries":[]}},{"properties":{"city":"Woodland Hills","region":"WEST AND SOUTHEAST","risk ex. support":null,"geo_score":0.571,"row labels":"21600 Oxnard Street","support":8,"id":"af7rlluv2eky","grand total":19,"lat":34.179169,"group":"BS","geo_precision":"city","state":"CA","bankers":11,"long":-118.600465},"type":"Feature","geometry":{"type":"GeometryCollection","geometries":[]}},{"properties":{"city":"Pasadena","region":"WEST AND SOUTHEAST","risk ex. support":19,"geo_score":0.571,"row labels":"251 S. Lake Avenue Suite 900","support":19,"id":"af7rlluw979a","grand total":41,"lat":34.141485,"group":"BRS","geo_precision":"city","state":"CA","bankers":3,"long":-118.132372},"type":"Feature","geometry":{"type":"GeometryCollection","geometries":[]}},{"properties":{"city":"Carlsbad","region":"WEST AND SOUTHEAST","risk ex. support":null,"geo_score":0.571,"row labels":"2580 El Camino Real","support":2,"id":"af7rllm6jlt0","grand total":3,"lat":33.178243,"group":"BS","geo_precision":"city","state":"CA","bankers":1,"long":-117.326566},"type":"Feature","geometry":{"type":"GeometryCollection","geometries":[]}},{"properties":{"city":"Denver","region":"WEST AND SOUTHEAST","risk ex. support":null,"geo_score":0.571,"row labels":"2696 South Colorado Boulevard","support":10,"id":"af7rlll99gj4","grand total":10,"lat":39.668835,"group":"S","geo_precision":"city","state":"CO","bankers":null,"long":-104.940711},"type":"Feature","geometry":{"type":"GeometryCollection","geometries":[]}},{"properties":{"city":"Menlo Park","region":"WEST AND SOUTHEAST","risk ex. support":null,"geo_score":0.571,"row labels":"2730 Sand Hill Rd","support":2,"id":"af7rllsomrk5","grand total":4,"lat":37.420605,"group":"BS","geo_precision":"city","state":"CA","bankers":2,"long":-122.209206},"type":"Feature","geometry":{"type":"GeometryCollection","geometries":[]}},{"properties":{"city":"Roseville","region":"WEST AND SOUTHEAST","risk ex. support":null,"geo_score":0.571,"row labels":"2998 Douglas Boulevard","support":2,"id":"af7rllw95m8g","grand total":5,"lat":38.744053,"group":"BS","geo_precision":"city","state":"CA","bankers":3,"long":-121.236406},"type":"Feature","geometry":{"type":"GeometryCollection","geometries":[]}},{"properties":{"city":"Irvine","region":"WEST AND SOUTHEAST","risk ex. support":62,"geo_score":0.571,"row labels":"3 Park Plaza","support":152,"id":"af7rllobo9po","grand total":255,"lat":33.678367,"group":"BRS","geo_precision":"city","state":"CA","bankers":41,"long":-117.838707},"type":"Feature","geometry":{"type":"GeometryCollection","geometries":[]}},{"properties":{"city":"Oakland","region":"WEST AND SOUTHEAST","risk ex. support":23,"geo_score":0.571,"row labels":"300 Lakeside Drive Suite 750","support":23,"id":"af7rllgqyd1w","grand total":48,"lat":37.809016,"group":"BRS","geo_precision":"city","state":"CA","bankers":2,"long":-122.263093},"type":"Feature","geometry":{"type":"GeometryCollection","geometries":[]}},{"properties":{"city":"Los Angeles","region":"WEST AND SOUTHEAST","risk ex. support":16,"geo_score":0.571,"row labels":"300 South Grand Avenue","support":14,"id":"af7rllvia8b7","grand total":58,"lat":34.052782,"group":"BRS","geo_precision":"city","state":"CA","bankers":28,"long":-118.251396},"type":"Feature","geometry":{"type":"GeometryCollection","geometries":[]}},{"properties":{"city":"Upland","region":"WEST AND SOUTHEAST","risk ex. support":null,"geo_score":0.571,"row labels":"31 W Foothill BLVD","support":null,"id":"af7rllto7syp","grand total":1,"lat":34.107068,"group":"B","geo_precision":"city","state":"CA","bankers":1,"long":-117.651927},"type":"Feature","geometry":{"type":"GeometryCollection","geometries":[]}},{"properties":{"city":"Vancouver","region":"WEST AND SOUTHEAST","risk ex. support":1,"geo_score":0.571,"row labels":"3205 NE 52nd ST","support":null,"id":"af7rllkviwtq","grand total":1,"lat":45.659598,"group":"R","geo_precision":"city","state":"WA","bankers":null,"long":-122.637762},"type":"Feature","geometry":{"type":"GeometryCollection","geometries":[]}},{"properties":{"city":"Los Angeles","region":"WEST AND SOUTHEAST","risk ex. support":null,"geo_score":0.571,"row labels":"333 South Grand Ave","support":null,"id":"af7rllqvujl2","grand total":2,"lat":34.052653,"group":"B","geo_precision":"city","state":"CA","bankers":2,"long":-118.251737},"type":"Feature","geometry":{"type":"GeometryCollection","geometries":[]}},{"properties":{"city":"Atlanta","region":"WEST AND SOUTHEAST","risk ex. support":1,"geo_score":0.571,"row labels":"3424 Peachtree Rd NE","support":null,"id":"af7rllskq81j","grand total":2,"lat":33.849766,"group":"BR","geo_precision":"city","state":"GA","bankers":1,"long":-84.362704},"type":"Feature","geometry":{"type":"GeometryCollection","geometries":[]}},{"properties":{"city":"Atlanta","region":"WEST AND SOUTHEAST","risk ex. support":11,"geo_score":0.571,"row labels":"3475 Piedmont Road NE","support":11,"id":"af7rllir29i9","grand total":47,"lat":33.848862,"group":"BRS","geo_precision":"city","state":"GA","bankers":25,"long":-84.37504},"type":"Feature","geometry":{"type":"GeometryCollection","geometries":[]}},{"properties":{"city":"Fort Lauderdale","region":"WEST AND SOUTHEAST","risk ex. support":2,"geo_score":0.571,"row labels":"350 East Las Olas Boulevard","support":2,"id":"af7rllrrcwnf","grand total":9,"lat":26.119151,"group":"BRS","geo_precision":"city","state":"FL","bankers":5,"long":-80.139963},"type":"Feature","geometry":{"type":"GeometryCollection","geometries":[]}},{"properties":{"city":"Santa Ana","region":"WEST AND SOUTHEAST","risk ex. support":null,"geo_score":0.571,"row labels":"3600 S Bristol ST","support":3,"id":"af7rlltomvd8","grand total":6,"lat":33.699604,"group":"BS","geo_precision":"city","state":"CA","bankers":3,"long":-117.885614},"type":"Feature","geometry":{"type":"GeometryCollection","geometries":[]}},{"properties":{"city":"Sunnyvale","region":"WEST AND SOUTHEAST","risk ex. support":null,"geo_score":0.571,"row labels":"410 S Mathilda AVE","support":null,"id":"af7rllfwpk3s","grand total":1,"lat":37.373246,"group":"B","geo_precision":"city","state":"CA","bankers":1,"long":-122.035477},"type":"Feature","geometry":{"type":"GeometryCollection","geometries":[]}},{"properties":{"city":"Orlando","region":"WEST AND SOUTHEAST","risk ex. support":null,"geo_score":0.571,"row labels":"420 S Orange Avenue","support":null,"id":"af7rllgjcu7t","grand total":2,"lat":28.5379,"group":"B","geo_precision":"city","state":"FL","bankers":2,"long":-81.37874},"type":"Feature","geometry":{"type":"GeometryCollection","geometries":[]}},{"properties":{"city":"Nogales","region":"WEST AND SOUTHEAST","risk ex. support":null,"geo_score":0.571,"row labels":"420 West Mariposa Road","support":null,"id":"af7rllnfuucf","grand total":1,"lat":31.366441,"group":"B","geo_precision":"city","state":"AZ","bankers":1,"long":-110.938827},"type":"Feature","geometry":{"type":"GeometryCollection","geometries":[]}},{"properties":{"city":"Orlando","region":"WEST AND SOUTHEAST","risk ex. support":11,"geo_score":0.571,"row labels":"450 S Orange Avenue","support":13,"id":"af7rllpge5lb","grand total":40,"lat":28.537266,"group":"BRS","geo_precision":"city","state":"FL","bankers":16,"long":-81.378697},"type":"Feature","geometry":{"type":"GeometryCollection","geometries":[]}},{"properties":{"city":"San Diego","region":"WEST AND SOUTHEAST","risk ex. support":2,"geo_score":0.571,"row labels":"4650 Mission Bay DR","support":8,"id":"af7rllvs34gr","grand total":12,"lat":32.80536,"group":"BRS","geo_precision":"city","state":"CA","bankers":2,"long":-117.218565},"type":"Feature","geometry":{"type":"GeometryCollection","geometries":[]}},{"properties":{"city":"Tampa","region":"WEST AND SOUTHEAST","risk ex. support":null,"geo_score":0.571,"row labels":"4900 Memorial Highway","support":1,"id":"af7rllpjmt1d","grand total":1,"lat":27.981699,"group":"S","geo_precision":"city","state":"FL","bankers":null,"long":-82.548937},"type":"Feature","geometry":{"type":"GeometryCollection","geometries":[]}},{"properties":{"city":"Orlando","region":"WEST AND SOUTHEAST","risk ex. support":null,"geo_score":0.571,"row labels":"5113 S John Young PKWY","support":1,"id":"af7rlllo9qcx","grand total":1,"lat":28.488584,"group":"S","geo_precision":"city","state":"FL","bankers":null,"long":-81.417318},"type":"Feature","geometry":{"type":"GeometryCollection","geometries":[]}},{"properties":{"city":"Long Beach","region":"WEST AND SOUTHEAST","risk ex. support":null,"geo_score":0.571,"row labels":"5200 E Second ST","support":1,"id":"af7rllk589ld","grand total":3,"lat":33.760331,"group":"BS","geo_precision":"city","state":"CA","bankers":2,"long":-118.135162},"type":"Feature","geometry":{"type":"GeometryCollection","geometries":[]}},{"properties":{"city":"Charlotte","region":"WEST AND SOUTHEAST","risk ex. support":null,"geo_score":0.571,"row labels":"525 North Tryon Street","support":1,"id":"af7rllh9mrap","grand total":3,"lat":35.230476,"group":"BS","geo_precision":"city","state":"NC","bankers":2,"long":-80.838406},"type":"Feature","geometry":{"type":"GeometryCollection","geometries":[]}},{"properties":{"city":"Lake Oswego","region":"WEST AND SOUTHEAST","risk ex. support":1,"geo_score":0.571,"row labels":"5300 Meadows Road Suite 160","support":3,"id":"af7rllkgwg8d","grand total":6,"lat":45.417659,"group":"BRS","geo_precision":"city","state":"OR","bankers":2,"long":-122.732392},"type":"Feature","geometry":{"type":"GeometryCollection","geometries":[]}},{"properties":{"city":"La Mesa","region":"WEST AND SOUTHEAST","risk ex. support":null,"geo_score":0.571,"row labels":"5505 Grossmont CTR","support":3,"id":"af7rlltr2vfc","grand total":7,"lat":32.778743,"group":"BS","geo_precision":"city","state":"CA","bankers":4,"long":-117.007373},"type":"Feature","geometry":{"type":"GeometryCollection","geometries":[]}},{"properties":{"city":"San Francisco","region":"WEST AND SOUTHEAST","risk ex. support":25,"geo_score":0.571,"row labels":"560 Mission Street","support":26,"id":"af7rlln6eq8t","grand total":98,"lat":37.788442,"group":"BRS","geo_precision":"city","state":"CA","bankers":47,"long":-122.399271},"type":"Feature","geometry":{"type":"GeometryCollection","geometries":[]}},{"properties":{"city":"Larkspur","region":"WEST AND SOUTHEAST","risk ex. support":null,"geo_score":0.571,"row labels":"700 Larkspur Landing","support":1,"id":"af7rllmq4mqc","grand total":3,"lat":37.947343,"group":"BS","geo_precision":"city","state":"CA","bankers":2,"long":-122.511541},"type":"Feature","geometry":{"type":"GeometryCollection","geometries":[]}},{"properties":{"city":"Albuquerque","region":"WEST AND SOUTHEAST","risk ex. support":1,"geo_score":0.571,"row labels":"7000 Prospect Place Northeast","support":null,"id":"af7rllv9l46b","grand total":1,"lat":35.107515,"group":"R","geo_precision":"city","state":"NM","bankers":null,"long":-106.566378},"type":"Feature","geometry":{"type":"GeometryCollection","geometries":[]}},{"properties":{"city":"Portland","region":"WEST AND SOUTHEAST","risk ex. support":null,"geo_score":0.571,"row labels":"811 SW 6th AVE","support":1,"id":"af7rlligknae","grand total":2,"lat":45.518272,"group":"BS","geo_precision":"city","state":"OR","bankers":1,"long":-122.679031},"type":"Feature","geometry":{"type":"GeometryCollection","geometries":[]}},{"properties":{"city":"Greeley","region":"WEST AND SOUTHEAST","risk ex. support":null,"geo_score":0.571,"row labels":"822 7th Street","support":1,"id":"af7rllhj6yb1","grand total":1,"lat":40.425892,"group":"S","geo_precision":"city","state":"CO","bankers":null,"long":-104.691315},"type":"Feature","geometry":{"type":"GeometryCollection","geometries":[]}},{"properties":{"city":"Pasadena","region":"WEST AND SOUTHEAST","risk ex. support":1,"geo_score":0.571,"row labels":"860 E Colorado","support":null,"id":"af7rlluz5m2o","grand total":1,"lat":34.145882,"group":"R","geo_precision":"city","state":"CA","bankers":null,"long":-118.132731},"type":"Feature","geometry":{"type":"GeometryCollection","geometries":[]}},{"properties":{"city":"Portland","region":"WEST AND SOUTHEAST","risk ex. support":4,"geo_score":0.571,"row labels":"888 Southwest 5th Avenue - Ste # 415","support":4,"id":"af7rllt57g5d","grand total":15,"lat":45.51758,"group":"BRS","geo_precision":"city","state":"OR","bankers":7,"long":-122.678213},"type":"Feature","geometry":{"type":"GeometryCollection","geometries":[]}},{"properties":{"city":"Northridge","region":"WEST AND SOUTHEAST","risk ex. support":null,"geo_score":0.571,"row labels":"9111 Corbin AVE","support":null,"id":"af7rllg4b3ve","grand total":2,"lat":34.235822,"group":"B","geo_precision":"city","state":"CA","bankers":2,"long":-118.562307},"type":"Feature","geometry":{"type":"GeometryCollection","geometries":[]}},{"properties":{"city":"Chatsworth","region":"WEST AND SOUTHEAST","risk ex. support":7,"geo_score":0.571,"row labels":"9200 Oakdale AVE","support":3,"id":"af7rllvxhqu9","grand total":10,"lat":34.237673,"group":"RS","geo_precision":"city","state":"CA","bankers":null,"long":-118.566876},"type":"Feature","geometry":{"type":"GeometryCollection","geometries":[]}},{"properties":{"city":"Beverly Hills","region":"WEST AND SOUTHEAST","risk ex. support":null,"geo_score":0.571,"row labels":"9454 Wilshire Blvd.","support":3,"id":"af7rllt48uud","grand total":6,"lat":34.067062,"group":"BS","geo_precision":"city","state":"CA","bankers":3,"long":-118.398985},"type":"Feature","geometry":{"type":"GeometryCollection","geometries":[]}},{"properties":{"city":"Culver City","region":"WEST AND SOUTHEAST","risk ex. support":null,"geo_score":0.571,"row labels":"9801 Washington BLVD","support":17,"id":"af7rlllvelmk","grand total":17,"lat":34.022034,"group":"S","geo_precision":"city","state":"CA","bankers":null,"long":-118.396853},"type":"Feature","geometry":{"type":"GeometryCollection","geometries":[]}}],"is_temporal":false,"author":{"url":"","metadata":"","contact_name":"","contact_address":"","source":"","contact_phone":""},"source":"","pagination":{"sort":null,"start":0,"total":194,"limit":1000000},"state":"complete","tags":"","published":"2014-08-16T13:28:06-04:00","id":370353}