{"type":"FeatureCollection","data_type":"Dataset","url_type":null,"permissions":[{"permissions":{"download":true,"view":true},"group_id":"everyone"}],"classification":null,"title":"FAIRFAX_COUNTY_SCHOOL_FACILITIES","count":213,"stream_id":370721,"contributor":{"url":"http://geocommons.com/users/75887","name":"Bigzig"},"data_attributes":null,"calculation_params":null,"icon_link":null,"link":"http://geocommons.com/overlays/370721.json","extent":[-77.4857,38.6849,-77.056,39.0014],"geometry_types":["point"],"unique_name":null,"name":"FAIRFAX_COUNTY_SCHOOL_FACILITIES","feature_count":213,"description":"All the School, Centers, and Administrative Support locations for Fairfax County Public Schools","next_feature":null,"is_raster":false,"short_classification":"Y","stats":{"SCHID_3":{"max":610.0,"variance":17989.1659580122,"mean":229.225352112676,"stdev":134.123696482062,"min":17.0,"median":212.0},"CLUSTER_NU":{"max":8,"variance":6.70263087961732,"mean":4.01408450704225,"stdev":2.58894396996484,"min":0,"median":4},"SCHOOL_NUM":{"max":8431.0,"variance":2287460.8213305,"mean":2431.09389671361,"stdev":1512.43539410135,"min":72.0,"median":2254.0},"STREET_NUM":{"max":15450,"variance":11646944.0286139,"mean":6245.48076923077,"stdev":3412.76193553167,"min":101,"median":6301}},"features":[{"properties":{"SCHID_3":21.0,"CITY":"McLean","HS":null,"SCHOOL_TYP":"MS","ZIP":22101.0,"CLUSTER_NU":1,"ES":null,"WEB_ADDRES":"www.fcps.edu/CooperMS","SCHOOL_NAM":"COOPER","HOME_URL":"http://www.fcps.edu/CooperMS/","TYPE_DESC":"Middle","SCHOOL_NUM":3021.0,"SCHID_3_T":"021","STATE":"VA","MS":"COOPER","SCHID_4_T":"3021","STREET_NAM":"BALLS HILL RD","id":"af9c9qbuimbh","ADDRESS":"977 BALLS HILL RD","GRADES":"7-8","STREET_NUM":977},"type":"Feature","geometry":{"type":"Point","coordinates":[-77.1920670907348,38.9522914234205]}},{"properties":{"SCHID_3":17.0,"CITY":"Vienna","HS":null,"SCHOOL_TYP":"ES","ZIP":22182.0,"CLUSTER_NU":1,"ES":"COLVIN RUN","WEB_ADDRES":"www.fcps.edu/colvinrunes","SCHOOL_NAM":"COLVIN RUN","HOME_URL":"http://www.fcps.edu/colvinrunes/","TYPE_DESC":"Elementary","SCHOOL_NUM":3017.0,"SCHID_3_T":"017","STATE":"VA","MS":null,"SCHID_4_T":"3017","STREET_NAM":"TRAP RD","id":"af9c9qhex6c2","ADDRESS":"1400 TRAP RD","GRADES":"K-6","STREET_NUM":1400},"type":"Feature","geometry":{"type":"Point","coordinates":[-77.2648082296289,38.9466239782471]}},{"properties":{"SCHID_3":335.0,"CITY":"Herndon","HS":null,"SCHOOL_TYP":"ES","ZIP":20171.0,"CLUSTER_NU":8,"ES":"MCNAIR","WEB_ADDRES":"www.fcps.edu/McNairES","SCHOOL_NAM":"MCNAIR","HOME_URL":"http://www.fcps.edu/McNairES/","TYPE_DESC":"Elementary","SCHOOL_NUM":3335.0,"SCHID_3_T":"335","STATE":"VA","MS":null,"SCHID_4_T":"3335","STREET_NAM":"THOMAS JEFFERSON DR","id":"af9c9qf2n8lz","ADDRESS":"2499 THOMAS JEFFERSON DR","GRADES":"K-6","STREET_NUM":2499},"type":"Feature","geometry":{"type":"Point","coordinates":[-77.4045860140827,38.9463673486812]}},{"properties":{"SCHID_3":285.0,"CITY":"Herndon","HS":null,"SCHOOL_TYP":"ES","ZIP":20171.0,"CLUSTER_NU":8,"ES":"COATES","WEB_ADDRES":"www.fcps.edu/coateses","SCHOOL_NAM":"COATES","HOME_URL":"http://www.fcps.edu/coateses","TYPE_DESC":"Elementary","SCHOOL_NUM":8285.0,"SCHID_3_T":"285","STATE":"VA","MS":null,"SCHID_4_T":"1285","STREET_NAM":"RIVER BIRCH RD","id":"af9c9qd1froj","ADDRESS":"2480 RIVER BIRCH RD","GRADES":"K-6","STREET_NUM":2480},"type":"Feature","geometry":{"type":"Point","coordinates":[-77.4192006173766,38.9516846228731]}},{"properties":{"SCHID_3":25.0,"CITY":"McLean","HS":null,"SCHOOL_TYP":"ES","ZIP":22101.0,"CLUSTER_NU":1,"ES":"FRANKLIN SHERMAN","WEB_ADDRES":"www.fcps.edu/FranklinShermanES","SCHOOL_NAM":"FRANKLIN SHERMAN","HOME_URL":"http://www.fcps.edu/FranklinShermanES/","TYPE_DESC":"Elementary","SCHOOL_NUM":3025.0,"SCHID_3_T":"025","STATE":"VA","MS":null,"SCHID_4_T":"3025","STREET_NAM":"BRAWNER ST","id":"af9c9q5i3aqn","ADDRESS":"6630 BRAWNER ST","GRADES":"K-6","STREET_NUM":6630},"type":"Feature","geometry":{"type":"Point","coordinates":[-77.1744523438166,38.9347585952994]}},{"properties":{"SCHID_3":18.0,"CITY":"McLean","HS":null,"SCHOOL_TYP":"ES","ZIP":22102.0,"CLUSTER_NU":1,"ES":"SPRING HILL","WEB_ADDRES":"www.fcps.edu/SpringHillES","SCHOOL_NAM":"SPRING HILL","HOME_URL":"http://www.fcps.edu/SpringHillES/","TYPE_DESC":"Elementary","SCHOOL_NUM":3018.0,"SCHID_3_T":"018","STATE":"VA","MS":null,"SCHID_4_T":"3018","STREET_NAM":"LEWINSVILLE RD","id":"af9c9qauxrau","ADDRESS":"8201 LEWINSVILLE RD","GRADES":"K-6","STREET_NUM":8201},"type":"Feature","geometry":{"type":"Point","coordinates":[-77.2288730118942,38.9389984280936]}},{"properties":{"SCHID_3":325.0,"CITY":"Reston","HS":null,"SCHOOL_TYP":"ES","ZIP":20191.0,"CLUSTER_NU":8,"ES":"SUNRISE VALLEY","WEB_ADDRES":"www.fcps.edu/SunriseValleyES","SCHOOL_NAM":"SUNRISE VALLEY","HOME_URL":"http://www.fcps.edu/SunriseValleyES/","TYPE_DESC":"Elementary","SCHOOL_NUM":3325.0,"SCHID_3_T":"325","STATE":"VA","MS":null,"SCHID_4_T":"3325","STREET_NAM":"CROSS ROAD SCHOOL RD","id":"af9c9qf7xqeo","ADDRESS":"10824 CROSS ROAD SCHOOL RD","GRADES":"K-6","STREET_NUM":10824},"type":"Feature","geometry":{"type":"Point","coordinates":[-77.3202191004613,38.9402632662705]}},{"properties":{"SCHID_3":320.0,"CITY":"Reston","HS":"SOUTH LAKES","SCHOOL_TYP":"HS","ZIP":20191.0,"CLUSTER_NU":8,"ES":null,"WEB_ADDRES":"www.fcps.edu/SouthLakesHS","SCHOOL_NAM":"SOUTH LAKES","HOME_URL":"http://www.fcps.edu/SouthLakesHS/","TYPE_DESC":"High","SCHOOL_NUM":3320.0,"SCHID_3_T":"320","STATE":"VA","MS":null,"SCHID_4_T":"3320","STREET_NAM":"SOUTH LAKES DR","id":"af9c9q5omw6f","ADDRESS":"11400 SOUTH LAKES DR","GRADES":"9-12","STREET_NUM":11400},"type":"Feature","geometry":{"type":"Point","coordinates":[-77.3393372820887,38.9324532364354]}},{"properties":{"SCHID_3":321.0,"CITY":"Reston","HS":null,"SCHOOL_TYP":"MS","ZIP":20191.0,"CLUSTER_NU":8,"ES":null,"WEB_ADDRES":"www.fcps.edu/HughesMS","SCHOOL_NAM":"HUGHES","HOME_URL":"http://www.fcps.edu/HughesMS/","TYPE_DESC":"Middle","SCHOOL_NUM":3321.0,"SCHID_3_T":"321","STATE":"VA","MS":"HUGHES","SCHID_4_T":"3321","STREET_NAM":"RIDGE HEIGHTS RD","id":"af9c9qck75ey","ADDRESS":"11401 RIDGE HEIGHTS RD","GRADES":"7-8","STREET_NUM":11401},"type":"Feature","geometry":{"type":"Point","coordinates":[-77.3388399088179,38.9353208517562]}},{"properties":{"SCHID_3":323.0,"CITY":"Reston","HS":null,"SCHOOL_TYP":"ES","ZIP":20191.0,"CLUSTER_NU":8,"ES":"TERRASET","WEB_ADDRES":"www.fcps.edu/TerrasetES","SCHOOL_NAM":"TERRASET","HOME_URL":"http://www.fcps.edu/TerrasetES/","TYPE_DESC":"Elementary","SCHOOL_NUM":3323.0,"SCHID_3_T":"323","STATE":"VA","MS":null,"SCHID_4_T":"3323","STREET_NAM":"RIDGE HEIGHTS RD","id":"af9c9q5034j1","ADDRESS":"11411 RIDGE HEIGHTS RD","GRADES":"K-6","STREET_NUM":11411},"type":"Feature","geometry":{"type":"Point","coordinates":[-77.3429734001172,38.9367313329135]}},{"properties":{"SCHID_3":327.0,"CITY":"Reston","HS":null,"SCHOOL_TYP":"ES","ZIP":20191.0,"CLUSTER_NU":8,"ES":"HUNTERS WOODS","WEB_ADDRES":"www.fcps.edu/HuntersWoodsES","SCHOOL_NAM":"HUNTERS WOODS","HOME_URL":"http://www.fcps.edu/HuntersWoodsES/","TYPE_DESC":"Elementary","SCHOOL_NUM":3327.0,"SCHID_3_T":"327","STATE":"VA","MS":null,"SCHID_4_T":"3327","STREET_NAM":"COLTS NECK RD","id":"af9c9q3f0owy","ADDRESS":"2401 COLTS NECK RD","GRADES":"K-6","STREET_NUM":2401},"type":"Feature","geometry":{"type":"Point","coordinates":[-77.3614970015708,38.9322197954457]}},{"properties":{"SCHID_3":336.0,"CITY":"Reston","HS":null,"SCHOOL_TYP":"ES","ZIP":20191.0,"CLUSTER_NU":8,"ES":"DOGWOOD","WEB_ADDRES":"www.fcps.edu/DogwoodES","SCHOOL_NAM":"DOGWOOD","HOME_URL":"http://www.fcps.edu/DogwoodES/","TYPE_DESC":"Elementary","SCHOOL_NUM":3336.0,"SCHID_3_T":"336","STATE":"VA","MS":null,"SCHID_4_T":"3336","STREET_NAM":"GLADE DR","id":"af9c9qj2gd60","ADDRESS":"12300 GLADE DR","GRADES":"K-6","STREET_NUM":12300},"type":"Feature","geometry":{"type":"Point","coordinates":[-77.3710300102806,38.9427028972162]}},{"properties":{"SCHID_3":286.0,"CITY":"Herndon","HS":null,"SCHOOL_TYP":"ES","ZIP":20171.0,"CLUSTER_NU":8,"ES":"FLORIS","WEB_ADDRES":"www.fcps.edu/FlorisES","SCHOOL_NAM":"FLORIS","HOME_URL":"http://www.fcps.edu/FlorisES/","TYPE_DESC":"Elementary","SCHOOL_NUM":3286.0,"SCHID_3_T":"286","STATE":"VA","MS":null,"SCHID_4_T":"3286","STREET_NAM":"CENTREVILLE RD","id":"af9c9q6p2bzs","ADDRESS":"2708 CENTREVILLE RD","GRADES":"K-6","STREET_NUM":2708},"type":"Feature","geometry":{"type":"Point","coordinates":[-77.4140544024512,38.9359277855613]}},{"properties":{"SCHID_3":35.0,"CITY":"McLean","HS":null,"SCHOOL_TYP":"ES","ZIP":22101.0,"CLUSTER_NU":1,"ES":"CHESTERBROOK","WEB_ADDRES":"www.fcps.edu/ChesterbrookES","SCHOOL_NAM":"CHESTERBROOK","HOME_URL":"http://www.fcps.edu/ChesterbrookES/","TYPE_DESC":"Elementary","SCHOOL_NUM":3035.0,"SCHID_3_T":"035","STATE":"VA","MS":null,"SCHID_4_T":"3035","STREET_NAM":"KIRBY RD","id":"af9c9q99djhz","ADDRESS":"1753 KIRBY RD","GRADES":"K-6","STREET_NUM":1753},"type":"Feature","geometry":{"type":"Point","coordinates":[-77.1554238176799,38.9186385568605]}},{"properties":{"SCHID_3":36.0,"CITY":"McLean","HS":null,"SCHOOL_TYP":"ES","ZIP":22101.0,"CLUSTER_NU":1,"ES":"KENT GARDENS","WEB_ADDRES":"www.fcps.edu/KentGardensES","SCHOOL_NAM":"KENT GARDENS","HOME_URL":"http://www.fcps.edu/KentGardensES/","TYPE_DESC":"Elementary","SCHOOL_NUM":3036.0,"SCHID_3_T":"036","STATE":"VA","MS":null,"SCHID_4_T":"3036","STREET_NAM":"MELBOURNE DR","id":"af9c9qjb3ul9","ADDRESS":"1717 MELBOURNE DR","GRADES":"K-6","STREET_NUM":1717},"type":"Feature","geometry":{"type":"Point","coordinates":[-77.175769765099,38.9214772300148]}},{"properties":{"SCHID_3":30.0,"CITY":"McLean","HS":"MCLEAN","SCHOOL_TYP":"HS","ZIP":22101.0,"CLUSTER_NU":1,"ES":null,"WEB_ADDRES":"www.fcps.edu/McLeanHS","SCHOOL_NAM":"MCLEAN","HOME_URL":"http://www.fcps.edu/McLeanHS/","TYPE_DESC":"High","SCHOOL_NUM":3030.0,"SCHID_3_T":"030","STATE":"VA","MS":null,"SCHID_4_T":"3030","STREET_NAM":"DAVIDSON RD","id":"af9c9qf6w50o","ADDRESS":"1633 DAVIDSON RD","GRADES":"9-12","STREET_NUM":1633},"type":"Feature","geometry":{"type":"Point","coordinates":[-77.1852073144453,38.9232171883567]}},{"properties":{"SCHID_3":297.0,"CITY":"Great Falls","HS":null,"SCHOOL_TYP":"ES","ZIP":22066.0,"CLUSTER_NU":1,"ES":"GREAT FALLS","WEB_ADDRES":"www.fcps.edu/GreatFallsES","SCHOOL_NAM":"GREAT FALLS","HOME_URL":"http://www.fcps.edu/GreatFallsES/","TYPE_DESC":"Elementary","SCHOOL_NUM":3297.0,"SCHID_3_T":"297","STATE":"VA","MS":null,"SCHID_4_T":"3297","STREET_NAM":"WALKER RD","id":"af9c9q4w3ve6","ADDRESS":"701 WALKER RD","GRADES":"K-6","STREET_NUM":701},"type":"Feature","geometry":{"type":"Point","coordinates":[-77.2918496770149,39.0014385913487]}},{"properties":{"SCHID_3":295.0,"CITY":"Great Falls","HS":null,"SCHOOL_TYP":"ES","ZIP":22066.0,"CLUSTER_NU":1,"ES":"FORESTVILLE","WEB_ADDRES":"www.fcps.edu/ForestvilleES","SCHOOL_NAM":"FORESTVILLE","HOME_URL":"http://www.fcps.edu/ForestvilleES/","TYPE_DESC":"Elementary","SCHOOL_NUM":3295.0,"SCHID_3_T":"295","STATE":"VA","MS":null,"SCHID_4_T":"3295","STREET_NAM":"UTTERBACK STORE RD","id":"af9c9qdbe16k","ADDRESS":"1085 UTTERBACK STORE RD","GRADES":"K-6","STREET_NUM":1085},"type":"Feature","geometry":{"type":"Point","coordinates":[-77.3282989451862,38.9935629723727]}},{"properties":{"SCHID_3":270.0,"CITY":"Herndon","HS":"HERNDON","SCHOOL_TYP":"HS","ZIP":20170.0,"CLUSTER_NU":1,"ES":null,"WEB_ADDRES":"www.fcps.edu/HerndonHS","SCHOOL_NAM":"HERNDON","HOME_URL":"http://www.fcps.edu/HerndonHS/","TYPE_DESC":"High","SCHOOL_NUM":3270.0,"SCHID_3_T":"270","STATE":"VA","MS":null,"SCHID_4_T":"3270","STREET_NAM":"BENNET ST","id":"af9c9qfozsce","ADDRESS":"700 BENNET ST","GRADES":"9-12","STREET_NUM":700},"type":"Feature","geometry":{"type":"Point","coordinates":[-77.3744265589917,38.9862394009163]}},{"properties":{"SCHID_3":273.0,"CITY":"Herndon","HS":null,"SCHOOL_TYP":"ES","ZIP":20170.0,"CLUSTER_NU":1,"ES":"DRANESVILLE","WEB_ADDRES":"www.fcps.edu/DranesvilleES","SCHOOL_NAM":"DRANESVILLE","HOME_URL":"http://www.fcps.edu/DranesvilleES/","TYPE_DESC":"Elementary","SCHOOL_NUM":3273.0,"SCHID_3_T":"273","STATE":"VA","MS":null,"SCHID_4_T":"3273","STREET_NAM":"POWELLS TAVERN PLACE","id":"af9c9q4bedo6","ADDRESS":"1515 POWELLS TAVERN PLACE","GRADES":"K-6","STREET_NUM":1515},"type":"Feature","geometry":{"type":"Point","coordinates":[-77.3872688614402,38.9964476268421]}},{"properties":{"SCHID_3":305.0,"CITY":"Reston","HS":null,"SCHOOL_TYP":"ES","ZIP":20194.0,"CLUSTER_NU":1,"ES":"ALDRIN","WEB_ADDRES":"www.fcps.edu/AldrinES","SCHOOL_NAM":"ALDRIN","HOME_URL":"http://www.fcps.edu/AldrinES/","TYPE_DESC":"Elementary","SCHOOL_NUM":3305.0,"SCHID_3_T":"305","STATE":"VA","MS":null,"SCHID_4_T":"3305","STREET_NAM":"CENTER HARBOR RD","id":"af9c9qdtbvgl","ADDRESS":"11375 CENTER HARBOR RD","GRADES":"K-6","STREET_NUM":11375},"type":"Feature","geometry":{"type":"Point","coordinates":[-77.3379626717065,38.9797477347015]}},{"properties":{"SCHID_3":304.0,"CITY":"Reston","HS":null,"SCHOOL_TYP":"ES","ZIP":20194.0,"CLUSTER_NU":1,"ES":"ARMSTRONG","WEB_ADDRES":"www.fcps.edu/ArmstrongES","SCHOOL_NAM":"ARMSTRONG","HOME_URL":"http://www.fcps.edu/ArmstrongES/","TYPE_DESC":"Elementary","SCHOOL_NUM":3304.0,"SCHID_3_T":"304","STATE":"VA","MS":null,"SCHID_4_T":"3304","STREET_NAM":"LAKE NEWPORT RD","id":"af9c9qj0972u","ADDRESS":"11900 LAKE NEWPORT RD","GRADES":"K-6","STREET_NUM":11900},"type":"Feature","geometry":{"type":"Point","coordinates":[-77.3583423167061,38.9802019412086]}},{"properties":{"SCHID_3":74.0,"CITY":"Falls Church","HS":null,"SCHOOL_TYP":"ES","ZIP":22043.0,"CLUSTER_NU":2,"ES":"LEMON ROAD","WEB_ADDRES":"www.fcps.edu/LemonRoadES","SCHOOL_NAM":"LEMON ROAD","HOME_URL":"http://www.fcps.edu/LemonRoadES/","TYPE_DESC":"Elementary","SCHOOL_NUM":3074.0,"SCHID_3_T":"074","STATE":"VA","MS":null,"SCHID_4_T":"3074","STREET_NAM":"IDYLWOOD RD","id":"af9c9qexyio1","ADDRESS":"7230 IDYLWOOD RD","GRADES":"K-6","STREET_NUM":7230},"type":"Feature","geometry":{"type":"Point","coordinates":[-77.195220401324,38.9039617638146]}},{"properties":{"SCHID_3":71.0,"CITY":"Vienna","HS":null,"SCHOOL_TYP":"MS","ZIP":22182.0,"CLUSTER_NU":2,"ES":null,"WEB_ADDRES":"www.fcps.edu/KilmerMS","SCHOOL_NAM":"KILMER","HOME_URL":"http://www.fcps.edu/KilmerMS/","TYPE_DESC":"Middle","SCHOOL_NUM":3071.0,"SCHID_3_T":"071","STATE":"VA","MS":"KILMER","SCHID_4_T":"3071","STREET_NAM":"WOLFTRAP RD","id":"af9c9q3i8tnw","ADDRESS":"8100 WOLFTRAP RD","GRADES":"7-8","STREET_NUM":8100},"type":"Feature","geometry":{"type":"Point","coordinates":[-77.2251512733005,38.9040167308263]}},{"properties":{"SCHID_3":70.0,"CITY":"Falls Church","HS":"MARSHALL","SCHOOL_TYP":"HS","ZIP":22043.0,"CLUSTER_NU":2,"ES":null,"WEB_ADDRES":"www.fcps.edu/MarshallHS","SCHOOL_NAM":"MARSHALL","HOME_URL":"http://www.fcps.edu/MarshallHS/","TYPE_DESC":"High","SCHOOL_NUM":3070.0,"SCHID_3_T":"070","STATE":"VA","MS":null,"SCHID_4_T":"3070","STREET_NAM":"LEESBURG PI","id":"af9c9qd5vy4v","ADDRESS":"7731 LEESBURG PI","GRADES":"9-12","STREET_NUM":7731},"type":"Feature","geometry":{"type":"Point","coordinates":[-77.2126884184881,38.906045777328]}},{"properties":{"SCHID_3":77.0,"CITY":"Vienna","HS":null,"SCHOOL_TYP":"ES","ZIP":22182.0,"CLUSTER_NU":2,"ES":"FREEDOM HILL","WEB_ADDRES":"www.fcps.edu/FreedomHillES","SCHOOL_NAM":"FREEDOM HILL","HOME_URL":"http://www.fcps.edu/FreedomHillES/","TYPE_DESC":"Elementary","SCHOOL_NUM":3077.0,"SCHID_3_T":"077","STATE":"VA","MS":null,"SCHID_4_T":"3077","STREET_NAM":"LORD FAIRFAX DR","id":"af9c9qamytvi","ADDRESS":"1945 LORD FAIRFAX DR","GRADES":"K-6","STREET_NUM":1945},"type":"Feature","geometry":{"type":"Point","coordinates":[-77.2298514866782,38.9111760722554]}},{"properties":{"SCHID_3":333.0,"CITY":"Herndon","HS":null,"SCHOOL_TYP":"ES","ZIP":20171.0,"CLUSTER_NU":7,"ES":"OAK HILL","WEB_ADDRES":"www.fcps.edu/OakHillES","SCHOOL_NAM":"OAK HILL","HOME_URL":"http://www.fcps.edu/OakHillES/","TYPE_DESC":"Elementary","SCHOOL_NUM":2333.0,"SCHID_3_T":"333","STATE":"VA","MS":null,"SCHID_4_T":"2333","STREET_NAM":"KINROSS CI","id":"af9c9q997ltx","ADDRESS":"3210 KINROSS CI","GRADES":"K-6","STREET_NUM":3210},"type":"Feature","geometry":{"type":"Point","coordinates":[-77.4084987095409,38.9129529658535]}},{"properties":{"SCHID_3":64.0,"CITY":"Vienna","HS":null,"SCHOOL_TYP":"SC","ZIP":22180.0,"CLUSTER_NU":0,"ES":null,"WEB_ADDRES":"www.fcps.edu/CedarLaneCenter","SCHOOL_NAM":"CEDAR LANE ED CTR","HOME_URL":"http://www.fcps.edu/CedarLaneCenter/","TYPE_DESC":"Special Education Center","SCHOOL_NUM":3064.0,"SCHID_3_T":"064","STATE":"VA","MS":null,"SCHID_4_T":"3064","STREET_NAM":"CEDAR LA, SW","id":"af9c9q52y04n","ADDRESS":"101 CEDAR LA, SW","GRADES":"N/A","STREET_NUM":101},"type":"Feature","geometry":{"type":"Point","coordinates":[-77.2455018582717,38.8840326933638]}},{"properties":{"SCHID_3":276.0,"CITY":"Herndon","HS":null,"SCHOOL_TYP":"ES","ZIP":20170.0,"CLUSTER_NU":1,"ES":"HERNDON","WEB_ADDRES":"www.fcps.edu/HerndonES","SCHOOL_NAM":"HERNDON","HOME_URL":"http://www.fcps.edu/HerndonES/","TYPE_DESC":"Elementary","SCHOOL_NUM":3276.0,"SCHID_3_T":"276","STATE":"VA","MS":null,"SCHID_4_T":"3276","STREET_NAM":"DRAINSVILLE RD","id":"af9c9qftjwxp","ADDRESS":"630 DRAINSVILLE RD","GRADES":"K-6","STREET_NUM":630},"type":"Feature","geometry":{"type":"Point","coordinates":[-77.3767839461741,38.9759135944438]}},{"properties":{"SCHID_3":282.0,"CITY":"Herndon","HS":null,"SCHOOL_TYP":"ES","ZIP":20170.0,"CLUSTER_NU":1,"ES":"CLEARVIEW","WEB_ADDRES":"www.fcps.edu/ClearviewES","SCHOOL_NAM":"CLEARVIEW","HOME_URL":"http://www.fcps.edu/ClearviewES/","TYPE_DESC":"Elementary","SCHOOL_NUM":3282.0,"SCHID_3_T":"282","STATE":"VA","MS":null,"SCHID_4_T":"3282","STREET_NAM":"BUILDERS RD","id":"af9c9qam7iq2","ADDRESS":"12635 BUILDERS RD","GRADES":"K-6","STREET_NUM":12635},"type":"Feature","geometry":{"type":"Point","coordinates":[-77.3912107531807,38.983692375881]}},{"properties":{"SCHID_3":302.0,"CITY":"Reston","HS":null,"SCHOOL_TYP":"ES","ZIP":20190.0,"CLUSTER_NU":8,"ES":"FOREST EDGE","WEB_ADDRES":"www.fcps.edu/ForestEdgeES","SCHOOL_NAM":"FOREST EDGE","HOME_URL":"http://www.fcps.edu/ForestEdgeES/","TYPE_DESC":"Elementary","SCHOOL_NUM":3302.0,"SCHID_3_T":"302","STATE":"VA","MS":null,"SCHID_4_T":"3302","STREET_NAM":"BEACONTREE LA","id":"af9c9qho93xi","ADDRESS":"1501 BEACONTREE LA","GRADES":"K-6","STREET_NUM":1501},"type":"Feature","geometry":{"type":"Point","coordinates":[-77.3295475234665,38.9688443723322]}},{"properties":{"SCHID_3":281.0,"CITY":"Herndon","HS":null,"SCHOOL_TYP":"MS","ZIP":20170.0,"CLUSTER_NU":1,"ES":null,"WEB_ADDRES":"www.fcps.edu/HerndonMS","SCHOOL_NAM":"HERNDON","HOME_URL":"http://www.fcps.edu/HerndonMS/","TYPE_DESC":"Middle","SCHOOL_NUM":3281.0,"SCHID_3_T":"281","STATE":"VA","MS":"HERNDON","SCHID_4_T":"3281","STREET_NAM":"LOCUST ST","id":"af9c9qbhamsl","ADDRESS":"901 LOCUST ST","GRADES":"7-8","STREET_NUM":901},"type":"Feature","geometry":{"type":"Point","coordinates":[-77.3913144799752,38.9677930240078]}},{"properties":{"SCHID_3":287.0,"CITY":"Herndon","HS":null,"SCHOOL_TYP":"ES","ZIP":20170.0,"CLUSTER_NU":1,"ES":"HUTCHISON","WEB_ADDRES":"www.fcps.edu/HutchisonES","SCHOOL_NAM":"HUTCHISON","HOME_URL":"http://www.fcps.edu/HutchisonES","TYPE_DESC":"Elementary","SCHOOL_NUM":3287.0,"SCHID_3_T":"287","STATE":"VA","MS":null,"SCHID_4_T":"3287","STREET_NAM":"PARCHER AV","id":"af9c9q6q1qwe","ADDRESS":"13209 PARCHER AV","GRADES":"K-6","STREET_NUM":13209},"type":"Feature","geometry":{"type":"Point","coordinates":[-77.406911354658,38.9612798167445]}},{"properties":{"SCHID_3":281.0,"CITY":"Herndon","HS":null,"SCHOOL_TYP":"FM","ZIP":20170.0,"CLUSTER_NU":0,"ES":null,"WEB_ADDRES":null,"SCHOOL_NAM":"HUTCHISON MS SITE","HOME_URL":"http://www.fcps.edu/HerndonMS/","TYPE_DESC":"Future Middle","SCHOOL_NUM":281.0,"SCHID_3_T":"281","STATE":"VA","MS":null,"SCHID_4_T":"281","STREET_NAM":null,"id":"af9c9qfcptty","ADDRESS":null,"GRADES":"N/A","STREET_NUM":null},"type":"Feature","geometry":{"type":"Point","coordinates":[-77.4046569203504,38.9601866601143]}},{"properties":{"SCHID_3":20.0,"CITY":"McLean","HS":"LANGLEY","SCHOOL_TYP":"HS","ZIP":22101.0,"CLUSTER_NU":1,"ES":null,"WEB_ADDRES":"www.fcps.edu/LangleyHS","SCHOOL_NAM":"LANGLEY","HOME_URL":"http://www.fcps.edu/LangleyHS/","TYPE_DESC":"High","SCHOOL_NUM":3020.0,"SCHID_3_T":"020","STATE":"VA","MS":null,"SCHID_4_T":"3020","STREET_NAM":"GEORGETOWN PI","id":"af9c9q8e24zn","ADDRESS":"6520 GEORGETOWN PI","GRADES":"9-12","STREET_NUM":6520},"type":"Feature","geometry":{"type":"Point","coordinates":[-77.1666058162734,38.9500460448189]}},{"properties":{"SCHID_3":240.0,"CITY":"Chantilly","HS":"WESTFIELD","SCHOOL_TYP":"HS","ZIP":20151.0,"CLUSTER_NU":8,"ES":null,"WEB_ADDRES":"www.fcps.edu/WestfieldHS","SCHOOL_NAM":"WESTFIELDS","HOME_URL":"http://www.fcps.edu/WestfieldHS/","TYPE_DESC":"High","SCHOOL_NUM":2240.0,"SCHID_3_T":"240","STATE":"VA","MS":null,"SCHID_4_T":"2240","STREET_NAM":"STONECROFT BV","id":"af9c9qeqik5n","ADDRESS":"4700 STONECROFT BV","GRADES":"9-12","STREET_NUM":4700},"type":"Feature","geometry":{"type":"Point","coordinates":[-77.4651338793559,38.8855602869979]}},{"properties":{"SCHID_3":95.0,"CITY":"Falls Church","HS":null,"SCHOOL_TYP":"ES","ZIP":22042.0,"CLUSTER_NU":2,"ES":"WESTLAWN","WEB_ADDRES":"www.fcps.edu/WestlawnES","SCHOOL_NAM":"WESTLAWN","HOME_URL":"http://www.fcps.edu/WestlawnES/","TYPE_DESC":"Elementary","SCHOOL_NUM":3095.0,"SCHID_3_T":"095","STATE":"VA","MS":null,"SCHID_4_T":"3095","STREET_NAM":"WESTLEY RD","id":"af9c9qedonrh","ADDRESS":"3200 WESTLEY RD","GRADES":"K-6","STREET_NUM":3200},"type":"Feature","geometry":{"type":"Point","coordinates":[-77.183432549724,38.86265011049]}},{"properties":{"SCHID_3":93.0,"CITY":"Falls Church","HS":null,"SCHOOL_TYP":"FE","ZIP":22042.0,"CLUSTER_NU":0,"ES":null,"WEB_ADDRES":null,"SCHOOL_NAM":"GRAHAM ROAD","HOME_URL":"http://www.fcps.edu/GrahamRoadES/","TYPE_DESC":"Future Elementary","SCHOOL_NUM":3093.0,"SCHID_3_T":"093","STATE":"VA","MS":null,"SCHID_4_T":"3093","STREET_NAM":"GRAHAM RD","id":"af9c9qhk1rct","ADDRESS":"3036 GRAHAM RD","GRADES":"K-6","STREET_NUM":3036},"type":"Feature","geometry":{"type":"Point","coordinates":[-77.195639485832,38.8678456699351]}},{"properties":{"SCHID_3":90.0,"CITY":"Falls Church","HS":"FALLS CHURCH","SCHOOL_TYP":"HS","ZIP":22042.0,"CLUSTER_NU":2,"ES":null,"WEB_ADDRES":"www.fcps.edu/FallsChurchHS","SCHOOL_NAM":"FALLS CHURCH","HOME_URL":"http://www.fcps.edu/FallsChurchHS/","TYPE_DESC":"High","SCHOOL_NUM":3090.0,"SCHID_3_T":"090","STATE":"VA","MS":null,"SCHID_4_T":"3090","STREET_NAM":"JAGUAR TR","id":"af9c9qiw46ey","ADDRESS":"7521 JAGUAR TR","GRADES":"9-12","STREET_NUM":7521},"type":"Feature","geometry":{"type":"Point","coordinates":[-77.2074262301223,38.8615111995503]}},{"properties":{"SCHID_3":84.0,"CITY":"Falls Church","HS":null,"SCHOOL_TYP":"ES","ZIP":22042.0,"CLUSTER_NU":2,"ES":"PINE SPRING","WEB_ADDRES":"www.fcps.edu/PineSpringES","SCHOOL_NAM":"PINE SPRING","HOME_URL":"http://www.fcps.edu/PineSpringES/","TYPE_DESC":"Elementary","SCHOOL_NUM":3084.0,"SCHID_3_T":"084","STATE":"VA","MS":null,"SCHID_4_T":"3084","STREET_NAM":"WILLOW LN","id":"af9c9q9a5gnp","ADDRESS":"7607 WILLOW LN","GRADES":"K-6","STREET_NUM":7607},"type":"Feature","geometry":{"type":"Point","coordinates":[-77.2087466878512,38.870708441451]}},{"properties":{"SCHID_3":81.0,"CITY":"Falls Church","HS":null,"SCHOOL_TYP":"MS","ZIP":22042.0,"CLUSTER_NU":2,"ES":null,"WEB_ADDRES":"www.fcps.edu/LutherJacksonMS","SCHOOL_NAM":"JACKSON","HOME_URL":"http://www.fcps.edu/LutherJacksonMS/","TYPE_DESC":"Middle","SCHOOL_NUM":3081.0,"SCHID_3_T":"081","STATE":"VA","MS":"JACKSON","SCHID_4_T":"3081","STREET_NAM":"GALLOWS RD","id":"af9c9q4k3d36","ADDRESS":"3020 GALLOWS RD","GRADES":"7-8","STREET_NUM":3020},"type":"Feature","geometry":{"type":"Point","coordinates":[-77.2291254855517,38.8682876758294]}},{"properties":{"SCHID_3":87.0,"CITY":"Fairfax","HS":null,"SCHOOL_TYP":"ES","ZIP":22031.0,"CLUSTER_NU":2,"ES":"FAIRHILL","WEB_ADDRES":"www.fcps.edu/FairhillES","SCHOOL_NAM":"FAIRHILL","HOME_URL":"http://www.fcps.edu/FairhillES/","TYPE_DESC":"Elementary","SCHOOL_NUM":3087.0,"SCHID_3_T":"087","STATE":"VA","MS":null,"SCHID_4_T":"3087","STREET_NAM":"CHICHESTER LA","id":"af9c9q8mjor1","ADDRESS":"3001 CHICHESTER LA","GRADES":"K-6","STREET_NUM":3001},"type":"Feature","geometry":{"type":"Point","coordinates":[-77.2479469446192,38.8697711964504]}},{"properties":{"SCHID_3":67.0,"CITY":"Vienna","HS":null,"SCHOOL_TYP":"ES","ZIP":22180.0,"CLUSTER_NU":2,"ES":"LOUISE ARCHER","WEB_ADDRES":"www.fcps.edu/LouiseArcherES","SCHOOL_NAM":"LOUISE ARCHER","HOME_URL":"http://www.fcps.edu/LouiseArcherES/","TYPE_DESC":"Elementary","SCHOOL_NUM":3067.0,"SCHID_3_T":"067","STATE":"VA","MS":null,"SCHID_4_T":"3067","STREET_NAM":"NUTLEY ST","id":"af9c9qe08rbs","ADDRESS":"324 NUTLEY ST","GRADES":"K-6","STREET_NUM":324},"type":"Feature","geometry":{"type":"Point","coordinates":[-77.2779585294835,38.8985379803806]}},{"properties":{"SCHID_3":332.0,"CITY":"Fairfax","HS":null,"SCHOOL_TYP":"ES","ZIP":22033.0,"CLUSTER_NU":8,"ES":"NAVY","WEB_ADDRES":"www.fcps.edu/NavyES","SCHOOL_NAM":"NAVY","HOME_URL":"http://www.fcps.edu/NavyES/","TYPE_DESC":"Elementary","SCHOOL_NUM":3332.0,"SCHID_3_T":"332","STATE":"VA","MS":null,"SCHID_4_T":"3332","STREET_NAM":"WEST OX RD","id":"af9c9qbxlip1","ADDRESS":"3500 WEST OX RD","GRADES":"K-6","STREET_NUM":3500},"type":"Feature","geometry":{"type":"Point","coordinates":[-77.3789064622289,38.8892463129085]}},{"properties":{"SCHID_3":252.0,"CITY":"Fairfax","HS":null,"SCHOOL_TYP":"ES","ZIP":22033.0,"CLUSTER_NU":7,"ES":"LEES CORNER","WEB_ADDRES":"www.fcps.edu/LeesCornerES","SCHOOL_NAM":"LEES CORNER","HOME_URL":"http://www.fcps.edu/LeesCornerES/","TYPE_DESC":"Elementary","SCHOOL_NUM":2252.0,"SCHID_3_T":"252","STATE":"VA","MS":null,"SCHID_4_T":"2252","STREET_NAM":"HOLLINGER AV","id":"af9c9qgn26m7","ADDRESS":"13500 HOLLINGER AV","GRADES":"K-6","STREET_NUM":13500},"type":"Feature","geometry":{"type":"Point","coordinates":[-77.411013798894,38.8903563122878]}},{"properties":{"SCHID_3":83.0,"CITY":"Falls Church","HS":null,"SCHOOL_TYP":"ES","ZIP":22043.0,"CLUSTER_NU":2,"ES":"SHREVEWOOD","WEB_ADDRES":"www.fcps.edu/ShrevewoodES","SCHOOL_NAM":"SHREVEWOOD","HOME_URL":"http://www.fcps.edu/ShrevewoodES/","TYPE_DESC":"Elementary","SCHOOL_NUM":3083.0,"SCHID_3_T":"083","STATE":"VA","MS":null,"SCHID_4_T":"3083","STREET_NAM":"SHREVE RD","id":"af9c9qdz5icu","ADDRESS":"7525 SHREVE RD","GRADES":"K-6","STREET_NUM":7525},"type":"Feature","geometry":{"type":"Point","coordinates":[-77.2057255240327,38.8885619243939]}},{"properties":{"SCHID_3":82.0,"CITY":"Falls Church","HS":null,"SCHOOL_TYP":"ES","ZIP":22046.0,"CLUSTER_NU":1,"ES":"TIMBER LANE","WEB_ADDRES":"www.fcps.edu/TimberLaneES","SCHOOL_NAM":"TIMBER LANE","HOME_URL":"http://www.fcps.edu/TimberLaneES/","TYPE_DESC":"Elementary","SCHOOL_NUM":3082.0,"SCHID_3_T":"082","STATE":"VA","MS":null,"SCHID_4_T":"3082","STREET_NAM":"WEST ST","id":"af9c9qft5auu","ADDRESS":"2737 WEST ST","GRADES":"K-6","STREET_NUM":2737},"type":"Feature","geometry":{"type":"Point","coordinates":[-77.1979435751559,38.8797615189568]}},{"properties":{"SCHID_3":93.0,"CITY":"Falls Church","HS":null,"SCHOOL_TYP":"FE","ZIP":22042.0,"CLUSTER_NU":0,"ES":null,"WEB_ADDRES":null,"SCHOOL_NAM":"GRAHAM ROAD ES SITE","HOME_URL":"http://www.fcps.edu/GrahamRoadES/","TYPE_DESC":"Future Elementary","SCHOOL_NUM":3093.0,"SCHID_3_T":"093","STATE":"VA","MS":null,"SCHID_4_T":"3093","STREET_NAM":"Graham Road","id":"af9c9q3llzyk","ADDRESS":"3036 Graham Road","GRADES":"K-6","STREET_NUM":3036},"type":"Feature","geometry":{"type":"Point","coordinates":[-77.190845648143,38.8769080645255]}},{"properties":{"SCHID_3":65.0,"CITY":"Vienna","HS":null,"SCHOOL_TYP":"ES","ZIP":22180.0,"CLUSTER_NU":2,"ES":"STENWOOD","WEB_ADDRES":"www.fcps.edu/StenwoodES","SCHOOL_NAM":"STENWOOD","HOME_URL":"http://www.fcps.edu/StenwoodES/","TYPE_DESC":"Elementary","SCHOOL_NUM":3065.0,"SCHID_3_T":"065","STATE":"VA","MS":null,"SCHID_4_T":"3065","STREET_NAM":"GALLOWS RD","id":"af9c9qcnoevy","ADDRESS":"2620 GALLOWS RD","GRADES":"K-6","STREET_NUM":2620},"type":"Feature","geometry":{"type":"Point","coordinates":[-77.2295008364925,38.8846846391253]}},{"properties":{"SCHID_3":61.0,"CITY":"Vienna","HS":null,"SCHOOL_TYP":"MS","ZIP":22180.0,"CLUSTER_NU":2,"ES":null,"WEB_ADDRES":"www.fcps.edu/ThoreauMS","SCHOOL_NAM":"THOREAU","HOME_URL":"http://www.fcps.edu/ThoreauMS/","TYPE_DESC":"Middle","SCHOOL_NUM":3061.0,"SCHID_3_T":"061","STATE":"VA","MS":"THOREAU","SCHID_4_T":"3061","STREET_NAM":"CEDAR LA","id":"af9c9q3tig2n","ADDRESS":"2505 CEDAR LA","GRADES":"7-8","STREET_NUM":2505},"type":"Feature","geometry":{"type":"Point","coordinates":[-77.2405442574523,38.8887316053411]}},{"properties":{"SCHID_3":48.0,"CITY":"Vienna","HS":null,"SCHOOL_TYP":"ES","ZIP":22182.0,"CLUSTER_NU":2,"ES":"WESTBRIAR","WEB_ADDRES":"www.fcps.edu/WestbriarES","SCHOOL_NAM":"WESTBRIAR","HOME_URL":"http://www.fcps.edu/WestbriarES/","TYPE_DESC":"Elementary","SCHOOL_NUM":3048.0,"SCHID_3_T":"048","STATE":"VA","MS":null,"SCHID_4_T":"3048","STREET_NAM":"PINE VALLEY DR","id":"af9c9qgtby4a","ADDRESS":"1741 PINE VALLEY DR","GRADES":"K-6","STREET_NUM":1741},"type":"Feature","geometry":{"type":"Point","coordinates":[-77.2456165054278,38.9211188838344]}},{"properties":{"SCHID_3":42.0,"CITY":"Vienna","HS":null,"SCHOOL_TYP":"ES","ZIP":22182.0,"CLUSTER_NU":2,"ES":"WOLFTRAP","WEB_ADDRES":"www.fcps.edu/WolftrapES","SCHOOL_NAM":"WOLFTRAP","HOME_URL":"http://www.fcps.edu/WolftrapES/","TYPE_DESC":"Elementary","SCHOOL_NUM":3042.0,"SCHID_3_T":"042","STATE":"VA","MS":null,"SCHID_4_T":"3042","STREET_NAM":"BEULAH RD","id":"af9c9qgg49ij","ADDRESS":"1903 BEULAH RD","GRADES":"K-6","STREET_NUM":1903},"type":"Feature","geometry":{"type":"Point","coordinates":[-77.2665327497658,38.9176380879057]}},{"properties":{"SCHID_3":334.0,"CITY":"Herndon","HS":null,"SCHOOL_TYP":"ES","ZIP":20171.0,"CLUSTER_NU":8,"ES":"FOX MILL","WEB_ADDRES":"www.fcps.edu/FoxMillES","SCHOOL_NAM":"FOX MILL","HOME_URL":"http://www.fcps.edu/FoxMillES/","TYPE_DESC":"Elementary","SCHOOL_NUM":3334.0,"SCHID_3_T":"334","STATE":"VA","MS":null,"SCHID_4_T":"3334","STREET_NAM":"VIKING DR","id":"af9c9qe4nel4","ADDRESS":"2601 VIKING DR","GRADES":"K-6","STREET_NUM":2601},"type":"Feature","geometry":{"type":"Point","coordinates":[-77.3822631243665,38.9278117475783]}},{"properties":{"SCHID_3":171.0,"CITY":"Herndon","HS":null,"SCHOOL_TYP":"MS","ZIP":20171.0,"CLUSTER_NU":8,"ES":null,"WEB_ADDRES":"www.fcps.edu/RachelCarsonMS","SCHOOL_NAM":"CARSON","HOME_URL":"http://www.fcps.edu/RachelCarsonMS/","TYPE_DESC":"Middle","SCHOOL_NUM":3171.0,"SCHID_3_T":"171","STATE":"VA","MS":"CARSON","SCHID_4_T":"3171","STREET_NAM":"MCLEAREN RD","id":"af9c9qfocg14","ADDRESS":"13618 MCLEAREN RD","GRADES":"7-8","STREET_NUM":13618},"type":"Feature","geometry":{"type":"Point","coordinates":[-77.4195799796407,38.9273335704102]}},{"properties":{"SCHID_3":31.0,"CITY":"Falls Church","HS":null,"SCHOOL_TYP":"MS","ZIP":22043.0,"CLUSTER_NU":1,"ES":null,"WEB_ADDRES":"www.fcps.edu/LongfellowMS","SCHOOL_NAM":"LONGFELLOW","HOME_URL":"http://www.fcps.edu/LongfellowMS/","TYPE_DESC":"Middle","SCHOOL_NUM":3031.0,"SCHID_3_T":"031","STATE":"VA","MS":"LONGFELLOW","SCHID_4_T":"3031","STREET_NAM":"WESTMORELAND ST","id":"af9c9qcg1psu","ADDRESS":"2000 WESTMORELAND ST","GRADES":"7-8","STREET_NUM":2000},"type":"Feature","geometry":{"type":"Point","coordinates":[-77.1747055523373,38.9096603194442]}},{"properties":{"SCHID_3":432.0,"CITY":"Centreville","HS":null,"SCHOOL_TYP":"AHS","ZIP":20121.0,"CLUSTER_NU":0,"ES":null,"WEB_ADDRES":"www.fcps.edu/MountainViewS","SCHOOL_NAM":"MOUNTAIN VIEW","HOME_URL":"http://www.fcps.edu/MountainViewS/","TYPE_DESC":"Alternative High School","SCHOOL_NUM":2432.0,"SCHID_3_T":"432","STATE":"VA","MS":null,"SCHID_4_T":"432","STREET_NAM":"SPINDLE CT","id":"af9c9qcvvkae","ADDRESS":"5775 SPINDLE CT","GRADES":"9-12","STREET_NUM":5775},"type":"Feature","geometry":{"type":"Point","coordinates":[-77.424183879002,38.8380906705017]}},{"properties":{"SCHID_3":112.0,"CITY":"Alexandria","HS":null,"SCHOOL_TYP":"ES","ZIP":22312.0,"CLUSTER_NU":3,"ES":"WEYANOKE","WEB_ADDRES":"www.fcps.edu/WeyanokeES","SCHOOL_NAM":"WEYANOKE","HOME_URL":"http://www.fcps.edu/WeyanokeES/","TYPE_DESC":"Elementary","SCHOOL_NUM":2112.0,"SCHID_3_T":"112","STATE":"VA","MS":null,"SCHID_4_T":"2112","STREET_NAM":"BRADDOCK RD","id":"af9c9qcmgtdg","ADDRESS":"6520 BRADDOCK RD","GRADES":"K-6","STREET_NUM":6520},"type":"Feature","geometry":{"type":"Point","coordinates":[-77.165524903858,38.8198060991116]}},{"properties":{"SCHID_3":455.0,"CITY":"Annandale","HS":null,"SCHOOL_TYP":"ES","ZIP":22003.0,"CLUSTER_NU":3,"ES":"COLUMBIA","WEB_ADDRES":"www.fcps.edu/ColumbiaES","SCHOOL_NAM":"COLUMBIA","HOME_URL":"http://www.fcps.edu/ColumbiaES/","TYPE_DESC":"Elementary","SCHOOL_NUM":2455.0,"SCHID_3_T":"455","STATE":"VA","MS":null,"SCHID_4_T":"2455","STREET_NAM":"ALPINE DR","id":"af9c9q9rnnfv","ADDRESS":"6720 ALPINE DR","GRADES":"K-6","STREET_NUM":6720},"type":"Feature","geometry":{"type":"Point","coordinates":[-77.1761770511649,38.8291600535099]}},{"properties":{"SCHID_3":141.0,"CITY":"Annandale","HS":null,"SCHOOL_TYP":"MS","ZIP":22003.0,"CLUSTER_NU":3,"ES":null,"WEB_ADDRES":"www.fcps.edu/PoeMS","SCHOOL_NAM":"POE","HOME_URL":"http://www.fcps.edu/PoeMS/","TYPE_DESC":"Middle","SCHOOL_NUM":2141.0,"SCHID_3_T":"141","STATE":"VA","MS":"POE","SCHID_4_T":"2141","STREET_NAM":"CINDY LA","id":"af9c9qiz5psf","ADDRESS":"7000 CINDY LA","GRADES":"7-8","STREET_NUM":7000},"type":"Feature","geometry":{"type":"Point","coordinates":[-77.1866604781315,38.8204869259308]}},{"properties":{"SCHID_3":144.0,"CITY":"Annandale","HS":null,"SCHOOL_TYP":"ES","ZIP":22003.0,"CLUSTER_NU":3,"ES":"ANNANDALE TERRACE","WEB_ADDRES":"www.fcps.edu/AnnandaleTerraceES","SCHOOL_NAM":"ANNANDALE TERRACE","HOME_URL":"http://www.fcps.edu/AnnandaleTerraceES/","TYPE_DESC":"Elementary","SCHOOL_NUM":2144.0,"SCHID_3_T":"144","STATE":"VA","MS":null,"SCHID_4_T":"2144","STREET_NAM":"HERALD ST","id":"af9c9qdycjsg","ADDRESS":"7604 HERALD ST","GRADES":"K-6","STREET_NUM":7604},"type":"Feature","geometry":{"type":"Point","coordinates":[-77.2081948871691,38.8272274997253]}},{"properties":{"SCHID_3":147.0,"CITY":"Annandale","HS":null,"SCHOOL_TYP":"ES","ZIP":22003.0,"CLUSTER_NU":3,"ES":"BRADDOCK","WEB_ADDRES":"www.fcps.edu/BraddockES","SCHOOL_NAM":"BRADDOCK","HOME_URL":"http://www.fcps.edu/BraddockES/","TYPE_DESC":"Elementary","SCHOOL_NUM":2147.0,"SCHID_3_T":"147","STATE":"VA","MS":null,"SCHID_4_T":"2147","STREET_NAM":"HERITAGE DR","id":"af9c9q9b7hm9","ADDRESS":"7825 HERITAGE DR","GRADES":"K-6","STREET_NUM":7825},"type":"Feature","geometry":{"type":"Point","coordinates":[-77.2155377926419,38.8222645974649]}},{"properties":{"SCHID_3":140.0,"CITY":"Annandale","HS":"ANNANDALE","SCHOOL_TYP":"HS","ZIP":22003.0,"CLUSTER_NU":3,"ES":null,"WEB_ADDRES":"www.fcps.edu/AnnandaleHS","SCHOOL_NAM":"ANNANDALE","HOME_URL":"http://www.fcps.edu/AnnandaleHS/","TYPE_DESC":"High","SCHOOL_NUM":2140.0,"SCHID_3_T":"140","STATE":"VA","MS":null,"SCHID_4_T":"2140","STREET_NAM":"MEDFORD AV","id":"af9c9qiwl8sj","ADDRESS":"4700 MEDFORD AV","GRADES":"9-12","STREET_NUM":4700},"type":"Feature","geometry":{"type":"Point","coordinates":[-77.208158969735,38.8220118504427]}},{"properties":{"SCHID_3":133.0,"CITY":"Fairfax","HS":null,"SCHOOL_TYP":"ES","ZIP":22032.0,"CLUSTER_NU":3,"ES":"LITTLE RUN","WEB_ADDRES":"www.fcps.edu/LittleRunES","SCHOOL_NAM":"LITTLE RUN","HOME_URL":"http://www.fcps.edu/LittleRunES/","TYPE_DESC":"Elementary","SCHOOL_NUM":2133.0,"SCHID_3_T":"133","STATE":"VA","MS":null,"SCHID_4_T":"2133","STREET_NAM":"OLLEY LA","id":"af9c9qj9jraq","ADDRESS":"4511 OLLEY LA","GRADES":"K-6","STREET_NUM":4511},"type":"Feature","geometry":{"type":"Point","coordinates":[-77.2665918582851,38.8261723307036]}},{"properties":{"SCHID_3":135.0,"CITY":"Fairfax","HS":null,"SCHOOL_TYP":"ES","ZIP":22032.0,"CLUSTER_NU":3,"ES":"OLDE CREEK","WEB_ADDRES":"www.fcps.edu/OldeCreekES","SCHOOL_NAM":"OLDE CREEK","HOME_URL":"http://www.fcps.edu/OldeCreekES/","TYPE_DESC":"Elementary","SCHOOL_NUM":2135.0,"SCHID_3_T":"135","STATE":"VA","MS":null,"SCHID_4_T":"2135","STREET_NAM":"OLDE CREEK DR","id":"af9c9qcmuy5q","ADDRESS":"9524 OLDE CREEK DR","GRADES":"K-6","STREET_NUM":9524},"type":"Feature","geometry":{"type":"Point","coordinates":[-77.2766234114016,38.8311668629539]}},{"properties":{"SCHID_3":424.0,"CITY":"Fairfax","HS":null,"SCHOOL_TYP":"ES","ZIP":22030.0,"CLUSTER_NU":7,"ES":"WILLOW SPRINGS","WEB_ADDRES":"www.fcps.edu/WillowSpringsES","SCHOOL_NAM":"WILLOW SPRINGS","HOME_URL":"http://www.fcps.edu/WillowSpringsES/","TYPE_DESC":"Elementary","SCHOOL_NUM":2424.0,"SCHID_3_T":"424","STATE":"VA","MS":null,"SCHID_4_T":"2424","STREET_NAM":"WILLOW SPRINGS SCHOOL RD","id":"af9c9qhbix49","ADDRESS":"5400 WILLOW SPRINGS SCHOOL RD","GRADES":"K-6","STREET_NUM":5400},"type":"Feature","geometry":{"type":"Point","coordinates":[-77.3798884338806,38.8318748267681]}},{"properties":{"SCHID_3":415.0,"CITY":"Clifton","HS":null,"SCHOOL_TYP":"ES","ZIP":20124.0,"CLUSTER_NU":7,"ES":"UNION MILL","WEB_ADDRES":"www.fcps.edu/UnionMillES","SCHOOL_NAM":"UNION MILL","HOME_URL":"http://www.fcps.edu/UnionMillES/","TYPE_DESC":"Elementary","SCHOOL_NUM":2415.0,"SCHID_3_T":"415","STATE":"VA","MS":null,"SCHID_4_T":"2415","STREET_NAM":"SPRINGSTONE DR","id":"af9c9q6f47po","ADDRESS":"13611 SPRINGSTONE DR","GRADES":"K-6","STREET_NUM":13611},"type":"Feature","geometry":{"type":"Point","coordinates":[-77.4179676817446,38.820195054703]}},{"properties":{"SCHID_3":433.0,"CITY":"Centreville","HS":null,"SCHOOL_TYP":"ES","ZIP":20121.0,"CLUSTER_NU":7,"ES":"CENTREVILLE","WEB_ADDRES":"www.fcps.edu/CentrevilleES","SCHOOL_NAM":"CENTREVILLE","HOME_URL":"http://www.fcps.edu/CentrevilleES/","TYPE_DESC":"Elementary","SCHOOL_NUM":2433.0,"SCHID_3_T":"433","STATE":"VA","MS":null,"SCHID_4_T":"2433","STREET_NAM":"GREEN TRAIL BV","id":"af9c9qfgqikj","ADDRESS":"14333 GREEN TRAIL BV","GRADES":"K-6","STREET_NUM":14333},"type":"Feature","geometry":{"type":"Point","coordinates":[-77.440646760419,38.8196548341136]}},{"properties":{"SCHID_3":436.0,"CITY":"Centreville","HS":null,"SCHOOL_TYP":"ES","ZIP":20121.0,"CLUSTER_NU":7,"ES":"CENTRE RIDGE","WEB_ADDRES":"www.fcps.edu/CentreRidgeES","SCHOOL_NAM":"CENTRE RIDGE","HOME_URL":"http://www.fcps.edu/CentreRidgeES/","TYPE_DESC":"Elementary","SCHOOL_NUM":2436.0,"SCHID_3_T":"436","STATE":"VA","MS":null,"SCHID_4_T":"2436","STREET_NAM":"NEW BRADDOCK RD","id":"af9c9qbnbyt9","ADDRESS":"14400 NEW BRADDOCK RD","GRADES":"K-6","STREET_NUM":14400},"type":"Feature","geometry":{"type":"Point","coordinates":[-77.4455647165065,38.8257858165888]}},{"properties":{"SCHID_3":437.0,"CITY":"Centreville","HS":null,"SCHOOL_TYP":"ES","ZIP":20121.0,"CLUSTER_NU":7,"ES":"BULL RUN","WEB_ADDRES":"www.fcps.edu/BullRunES","SCHOOL_NAM":"BULL RUN","HOME_URL":"http://www.fcps.edu/BullRunES/","TYPE_DESC":"Elementary","SCHOOL_NUM":2437.0,"SCHID_3_T":"437","STATE":"VA","MS":null,"SCHID_4_T":"2437","STREET_NAM":"LEE HY","id":"af9c9qa6llo5","ADDRESS":"15301 LEE HY","GRADES":"K-6","STREET_NUM":15301},"type":"Feature","geometry":{"type":"Point","coordinates":[-77.4755256773837,38.8286550922873]}},{"properties":{"SCHID_3":111.0,"CITY":"Alexandria","HS":null,"SCHOOL_TYP":"MS","ZIP":22312.0,"CLUSTER_NU":3,"ES":null,"WEB_ADDRES":"www.fcps.edu/HolmesMS","SCHOOL_NAM":"HOLMES","HOME_URL":"http://www.fcps.edu/HolmesMS/","TYPE_DESC":"Middle","SCHOOL_NUM":2111.0,"SCHID_3_T":"111","STATE":"VA","MS":"HOLMES","SCHID_4_T":"2111","STREET_NAM":"MONTROSE ST","id":"af9c9qhuu307","ADDRESS":"6525 MONTROSE ST","GRADES":"7-8","STREET_NUM":6525},"type":"Feature","geometry":{"type":"Point","coordinates":[-77.1633221200256,38.8152360443616]}},{"properties":{"SCHID_3":300.0,"CITY":"Alexandria","HS":"THOMAS JEFFERSON","SCHOOL_TYP":"HS","ZIP":22312.0,"CLUSTER_NU":3,"ES":null,"WEB_ADDRES":"www.tjhsst.edu","SCHOOL_NAM":"THOMAS JEFFERSON","HOME_URL":"http://www.tjhsst.edu/","TYPE_DESC":"High","SCHOOL_NUM":2300.0,"SCHID_3_T":"300","STATE":"VA","MS":null,"SCHID_4_T":"2300","STREET_NAM":"BRADDOCK RD","id":"af9c9q6jks8i","ADDRESS":"6560 BRADDOCK RD","GRADES":"9-12","STREET_NUM":6560},"type":"Feature","geometry":{"type":"Point","coordinates":[-77.1690164592334,38.8185450643446]}},{"properties":{"SCHID_3":53.0,"CITY":"Fairfax","HS":null,"SCHOOL_TYP":"ES","ZIP":22031.0,"CLUSTER_NU":8,"ES":"MOSBY WOODS","WEB_ADDRES":"www.fcps.edu/MosbyWoodsES","SCHOOL_NAM":"MOSBY WOODS","HOME_URL":"http://www.fcps.edu/MosbyWoodsES/","TYPE_DESC":"Elementary","SCHOOL_NUM":3053.0,"SCHID_3_T":"053","STATE":"VA","MS":null,"SCHID_4_T":"3053","STREET_NAM":"FIVE OAKS RD","id":"af9c9qdoynj6","ADDRESS":"9819 FIVE OAKS RD","GRADES":"K-6","STREET_NUM":9819},"type":"Feature","geometry":{"type":"Point","coordinates":[-77.2860567384866,38.8697085087398]}},{"properties":{"SCHID_3":396.0,"CITY":"Fairfax","HS":null,"SCHOOL_TYP":"ES","ZIP":22030.0,"CLUSTER_NU":7,"ES":"PROVIDENCE","WEB_ADDRES":"www.fcps.edu/ProvidenceES","SCHOOL_NAM":"PROVIDENCE","HOME_URL":"http://www.fcps.edu/ProvidenceES/","TYPE_DESC":"Elementary","SCHOOL_NUM":8396.0,"SCHID_3_T":"396","STATE":"VA","MS":null,"SCHID_4_T":"9396","STREET_NAM":"GERMANTOWN RD","id":"af9c9qjb3vw0","ADDRESS":"3616 GERMANTOWN RD","GRADES":"K-6","STREET_NUM":3616},"type":"Feature","geometry":{"type":"Point","coordinates":[-77.3258142976734,38.8642264245882]}},{"properties":{"SCHID_3":254.0,"CITY":"Fairfax","HS":null,"SCHOOL_TYP":"ES","ZIP":22033.0,"CLUSTER_NU":7,"ES":"GREENBRIAR EAST","WEB_ADDRES":"www.fcps.edu/GreenbriarEastES","SCHOOL_NAM":"GREENBRIAR EAST","HOME_URL":"http://www.fcps.edu/GreenbriarEastES/","TYPE_DESC":"Elementary","SCHOOL_NUM":2254.0,"SCHID_3_T":"254","STATE":"VA","MS":null,"SCHID_4_T":"2254","STREET_NAM":"POINT PLEASANT DR","id":"af9c9qdx6x0f","ADDRESS":"13006 POINT PLEASANT DR","GRADES":"K-6","STREET_NUM":13006},"type":"Feature","geometry":{"type":"Point","coordinates":[-77.3943901736064,38.8714135891025]}},{"properties":{"SCHID_3":264.0,"CITY":"Chantilly","HS":null,"SCHOOL_TYP":"ES","ZIP":20151.0,"CLUSTER_NU":7,"ES":"POPLAR TREE","WEB_ADDRES":"www.fcps.edu/PoplarTreeES","SCHOOL_NAM":"POPLAR TREE","HOME_URL":"http://www.fcps.edu/PoplarTreeES/","TYPE_DESC":"Elementary","SCHOOL_NUM":2264.0,"SCHID_3_T":"264","STATE":"VA","MS":null,"SCHID_4_T":"2264","STREET_NAM":"MELVILLE LA","id":"af9c9q83wern","ADDRESS":"13400 MELVILLE LA","GRADES":"K-6","STREET_NUM":13400},"type":"Feature","geometry":{"type":"Point","coordinates":[-77.4146947960795,38.8631317939875]}},{"properties":{"SCHID_3":251.0,"CITY":"Chantilly","HS":null,"SCHOOL_TYP":"MS","ZIP":20151.0,"CLUSTER_NU":7,"ES":null,"WEB_ADDRES":"www.fcps.edu/RockyRunMS","SCHOOL_NAM":"ROCKY RUN","HOME_URL":"http://www.fcps.edu/RockyRunMS/","TYPE_DESC":"Middle","SCHOOL_NUM":2251.0,"SCHID_3_T":"251","STATE":"VA","MS":"ROCKY RUN","SCHID_4_T":"2251","STREET_NAM":"STRINGFELLOW RD","id":"af9c9q7ip068","ADDRESS":"4400 STRINGFELLOW RD","GRADES":"7-8","STREET_NUM":4400},"type":"Feature","geometry":{"type":"Point","coordinates":[-77.4100465664922,38.8741381308721]}},{"properties":{"SCHID_3":244.0,"CITY":"Centreville","HS":null,"SCHOOL_TYP":"ES","ZIP":20120.0,"CLUSTER_NU":8,"ES":"CUB RUN","WEB_ADDRES":"www.fcps.edu/CubRunES","SCHOOL_NAM":"CUB RUN","HOME_URL":"http://www.fcps.edu/CubRunES/","TYPE_DESC":"Elementary","SCHOOL_NUM":2244.0,"SCHID_3_T":"244","STATE":"VA","MS":null,"SCHID_4_T":"2244","STREET_NAM":"SULLY STATION RD","id":"af9c9qf01dgk","ADDRESS":"5301 SULLY STATION RD","GRADES":"K-6","STREET_NUM":5301},"type":"Feature","geometry":{"type":"Point","coordinates":[-77.4585144262107,38.8657103547715]}},{"properties":{"SCHID_3":100.0,"CITY":"Falls Church","HS":"STUART","SCHOOL_TYP":"HS","ZIP":22044.0,"CLUSTER_NU":3,"ES":null,"WEB_ADDRES":"www.fcps.edu/StuartHS","SCHOOL_NAM":"STUART","HOME_URL":"http://www.fcps.edu/StuartHS/","TYPE_DESC":"High","SCHOOL_NUM":2100.0,"SCHID_3_T":"100","STATE":"VA","MS":null,"SCHID_4_T":"2100","STREET_NAM":"PEACE VALLEY LA","id":"af9c9q7rlmot","ADDRESS":"3301 PEACE VALLEY LA","GRADES":"9-12","STREET_NUM":3301},"type":"Feature","geometry":{"type":"Point","coordinates":[-77.1497473869962,38.8568712406571]}},{"properties":{"SCHID_3":96.0,"CITY":"Falls Church","HS":null,"SCHOOL_TYP":"ES","ZIP":22042.0,"CLUSTER_NU":3,"ES":"BEECH TREE","WEB_ADDRES":"www.fcps.edu/BeechTreeES","SCHOOL_NAM":"BEECH TREE","HOME_URL":"http://www.fcps.edu/BeechTreeES/","TYPE_DESC":"Elementary","SCHOOL_NUM":2096.0,"SCHID_3_T":"096","STATE":"VA","MS":null,"SCHID_4_T":"2096","STREET_NAM":"BEECH TREE LA","id":"af9c9q526phu","ADDRESS":"3401 BEECH TREE LA","GRADES":"K-6","STREET_NUM":3401},"type":"Feature","geometry":{"type":"Point","coordinates":[-77.1810831274246,38.8529388081999]}},{"properties":{"SCHID_3":106.0,"CITY":"Falls Church","HS":null,"SCHOOL_TYP":"ES","ZIP":22044.0,"CLUSTER_NU":3,"ES":"SLEEPY HOLLOW","WEB_ADDRES":"www.fcps.edu/SleepyHollowES","SCHOOL_NAM":"SLEEPY HOLLOW","HOME_URL":"http://www.fcps.edu/SleepyHollowES/","TYPE_DESC":"Elementary","SCHOOL_NUM":2106.0,"SCHID_3_T":"106","STATE":"VA","MS":null,"SCHID_4_T":"2106","STREET_NAM":"SLEEPY HOLLOW RD","id":"af9c9q78b9i4","ADDRESS":"3333 SLEEPY HOLLOW RD","GRADES":"K-6","STREET_NUM":3333},"type":"Feature","geometry":{"type":"Point","coordinates":[-77.1687038091941,38.8557936270413]}},{"properties":{"SCHID_3":331.0,"CITY":"Chantilly","HS":null,"SCHOOL_TYP":"MS","ZIP":20151.0,"CLUSTER_NU":7,"ES":null,"WEB_ADDRES":"www.fcps.edu/FranklinMS","SCHOOL_NAM":"FRANKLIN","HOME_URL":"http://www.fcps.edu/FranklinMS","TYPE_DESC":"Middle","SCHOOL_NUM":2331.0,"SCHID_3_T":"331","STATE":"VA","MS":"FRANKLIN","SCHID_4_T":"2331","STREET_NAM":"LEES CORNER RD","id":"af9c9q5m3yqi","ADDRESS":"3300 LEES CORNER RD","GRADES":"7-8","STREET_NUM":3300},"type":"Feature","geometry":{"type":"Point","coordinates":[-77.4207916981334,38.907487193467]}},{"properties":{"SCHID_3":66.0,"CITY":"Vienna","HS":null,"SCHOOL_TYP":"ES","ZIP":22180.0,"CLUSTER_NU":2,"ES":"CUNNINGHAM PARK","WEB_ADDRES":"www.fcps.edu/CunninghamParkES","SCHOOL_NAM":"CUNNINGHAM PARK","HOME_URL":"http://www.fcps.edu/CunninghamParkES/","TYPE_DESC":"Elementary","SCHOOL_NUM":3066.0,"SCHID_3_T":"066","STATE":"VA","MS":null,"SCHID_4_T":"3066","STREET_NAM":"PARK ST SE","id":"af9c9q6tzsmz","ADDRESS":"1001 PARK ST SE","GRADES":"K-6","STREET_NUM":1001},"type":"Feature","geometry":{"type":"Point","coordinates":[-77.250079373453,38.8922892446287]}},{"properties":{"SCHID_3":62.0,"CITY":"Vienna","HS":null,"SCHOOL_TYP":"ES","ZIP":22180.0,"CLUSTER_NU":2,"ES":"VIENNA","WEB_ADDRES":"www.fcps.edu/ViennaES","SCHOOL_NAM":"VIENNA","HOME_URL":"http://www.fcps.edu/ViennaES/","TYPE_DESC":"Elementary","SCHOOL_NUM":3062.0,"SCHID_3_T":"062","STATE":"VA","MS":null,"SCHID_4_T":"3062","STREET_NAM":"CENTER ST S","id":"af9c9q57vesd","ADDRESS":"128 CENTER ST S","GRADES":"K-6","STREET_NUM":128},"type":"Feature","geometry":{"type":"Point","coordinates":[-77.2632649542143,38.9011386026327]}},{"properties":{"SCHID_3":63.0,"CITY":"Vienna","HS":null,"SCHOOL_TYP":"ES","ZIP":22181.0,"CLUSTER_NU":2,"ES":"FLINT HILL","WEB_ADDRES":"www.fcps.edu/FlintHillES","SCHOOL_NAM":"FLINT HILL","HOME_URL":"http://www.fcps.edu/FlintHillES/","TYPE_DESC":"Elementary","SCHOOL_NUM":3063.0,"SCHID_3_T":"063","STATE":"VA","MS":null,"SCHID_4_T":"3063","STREET_NAM":"FLINT HILL RD","id":"af9c9qh9aq1o","ADDRESS":"2444 FLINT HILL RD","GRADES":"K-6","STREET_NUM":2444},"type":"Feature","geometry":{"type":"Point","coordinates":[-77.2849669215211,38.8962176299742]}},{"properties":{"SCHID_3":60.0,"CITY":"Vienna","HS":"MADISON","SCHOOL_TYP":"HS","ZIP":22181.0,"CLUSTER_NU":2,"ES":null,"WEB_ADDRES":"www.fcps.edu/MadisonHS","SCHOOL_NAM":"MADISON","HOME_URL":"http://www.fcps.edu/MadisonHS/","TYPE_DESC":"High","SCHOOL_NUM":3060.0,"SCHID_3_T":"060","STATE":"VA","MS":null,"SCHID_4_T":"3060","STREET_NAM":"JAMES MADISON DR","id":"af9c9q4ehj3p","ADDRESS":"2500 JAMES MADISON DR","GRADES":"9-12","STREET_NUM":2500},"type":"Feature","geometry":{"type":"Point","coordinates":[-77.2793542517679,38.8958595198371]}},{"properties":{"SCHID_3":54.0,"CITY":"Vienna","HS":null,"SCHOOL_TYP":"ES","ZIP":22180.0,"CLUSTER_NU":2,"ES":"MARSHALL ROAD","WEB_ADDRES":"www.fcps.edu/MarshallRoadES","SCHOOL_NAM":"MARSHALL ROAD","HOME_URL":"http://www.fcps.edu/MarshallRoadES/","TYPE_DESC":"Elementary","SCHOOL_NUM":3054.0,"SCHID_3_T":"054","STATE":"VA","MS":null,"SCHID_4_T":"3054","STREET_NAM":"MARSHALL RD SW","id":"af9c9q4ioo9l","ADDRESS":"730 MARSHALL RD SW","GRADES":"K-6","STREET_NUM":730},"type":"Feature","geometry":{"type":"Point","coordinates":[-77.2666252569695,38.882255816273]}},{"properties":{"SCHID_3":50.0,"CITY":"Vienna","HS":"OAKTON","SCHOOL_TYP":"HS","ZIP":22181.0,"CLUSTER_NU":8,"ES":null,"WEB_ADDRES":"www.fcps.edu/OaktonHS","SCHOOL_NAM":"OAKTON","HOME_URL":"http://www.fcps.edu/OaktonHS/","TYPE_DESC":"High","SCHOOL_NUM":3050.0,"SCHID_3_T":"050","STATE":"VA","MS":null,"SCHID_4_T":"3050","STREET_NAM":"SUTTON RD","id":"af9c9qi5iph9","ADDRESS":"2900 SUTTON RD","GRADES":"9-12","STREET_NUM":2900},"type":"Feature","geometry":{"type":"Point","coordinates":[-77.2827055146001,38.8772425501952]}},{"properties":{"SCHID_3":52.0,"CITY":"Oakton","HS":null,"SCHOOL_TYP":"ES","ZIP":22124.0,"CLUSTER_NU":8,"ES":"OAKTON","WEB_ADDRES":"www.fcps.edu/OaktonES","SCHOOL_NAM":"OAKTON","HOME_URL":"http://www.fcps.edu/OaktonES/","TYPE_DESC":"Elementary","SCHOOL_NUM":3052.0,"SCHID_3_T":"052","STATE":"VA","MS":null,"SCHID_4_T":"3052","STREET_NAM":"CHAIN BRIDGE RD","id":"af9c9qfz71hh","ADDRESS":"3000 CHAIN BRIDGE RD","GRADES":"K-6","STREET_NUM":3000},"type":"Feature","geometry":{"type":"Point","coordinates":[-77.304280418177,38.8801802223744]}},{"properties":{"SCHID_3":445.0,"CITY":"Oakton","HS":null,"SCHOOL_TYP":"ES","ZIP":22124.0,"CLUSTER_NU":8,"ES":"WAPLES MILL","WEB_ADDRES":"www.fcps.edu/WaplesMillES","SCHOOL_NAM":"WAPLES MILL","HOME_URL":"http://www.fcps.edu/WaplesMillES/","TYPE_DESC":"Elementary","SCHOOL_NUM":3445.0,"SCHID_3_T":"445","STATE":"VA","MS":null,"SCHID_4_T":"3445","STREET_NAM":"WAPLES MILL RD","id":"af9c9q8wbg67","ADDRESS":"11509 WAPLES MILL RD","GRADES":"K-6","STREET_NUM":11509},"type":"Feature","geometry":{"type":"Point","coordinates":[-77.3448827378611,38.8761665151974]}},{"properties":{"SCHID_3":255.0,"CITY":"Fairfax","HS":null,"SCHOOL_TYP":"ES","ZIP":22033.0,"CLUSTER_NU":7,"ES":"GREENBRIAR WEST","WEB_ADDRES":"www.fcps.edu/GreenbriarWestES","SCHOOL_NAM":"GREENBRIAR WEST","HOME_URL":"http://www.fcps.edu/GreenbriarWestES/","TYPE_DESC":"Elementary","SCHOOL_NUM":2255.0,"SCHID_3_T":"255","STATE":"VA","MS":null,"SCHID_4_T":"2255","STREET_NAM":"POPLAR TREE RD","id":"af9c9q75sska","ADDRESS":"13300 POPLAR TREE RD","GRADES":"K-6","STREET_NUM":13300},"type":"Feature","geometry":{"type":"Point","coordinates":[-77.4054376603954,38.8764379011362]}},{"properties":{"SCHID_3":250.0,"CITY":"Chantilly","HS":"CHANTILLY","SCHOOL_TYP":"HS","ZIP":20151.0,"CLUSTER_NU":7,"ES":null,"WEB_ADDRES":"www.fcps.edu/ChantillyHS","SCHOOL_NAM":"CHANTILLY","HOME_URL":"http://www.fcps.edu/ChantillyHS/","TYPE_DESC":"High","SCHOOL_NUM":2250.0,"SCHID_3_T":"250","STATE":"VA","MS":null,"SCHID_4_T":"2250","STREET_NAM":"STRINGFELLOW RD","id":"af9c9q61de50","ADDRESS":"4201 STRINGFELLOW RD","GRADES":"9-12","STREET_NUM":4201},"type":"Feature","geometry":{"type":"Point","coordinates":[-77.4065823701207,38.88019922364]}},{"properties":{"SCHID_3":263.0,"CITY":"Chantilly","HS":null,"SCHOOL_TYP":"ES","ZIP":20151.0,"CLUSTER_NU":7,"ES":"BROOKFIELD","WEB_ADDRES":"www.fcps.edu/BrookfieldES","SCHOOL_NAM":"BROOKFIELD","HOME_URL":"http://www.fcps.edu/BrookfieldES/","TYPE_DESC":"Elementary","SCHOOL_NUM":2263.0,"SCHID_3_T":"263","STATE":"VA","MS":null,"SCHID_4_T":"2263","STREET_NAM":"LEES CORNER RD","id":"af9c9qdtijhg","ADDRESS":"4200 LEES CORNER RD","GRADES":"K-6","STREET_NUM":4200},"type":"Feature","geometry":{"type":"Point","coordinates":[-77.4192713066591,38.8823894112519]}},{"properties":{"SCHID_3":131.0,"CITY":"Fairfax","HS":null,"SCHOOL_TYP":"MS","ZIP":22032.0,"CLUSTER_NU":3,"ES":null,"WEB_ADDRES":"www.fcps.edu/FrostMS","SCHOOL_NAM":"FROST","HOME_URL":"http://www.fcps.edu/FrostMS/","TYPE_DESC":"Middle","SCHOOL_NUM":2131.0,"SCHID_3_T":"131","STATE":"VA","MS":"FROST","SCHID_4_T":"2131","STREET_NAM":"PICKETT RD","id":"af9c9q3pwwuk","ADDRESS":"4101 PICKETT RD","GRADES":"7-8","STREET_NUM":4101},"type":"Feature","geometry":{"type":"Point","coordinates":[-77.273443900993,38.8361869852357]}},{"properties":{"SCHID_3":130.0,"CITY":"Fairfax","HS":"WOODSON","SCHOOL_TYP":"HS","ZIP":22031.0,"CLUSTER_NU":3,"ES":null,"WEB_ADDRES":"www.fcps.edu/Woodsonhs","SCHOOL_NAM":"WOODSON","HOME_URL":"http://www.fcps.edu/woodsonhs/","TYPE_DESC":"High","SCHOOL_NUM":2130.0,"SCHID_3_T":"130","STATE":"VA","MS":null,"SCHID_4_T":"2130","STREET_NAM":"MAIN ST","id":"af9c9qa8pifs","ADDRESS":"9525 MAIN ST","GRADES":"9-12","STREET_NUM":9525},"type":"Feature","geometry":{"type":"Point","coordinates":[-77.2761562242456,38.8402514258802]}},{"properties":{"SCHID_3":173.0,"CITY":"Fairfax","HS":null,"SCHOOL_TYP":"ES","ZIP":22030.0,"CLUSTER_NU":7,"ES":"FAIRFAX VILLA","WEB_ADDRES":"www.fcps.edu/FairfaxVillaES","SCHOOL_NAM":"FAIRFAX VILLA","HOME_URL":"http://www.fcps.edu/FairfaxVillaES/","TYPE_DESC":"Elementary","SCHOOL_NUM":2173.0,"SCHID_3_T":"173","STATE":"VA","MS":null,"SCHID_4_T":"2173","STREET_NAM":"SANTA CLARA DR","id":"af9c9qb7nx42","ADDRESS":"10900 SANTA CLARA DR","GRADES":"K-6","STREET_NUM":10900},"type":"Feature","geometry":{"type":"Point","coordinates":[-77.3233665853942,38.8400610414914]}},{"properties":{"SCHID_3":431.0,"CITY":"Centreville","HS":null,"SCHOOL_TYP":"ES","ZIP":20120.0,"CLUSTER_NU":7,"ES":"POWELL","WEB_ADDRES":"www.fcps.edu/powelles","SCHOOL_NAM":"POWELL","HOME_URL":"http://www.fcps.edu/powelles/","TYPE_DESC":"Elementary","SCHOOL_NUM":8431.0,"SCHID_3_T":"431","STATE":"VA","MS":null,"SCHID_4_T":"2431","STREET_NAM":"LEELAND RD","id":"af9c9qh3qyr6","ADDRESS":"13340 LEELAND RD","GRADES":"K-6","STREET_NUM":13340},"type":"Feature","geometry":{"type":"Point","coordinates":[-77.4079881274984,38.8461406231045]}},{"properties":{"SCHID_3":395.0,"CITY":"Fairfax","HS":null,"SCHOOL_TYP":"ES","ZIP":22032.0,"CLUSTER_NU":6,"ES":"BONNIE BRAE","WEB_ADDRES":"www.fcps.edu/BonnieBraeES","SCHOOL_NAM":"BONNIE BRAE","HOME_URL":"http://www.fcps.edu/BonnieBraeES/","TYPE_DESC":"Elementary","SCHOOL_NUM":2395.0,"SCHID_3_T":"395","STATE":"VA","MS":null,"SCHID_4_T":"2395","STREET_NAM":"SIDEBURN RD","id":"af9c9q7tihli","ADDRESS":"5420 SIDEBURN RD","GRADES":"K-6","STREET_NUM":5420},"type":"Feature","geometry":{"type":"Point","coordinates":[-77.3097494407661,38.8040680074423]}},{"properties":{"SCHID_3":362.0,"CITY":"Fairfax Station","HS":null,"SCHOOL_TYP":"ES","ZIP":22039.0,"CLUSTER_NU":6,"ES":"FAIRVIEW","WEB_ADDRES":"www.fcps.edu/FairviewES","SCHOOL_NAM":"FAIRVIEW","HOME_URL":"http://www.fcps.edu/FairviewES/","TYPE_DESC":"Elementary","SCHOOL_NUM":2362.0,"SCHID_3_T":"362","STATE":"VA","MS":null,"SCHID_4_T":"2362","STREET_NAM":"OX RD","id":"af9c9q726lje","ADDRESS":"5815 OX RD","GRADES":"K-6","STREET_NUM":5815},"type":"Feature","geometry":{"type":"Point","coordinates":[-77.3245621496218,38.7976783962395]}},{"properties":{"SCHID_3":411.0,"CITY":"Clifton","HS":null,"SCHOOL_TYP":"MS","ZIP":20124.0,"CLUSTER_NU":7,"ES":null,"WEB_ADDRES":"www.fcps.edu/LibertyMS","SCHOOL_NAM":"LIBERTY","HOME_URL":"http://www.fcps.edu/LibertyMS/","TYPE_DESC":"Middle","SCHOOL_NUM":8411.0,"SCHID_3_T":"411","STATE":"VA","MS":"LIBERTY","SCHID_4_T":"2411","STREET_NAM":"UNION MILL RD","id":"af9c9q8h8hat","ADDRESS":"6801 UNION MILL RD","GRADES":"7-8","STREET_NUM":6801},"type":"Feature","geometry":{"type":"Point","coordinates":[-77.4175818346421,38.8054103808718]}},{"properties":{"SCHID_3":203.0,"CITY":"Alexandria","HS":null,"SCHOOL_TYP":"ES","ZIP":22303.0,"CLUSTER_NU":5,"ES":"MOUNT EAGLE","WEB_ADDRES":"www.fcps.edu/MtEagleES","SCHOOL_NAM":"MOUNT EAGLE","HOME_URL":"http://www.fcps.edu/MtEagleES/","TYPE_DESC":"Elementary","SCHOOL_NUM":1203.0,"SCHID_3_T":"203","STATE":"VA","MS":null,"SCHID_4_T":"1203","STREET_NAM":"N KINGS HY","id":"af9c9qe3jtxk","ADDRESS":"6116 N KINGS HY","GRADES":"K-6","STREET_NUM":6116},"type":"Feature","geometry":{"type":"Point","coordinates":[-77.0789814546598,38.7850642094629]}},{"properties":{"SCHID_3":204.0,"CITY":"Alexandria","HS":null,"SCHOOL_TYP":"SC","ZIP":22307.0,"CLUSTER_NU":0,"ES":null,"WEB_ADDRES":null,"SCHOOL_NAM":"QUANDER RD ED CTR","HOME_URL":"http://www.fcps.edu/QuanderRoadSchool/","TYPE_DESC":"Special Education Center","SCHOOL_NUM":1204.0,"SCHID_3_T":"204","STATE":"VA","MS":null,"SCHID_4_T":"1204","STREET_NAM":"QUANDER RD","id":"af9c9qenhkkn","ADDRESS":"6400 QUANDER RD","GRADES":"N/A","STREET_NUM":6400},"type":"Feature","geometry":{"type":"Point","coordinates":[-77.0718353428864,38.7783207310828]}},{"properties":{"SCHID_3":194.0,"CITY":"Alexandria","HS":null,"SCHOOL_TYP":"ES","ZIP":22310.0,"CLUSTER_NU":5,"ES":"ROSE HILL","WEB_ADDRES":"www.fcps.edu/RoseHillES","SCHOOL_NAM":"ROSE HILL","HOME_URL":"http://www.fcps.edu/RoseHillES/","TYPE_DESC":"Elementary","SCHOOL_NUM":1194.0,"SCHID_3_T":"194","STATE":"VA","MS":null,"SCHID_4_T":"1194","STREET_NAM":"ROSE HILL DR","id":"af9c9qb4d5nk","ADDRESS":"6301 ROSE HILL DR","GRADES":"K-6","STREET_NUM":6301},"type":"Feature","geometry":{"type":"Point","coordinates":[-77.1173503035966,38.7819029512685]}},{"properties":{"SCHID_3":389.0,"CITY":"Burke","HS":null,"SCHOOL_TYP":"SC","ZIP":22015.0,"CLUSTER_NU":0,"ES":null,"WEB_ADDRES":"www.fcps.edu/BurkeCenter","SCHOOL_NAM":"BURKE ED CTR","HOME_URL":"http://www.fcps.edu/burkeschool/","TYPE_DESC":"Special Education Center","SCHOOL_NUM":1389.0,"SCHID_3_T":"389","STATE":"VA","MS":null,"SCHID_4_T":"389","STREET_NAM":"BURKE LAKE RD","id":"af9c9q4ghx5q","ADDRESS":"9645 BURKE LAKE RD","GRADES":"N/A","STREET_NUM":9645},"type":"Feature","geometry":{"type":"Point","coordinates":[-77.2783391054987,38.7836293904438]}},{"properties":{"SCHID_3":383.0,"CITY":"Burke","HS":null,"SCHOOL_TYP":"ES","ZIP":22015.0,"CLUSTER_NU":6,"ES":"TERRA CENTRE","WEB_ADDRES":"www.fcps.edu/TerraCentreES","SCHOOL_NAM":"TERRA CENTRE","HOME_URL":"http://www.fcps.edu/TerraCentreES/","TYPE_DESC":"Elementary","SCHOOL_NUM":2383.0,"SCHID_3_T":"383","STATE":"VA","MS":null,"SCHID_4_T":"2383","STREET_NAM":"BURKE CENTER PW","id":"af9c9q8g98rk","ADDRESS":"6000 BURKE CENTER PW","GRADES":"K-6","STREET_NUM":6000},"type":"Feature","geometry":{"type":"Point","coordinates":[-77.2980147498464,38.7854675316368]}},{"properties":{"SCHID_3":416.0,"CITY":"Clifton","HS":null,"SCHOOL_TYP":"AC","ZIP":20124.0,"CLUSTER_NU":0,"ES":null,"WEB_ADDRES":"www.fcps.edu/CliftonES","SCHOOL_NAM":"CLIFTON ES","HOME_URL":"http://www.fcps.edu/CliftonES/","TYPE_DESC":"Administrative Center","SCHOOL_NUM":2416.0,"SCHID_3_T":"416","STATE":"VA","MS":null,"SCHID_4_T":"416","STREET_NAM":"CLIFTON","id":"af9c9q59d5v7","ADDRESS":"7010 CLIFTON","GRADES":"K-6","STREET_NUM":7010},"type":"Feature","geometry":{"type":"Point","coordinates":[-77.3884941749163,38.7837883851741]}},{"properties":{"SCHID_3":202.0,"CITY":"Alexandria","HS":null,"SCHOOL_TYP":"ES","ZIP":22307.0,"CLUSTER_NU":4,"ES":"BELLE VIEW","WEB_ADDRES":"www.fcps.edu/BelleViewES","SCHOOL_NAM":"BELLE VIEW","HOME_URL":"http://www.fcps.edu/BelleViewES/","TYPE_DESC":"Elementary","SCHOOL_NUM":1202.0,"SCHID_3_T":"202","STATE":"VA","MS":null,"SCHID_4_T":"1202","STREET_NAM":"FORT HUNT RD","id":"af9c9q5b7yoj","ADDRESS":"6701 FORT HUNT RD","GRADES":"K-6","STREET_NUM":6701},"type":"Feature","geometry":{"type":"Point","coordinates":[-77.0610332098506,38.7719522688554]}},{"properties":{"SCHID_3":207.0,"CITY":"Alexandria","HS":null,"SCHOOL_TYP":"ES","ZIP":22307.0,"CLUSTER_NU":4,"ES":"BUCKNELL","WEB_ADDRES":"www.fcps.edu/BucknellES","SCHOOL_NAM":"BUCKNELL","HOME_URL":"http://www.fcps.edu/BucknellES/","TYPE_DESC":"Elementary","SCHOOL_NUM":1207.0,"SCHID_3_T":"207","STATE":"VA","MS":null,"SCHID_4_T":"1207","STREET_NAM":"UNIVERSITY DR","id":"af9c9qf2wqtk","ADDRESS":"6925 UNIVERSITY DR","GRADES":"K-6","STREET_NUM":6925},"type":"Feature","geometry":{"type":"Point","coordinates":[-77.0740417646239,38.766577479148]}},{"properties":{"SCHID_3":200.0,"CITY":"Alexandria","HS":"WEST POTOMAC","SCHOOL_TYP":"HS","ZIP":22307.0,"CLUSTER_NU":4,"ES":null,"WEB_ADDRES":"www.fcps.edu/WestPotomacHS","SCHOOL_NAM":"WEST POTOMAC","HOME_URL":"http://www.fcps.edu/WestPotomacHS/","TYPE_DESC":"High","SCHOOL_NUM":1200.0,"SCHID_3_T":"200","STATE":"VA","MS":null,"SCHID_4_T":"1200","STREET_NAM":"QUANDER RD","id":"af9c9qdsan1i","ADDRESS":"6500 QUANDER RD","GRADES":"9-12","STREET_NUM":6500},"type":"Feature","geometry":{"type":"Point","coordinates":[-77.0722798181225,38.7742970792609]}},{"properties":{"SCHID_3":205.0,"CITY":"Alexandria","HS":null,"SCHOOL_TYP":"ES","ZIP":22306.0,"CLUSTER_NU":4,"ES":"GROVETON","WEB_ADDRES":"www.fcps.edu/GrovetonES","SCHOOL_NAM":"GROVETON","HOME_URL":"http://www.fcps.edu/GrovetonES/","TYPE_DESC":"Elementary","SCHOOL_NUM":1205.0,"SCHID_3_T":"205","STATE":"VA","MS":null,"SCHID_4_T":"1205","STREET_NAM":"HARRISON LA","id":"af9c9q5kvycq","ADDRESS":"6900 HARRISON LA","GRADES":"K-6","STREET_NUM":6900},"type":"Feature","geometry":{"type":"Point","coordinates":[-77.0949722400209,38.7687975985318]}},{"properties":{"SCHID_3":165.0,"CITY":"Springfield","HS":null,"SCHOOL_TYP":"ES","ZIP":22150.0,"CLUSTER_NU":5,"ES":"FORESTDALE","WEB_ADDRES":"www.fcps.edu/ForestdaleES","SCHOOL_NAM":"FORESTDALE","HOME_URL":"http://www.fcps.edu/ForestdaleES/","TYPE_DESC":"Elementary","SCHOOL_NUM":1165.0,"SCHID_3_T":"165","STATE":"VA","MS":null,"SCHID_4_T":"1165","STREET_NAM":"ELDER AV","id":"af9c9q4wbtmh","ADDRESS":"6530 ELDER AV","GRADES":"K-6","STREET_NUM":6530},"type":"Feature","geometry":{"type":"Point","coordinates":[-77.1695818229043,38.7762426995808]}},{"properties":{"SCHID_3":162.0,"CITY":"Springfield","HS":null,"SCHOOL_TYP":"ES","ZIP":22150.0,"CLUSTER_NU":5,"ES":"GARFIELD","WEB_ADDRES":"www.fcps.edu/GarfieldES","SCHOOL_NAM":"GARFIELD","HOME_URL":"http://www.fcps.edu/GarfieldES/","TYPE_DESC":"Elementary","SCHOOL_NUM":1162.0,"SCHID_3_T":"162","STATE":"VA","MS":null,"SCHID_4_T":"1162","STREET_NAM":"OLD KEENE MILL RD","id":"af9c9qh7v7i9","ADDRESS":"7101 OLD KEENE MILL RD","GRADES":"K-6","STREET_NUM":7101},"type":"Feature","geometry":{"type":"Point","coordinates":[-77.190548836461,38.7777325134089]}},{"properties":{"SCHID_3":152.0,"CITY":"Springfield","HS":null,"SCHOOL_TYP":"ES","ZIP":22152.0,"CLUSTER_NU":6,"ES":"WEST SPRINGFIELD","WEB_ADDRES":"www.fcps.edu/WestSpringfieldES","SCHOOL_NAM":"WEST SPRINGFIELD","HOME_URL":"http://www.fcps.edu/WestSpringfieldES/","TYPE_DESC":"Elementary","SCHOOL_NUM":1152.0,"SCHID_3_T":"152","STATE":"VA","MS":null,"SCHID_4_T":"1152","STREET_NAM":"DELAND DR","id":"af9c9q7n1g5s","ADDRESS":"6802 DELAND DR","GRADES":"K-6","STREET_NUM":6802},"type":"Feature","geometry":{"type":"Point","coordinates":[-77.219771080458,38.7691518146617]}},{"properties":{"SCHID_3":156.0,"CITY":"Springfield","HS":null,"SCHOOL_TYP":"ES","ZIP":22152.0,"CLUSTER_NU":6,"ES":"ROLLING VALLEY","WEB_ADDRES":"www.fcps.edu/RollingValleyES","SCHOOL_NAM":"ROLLING VALLEY","HOME_URL":"http://www.fcps.edu/RollingValleyES/","TYPE_DESC":"Elementary","SCHOOL_NUM":1156.0,"SCHID_3_T":"156","STATE":"VA","MS":null,"SCHID_4_T":"1156","STREET_NAM":"BARNACK DR","id":"af9c9qereg6w","ADDRESS":"6703 BARNACK DR","GRADES":"K-6","STREET_NUM":6703},"type":"Feature","geometry":{"type":"Point","coordinates":[-77.2310053897314,38.7687493301139]}},{"properties":{"SCHID_3":374.0,"CITY":"Springfield","HS":null,"SCHOOL_TYP":"ES","ZIP":22152.0,"CLUSTER_NU":6,"ES":"ORANGE HUNT","WEB_ADDRES":"www.fcps.edu/OrangeHuntES","SCHOOL_NAM":"ORANGE HUNT","HOME_URL":"http://www.fcps.edu/OrangeHuntES/","TYPE_DESC":"Elementary","SCHOOL_NUM":1374.0,"SCHID_3_T":"374","STATE":"VA","MS":null,"SCHID_4_T":"1374","STREET_NAM":"SYDENSTRICKER RD","id":"af9c9qga1wt3","ADDRESS":"6820 SYDENSTRICKER RD","GRADES":"K-6","STREET_NUM":6820},"type":"Feature","geometry":{"type":"Point","coordinates":[-77.255452808524,38.7658642795454]}},{"properties":{"SCHID_3":372.0,"CITY":"Burke","HS":null,"SCHOOL_TYP":"ES","ZIP":22015.0,"CLUSTER_NU":6,"ES":"CHERRY RUN","WEB_ADDRES":"www.fcps.edu/CherryRunES","SCHOOL_NAM":"CHERRY RUN","HOME_URL":"http://www.fcps.edu/CherryRunES/","TYPE_DESC":"Elementary","SCHOOL_NUM":1372.0,"SCHID_3_T":"372","STATE":"VA","MS":null,"SCHID_4_T":"1372","STREET_NAM":"IRONMASTER DR","id":"af9c9qdaor6a","ADDRESS":"9232 IRONMASTER DR","GRADES":"K-6","STREET_NUM":9232},"type":"Feature","geometry":{"type":"Point","coordinates":[-77.2844172115413,38.7680602270939]}},{"properties":{"SCHID_3":214.0,"CITY":"Alexandria","HS":null,"SCHOOL_TYP":"ES","ZIP":22306.0,"CLUSTER_NU":4,"ES":"HOLLIN MEADOWS","WEB_ADDRES":"www.fcps.edu/HollinMeadowsES","SCHOOL_NAM":"HOLLIN MEADOWS","HOME_URL":"http://www.fcps.edu/HollinMeadowsES/","TYPE_DESC":"Elementary","SCHOOL_NUM":1214.0,"SCHID_3_T":"214","STATE":"VA","MS":null,"SCHID_4_T":"1214","STREET_NAM":"NORDOK PL","id":"af9c9q3ih6pk","ADDRESS":"2310 NORDOK PL","GRADES":"K-6","STREET_NUM":2310},"type":"Feature","geometry":{"type":"Point","coordinates":[-77.0716900883735,38.7504736399865]}},{"properties":{"SCHID_3":206.0,"CITY":"Alexandria","HS":null,"SCHOOL_TYP":"ES","ZIP":22306.0,"CLUSTER_NU":4,"ES":"HYBLA VALLEY","WEB_ADDRES":"www.fcps.edu/HyblaValleyES","SCHOOL_NAM":"HYBLA VALLEY","HOME_URL":"http://www.fcps.edu/HyblaValleyES/","TYPE_DESC":"Elementary","SCHOOL_NUM":1206.0,"SCHID_3_T":"206","STATE":"VA","MS":null,"SCHID_4_T":"1206","STREET_NAM":"LOCKHEED BV","id":"af9c9qiafu9s","ADDRESS":"3415 LOCKHEED BV","GRADES":"K-6","STREET_NUM":3415},"type":"Feature","geometry":{"type":"Point","coordinates":[-77.0896328903716,38.7589792414964]}},{"properties":{"SCHID_3":180.0,"CITY":"Alexandria","HS":"HAYFIELD","SCHOOL_TYP":"HS","ZIP":22315.0,"CLUSTER_NU":4,"ES":null,"WEB_ADDRES":"www.fcps.edu/DEA/schoolprof/high/HayfieldHS.html","SCHOOL_NAM":"HAYFIELD","HOME_URL":"http://www.fcps.edu/HayfieldSS/","TYPE_DESC":"High","SCHOOL_NUM":1180.0,"SCHID_3_T":"180","STATE":"VA","MS":null,"SCHID_4_T":"1180","STREET_NAM":"TELEGRAPH RD","id":"af9c9q5p5y8p","ADDRESS":"7606 TELEGRAPH RD","GRADES":"9-12","STREET_NUM":7606},"type":"Feature","geometry":{"type":"Point","coordinates":[-77.1439586093448,38.7508065730966]}},{"properties":{"SCHID_3":127.0,"CITY":"Alexandria","HS":null,"SCHOOL_TYP":"ES","ZIP":22315.0,"CLUSTER_NU":4,"ES":"LANE","WEB_ADDRES":"www.fcps.edu/LaneES","SCHOOL_NAM":"LANE","HOME_URL":"http://www.fcps.edu/LaneES/","TYPE_DESC":"Elementary","SCHOOL_NUM":1127.0,"SCHID_3_T":"127","STATE":"VA","MS":null,"SCHID_4_T":"1127","STREET_NAM":"BEULAH ST","id":"af9c9qavwn15","ADDRESS":"7137 BEULAH ST","GRADES":"K-6","STREET_NUM":7137},"type":"Feature","geometry":{"type":"Point","coordinates":[-77.15733199656,38.7610728390109]}},{"properties":{"SCHID_3":378.0,"CITY":"Springfield","HS":null,"SCHOOL_TYP":"ES","ZIP":22152.0,"CLUSTER_NU":6,"ES":"HUNT VALLEY","WEB_ADDRES":"www.fcps.edu/HuntValleyES","SCHOOL_NAM":"HUNT VALLEY","HOME_URL":"http://www.fcps.edu/HuntValleyES/","TYPE_DESC":"Elementary","SCHOOL_NUM":1378.0,"SCHID_3_T":"378","STATE":"VA","MS":null,"SCHID_4_T":"1378","STREET_NAM":"SYDENSTRICKER RD","id":"af9c9qebcaz8","ADDRESS":"7107 SYDENSTRICKER RD","GRADES":"K-6","STREET_NUM":7107},"type":"Feature","geometry":{"type":"Point","coordinates":[-77.2436635770813,38.7620862862854]}},{"properties":{"SCHID_3":377.0,"CITY":"Springfield","HS":null,"SCHOOL_TYP":"ES","ZIP":22153.0,"CLUSTER_NU":6,"ES":"SANGSTER","WEB_ADDRES":"www.fcps.edu/SangsterES","SCHOOL_NAM":"SANGSTER","HOME_URL":"http://www.fcps.edu/SangsterES/","TYPE_DESC":"Elementary","SCHOOL_NUM":1377.0,"SCHID_3_T":"377","STATE":"VA","MS":null,"SCHID_4_T":"1377","STREET_NAM":"RESERVATION DR","id":"af9c9q9re1is","ADDRESS":"7420 RESERVATION DR","GRADES":"K-6","STREET_NUM":7420},"type":"Feature","geometry":{"type":"Point","coordinates":[-77.2724795898156,38.7551561357906]}},{"properties":{"SCHID_3":221.0,"CITY":"Alexandria","HS":null,"SCHOOL_TYP":"MS","ZIP":22306.0,"CLUSTER_NU":4,"ES":null,"WEB_ADDRES":"www.fcps.edu/WhitmanMS","SCHOOL_NAM":"WHITMAN","HOME_URL":"http://www.fcps.edu/WhitmanMS/","TYPE_DESC":"Middle","SCHOOL_NUM":1221.0,"SCHID_3_T":"221","STATE":"VA","MS":"WHITMAN","SCHID_4_T":"1221","STREET_NAM":"PARKER'S LA","id":"af9c9qarufn6","ADDRESS":"2500 PARKER'S LA","GRADES":"7-8","STREET_NUM":2500},"type":"Feature","geometry":{"type":"Point","coordinates":[-77.074267478415,38.7414780797674]}},{"properties":{"SCHID_3":394.0,"CITY":"Fairfax","HS":null,"SCHOOL_TYP":"ES","ZIP":22032.0,"CLUSTER_NU":6,"ES":"LAUREL RIDGE","WEB_ADDRES":"www.fcps.edu/LaurelRidgeES","SCHOOL_NAM":"LAUREL RIDGE","HOME_URL":"http://www.fcps.edu/LaurelRidgeES/","TYPE_DESC":"Elementary","SCHOOL_NUM":2394.0,"SCHID_3_T":"394","STATE":"VA","MS":null,"SCHID_4_T":"2394","STREET_NAM":"COMMONWEALTH BV","id":"af9c9q5vdgj6","ADDRESS":"10110 COMMONWEALTH BV","GRADES":"K-6","STREET_NUM":10110},"type":"Feature","geometry":{"type":"Point","coordinates":[-77.2957286624476,38.8142648283884]}},{"properties":{"SCHID_3":392.0,"CITY":"Fairfax","HS":null,"SCHOOL_TYP":"ES","ZIP":22032.0,"CLUSTER_NU":6,"ES":"OAK VIEW","WEB_ADDRES":"www.fcps.edu/OakViewES","SCHOOL_NAM":"OAK VIEW","HOME_URL":"http://www.fcps.edu/OakViewES/","TYPE_DESC":"Elementary","SCHOOL_NUM":2392.0,"SCHID_3_T":"392","STATE":"VA","MS":null,"SCHID_4_T":"2392","STREET_NAM":"SIDEBURN RD","id":"af9c9qiw4m7e","ADDRESS":"5004 SIDEBURN RD","GRADES":"K-6","STREET_NUM":5004},"type":"Feature","geometry":{"type":"Point","coordinates":[-77.3098393455867,38.81883468839]}},{"properties":{"SCHID_3":390.0,"CITY":"Fairfax","HS":"ROBINSON","SCHOOL_TYP":"HS","ZIP":22032.0,"CLUSTER_NU":6,"ES":null,"WEB_ADDRES":"www.fcps.edu/RobinsonSS","SCHOOL_NAM":"ROBINSON","HOME_URL":"http://www.fcps.edu/RobinsonSS/","TYPE_DESC":"High","SCHOOL_NUM":2390.0,"SCHID_3_T":"390","STATE":"VA","MS":null,"SCHID_4_T":"2390","STREET_NAM":"SIDEBURN RD","id":"af9c9qdi63n8","ADDRESS":"5035 SIDEBURN RD","GRADES":"9-12","STREET_NUM":5035},"type":"Feature","geometry":{"type":"Point","coordinates":[-77.3018711907199,38.815923710499]}},{"properties":{"SCHID_3":391.0,"CITY":"Fairfax","HS":null,"SCHOOL_TYP":"MS","ZIP":22032.0,"CLUSTER_NU":6,"ES":null,"WEB_ADDRES":"www.fcps.edu/RobinsonSS","SCHOOL_NAM":"ROBINSON","HOME_URL":"http://www.fcps.edu/RobinsonSS/","TYPE_DESC":"Middle","SCHOOL_NUM":2391.0,"SCHID_3_T":"391","STATE":"VA","MS":"ROBINSON","SCHID_4_T":"2391","STREET_NAM":"SIDEBURN RD","id":"af9c9q8jvf4c","ADDRESS":"5035 SIDEBURN RD","GRADES":"7-8","STREET_NUM":5035},"type":"Feature","geometry":{"type":"Point","coordinates":[-77.3024632668512,38.816569854772]}},{"properties":{"SCHID_3":192.0,"CITY":"Alexandria","HS":null,"SCHOOL_TYP":"ES","ZIP":22303.0,"CLUSTER_NU":5,"ES":"CAMERON","WEB_ADDRES":"www.fcps.edu/CameronES","SCHOOL_NAM":"CAMERON","HOME_URL":"http://www.fcps.edu/CameronES/","TYPE_DESC":"Elementary","SCHOOL_NUM":1192.0,"SCHID_3_T":"192","STATE":"VA","MS":null,"SCHID_4_T":"1192","STREET_NAM":"CAMPBELL DR","id":"af9c9q8vp939","ADDRESS":"3434 CAMPBELL DR","GRADES":"K-6","STREET_NUM":3434},"type":"Feature","geometry":{"type":"Point","coordinates":[-77.0913469407155,38.8005163208404]}},{"properties":{"SCHID_3":193.0,"CITY":"Alexandria","HS":null,"SCHOOL_TYP":"ES","ZIP":22310.0,"CLUSTER_NU":5,"ES":"CLERMONT","WEB_ADDRES":"www.fcps.edu/ClermontES","SCHOOL_NAM":"CLERMONT","HOME_URL":"http://www.fcps.edu/ClermontES/","TYPE_DESC":"Elementary","SCHOOL_NUM":1193.0,"SCHID_3_T":"193","STATE":"VA","MS":null,"SCHID_4_T":"1193","STREET_NAM":"CLERMONT DR","id":"af9c9qg7ciql","ADDRESS":"5720 CLERMONT DR","GRADES":"K-6","STREET_NUM":5720},"type":"Feature","geometry":{"type":"Point","coordinates":[-77.111188528716,38.794879090254]}},{"properties":{"SCHID_3":164.0,"CITY":"Springfield","HS":null,"SCHOOL_TYP":"ES","ZIP":22150.0,"CLUSTER_NU":5,"ES":"LYNBROOK","WEB_ADDRES":"www.fcps.edu/LynbrookES","SCHOOL_NAM":"LYNBROOK","HOME_URL":"http://www.fcps.edu/LynbrookES/","TYPE_DESC":"Elementary","SCHOOL_NUM":1164.0,"SCHID_3_T":"164","STATE":"VA","MS":null,"SCHID_4_T":"1164","STREET_NAM":"BACKLICK RD","id":"af9c9qgw0mfp","ADDRESS":"5801 BACKLICK RD","GRADES":"K-6","STREET_NUM":5801},"type":"Feature","geometry":{"type":"Point","coordinates":[-77.1858374401761,38.7921012210912]}},{"properties":{"SCHID_3":142.0,"CITY":"Springfield","HS":null,"SCHOOL_TYP":"ES","ZIP":22151.0,"CLUSTER_NU":3,"ES":"NORTH SPRINGFIELD","WEB_ADDRES":"www.fcps.edu/NorthSpringfieldES","SCHOOL_NAM":"NORTH SPRINGFIELD","HOME_URL":"http://www.fcps.edu/NorthSpringfieldES/","TYPE_DESC":"Elementary","SCHOOL_NUM":2142.0,"SCHID_3_T":"142","STATE":"VA","MS":null,"SCHID_4_T":"2142","STREET_NAM":"HEMING CT","id":"af9c9q8wrhil","ADDRESS":"7602 HEMING CT","GRADES":"K-6","STREET_NUM":7602},"type":"Feature","geometry":{"type":"Point","coordinates":[-77.2071598754224,38.8015594540904]}},{"properties":{"SCHID_3":86.0,"CITY":"Annandale","HS":null,"SCHOOL_TYP":"ES","ZIP":22003.0,"CLUSTER_NU":2,"ES":"CAMELOT","WEB_ADDRES":"www.fcps.edu/CamelotES","SCHOOL_NAM":"CAMELOT","HOME_URL":"http://www.fcps.edu/CamelotES/","TYPE_DESC":"Elementary","SCHOOL_NUM":3086.0,"SCHID_3_T":"086","STATE":"VA","MS":null,"SCHID_4_T":"3086","STREET_NAM":"GUINEVERE DR","id":"af9c9q9tn6s2","ADDRESS":"8100 GUINEVERE DR","GRADES":"K-6","STREET_NUM":8100},"type":"Feature","geometry":{"type":"Point","coordinates":[-77.2250875412598,38.8482721519875]}},{"properties":{"SCHID_3":452.0,"CITY":"Falls Church","HS":null,"SCHOOL_TYP":"ES","ZIP":22042.0,"CLUSTER_NU":2,"ES":"WOODBURN","WEB_ADDRES":"www.fcps.edu/WoodburnES","SCHOOL_NAM":"WOODBURN","HOME_URL":"http://www.fcps.edu/WoodburnES/","TYPE_DESC":"Elementary","SCHOOL_NUM":3452.0,"SCHID_3_T":"452","STATE":"VA","MS":null,"SCHID_4_T":"3452","STREET_NAM":"HEMLOCK DR","id":"af9c9qfsut37","ADDRESS":"3401 HEMLOCK DR","GRADES":"K-6","STREET_NUM":3401},"type":"Feature","geometry":{"type":"Point","coordinates":[-77.2137524704012,38.8521234170498]}},{"properties":{"SCHID_3":500.0,"CITY":"Fairfax","HS":"FAIRFAX","SCHOOL_TYP":"HS","ZIP":22030.0,"CLUSTER_NU":7,"ES":null,"WEB_ADDRES":"www.fcps.edu/FairfaxHS","SCHOOL_NAM":"FAIRFAX","HOME_URL":"http://www.fcps.edu/FairfaxHS/","TYPE_DESC":"High","SCHOOL_NUM":2500.0,"SCHID_3_T":"500","STATE":"VA","MS":null,"SCHID_4_T":"2500","STREET_NAM":"OLD LEE HY","id":"af9c9qeiwj1f","ADDRESS":"3500 OLD LEE HY","GRADES":"9-12","STREET_NUM":3500},"type":"Feature","geometry":{"type":"Point","coordinates":[-77.2864235749212,38.8598584089003]}},{"properties":{"SCHID_3":397.0,"CITY":"Fairfax","HS":null,"SCHOOL_TYP":"ES","ZIP":22030.0,"CLUSTER_NU":7,"ES":"DANIELS RUN","WEB_ADDRES":"www.fcps.edu/DanielsRunES","SCHOOL_NAM":"DANIELS RUN","HOME_URL":"http://www.fcps.edu/DanielsRunES/","TYPE_DESC":"Elementary","SCHOOL_NUM":8397.0,"SCHID_3_T":"397","STATE":"VA","MS":null,"SCHID_4_T":"9397","STREET_NAM":"OLD LEE HY","id":"af9c9qcj45c7","ADDRESS":"3705 OLD LEE HY","GRADES":"K-6","STREET_NUM":3705},"type":"Feature","geometry":{"type":"Point","coordinates":[-77.2958323676929,38.8521249611807]}},{"properties":{"SCHID_3":501.0,"CITY":"Fairfax","HS":null,"SCHOOL_TYP":"MS","ZIP":22030.0,"CLUSTER_NU":7,"ES":null,"WEB_ADDRES":"www.fcps.edu/LanierMS","SCHOOL_NAM":"LANIER","HOME_URL":"http://www.fcps.edu/LanierMS/","TYPE_DESC":"Middle","SCHOOL_NUM":2501.0,"SCHID_3_T":"501","STATE":"VA","MS":"LANIER","SCHID_4_T":"2501","STREET_NAM":"BEVAN DR","id":"af9c9q5rwyvv","ADDRESS":"3710 BEVAN DR","GRADES":"7-8","STREET_NUM":3710},"type":"Feature","geometry":{"type":"Point","coordinates":[-77.3272189565066,38.8604843012292]}},{"properties":{"SCHID_3":136.0,"CITY":"Fairfax","HS":null,"SCHOOL_TYP":"ES","ZIP":22030.0,"CLUSTER_NU":7,"ES":"EAGLE VIEW","WEB_ADDRES":"www.fcps.edu/eagleviewes","SCHOOL_NAM":"EAGLE VIEW","HOME_URL":"http://www.fcps.edu/eagleviewes","TYPE_DESC":"Elementary","SCHOOL_NUM":8136.0,"SCHID_3_T":"136","STATE":"VA","MS":null,"SCHID_4_T":"8136","STREET_NAM":"DIXIE HILL RD","id":"af9c9qglfnb8","ADDRESS":"4500 DIXIE HILL RD","GRADES":"K-6","STREET_NUM":4500},"type":"Feature","geometry":{"type":"Point","coordinates":[-77.3628705219723,38.8513941003311]}},{"properties":{"SCHID_3":241.0,"CITY":"Centreville","HS":null,"SCHOOL_TYP":"MS","ZIP":20120.0,"CLUSTER_NU":8,"ES":null,"WEB_ADDRES":"www.fcps.edu/StoneMS","SCHOOL_NAM":"STONE","HOME_URL":"http://www.fcps.edu/StoneMS/","TYPE_DESC":"Middle","SCHOOL_NUM":2241.0,"SCHID_3_T":"241","STATE":"VA","MS":"STONE","SCHID_4_T":"2241","STREET_NAM":"SULLY PARK DR","id":"af9c9q5xhosf","ADDRESS":"5500 SULLY PARK DR","GRADES":"7-8","STREET_NUM":5500},"type":"Feature","geometry":{"type":"Point","coordinates":[-77.4548134150664,38.85751324622]}},{"properties":{"SCHID_3":242.0,"CITY":"Centreville","HS":null,"SCHOOL_TYP":"ES","ZIP":20120.0,"CLUSTER_NU":8,"ES":"DEER PARK","WEB_ADDRES":"www.fcps.edu/DeerParkES","SCHOOL_NAM":"DEER PARK","HOME_URL":"http://www.fcps.edu/DeerParkES/","TYPE_DESC":"Elementary","SCHOOL_NUM":2242.0,"SCHID_3_T":"242","STATE":"VA","MS":null,"SCHID_4_T":"2242","STREET_NAM":"CARLBERN RD","id":"af9c9qeekwlp","ADDRESS":"15109 CARLBERN RD","GRADES":"K-6","STREET_NUM":15109},"type":"Feature","geometry":{"type":"Point","coordinates":[-77.4710909641763,38.8557945699214]}},{"properties":{"SCHID_3":232.0,"CITY":"Centreville","HS":null,"SCHOOL_TYP":"ES","ZIP":20120.0,"CLUSTER_NU":8,"ES":"VIRGINIA RUN","WEB_ADDRES":"www.fcps.edu/VirginiaRunES","SCHOOL_NAM":"VIRGINIA RUN","HOME_URL":"http://www.fcps.edu/VirginiaRunES/","TYPE_DESC":"Elementary","SCHOOL_NUM":2232.0,"SCHID_3_T":"232","STATE":"VA","MS":null,"SCHID_4_T":"2232","STREET_NAM":"MARTINS HUNDRED DR","id":"af9c9qekoikz","ADDRESS":"15450 MARTINS HUNDRED DR","GRADES":"K-6","STREET_NUM":15450},"type":"Feature","geometry":{"type":"Point","coordinates":[-77.485728460182,38.8520907553855]}},{"properties":{"SCHID_3":101.0,"CITY":"Alexandria","HS":null,"SCHOOL_TYP":"MS","ZIP":22312.0,"CLUSTER_NU":3,"ES":null,"WEB_ADDRES":"www.fcps.edu/GlasgowMS","SCHOOL_NAM":"GLASGOW","HOME_URL":"http://www.fcps.edu/GlasgowMS/","TYPE_DESC":"Middle","SCHOOL_NUM":2101.0,"SCHID_3_T":"101","STATE":"VA","MS":"GLASGOW","SCHID_4_T":"2101","STREET_NAM":"FAIRFAX PW","id":"af9c9q58m8ag","ADDRESS":"4101 FAIRFAX PW","GRADES":"7-8","STREET_NUM":4101},"type":"Feature","geometry":{"type":"Point","coordinates":[-77.1409816081765,38.8376290392596]}},{"properties":{"SCHID_3":102.0,"CITY":"Alexandria","HS":null,"SCHOOL_TYP":"ES","ZIP":22312.0,"CLUSTER_NU":3,"ES":"PARKLAWN","WEB_ADDRES":"www.fcps.edu/ParklawnES","SCHOOL_NAM":"PARKLAWN","HOME_URL":"http://www.fcps.edu/ParklawnES/","TYPE_DESC":"Elementary","SCHOOL_NUM":2102.0,"SCHID_3_T":"102","STATE":"VA","MS":null,"SCHID_4_T":"2102","STREET_NAM":"BRADDOCK RD","id":"af9c9qeepzvy","ADDRESS":"4116 BRADDOCK RD","GRADES":"K-6","STREET_NUM":4116},"type":"Feature","geometry":{"type":"Point","coordinates":[-77.1531217342157,38.8339176322284]}},{"properties":{"SCHID_3":456.0,"CITY":"Falls Church","HS":null,"SCHOOL_TYP":"ES","ZIP":22041.0,"CLUSTER_NU":3,"ES":"BELVEDERE","WEB_ADDRES":"www.fcps.edu/BelvedereES","SCHOOL_NAM":"BELVEDERE","HOME_URL":"http://www.fcps.edu/BelvedereES/","TYPE_DESC":"Elementary","SCHOOL_NUM":2456.0,"SCHID_3_T":"456","STATE":"VA","MS":null,"SCHID_4_T":"2456","STREET_NAM":"COLUMBIA PI","id":"af9c9q787em4","ADDRESS":"6540 COLUMBIA PI","GRADES":"K-6","STREET_NUM":6540},"type":"Feature","geometry":{"type":"Point","coordinates":[-77.1687895796345,38.8386595581349]}},{"properties":{"SCHID_3":132.0,"CITY":"Fairfax","HS":null,"SCHOOL_TYP":"ES","ZIP":22032.0,"CLUSTER_NU":3,"ES":"WAKEFIELD FOREST","WEB_ADDRES":"www.fcps.edu/WakefieldForestES","SCHOOL_NAM":"WAKEFIELD FOREST","HOME_URL":"http://www.fcps.edu/WakefieldForestES/","TYPE_DESC":"Elementary","SCHOOL_NUM":2132.0,"SCHID_3_T":"132","STATE":"VA","MS":null,"SCHID_4_T":"2132","STREET_NAM":"IVA LA","id":"af9c9qie65lk","ADDRESS":"4011 IVA LA","GRADES":"K-6","STREET_NUM":4011},"type":"Feature","geometry":{"type":"Point","coordinates":[-77.2470860033326,38.836190963049]}},{"properties":{"SCHID_3":120.0,"CITY":"Alexandria","HS":"EDISON","SCHOOL_TYP":"HS","ZIP":22310.0,"CLUSTER_NU":5,"ES":null,"WEB_ADDRES":"www.fcps.edu/EdisonHS","SCHOOL_NAM":"EDISON","HOME_URL":"http://www.fcps.edu/EdisonHS/","TYPE_DESC":"High","SCHOOL_NUM":1120.0,"SCHID_3_T":"120","STATE":"VA","MS":null,"SCHID_4_T":"1120","STREET_NAM":"FRANCONIA RD","id":"af9c9q41jfr1","ADDRESS":"5801 FRANCONIA RD","GRADES":"9-12","STREET_NUM":5801},"type":"Feature","geometry":{"type":"Point","coordinates":[-77.1343115930489,38.7821287942467]}},{"properties":{"SCHID_3":161.0,"CITY":"Springfield","HS":null,"SCHOOL_TYP":"MS","ZIP":22150.0,"CLUSTER_NU":5,"ES":null,"WEB_ADDRES":"www.fcps.edu/KeyMS","SCHOOL_NAM":"KEY","HOME_URL":"http://www.fcps.edu/KeyMS/","TYPE_DESC":"Middle","SCHOOL_NUM":1161.0,"SCHID_3_T":"161","STATE":"VA","MS":"KEY","SCHID_4_T":"1161","STREET_NAM":"FRANCONIA RD","id":"af9c9q72z3mu","ADDRESS":"6402 FRANCONIA RD","GRADES":"7-8","STREET_NUM":6402},"type":"Feature","geometry":{"type":"Point","coordinates":[-77.1617555718809,38.7803746780452]}},{"properties":{"SCHID_3":163.0,"CITY":"Springfield","HS":null,"SCHOOL_TYP":"ES","ZIP":22150.0,"CLUSTER_NU":5,"ES":"SPRINGFIELD ESTATES","WEB_ADDRES":"www.fcps.edu/SpringfieldEstatesES","SCHOOL_NAM":"SPRINGFIELD ESTATES","HOME_URL":"http://www.fcps.edu/SpringfieldEstatesES/","TYPE_DESC":"Elementary","SCHOOL_NUM":1163.0,"SCHID_3_T":"163","STATE":"VA","MS":null,"SCHID_4_T":"1163","STREET_NAM":"CHARLES GOFF DR","id":"af9c9q67r39m","ADDRESS":"6200 CHARLES GOFF DR","GRADES":"K-6","STREET_NUM":6200},"type":"Feature","geometry":{"type":"Point","coordinates":[-77.1640809163865,38.783967466647]}},{"properties":{"SCHID_3":160.0,"CITY":"Springfield","HS":"LEE","SCHOOL_TYP":"HS","ZIP":22150.0,"CLUSTER_NU":5,"ES":null,"WEB_ADDRES":"www.fcps.edu/LeeHS/index1024.html","SCHOOL_NAM":"LEE","HOME_URL":"http://www.fcps.edu/LeeHS/","TYPE_DESC":"High","SCHOOL_NUM":1160.0,"SCHID_3_T":"160","STATE":"VA","MS":null,"SCHID_4_T":"1160","STREET_NAM":"FRANCONIA RD","id":"af9c9qcjelj5","ADDRESS":"6540 FRANCONIA RD","GRADES":"9-12","STREET_NUM":6540},"type":"Feature","geometry":{"type":"Point","coordinates":[-77.1698851239284,38.7803694477611]}},{"properties":{"SCHID_3":166.0,"CITY":"Springfield","HS":null,"SCHOOL_TYP":"ES","ZIP":22150.0,"CLUSTER_NU":5,"ES":"CRESTWOOD","WEB_ADDRES":"www.fcps.edu/CrestwoodES","SCHOOL_NAM":"CRESTWOOD","HOME_URL":"http://www.fcps.edu/CrestwoodES/","TYPE_DESC":"Elementary","SCHOOL_NUM":1166.0,"SCHID_3_T":"166","STATE":"VA","MS":null,"SCHID_4_T":"1166","STREET_NAM":"HANOVER RD","id":"af9c9qbfms78","ADDRESS":"6010 HANOVER RD","GRADES":"K-6","STREET_NUM":6010},"type":"Feature","geometry":{"type":"Point","coordinates":[-77.1949196917717,38.7873864992578]}},{"properties":{"SCHID_3":157.0,"CITY":"Springfield","HS":null,"SCHOOL_TYP":"ES","ZIP":22152.0,"CLUSTER_NU":6,"ES":"KEENE MILL","WEB_ADDRES":"www.fcps.edu/KeeneMillES","SCHOOL_NAM":"KEENE MILL","HOME_URL":"http://www.fcps.edu/KeeneMillES/","TYPE_DESC":"Elementary","SCHOOL_NUM":1157.0,"SCHID_3_T":"157","STATE":"VA","MS":null,"SCHID_4_T":"1157","STREET_NAM":"BARDU AV","id":"af9c9q8uw6j7","ADDRESS":"6310 BARDU AV","GRADES":"K-6","STREET_NUM":6310},"type":"Feature","geometry":{"type":"Point","coordinates":[-77.2215054925011,38.7811882889144]}},{"properties":{"SCHID_3":151.0,"CITY":"Springfield","HS":null,"SCHOOL_TYP":"MS","ZIP":22152.0,"CLUSTER_NU":6,"ES":null,"WEB_ADDRES":"www.fcps.edu/IrvingMS","SCHOOL_NAM":"IRVING","HOME_URL":"http://www.fcps.edu/IrvingMS/","TYPE_DESC":"Middle","SCHOOL_NUM":1151.0,"SCHID_3_T":"151","STATE":"VA","MS":"IRVING","SCHID_4_T":"1151","STREET_NAM":"OLD KEENE MILL RD","id":"af9c9qbyvgmr","ADDRESS":"8100 OLD KEENE MILL RD","GRADES":"7-8","STREET_NUM":8100},"type":"Feature","geometry":{"type":"Point","coordinates":[-77.224462243268,38.7817223064589]}},{"properties":{"SCHID_3":103.0,"CITY":"Falls Church","HS":null,"SCHOOL_TYP":"ES","ZIP":22041.0,"CLUSTER_NU":3,"ES":"BAILEY'S","WEB_ADDRES":"www.fcps.edu/BaileysES","SCHOOL_NAM":"BAILEY'S","HOME_URL":"http://www.fcps.edu/BaileysES/","TYPE_DESC":"Elementary","SCHOOL_NUM":2103.0,"SCHID_3_T":"103","STATE":"VA","MS":null,"SCHID_4_T":"2103","STREET_NAM":"KNOLLWOOD DR","id":"af9c9qgs2fi7","ADDRESS":"6111 KNOLLWOOD DR","GRADES":"K-6","STREET_NUM":6111},"type":"Feature","geometry":{"type":"Point","coordinates":[-77.1453702763184,38.8520927425124]}},{"properties":{"SCHID_3":104.0,"CITY":"Falls Church","HS":null,"SCHOOL_TYP":"ES","ZIP":22041.0,"CLUSTER_NU":3,"ES":"GLEN FOREST","WEB_ADDRES":"www.fcps.edu/GlenForestES","SCHOOL_NAM":"GLEN FOREST","HOME_URL":"http://www.fcps.edu/GlenForestES/","TYPE_DESC":"Elementary","SCHOOL_NUM":2104.0,"SCHID_3_T":"104","STATE":"VA","MS":null,"SCHID_4_T":"2104","STREET_NAM":"GLEN FOREST DR","id":"af9c9q3er0pl","ADDRESS":"5829 GLEN FOREST DR","GRADES":"K-6","STREET_NUM":5829},"type":"Feature","geometry":{"type":"Point","coordinates":[-77.1286293730907,38.855538249968]}},{"properties":{"SCHID_3":245.0,"CITY":"Centreville","HS":null,"SCHOOL_TYP":"ES","ZIP":20120.0,"CLUSTER_NU":8,"ES":"LONDON TOWNE","WEB_ADDRES":"www.fcps.edu/LondonTowneES","SCHOOL_NAM":"LONDON TOWNE","HOME_URL":"http://www.fcps.edu/LondonTowneES/","TYPE_DESC":"Elementary","SCHOOL_NUM":2245.0,"SCHID_3_T":"245","STATE":"VA","MS":null,"SCHID_4_T":"2245","STREET_NAM":"STONE RD","id":"af9c9q4600ck","ADDRESS":"6100 STONE RD","GRADES":"K-6","STREET_NUM":6100},"type":"Feature","geometry":{"type":"Point","coordinates":[-77.4564041290545,38.839829158043]}},{"properties":{"SCHID_3":402.0,"CITY":"Annandale","HS":null,"SCHOOL_TYP":"ES","ZIP":22003.0,"CLUSTER_NU":3,"ES":"CANTERBURY WOODS","WEB_ADDRES":"www.fcps.edu/CanterburyWoodsES","SCHOOL_NAM":"CANTERBURY WOODS","HOME_URL":"http://www.fcps.edu/CanterburyWoodsES/","TYPE_DESC":"Elementary","SCHOOL_NUM":2402.0,"SCHID_3_T":"402","STATE":"VA","MS":null,"SCHID_4_T":"2402","STREET_NAM":"WILLET DR","id":"af9c9qcs1cbs","ADDRESS":"4910 WILLET DR","GRADES":"K-6","STREET_NUM":4910},"type":"Feature","geometry":{"type":"Point","coordinates":[-77.2497017978287,38.8204677712121]}},{"properties":{"SCHID_3":72.0,"CITY":null,"HS":null,"SCHOOL_TYP":"AC","ZIP":0.0,"CLUSTER_NU":0,"ES":null,"WEB_ADDRES":null,"SCHOOL_NAM":"DUNN LORING","HOME_URL":null,"TYPE_DESC":"Administrative Center","SCHOOL_NUM":72.0,"SCHID_3_T":"072","STATE":"VA","MS":null,"SCHID_4_T":"072","STREET_NAM":"Gallows Rd","id":"af9c9q7cbsro","ADDRESS":"2334 Gallows Rd","GRADES":"N/A","STREET_NUM":2334},"type":"Feature","geometry":{"type":"Point","coordinates":[-77.225663841836,38.8966452742273]}},{"properties":{"SCHID_3":522.0,"CITY":null,"HS":null,"SCHOOL_TYP":"FE","ZIP":0.0,"CLUSTER_NU":0,"ES":null,"WEB_ADDRES":null,"SCHOOL_NAM":"WESTFIELDS SITE","HOME_URL":null,"TYPE_DESC":"Future Elementary","SCHOOL_NUM":522.0,"SCHID_3_T":"522","STATE":"VA","MS":null,"SCHID_4_T":"522","STREET_NAM":null,"id":"af9c9qi1m4gc","ADDRESS":null,"GRADES":"N/A","STREET_NUM":null},"type":"Feature","geometry":{"type":"Point","coordinates":[-77.4684210890374,38.8899837083628]}},{"properties":{"SCHID_3":92.0,"CITY":null,"HS":null,"SCHOOL_TYP":"AC","ZIP":0.0,"CLUSTER_NU":0,"ES":null,"WEB_ADDRES":null,"SCHOOL_NAM":"DEVONSHIRE CTR","HOME_URL":null,"TYPE_DESC":"Administrative Center","SCHOOL_NUM":3092.0,"SCHID_3_T":"092","STATE":"VA","MS":null,"SCHID_4_T":"3092","STREET_NAM":"GRAHAM RD","id":"af9c9qbltmqv","ADDRESS":"2831 GRAHAM RD","GRADES":"N/A","STREET_NUM":2831},"type":"Feature","geometry":{"type":"Point","coordinates":[-77.1898463550845,38.8771644059741]}},{"properties":{"SCHID_3":137.0,"CITY":null,"HS":null,"SCHOOL_TYP":"FE","ZIP":0.0,"CLUSTER_NU":0,"ES":null,"WEB_ADDRES":null,"SCHOOL_NAM":"STONEHURST ES SITE","HOME_URL":null,"TYPE_DESC":"Future Elementary","SCHOOL_NUM":3137.0,"SCHID_3_T":"137","STATE":"VA","MS":null,"SCHID_4_T":"3137","STREET_NAM":null,"id":"af9c9qfsxp71","ADDRESS":null,"GRADES":"N/A","STREET_NUM":null},"type":"Feature","geometry":{"type":"Point","coordinates":[-77.2684754596617,38.8691514798499]}},{"properties":{"SCHID_3":94.0,"CITY":null,"HS":null,"SCHOOL_TYP":"AC","ZIP":0.0,"CLUSTER_NU":0,"ES":null,"WEB_ADDRES":null,"SCHOOL_NAM":"ALAN LEIS CTR","HOME_URL":null,"TYPE_DESC":"Administrative Center","SCHOOL_NUM":3094.0,"SCHID_3_T":"094","STATE":"VA","MS":null,"SCHID_4_T":"3094","STREET_NAM":"CAMP ALGER AV","id":"af9c9q2wokpp","ADDRESS":"7423 CAMP ALGER AV","GRADES":"N/A","STREET_NUM":7423},"type":"Feature","geometry":{"type":"Point","coordinates":[-77.201834053305,38.8567060313961]}},{"properties":{"SCHID_3":453.0,"CITY":null,"HS":null,"SCHOOL_TYP":"ES","ZIP":0.0,"CLUSTER_NU":3,"ES":"MASON CREST","WEB_ADDRES":null,"SCHOOL_NAM":"MASON CREST","HOME_URL":null,"TYPE_DESC":"Elementary","SCHOOL_NUM":2453.0,"SCHID_3_T":"453","STATE":"VA","MS":null,"SCHID_4_T":"453","STREET_NAM":"CREST DR","id":"af9c9q63mihx","ADDRESS":"3705 CREST DR","GRADES":"K-5","STREET_NUM":3705},"type":"Feature","geometry":{"type":"Point","coordinates":[-77.1959671475294,38.8432326202065]}},{"properties":{"SCHID_3":134.0,"CITY":null,"HS":null,"SCHOOL_TYP":"AC","ZIP":0.0,"CLUSTER_NU":0,"ES":null,"WEB_ADDRES":null,"SCHOOL_NAM":"NANCY SPRAGUE CTR","HOME_URL":null,"TYPE_DESC":"Administrative Center","SCHOOL_NUM":2134.0,"SCHID_3_T":"134","STATE":"VA","MS":null,"SCHID_4_T":"2134","STREET_NAM":"HOLBORN AV","id":"af9c9q9zl4dg","ADDRESS":"4414 HOLBORN AV","GRADES":"N/A","STREET_NUM":4414},"type":"Feature","geometry":{"type":"Point","coordinates":[-77.2354340718655,38.8262712106343]}},{"properties":{"SCHID_3":365.0,"CITY":null,"HS":null,"SCHOOL_TYP":"ACE","ZIP":0.0,"CLUSTER_NU":0,"ES":null,"WEB_ADDRES":"http://www.fcps.edu/DIS/OACE/","SCHOOL_NAM":"PLUM CENTER","HOME_URL":null,"TYPE_DESC":"Adult Community Education","SCHOOL_NUM":365.0,"SCHID_3_T":"365","STATE":"VA","MS":null,"SCHID_4_T":"365","STREET_NAM":"EDSALL RD","id":"af9c9q6kxb2f","ADDRESS":"6815 EDSALL RD","GRADES":"N/A","STREET_NUM":6815},"type":"Feature","geometry":{"type":"Point","coordinates":[-77.1815564155003,38.806114255609]}},{"properties":{"SCHID_3":536.0,"CITY":"Fairfax","HS":null,"SCHOOL_TYP":"AC","ZIP":22032.0,"CLUSTER_NU":0,"ES":null,"WEB_ADDRES":null,"SCHOOL_NAM":"SIDEBURN","HOME_URL":"http://www.fcps.edu/fts/facmanagement/sideburn.shtml","TYPE_DESC":"Administrative Center","SCHOOL_NUM":536.0,"SCHID_3_T":"536","STATE":"VA","MS":null,"SCHID_4_T":"536","STREET_NAM":"Sideburn Road","id":"af9c9q7zlbga","ADDRESS":"5025 Sideburn Road","GRADES":"N/A","STREET_NUM":5025},"type":"Feature","geometry":{"type":"Point","coordinates":[-77.303121459543,38.8192329711752]}},{"properties":{"SCHID_3":195.0,"CITY":null,"HS":null,"SCHOOL_TYP":"AC","ZIP":0.0,"CLUSTER_NU":0,"ES":null,"WEB_ADDRES":null,"SCHOOL_NAM":"WILTON WOODS","HOME_URL":null,"TYPE_DESC":"Administrative Center","SCHOOL_NUM":1195.0,"SCHID_3_T":"195","STATE":"VA","MS":null,"SCHID_4_T":"1195","STREET_NAM":"FRANCONIA RD","id":"af9c9q3tfixn","ADDRESS":"3701 FRANCONIA RD","GRADES":"N/A","STREET_NUM":3701},"type":"Feature","geometry":{"type":"Point","coordinates":[-77.0969366888133,38.7903687269207]}},{"properties":{"SCHID_3":196.0,"CITY":null,"HS":null,"SCHOOL_TYP":"AC","ZIP":0.0,"CLUSTER_NU":0,"ES":null,"WEB_ADDRES":null,"SCHOOL_NAM":"VIRGINIA HILLS CTR","HOME_URL":null,"TYPE_DESC":"Administrative Center","SCHOOL_NUM":1196.0,"SCHID_3_T":"196","STATE":"VA","MS":null,"SCHID_4_T":"1196","STREET_NAM":"DIANA LA","id":"af9c9qacblbu","ADDRESS":"6520 DIANA LA","GRADES":"N/A","STREET_NUM":6520},"type":"Feature","geometry":{"type":"Point","coordinates":[-77.1023286495708,38.7744912987054]}},{"properties":{"SCHID_3":225.0,"CITY":null,"HS":null,"SCHOOL_TYP":"FE","ZIP":0.0,"CLUSTER_NU":0,"ES":null,"WEB_ADDRES":null,"SCHOOL_NAM":"FAIRFIELD ES SITE","HOME_URL":null,"TYPE_DESC":"Future Elementary","SCHOOL_NUM":1225.0,"SCHID_3_T":"225","STATE":"VA","MS":null,"SCHID_4_T":"1225","STREET_NAM":null,"id":"af9c9qci5nub","ADDRESS":null,"GRADES":"N/A","STREET_NUM":null},"type":"Feature","geometry":{"type":"Point","coordinates":[-77.105138704059,38.7355904574756]}},{"properties":{"SCHID_3":73.0,"CITY":null,"HS":null,"SCHOOL_TYP":"AHS","ZIP":0.0,"CLUSTER_NU":0,"ES":null,"WEB_ADDRES":"www.fcps.edu/PimmitAltHS","SCHOOL_NAM":"PIMMIT HILLS","HOME_URL":null,"TYPE_DESC":"Alternative High School","SCHOOL_NUM":3073.0,"SCHID_3_T":"073","STATE":"VA","MS":null,"SCHID_4_T":"3073","STREET_NAM":"LISLE AV","id":"af9c9q4srsvh","ADDRESS":"7510 LISLE AV","GRADES":"N/A","STREET_NUM":7510},"type":"Feature","geometry":{"type":"Point","coordinates":[-77.2045112089305,38.917292689283]}},{"properties":{"SCHID_3":358.0,"CITY":null,"HS":null,"SCHOOL_TYP":"AC","ZIP":0.0,"CLUSTER_NU":0,"ES":null,"WEB_ADDRES":null,"SCHOOL_NAM":"LORTON","HOME_URL":null,"TYPE_DESC":"Administrative Center","SCHOOL_NUM":1358.0,"SCHID_3_T":"358","STATE":"VA","MS":null,"SCHID_4_T":"358","STREET_NAM":"LORTON RD","id":"af9c9q9r6g6b","ADDRESS":"8101 LORTON RD","GRADES":"N/A","STREET_NUM":8101},"type":"Feature","geometry":{"type":"Point","coordinates":[-77.2255284753957,38.7039026635614]}},{"properties":{"SCHID_3":213.0,"CITY":"Alexandria","HS":null,"SCHOOL_TYP":"ES","ZIP":22308.0,"CLUSTER_NU":4,"ES":"WAYNEWOOD","WEB_ADDRES":"www.fcps.edu/WaynewoodES","SCHOOL_NAM":"WAYNEWOOD","HOME_URL":"http://www.fcps.edu/WaynewoodES/","TYPE_DESC":"Elementary","SCHOOL_NUM":1213.0,"SCHID_3_T":"213","STATE":"VA","MS":null,"SCHID_4_T":"1213","STREET_NAM":"WAYNEWOOD BV","id":"af9c9qb1mjlx","ADDRESS":"1205 WAYNEWOOD BV","GRADES":"K-6","STREET_NUM":1205},"type":"Feature","geometry":{"type":"Point","coordinates":[-77.055994519038,38.7247719718177]}},{"properties":{"SCHID_3":231.0,"CITY":"Alexandria","HS":null,"SCHOOL_TYP":"MS","ZIP":22308.0,"CLUSTER_NU":4,"ES":null,"WEB_ADDRES":"www.fcps.edu/SandburgMS","SCHOOL_NAM":"SANDBURG","HOME_URL":"http://www.fcps.edu/SandburgMS/","TYPE_DESC":"Middle","SCHOOL_NUM":1231.0,"SCHID_3_T":"231","STATE":"VA","MS":"SANDBURG","SCHID_4_T":"1231","STREET_NAM":"FORT HUNT RD","id":"af9c9q8zzm5c","ADDRESS":"8428 FORT HUNT RD","GRADES":"7-8","STREET_NUM":8428},"type":"Feature","geometry":{"type":"Point","coordinates":[-77.0621227490941,38.7291130366968]}},{"properties":{"SCHID_3":212.0,"CITY":"Alexandria","HS":null,"SCHOOL_TYP":"ES","ZIP":22308.0,"CLUSTER_NU":4,"ES":"STRATFORD LANDING","WEB_ADDRES":"www.fcps.edu/StratfordLandingES","SCHOOL_NAM":"STRATFORD LANDING","HOME_URL":"http://www.fcps.edu/StratfordLandingES/","TYPE_DESC":"Elementary","SCHOOL_NUM":1212.0,"SCHID_3_T":"212","STATE":"VA","MS":null,"SCHID_4_T":"1212","STREET_NAM":"RIVERSIDE RD","id":"af9c9qj0q3oe","ADDRESS":"8484 RIVERSIDE RD","GRADES":"K-6","STREET_NUM":8484},"type":"Feature","geometry":{"type":"Point","coordinates":[-77.0690620447161,38.7282724039559]}},{"properties":{"SCHID_3":227.0,"CITY":"Alexandria","HS":null,"SCHOOL_TYP":"ES","ZIP":22309.0,"CLUSTER_NU":4,"ES":"WOODLAWN","WEB_ADDRES":"www.fcps.edu/WoodlawnES","SCHOOL_NAM":"WOODLAWN","HOME_URL":"http://www.fcps.edu/WoodlawnES/","TYPE_DESC":"Elementary","SCHOOL_NUM":1227.0,"SCHID_3_T":"227","STATE":"VA","MS":null,"SCHID_4_T":"1227","STREET_NAM":"HIGHLAND LA","id":"af9c9qbwgo8n","ADDRESS":"8505 HIGHLAND LA","GRADES":"K-6","STREET_NUM":8505},"type":"Feature","geometry":{"type":"Point","coordinates":[-77.1178646793838,38.7265228136161]}},{"properties":{"SCHID_3":75.0,"CITY":"Falls Church","HS":null,"SCHOOL_TYP":"ES","ZIP":22043.0,"CLUSTER_NU":2,"ES":"WESTGATE","WEB_ADDRES":"www.fcps.edu/WestgateES","SCHOOL_NAM":"WESTGATE","HOME_URL":"http://www.fcps.edu/WestgateES/","TYPE_DESC":"Elementary","SCHOOL_NUM":3075.0,"SCHID_3_T":"075","STATE":"VA","MS":null,"SCHID_4_T":"3075","STREET_NAM":"MAGARITY RD","id":"af9c9q5b827m","ADDRESS":"7500 MAGARITY RD","GRADES":"K-6","STREET_NUM":7500},"type":"Feature","geometry":{"type":"Point","coordinates":[-77.2047595794523,38.9191747605214]}},{"properties":{"SCHID_3":410.0,"CITY":"Clifton","HS":"CENTREVILLE","SCHOOL_TYP":"HS","ZIP":20124.0,"CLUSTER_NU":7,"ES":null,"WEB_ADDRES":"www.fcps.edu/CentrevilleHS","SCHOOL_NAM":"CENTREVILLE","HOME_URL":"http://www.fcps.edu/CentrevilleHS/","TYPE_DESC":"High","SCHOOL_NUM":2410.0,"SCHID_3_T":"410","STATE":"VA","MS":null,"SCHID_4_T":"2410","STREET_NAM":"UNION MILL RD","id":"af9c9q8nyk53","ADDRESS":"6001 UNION MILL RD","GRADES":"9-12","STREET_NUM":6001},"type":"Feature","geometry":{"type":"Point","coordinates":[-77.4108417010863,38.8248289278181]}},{"properties":{"SCHID_3":429.0,"CITY":"Alexandria","HS":null,"SCHOOL_TYP":"ES","ZIP":22315.0,"CLUSTER_NU":4,"ES":"ISLAND CREEK","WEB_ADDRES":"www.fcps.edu/islandcreekes","SCHOOL_NAM":"ISLAND CREEK","HOME_URL":"http://www.fcps.edu/islandcreekes/","TYPE_DESC":"Elementary","SCHOOL_NUM":8429.0,"SCHID_3_T":"429","STATE":"VA","MS":null,"SCHID_4_T":"1429","STREET_NAM":"MORNING VIEW LA","id":"af9c9qb4j6wh","ADDRESS":"7855 MORNING VIEW LA","GRADES":"K-6","STREET_NUM":7855},"type":"Feature","geometry":{"type":"Point","coordinates":[-77.1681679070583,38.7455399377264]}},{"properties":{"SCHID_3":354.0,"CITY":"Springfield","HS":null,"SCHOOL_TYP":"ES","ZIP":22153.0,"CLUSTER_NU":5,"ES":"SARATOGA","WEB_ADDRES":"www.fcps.edu/SaratogaES","SCHOOL_NAM":"SARATOGA","HOME_URL":"http://www.fcps.edu/SaratogaES/","TYPE_DESC":"Elementary","SCHOOL_NUM":1354.0,"SCHID_3_T":"354","STATE":"VA","MS":null,"SCHID_4_T":"1354","STREET_NAM":"NORTHUMBERLAND RD","id":"af9c9q9hz14y","ADDRESS":"8111 NORTHUMBERLAND RD","GRADES":"K-6","STREET_NUM":8111},"type":"Feature","geometry":{"type":"Point","coordinates":[-77.2137305419514,38.7357550701299]}},{"properties":{"SCHID_3":422.0,"CITY":"Lorton","HS":null,"SCHOOL_TYP":"FM","ZIP":22079.0,"CLUSTER_NU":0,"ES":null,"WEB_ADDRES":null,"SCHOOL_NAM":"SOUTH COUNTY MS SITE","HOME_URL":"http://www.fcps.edu/southcountyss/","TYPE_DESC":"Future Middle","SCHOOL_NUM":422.0,"SCHID_3_T":"422","STATE":"VA","MS":null,"SCHID_4_T":"422","STREET_NAM":null,"id":"af9c9qboqwjs","ADDRESS":null,"GRADES":"N/A","STREET_NUM":null},"type":"Feature","geometry":{"type":"Point","coordinates":[-77.2442859678779,38.7228166575562]}},{"properties":{"SCHID_3":375.0,"CITY":"Fairfax Station","HS":null,"SCHOOL_TYP":"ES","ZIP":22039.0,"CLUSTER_NU":5,"ES":"SILVERBROOK","WEB_ADDRES":"www.fcps.edu/SilverbrookES","SCHOOL_NAM":"SILVERBROOK","HOME_URL":"http://www.fcps.edu/SilverbrookES/","TYPE_DESC":"Elementary","SCHOOL_NUM":1375.0,"SCHID_3_T":"375","STATE":"VA","MS":null,"SCHID_4_T":"1375","STREET_NAM":"CROSSPOINT DR","id":"af9c9qj52z2j","ADDRESS":"9350 CROSSPOINT DR","GRADES":"K-6","STREET_NUM":9350},"type":"Feature","geometry":{"type":"Point","coordinates":[-77.2690664821159,38.7289515387373]}},{"properties":{"SCHID_3":217.0,"CITY":"Alexandria","HS":null,"SCHOOL_TYP":"ES","ZIP":22308.0,"CLUSTER_NU":4,"ES":"FORT HUNT","WEB_ADDRES":"www.fcps.edu/FortHuntES","SCHOOL_NAM":"FORT HUNT","HOME_URL":"http://www.fcps.edu/FortHuntES/","TYPE_DESC":"Elementary","SCHOOL_NUM":1217.0,"SCHID_3_T":"217","STATE":"VA","MS":null,"SCHID_4_T":"1217","STREET_NAM":"LINTON LA","id":"af9c9qiz7nxj","ADDRESS":"8832 LINTON LA","GRADES":"K-6","STREET_NUM":8832},"type":"Feature","geometry":{"type":"Point","coordinates":[-77.0664412371469,38.7189654264592]}},{"properties":{"SCHID_3":229.0,"CITY":"Alexandria","HS":null,"SCHOOL_TYP":"ES","ZIP":22309.0,"CLUSTER_NU":4,"ES":"WOODLEY HILLS","WEB_ADDRES":"www.fcps.edu/WoodleyHillsES","SCHOOL_NAM":"WOODLEY HILLS","HOME_URL":"http://www.fcps.edu/WoodleyHillsES/","TYPE_DESC":"Elementary","SCHOOL_NUM":1229.0,"SCHID_3_T":"229","STATE":"VA","MS":null,"SCHID_4_T":"1229","STREET_NAM":"OLD MOUNT VERNON RD","id":"af9c9q9nlk0s","ADDRESS":"8718 OLD MOUNT VERNON RD","GRADES":"K-6","STREET_NUM":8718},"type":"Feature","geometry":{"type":"Point","coordinates":[-77.0964171194983,38.7200624460585]}},{"properties":{"SCHID_3":222.0,"CITY":"Alexandria","HS":null,"SCHOOL_TYP":"ES","ZIP":22309.0,"CLUSTER_NU":4,"ES":"WASHINGTON MILL","WEB_ADDRES":"www.fcps.edu/WashingtonMillES","SCHOOL_NAM":"WASHINGTON MILL","HOME_URL":"http://www.fcps.edu/WashingtonMillES/","TYPE_DESC":"Elementary","SCHOOL_NUM":1222.0,"SCHID_3_T":"222","STATE":"VA","MS":null,"SCHID_4_T":"1222","STREET_NAM":"CHERRY TREE DR","id":"af9c9q9621lb","ADDRESS":"9100 CHERRY TREE DR","GRADES":"K-6","STREET_NUM":9100},"type":"Feature","geometry":{"type":"Point","coordinates":[-77.1046283230627,38.7102625599301]}},{"properties":{"SCHID_3":197.0,"CITY":"Fort Belvoir","HS":null,"SCHOOL_TYP":"ES","ZIP":22060.0,"CLUSTER_NU":4,"ES":"FORT BELVOIR","WEB_ADDRES":"www.fcps.edu/FtBelvoirES","SCHOOL_NAM":"FORT BELVOIR","HOME_URL":"http://www.fcps.edu/FtBelvoirES/","TYPE_DESC":"Elementary","SCHOOL_NUM":1197.0,"SCHID_3_T":"197","STATE":"VA","MS":null,"SCHID_4_T":"1197","STREET_NAM":"MEERES RD","id":"af9c9qbp6n30","ADDRESS":"5970 MEERES RD","GRADES":"K-6","STREET_NUM":5970},"type":"Feature","geometry":{"type":"Point","coordinates":[-77.1421676463378,38.7221855023901]}},{"properties":{"SCHID_3":422.0,"CITY":"Lorton","HS":null,"SCHOOL_TYP":"MS","ZIP":22079.0,"CLUSTER_NU":5,"ES":null,"WEB_ADDRES":"www.fcps.edu/southcountyss","SCHOOL_NAM":"SOUTH COUNTY","HOME_URL":"http://www.fcps.edu/southcountyss/","TYPE_DESC":"Middle","SCHOOL_NUM":8422.0,"SCHID_3_T":"422","STATE":"VA","MS":"SOUTH COUNTY","SCHID_4_T":"1422","STREET_NAM":"SILVERBROOK RD","id":"af9c9q7izomb","ADDRESS":"8501 SILVERBROOK RD","GRADES":"7-8","STREET_NUM":8501},"type":"Feature","geometry":{"type":"Point","coordinates":[-77.2393659724643,38.7180919555793]}},{"properties":{"SCHID_3":420.0,"CITY":"Lorton","HS":"SOUTH COUNTY","SCHOOL_TYP":"HS","ZIP":22079.0,"CLUSTER_NU":5,"ES":null,"WEB_ADDRES":"www.fcps.edu/southcountyss","SCHOOL_NAM":"SOUTH COUNTY","HOME_URL":"http://www.fcps.edu/southcountyss/","TYPE_DESC":"High","SCHOOL_NUM":8420.0,"SCHID_3_T":"420","STATE":"VA","MS":null,"SCHID_4_T":"8420","STREET_NAM":"SILVERBROOK RD","id":"af9c9qdlqrei","ADDRESS":"8501 SILVERBROOK RD","GRADES":"9-12","STREET_NUM":8501},"type":"Feature","geometry":{"type":"Point","coordinates":[-77.2386347897155,38.7170563456044]}},{"properties":{"SCHID_3":403.0,"CITY":"Lorton","HS":null,"SCHOOL_TYP":"ES","ZIP":22079.0,"CLUSTER_NU":5,"ES":"LAUREL HILL","WEB_ADDRES":"www.fcps.edu/laurelhilles","SCHOOL_NAM":"LAUREL HILL","HOME_URL":"http://www.fcps.edu/laurelhilles","TYPE_DESC":"Elementary","SCHOOL_NUM":1403.0,"SCHID_3_T":"403","STATE":"VA","MS":null,"SCHID_4_T":"3403","STREET_NAM":"LAUREL CREST DR","id":"af9c9qakazt2","ADDRESS":"8390 LAUREL CREST DR","GRADES":"K-6","STREET_NUM":8390},"type":"Feature","geometry":{"type":"Point","coordinates":[-77.2333905321996,38.7178034027618]}},{"properties":{"SCHID_3":356.0,"CITY":"Fairfax Station","HS":null,"SCHOOL_TYP":"ES","ZIP":22039.0,"CLUSTER_NU":5,"ES":"HALLEY","WEB_ADDRES":"www.fcps.edu/HalleyES","SCHOOL_NAM":"HALLEY","HOME_URL":"http://www.fcps.edu/HalleyES/","TYPE_DESC":"Elementary","SCHOOL_NUM":1356.0,"SCHID_3_T":"356","STATE":"VA","MS":null,"SCHID_4_T":"1356","STREET_NAM":"CROSS CHASE CI","id":"af9c9qhuzj11","ADDRESS":"8850 CROSS CHASE CI","GRADES":"K-6","STREET_NUM":8850},"type":"Feature","geometry":{"type":"Point","coordinates":[-77.2598548816836,38.7179203331948]}},{"properties":{"SCHID_3":26.0,"CITY":"McLean","HS":null,"SCHOOL_TYP":"ES","ZIP":22101.0,"CLUSTER_NU":1,"ES":"CHURCHILL ROAD","WEB_ADDRES":"www.fcps.edu/ChurchillRoadES","SCHOOL_NAM":"CHURCHILL ROAD","HOME_URL":"http://www.fcps.edu/ChurchillRoadES/","TYPE_DESC":"Elementary","SCHOOL_NUM":3026.0,"SCHID_3_T":"026","STATE":"VA","MS":null,"SCHID_4_T":"3026","STREET_NAM":"CHURCHILL RD","id":"af9c9q4i1y7d","ADDRESS":"7100 CHURCHILL RD","GRADES":"K-6","STREET_NUM":7100},"type":"Feature","geometry":{"type":"Point","coordinates":[-77.1893564770917,38.946436995774]}},{"properties":{"SCHID_3":337.0,"CITY":"Herndon","HS":null,"SCHOOL_TYP":"ES","ZIP":20171.0,"CLUSTER_NU":8,"ES":"CROSSFIELD","WEB_ADDRES":"www.fcps.edu/CrossfieldES","SCHOOL_NAM":"CROSSFIELD","HOME_URL":"http://www.fcps.edu/CrossfieldES/","TYPE_DESC":"Elementary","SCHOOL_NUM":3337.0,"SCHID_3_T":"337","STATE":"VA","MS":null,"SCHID_4_T":"3337","STREET_NAM":"FOX MILL RD","id":"af9c9qdb0wpo","ADDRESS":"2791 FOX MILL RD","GRADES":"K-6","STREET_NUM":2791},"type":"Feature","geometry":{"type":"Point","coordinates":[-77.3618439778268,38.9150715600667]}},{"properties":{"SCHID_3":150.0,"CITY":"Springfield","HS":"WEST SPRINGFIELD","SCHOOL_TYP":"HS","ZIP":22152.0,"CLUSTER_NU":6,"ES":null,"WEB_ADDRES":"www.fcps.edu/westspringfieldhs","SCHOOL_NAM":"WEST SPRINGFIELD","HOME_URL":"http://www.fcps.edu/westspringfieldhs/","TYPE_DESC":"High","SCHOOL_NUM":1150.0,"SCHID_3_T":"150","STATE":"VA","MS":null,"SCHID_4_T":"1150","STREET_NAM":"ROLLING RD","id":"af9c9qcll0j1","ADDRESS":"6100 ROLLING RD","GRADES":"9-12","STREET_NUM":6100},"type":"Feature","geometry":{"type":"Point","coordinates":[-77.2404314806684,38.7860654958248]}},{"properties":{"SCHID_3":387.0,"CITY":"Burke","HS":null,"SCHOOL_TYP":"ES","ZIP":22015.0,"CLUSTER_NU":6,"ES":"WHITE OAKS","WEB_ADDRES":"www.fcps.edu/WhiteOaksES","SCHOOL_NAM":"WHITE OAKS","HOME_URL":"http://www.fcps.edu/WhiteOaksES/","TYPE_DESC":"Elementary","SCHOOL_NUM":1387.0,"SCHID_3_T":"387","STATE":"VA","MS":null,"SCHID_4_T":"1387","STREET_NAM":"SHIPPLETT BV","id":"af9c9q34m3rw","ADDRESS":"6130 SHIPPLETT BV","GRADES":"K-6","STREET_NUM":6130},"type":"Feature","geometry":{"type":"Point","coordinates":[-77.270332615459,38.7831162880496]}},{"properties":{"SCHID_3":143.0,"CITY":"Springfield","HS":null,"SCHOOL_TYP":"ES","ZIP":22151.0,"CLUSTER_NU":6,"ES":"RAVENSWORTH","WEB_ADDRES":"www.fcps.edu/RavensworthES","SCHOOL_NAM":"RAVENSWORTH","HOME_URL":"http://www.fcps.edu/RavensworthES/","TYPE_DESC":"Elementary","SCHOOL_NUM":2143.0,"SCHID_3_T":"143","STATE":"VA","MS":null,"SCHID_4_T":"2143","STREET_NAM":"NUTTING DR","id":"af9c9q6ipv86","ADDRESS":"5411 NUTTING DR","GRADES":"K-6","STREET_NUM":5411},"type":"Feature","geometry":{"type":"Point","coordinates":[-77.2228573493385,38.803141158785]}},{"properties":{"SCHID_3":154.0,"CITY":"Springfield","HS":null,"SCHOOL_TYP":"ES","ZIP":22152.0,"CLUSTER_NU":6,"ES":"CARDINAL FOREST","WEB_ADDRES":"www.fcps.edu/CardinalForestES","SCHOOL_NAM":"CARDINAL FOREST","HOME_URL":"http://www.fcps.edu/CardinalForestES/","TYPE_DESC":"Elementary","SCHOOL_NUM":1154.0,"SCHID_3_T":"154","STATE":"VA","MS":null,"SCHID_4_T":"1154","STREET_NAM":"FORRESTER BV","id":"af9c9qc48wsw","ADDRESS":"8600 FORRESTER BV","GRADES":"K-6","STREET_NUM":8600},"type":"Feature","geometry":{"type":"Point","coordinates":[-77.2409746434087,38.7922153622593]}},{"properties":{"SCHID_3":407.0,"CITY":"Springfield","HS":null,"SCHOOL_TYP":"ES","ZIP":22151.0,"CLUSTER_NU":6,"ES":"KINGS PARK","WEB_ADDRES":"www.fcps.edu/KingsParkES","SCHOOL_NAM":"KINGS PARK","HOME_URL":"http://www.fcps.edu/KingsParkES/","TYPE_DESC":"Elementary","SCHOOL_NUM":1407.0,"SCHID_3_T":"407","STATE":"VA","MS":null,"SCHID_4_T":"1407","STREET_NAM":"HARROW WY","id":"af9c9qfkyoh5","ADDRESS":"5400 HARROW WY","GRADES":"K-6","STREET_NUM":5400},"type":"Feature","geometry":{"type":"Point","coordinates":[-77.2416601007863,38.8048419454319]}},{"properties":{"SCHID_3":406.0,"CITY":"Springfield","HS":null,"SCHOOL_TYP":"ES","ZIP":22151.0,"CLUSTER_NU":6,"ES":"KINGS GLEN","WEB_ADDRES":"www.fcps.edu/KingsGlenES","SCHOOL_NAM":"KINGS GLEN","HOME_URL":"http://www.fcps.edu/KingsGlenES/","TYPE_DESC":"Elementary","SCHOOL_NUM":1406.0,"SCHID_3_T":"406","STATE":"VA","MS":null,"SCHID_4_T":"1406","STREET_NAM":"DANBURY FOREST DR","id":"af9c9q9s0wgo","ADDRESS":"5401 DANBURY FOREST DR","GRADES":"K-6","STREET_NUM":5401},"type":"Feature","geometry":{"type":"Point","coordinates":[-77.2346162464765,38.8038524465515]}},{"properties":{"SCHID_3":401.0,"CITY":"Burke","HS":null,"SCHOOL_TYP":"MS","ZIP":22015.0,"CLUSTER_NU":6,"ES":null,"WEB_ADDRES":"www.fcps.edu/LakeBraddockSS","SCHOOL_NAM":"LAKE BRADDOCK","HOME_URL":"http://www.fcps.edu/LakeBraddockSS/","TYPE_DESC":"Middle","SCHOOL_NUM":1400.0,"SCHID_3_T":"401","STATE":"VA","MS":"LAKE BRADDOCK","SCHID_4_T":"1400","STREET_NAM":"BURKE LAKE RD","id":"af9c9q7w77ym","ADDRESS":"9200 BURKE LAKE RD","GRADES":"7-8","STREET_NUM":9200},"type":"Feature","geometry":{"type":"Point","coordinates":[-77.2661122148285,38.8023209202811]}},{"properties":{"SCHID_3":401.0,"CITY":"Burke","HS":null,"SCHOOL_TYP":"MS","ZIP":22015.0,"CLUSTER_NU":6,"ES":null,"WEB_ADDRES":"www.fcps.edu/LakeBraddockSS","SCHOOL_NAM":"LAKE BRADDOCK","HOME_URL":"http://www.fcps.edu/LakeBraddockSS/","TYPE_DESC":"Middle","SCHOOL_NUM":1400.0,"SCHID_3_T":"400","STATE":"VA","MS":"LAKE BRADDOCK","SCHID_4_T":"1400","STREET_NAM":"BURKE LAKE RD","id":"af9c9q4rh6g7","ADDRESS":"9200 BURKE LAKE RD","GRADES":"9-12","STREET_NUM":9200},"type":"Feature","geometry":{"type":"Point","coordinates":[-77.2657047862345,38.8040067485626]}},{"properties":{"SCHID_3":343.0,"CITY":"Lorton","HS":null,"SCHOOL_TYP":"ES","ZIP":22079.0,"CLUSTER_NU":4,"ES":"LORTON STATION","WEB_ADDRES":"www.fcps.edu/lortonstationes","SCHOOL_NAM":"LORTON STATION","HOME_URL":"http://www.fcps.edu/lortonstationes/","TYPE_DESC":"Elementary","SCHOOL_NUM":1343.0,"SCHID_3_T":"343","STATE":"VA","MS":null,"SCHID_4_T":"1343","STREET_NAM":"LEWIS CHAPEL RD","id":"af9c9qd1mo1t","ADDRESS":"9298 LEWIS CHAPEL RD","GRADES":"K-6","STREET_NUM":9298},"type":"Feature","geometry":{"type":"Point","coordinates":[-77.218042621469,38.7063115367981]}},{"properties":{"SCHID_3":348.0,"CITY":"Lorton","HS":null,"SCHOOL_TYP":"ES","ZIP":22079.0,"CLUSTER_NU":4,"ES":"GUNSTON","WEB_ADDRES":"www.fcps.edu/GunstonES","SCHOOL_NAM":"GUNSTON","HOME_URL":"http://www.fcps.edu/GunstonES/","TYPE_DESC":"Elementary","SCHOOL_NUM":1348.0,"SCHID_3_T":"348","STATE":"VA","MS":null,"SCHID_4_T":"1348","STREET_NAM":"GUNSTON RD","id":"af9c9qbf2yg7","ADDRESS":"10100 GUNSTON RD","GRADES":"K-6","STREET_NUM":10100},"type":"Feature","geometry":{"type":"Point","coordinates":[-77.2096740733831,38.6848915293403]}},{"properties":{"SCHID_3":220.0,"CITY":"Alexandria","HS":"MOUNT VERNON","SCHOOL_TYP":"HS","ZIP":22309.0,"CLUSTER_NU":4,"ES":null,"WEB_ADDRES":"www.fcps.edu/MtVernonHS","SCHOOL_NAM":"MOUNT VERNON","HOME_URL":"http://www.fcps.edu/MtVernonHS/","TYPE_DESC":"High","SCHOOL_NUM":1220.0,"SCHID_3_T":"220","STATE":"VA","MS":null,"SCHID_4_T":"1220","STREET_NAM":"OLD MOUNT VERNON RD","id":"af9c9qhvyzye","ADDRESS":"8515 OLD MOUNT VERNON RD","GRADES":"9-12","STREET_NUM":8515},"type":"Feature","geometry":{"type":"Point","coordinates":[-77.092770206578,38.7267565637535]}},{"properties":{"SCHID_3":226.0,"CITY":"Alexandria","HS":null,"SCHOOL_TYP":"ES","ZIP":22309.0,"CLUSTER_NU":4,"ES":"RIVERSIDE","WEB_ADDRES":"www.fcps.edu/RiversideES","SCHOOL_NAM":"RIVERSIDE","HOME_URL":"http://www.fcps.edu/RiversideES/","TYPE_DESC":"Elementary","SCHOOL_NUM":1226.0,"SCHID_3_T":"226","STATE":"VA","MS":null,"SCHID_4_T":"1226","STREET_NAM":"OLD MOUNT VERNON RD","id":"af9c9q7dmbye","ADDRESS":"8410 OLD MOUNT VERNON RD","GRADES":"K-6","STREET_NUM":8410},"type":"Feature","geometry":{"type":"Point","coordinates":[-77.0948151000458,38.7297671420032]}},{"properties":{"SCHID_3":114.0,"CITY":"Alexandria","HS":null,"SCHOOL_TYP":"ES","ZIP":22312.0,"CLUSTER_NU":3,"ES":"BREN MAR PARK","WEB_ADDRES":"www.fcps.edu/BrenMarParkES","SCHOOL_NAM":"BREN MAR PARK","HOME_URL":"http://www.fcps.edu/BrenMarParkES/","TYPE_DESC":"Elementary","SCHOOL_NUM":2114.0,"SCHID_3_T":"114","STATE":"VA","MS":null,"SCHID_4_T":"2114","STREET_NAM":"BERYL RD","id":"af9c9qhlmqtv","ADDRESS":"6344 BERYL RD","GRADES":"K-6","STREET_NUM":6344},"type":"Feature","geometry":{"type":"Point","coordinates":[-77.1573387504453,38.8021419298352]}},{"properties":{"SCHID_3":307.0,"CITY":"Reston","HS":null,"SCHOOL_TYP":"ES","ZIP":20190.0,"CLUSTER_NU":8,"ES":"LAKE ANNE","WEB_ADDRES":"www.fcps.edu/LakeAnneES","SCHOOL_NAM":"LAKE ANNE","HOME_URL":"http://www.fcps.edu/LakeAnneES/","TYPE_DESC":"Elementary","SCHOOL_NUM":3307.0,"SCHID_3_T":"307","STATE":"VA","MS":null,"SCHID_4_T":"3307","STREET_NAM":"NORTH SHORE DR","id":"af9c9qfqph16","ADDRESS":"11510 NORTH SHORE DR","GRADES":"K-6","STREET_NUM":11510},"type":"Feature","geometry":{"type":"Point","coordinates":[-77.3467488544831,38.9651822187829]}},{"properties":{"SCHID_3":223.0,"CITY":"Alexandria","HS":null,"SCHOOL_TYP":"ES","ZIP":22309.0,"CLUSTER_NU":4,"ES":"MOUNT VERNON WOODS","WEB_ADDRES":"www.fcps.edu/MtVernonWoodsES","SCHOOL_NAM":"MOUNT VERNON WOODS","HOME_URL":"http://www.fcps.edu/MtVernonWoodsES/","TYPE_DESC":"Elementary","SCHOOL_NUM":1223.0,"SCHID_3_T":"223","STATE":"VA","MS":null,"SCHID_4_T":"1223","STREET_NAM":"FIELDING ST","id":"af9c9qce3d1a","ADDRESS":"4015 FIELDING ST","GRADES":"K-6","STREET_NUM":4015},"type":"Feature","geometry":{"type":"Point","coordinates":[-77.0999785563704,38.7423595822741]}},{"properties":{"SCHID_3":184.0,"CITY":"Alexandria","HS":null,"SCHOOL_TYP":"ES","ZIP":22315.0,"CLUSTER_NU":4,"ES":"HAYFIELD","WEB_ADDRES":"www.fcps.edu/HayfieldES","SCHOOL_NAM":"HAYFIELD","HOME_URL":"http://www.fcps.edu/HayfieldES/","TYPE_DESC":"Elementary","SCHOOL_NUM":1184.0,"SCHID_3_T":"184","STATE":"VA","MS":null,"SCHID_4_T":"1184","STREET_NAM":"TELEGRAPH RD","id":"af9c9qcbq0me","ADDRESS":"7633 TELEGRAPH RD","GRADES":"K-6","STREET_NUM":7633},"type":"Feature","geometry":{"type":"Point","coordinates":[-77.1406850581708,38.7491447747904]}},{"properties":{"SCHID_3":181.0,"CITY":"Alexandria","HS":null,"SCHOOL_TYP":"MS","ZIP":22315.0,"CLUSTER_NU":4,"ES":null,"WEB_ADDRES":"www.fcps.edu/DEA/schoolprof/middle/HayfieldMS.html","SCHOOL_NAM":"HAYFIELD","HOME_URL":"http://www.fcps.edu/HayfieldSS/","TYPE_DESC":"Middle","SCHOOL_NUM":1181.0,"SCHID_3_T":"181","STATE":"VA","MS":"HAYFIELD","SCHID_4_T":"1181","STREET_NAM":"TELEGRAPH RD","id":"af9c9qdo4453","ADDRESS":"7606 TELEGRAPH RD","GRADES":"7-8","STREET_NUM":7606},"type":"Feature","geometry":{"type":"Point","coordinates":[-77.1442266469982,38.7495590490868]}},{"properties":{"SCHID_3":352.0,"CITY":"Springfield","HS":null,"SCHOOL_TYP":"ES","ZIP":22153.0,"CLUSTER_NU":5,"ES":"NEWINGTON FOREST","WEB_ADDRES":"www.fcps.edu/NewingtonForestES","SCHOOL_NAM":"NEWINGTON FOREST","HOME_URL":"http://www.fcps.edu/NewingtonForestES/","TYPE_DESC":"Elementary","SCHOOL_NUM":1352.0,"SCHID_3_T":"352","STATE":"VA","MS":null,"SCHID_4_T":"1352","STREET_NAM":"NEWINGTON FOREST RD","id":"af9c9q882vxa","ADDRESS":"8001 NEWINGTON FOREST RD","GRADES":"K-6","STREET_NUM":8001},"type":"Feature","geometry":{"type":"Point","coordinates":[-77.2400996663227,38.7389429848436]}},{"properties":{"SCHID_3":123.0,"CITY":"Alexandria","HS":null,"SCHOOL_TYP":"ES","ZIP":22310.0,"CLUSTER_NU":5,"ES":"BUSH HILL","WEB_ADDRES":"www.fcps.edu/BushHillES","SCHOOL_NAM":"BUSH HILL","HOME_URL":"http://www.fcps.edu/BushHillES/","TYPE_DESC":"Elementary","SCHOOL_NUM":1123.0,"SCHID_3_T":"123","STATE":"VA","MS":null,"SCHID_4_T":"1123","STREET_NAM":"WESTCHESTER ST","id":"af9c9q693x6k","ADDRESS":"5927 WESTCHESTER ST","GRADES":"K-6","STREET_NUM":5927},"type":"Feature","geometry":{"type":"Point","coordinates":[-77.1238739408819,38.7902977896557]}},{"properties":{"SCHID_3":191.0,"CITY":"Alexandria","HS":null,"SCHOOL_TYP":"MS","ZIP":22310.0,"CLUSTER_NU":5,"ES":null,"WEB_ADDRES":"www.fcps.edu/TwainMS","SCHOOL_NAM":"TWAIN","HOME_URL":"http://www.fcps.edu/TwainMS/","TYPE_DESC":"Middle","SCHOOL_NUM":1191.0,"SCHID_3_T":"191","STATE":"VA","MS":"TWAIN","SCHID_4_T":"1191","STREET_NAM":"FRANCONIA RD","id":"af9c9qiev93x","ADDRESS":"4700 FRANCONIA RD","GRADES":"7-8","STREET_NUM":4700},"type":"Feature","geometry":{"type":"Point","coordinates":[-77.1140000949759,38.7902367852313]}},{"properties":{"SCHID_3":122.0,"CITY":"Alexandria","HS":null,"SCHOOL_TYP":"ES","ZIP":22310.0,"CLUSTER_NU":5,"ES":"FRANCONIA","WEB_ADDRES":"www.fcps.edu/FranconiaES","SCHOOL_NAM":"FRANCONIA","HOME_URL":"http://www.fcps.edu/FranconiaES/","TYPE_DESC":"Elementary","SCHOOL_NUM":1122.0,"SCHID_3_T":"122","STATE":"VA","MS":null,"SCHID_4_T":"1122","STREET_NAM":"FRANCONIA RD","id":"af9c9qiut4bt","ADDRESS":"6043 FRANCONIA RD","GRADES":"K-6","STREET_NUM":6043},"type":"Feature","geometry":{"type":"Point","coordinates":[-77.1451381648434,38.7811099123155]}},{"properties":{"SCHID_3":33.0,"CITY":"Falls Church","HS":null,"SCHOOL_TYP":"ES","ZIP":22043.0,"CLUSTER_NU":1,"ES":"HAYCOCK","WEB_ADDRES":"www.fcps.edu/HaycockES","SCHOOL_NAM":"HAYCOCK","HOME_URL":"http://www.fcps.edu/HaycockES/","TYPE_DESC":"Elementary","SCHOOL_NUM":3033.0,"SCHID_3_T":"033","STATE":"VA","MS":null,"SCHID_4_T":"3033","STREET_NAM":"HAYCOCK RD","id":"af9c9q70io5k","ADDRESS":"6616 HAYCOCK RD","GRADES":"K-6","STREET_NUM":6616},"type":"Feature","geometry":{"type":"Point","coordinates":[-77.1739074808841,38.9040363958549]}},{"properties":{"SCHID_3":138.0,"CITY":"Fairfax","HS":null,"SCHOOL_TYP":"ES","ZIP":22031.0,"CLUSTER_NU":3,"ES":"MANTUA","WEB_ADDRES":"www.fcps.edu/MantuaES","SCHOOL_NAM":"MANTUA","HOME_URL":"http://www.fcps.edu/MantuaES/","TYPE_DESC":"Elementary","SCHOOL_NUM":2138.0,"SCHID_3_T":"138","STATE":"VA","MS":null,"SCHID_4_T":"2138","STREET_NAM":"HORNER CT","id":"af9c9qcgh2qi","ADDRESS":"9107 HORNER CT","GRADES":"K-6","STREET_NUM":9107},"type":"Feature","geometry":{"type":"Point","coordinates":[-77.2592730101087,38.8473958178626]}},{"properties":{"SCHID_3":201.0,"CITY":"Alexandria","HS":null,"SCHOOL_TYP":"ACE","ZIP":22306.0,"CLUSTER_NU":0,"ES":null,"WEB_ADDRES":null,"SCHOOL_NAM":"BRYANT","HOME_URL":"http://www.fcps.edu/BryantAltHS/","TYPE_DESC":"Adult Community Education","SCHOOL_NUM":201.0,"SCHID_3_T":"201","STATE":"VA","MS":null,"SCHID_4_T":"201","STREET_NAM":"POPKINS LA","id":"af9c9q8blp1p","ADDRESS":"2709 POPKINS LA","GRADES":"K-12","STREET_NUM":2709},"type":"Feature","geometry":{"type":"Point","coordinates":[-77.079770253201,38.7626926354344]}},{"properties":{"SCHID_3":610.0,"CITY":null,"HS":null,"SCHOOL_TYP":"AC","ZIP":0.0,"CLUSTER_NU":0,"ES":null,"WEB_ADDRES":null,"SCHOOL_NAM":"MAIN ADMIN CENTER","HOME_URL":null,"TYPE_DESC":"Administrative Center","SCHOOL_NUM":610.0,"SCHID_3_T":"610","STATE":"VA","MS":null,"SCHID_4_T":"610","STREET_NAM":"GATEHOUSE RD","id":"af9c9q9j0r89","ADDRESS":"8115 GATEHOUSE RD","GRADES":"N/A","STREET_NUM":8115},"type":"Feature","geometry":{"type":"Point","coordinates":[-77.2242481072284,38.8678747857934]}}],"is_temporal":false,"author":{"url":"http://www.fairfaxcounty.gov/maps/metadata.htm","metadata":"http://www.fairfaxcounty.gov/maps/nofind/data/distfiles/free_data/schools.zip","contact_name":"","contact_address":"Facilities Planning Services office located at 8115 Gatehouse Road, Suite 3400, Falls Church, Virginia 22042","source":"Fairfax County Public Schools, Facilities Planning","contact_phone":"571-423-2330"},"source":"http://www.fairfaxcounty.gov/maps/metadata.htm","pagination":{"sort":null,"start":0,"total":213,"limit":1000000},"state":"complete","tags":"fairfax,school,virginia","published":"2012-09-03T16:00:00Z","id":370721}