{"type":"FeatureCollection","data_type":"Dataset","url_type":null,"permissions":[{"permissions":{"download":true,"view":true},"group_id":"everyone"}],"classification":null,"title":"Liquor_licenses","count":317,"stream_id":37093,"contributor":{"url":"http://geocommons.com/users/11796","name":"puck_lo"},"data_attributes":null,"calculation_params":null,"icon_link":null,"link":"http://geocommons.com/overlays/37093.json","extent":[-122.301,37.728,-122.15,37.8587],"geometry_types":["point"],"unique_name":null,"name":"Liquor_licenses","feature_count":317,"description":"","next_feature":null,"is_raster":false,"short_classification":"Y","stats":{"latitude":{"max":37.858744,"mean":37.7940409211356,"variance":0.000976370304395674,"stdev":0.0312469247190131,"min":37.728033,"median":37.797615},"longitude":{"max":-122.150084,"mean":-122.22975233123,"variance":0.00153682649239307,"stdev":0.0392023786573349,"min":-122.30085,"median":-122.233757}},"features":[{"properties":{"city":"OAKLAND","name":"3 M FOOD","latitude":37.774265,"zip code":"94605","longitude":-122.180216,"id":"a62iszf176dv","address":"6349 MACARTHUR BLVD","state":"CA"},"type":"Feature","geometry":{"type":"Point","coordinates":[-122.180216,37.774265]}},{"properties":{"city":"OAKLAND","name":"35TH AVENUE BP","latitude":37.791252,"zip code":"94619","longitude":-122.204783,"id":"a62iszct1bwr","address":"3201 35TH AVE","state":"CA"},"type":"Feature","geometry":{"type":"Point","coordinates":[-122.204783,37.791252]}},{"properties":{"city":"OAKLAND","name":"65TH STREET MARKET","latitude":37.847676,"zip code":"94608","longitude":-122.285337,"id":"a62isznya245","address":"6444 SAN PABLO AVE","state":"CA"},"type":"Feature","geometry":{"type":"Point","coordinates":[-122.285337,37.847676]}},{"properties":{"city":"OAKLAND","name":"7 ELEVEN","latitude":37.828483,"zip code":"94611","longitude":-122.256203,"id":"a62iszeb8ckk","address":"4100 BROADWAY","state":"CA"},"type":"Feature","geometry":{"type":"Point","coordinates":[-122.256203,37.828483]}},{"properties":{"city":"OAKLAND","name":"7 ELEVEN STORE","latitude":37.772456,"zip code":"94606","longitude":-122.235958,"id":"a62iszi9hr68","address":"324 23RD AVENUE","state":"CA"},"type":"Feature","geometry":{"type":"Point","coordinates":[-122.235958,37.772456]}},{"properties":{"city":"OAKLAND","name":"7 ELEVEN STORE","latitude":37.812768,"zip code":"94612","longitude":-122.261716,"id":"a62iszkylxhh","address":"2350 HARRISON ST","state":"CA"},"type":"Feature","geometry":{"type":"Point","coordinates":[-122.261716,37.812768]}},{"properties":{"city":"OAKLAND","name":"7 ELEVEN STORE","latitude":37.83427,"zip code":"94611","longitude":-122.212581,"id":"a62iszfzwsro","address":"5741 THORNHILL DRIVE","state":"CA"},"type":"Feature","geometry":{"type":"Point","coordinates":[-122.212581,37.83427]}},{"properties":{"city":"OAKLAND","name":"7 ELEVEN STORE","latitude":37.785216,"zip code":"94619","longitude":-122.190429,"id":"a62iszgh6c9o","address":"4720 MACARTHUR BLVD","state":"CA"},"type":"Feature","geometry":{"type":"Point","coordinates":[-122.190429,37.785216]}},{"properties":{"city":"OAKLAND","name":"7 ELEVEN STORE","latitude":37.814302,"zip code":"94610","longitude":-122.246324,"id":"a62iszleol6s","address":"3500 GRAND AVE","state":"CA"},"type":"Feature","geometry":{"type":"Point","coordinates":[-122.246324,37.814302]}},{"properties":{"city":"OAKLAND","name":"7 ELEVEN STORE","latitude":37.79977,"zip code":"94602","longitude":-122.214015,"id":"a62iszj2op6k","address":"2411 MACARTHUR BLVD","state":"CA"},"type":"Feature","geometry":{"type":"Point","coordinates":[-122.214015,37.79977]}},{"properties":{"city":"OAKLAND","name":"7 ELEVEN STORE","latitude":37.827604,"zip code":"94611","longitude":-122.250997,"id":"a62iszb6zqyz","address":"4193 PIEDMONT AVE","state":"CA"},"type":"Feature","geometry":{"type":"Point","coordinates":[-122.250997,37.827604]}},{"properties":{"city":"OAKLAND","name":"7TH STREET FOOD &amp; LIQUORS","latitude":37.805404,"zip code":"94607","longitude":-122.295185,"id":"a62iszclvn4x","address":"1460 7TH ST","state":"CA"},"type":"Feature","geometry":{"type":"Point","coordinates":[-122.295185,37.805404]}},{"properties":{"city":"OAKLAND","name":"A &amp; A CORNER","latitude":37.784692,"zip code":"94601","longitude":-122.230579,"id":"a62iszrd2wbx","address":"2520 FOOTHILL BLVD","state":"CA"},"type":"Feature","geometry":{"type":"Point","coordinates":[-122.230579,37.784692]}},{"properties":{"city":"OAKLAND","name":"A &amp; M LIQUOR","latitude":37.802264,"zip code":"94602","longitude":-122.231609,"id":"a62iszorqaef","address":"1301 MACARTHUR BLVD","state":"CA"},"type":"Feature","geometry":{"type":"Point","coordinates":[-122.231609,37.802264]}},{"properties":{"city":"OAKLAND","name":"A &amp; R MARKET","latitude":37.780599,"zip code":"94601","longitude":-122.21845,"id":"a62iszkfxhd4","address":"3615 FOOTHILL BLVD","state":"CA"},"type":"Feature","geometry":{"type":"Point","coordinates":[-122.21845,37.780599]}},{"properties":{"city":"OAKLAND","name":"A MARKET","latitude":37.840878,"zip code":"94608","longitude":-122.274319,"id":"a62iszpj0l5c","address":"5650 MARKET ST","state":"CA"},"type":"Feature","geometry":{"type":"Point","coordinates":[-122.274319,37.840878]}},{"properties":{"city":"OAKLAND","name":"ABB MARKET","latitude":37.748003,"zip code":"94603","longitude":-122.166809,"id":"a62iszgnm9lw","address":"1839 96TH AVE","state":"CA"},"type":"Feature","geometry":{"type":"Point","coordinates":[-122.166809,37.748003]}},{"properties":{"city":"OAKLAND","name":"ABES LOTTO LIQUOR","latitude":37.741855,"zip code":"94603","longitude":-122.168563,"id":"a62iszqyzg60","address":"10125 INTERNATIONAL BLVD","state":"CA"},"type":"Feature","geometry":{"type":"Point","coordinates":[-122.168563,37.741855]}},{"properties":{"city":"OAKLAND","name":"ADBULLA ALDAHMI","latitude":37.756775,"zip code":"94605","longitude":-122.168193,"id":"a62iszk13nrv","address":"8607 BANCROFT AVE","state":"CA"},"type":"Feature","geometry":{"type":"Point","coordinates":[-122.168193,37.756775]}},{"properties":{"city":"OAKLAND","name":"ADELINE LIQUOR","latitude":37.841629,"zip code":"94608","longitude":-122.274493,"id":"a62iszn20bs6","address":"5702 ADELINE ST","state":"CA"},"type":"Feature","geometry":{"type":"Point","coordinates":[-122.274493,37.841629]}},{"properties":{"city":"OAKLAND","name":"AIBAN MARKET","latitude":37.845473,"zip code":"94609","longitude":-122.268369,"id":"a62iszg8qo9a","address":"701 60TH ST","state":"CA"},"type":"Feature","geometry":{"type":"Point","coordinates":[-122.268369,37.845473]}},{"properties":{"city":"OAKLAND","name":"AKHYAR MARKET","latitude":37.785146,"zip code":"94606","longitude":-122.238832,"id":"a62iszr0leit","address":"2118 INTERNATIONAL BLVD","state":"CA"},"type":"Feature","geometry":{"type":"Point","coordinates":[-122.238832,37.785146]}},{"properties":{"city":"OAKLAND","name":"ALEXANDRES MARKET &amp; SPIRITS","latitude":37.809311,"zip code":"94612","longitude":-122.272937,"id":"a62isznxbcz2","address":"1913 SAN PABLO AVE","state":"CA"},"type":"Feature","geometry":{"type":"Point","coordinates":[-122.272937,37.809311]}},{"properties":{"city":"OAKLAND","name":"ALFARDI MARKET","latitude":37.778366,"zip code":"94601","longitude":-122.221517,"id":"a62iszksbkxe","address":"1546 35TH AVENUE","state":"CA"},"type":"Feature","geometry":{"type":"Point","coordinates":[-122.221517,37.778366]}},{"properties":{"city":"OAKLAND","name":"ALL MART","latitude":37.763306,"zip code":"94621","longitude":-122.195583,"id":"a62iszkojoge","address":"6421 INTERNATIONAL BLVD","state":"CA"},"type":"Feature","geometry":{"type":"Point","coordinates":[-122.195583,37.763306]}},{"properties":{"city":"OAKLAND","name":"ALTEL BOTTLE SHOP &amp; ETHIO DELI","latitude":37.849625,"zip code":"94609","longitude":-122.260669,"id":"a62iszjrofe2","address":"6363 TELEGRAPH AVENUE","state":"CA"},"type":"Feature","geometry":{"type":"Point","coordinates":[-122.260669,37.849625]}},{"properties":{"city":"OAKLAND","name":"ARCO","latitude":37.803329,"zip code":"94610","longitude":-122.235374,"id":"a62iszhvrogb","address":"3310 PARK BLVD","state":"CA"},"type":"Feature","geometry":{"type":"Point","coordinates":[-122.235374,37.803329]}},{"properties":{"city":"OAKLAND","name":"ARCO AM PM","latitude":37.74456,"zip code":"94621","longitude":-122.196207,"id":"a62iszdopsf3","address":"566 HEGENBERGER RD","state":"CA"},"type":"Feature","geometry":{"type":"Point","coordinates":[-122.196207,37.74456]}},{"properties":{"city":"OAKLAND","name":"ARCO AMPM","latitude":37.837792,"zip code":"94609","longitude":-122.264281,"id":"a62iszob81td","address":"5131 SHATTUCK AVE","state":"CA"},"type":"Feature","geometry":{"type":"Point","coordinates":[-122.264281,37.837792]}},{"properties":{"city":"OAKLAND","name":"ARCO MINI MART","latitude":37.744471,"zip code":"94603","longitude":-122.170489,"id":"a62iszlek0hm","address":"9800 INTERNATIONAL BLVD","state":"CA"},"type":"Feature","geometry":{"type":"Point","coordinates":[-122.170489,37.744471]}},{"properties":{"city":"OAKLAND","name":"ASA LIQUOR","latitude":37.843991,"zip code":"94608","longitude":-122.275117,"id":"a62iszgvl998","address":"5909 MARKET ST","state":"CA"},"type":"Feature","geometry":{"type":"Point","coordinates":[-122.275117,37.843991]}},{"properties":{"city":"OAKLAND","name":"AUBIN CELLARS","latitude":37.832531,"zip code":"94611","longitude":-122.207849,"id":"a62iszkw7ay4","address":"6050 COLTON BLVD","state":"CA"},"type":"Feature","geometry":{"type":"Point","coordinates":[-122.207849,37.832531]}},{"properties":{"city":"OAKLAND","name":"BANCROFT MARKET &amp; LIQUOR","latitude":37.771747,"zip code":"94601","longitude":-122.207089,"id":"a62iszg6qrhp","address":"5001 BANCROFT AVENUE","state":"CA"},"type":"Feature","geometry":{"type":"Point","coordinates":[-122.207089,37.771747]}},{"properties":{"city":"OAKLAND","name":"BAY AREA LIQUORS &amp; GROCERIES","latitude":37.822297,"zip code":"94608","longitude":-122.277157,"id":"a62iszjh5oep","address":"3148 SAN PABLO AVE","state":"CA"},"type":"Feature","geometry":{"type":"Point","coordinates":[-122.277157,37.822297]}},{"properties":{"city":"OAKLAND","name":"BAY FARM PRODUCE LOS MEXINOS","latitude":37.771783,"zip code":"94601","longitude":-122.215592,"id":"a62iszcyryww","address":"1244 HIGH ST","state":"CA"},"type":"Feature","geometry":{"type":"Point","coordinates":[-122.215592,37.771783]}},{"properties":{"city":"OAKLAND","name":"BAY SUPERMARKET","latitude":37.757802,"zip code":"94621","longitude":-122.175137,"id":"a62iszkxjt28","address":"1774 82ND AVE","state":"CA"},"type":"Feature","geometry":{"type":"Point","coordinates":[-122.175137,37.757802]}},{"properties":{"city":"OAKLAND","name":"BAYVIEW MARKET &amp; LIQUOR","latitude":37.733449,"zip code":"94603","longitude":-122.178563,"id":"a62iszefp74g","address":"10459 EDES AVE","state":"CA"},"type":"Feature","geometry":{"type":"Point","coordinates":[-122.178563,37.733449]}},{"properties":{"city":"OAKLAND","name":"BEE POKPAL INC","latitude":37.850222,"zip code":"94609","longitude":-122.260587,"id":"a62iszku4sde","address":"6407 TELEGRAPH AVENUE","state":"CA"},"type":"Feature","geometry":{"type":"Point","coordinates":[-122.260587,37.850222]}},{"properties":{"city":"OAKLAND","name":"BENNYS MARKET","latitude":37.764283,"zip code":"94621","longitude":-122.185631,"id":"a62iszitr67p","address":"1854 CHURCH ST","state":"CA"},"type":"Feature","geometry":{"type":"Point","coordinates":[-122.185631,37.764283]}},{"properties":{"city":"OAKLAND","name":"BETTER TRADE MARKET","latitude":37.757324,"zip code":"94621","longitude":-122.18307,"id":"a62iszmmai1r","address":"7838 INTERNATIONAL BLVD","state":"CA"},"type":"Feature","geometry":{"type":"Point","coordinates":[-122.18307,37.757324]}},{"properties":{"city":"OAKLAND","name":"BEVMO","latitude":37.807967,"zip code":"94607","longitude":-122.29878,"id":"a62iszde5jml","address":"525 EMBARDERO W","state":"CA"},"type":"Feature","geometry":{"type":"Point","coordinates":[-122.29878,37.807967]}},{"properties":{"city":"OAKLAND","name":"BLACK &amp; WHITE MARKET","latitude":37.790278,"zip code":"94601","longitude":-122.220159,"id":"a62iszizrjzc","address":"2681 FRUITVALE AVE","state":"CA"},"type":"Feature","geometry":{"type":"Point","coordinates":[-122.220159,37.790278]}},{"properties":{"city":"OAKLAND","name":"BLUE &amp; GOLD MARKET","latitude":37.792064,"zip code":"94606","longitude":-122.242616,"id":"a62iszkzy72k","address":"1811 14TH AVENUE","state":"CA"},"type":"Feature","geometry":{"type":"Point","coordinates":[-122.242616,37.792064]}},{"properties":{"city":"OAKLAND","name":"BLUE BIRD MARKET","latitude":37.825486,"zip code":"94608","longitude":-122.278173,"id":"a62iszepqx6j","address":"3431 SAN PABLO AVE","state":"CA"},"type":"Feature","geometry":{"type":"Point","coordinates":[-122.278173,37.825486]}},{"properties":{"city":"OAKLAND","name":"BONFARE MARKET","latitude":37.800508,"zip code":"94602","longitude":-122.223573,"id":"a62iszmhki7b","address":"1615 MACARTHUR BLVD","state":"CA"},"type":"Feature","geometry":{"type":"Point","coordinates":[-122.223573,37.800508]}},{"properties":{"city":"OAKLAND","name":"BORDEAUX ETC WINE IMPORTS","latitude":37.778706,"zip code":"94606","longitude":-122.240186,"id":"a62iszmcflk7","address":"901 KING ST","state":"CA"},"type":"Feature","geometry":{"type":"Point","coordinates":[-122.240186,37.778706]}},{"properties":{"city":"OAKLAND","name":"BOTTLENECK LIQUOR","latitude":37.753066,"zip code":"94605","longitude":-122.153158,"id":"a62iszil350u","address":"3151 98TH AVE","state":"CA"},"type":"Feature","geometry":{"type":"Point","coordinates":[-122.153158,37.753066]}},{"properties":{"city":"OAKLAND","name":"BOTTLES LIQUOR","latitude":37.806421,"zip code":"94607","longitude":-122.281727,"id":"a62iszazvi0u","address":"1150 MARKET ST","state":"CA"},"type":"Feature","geometry":{"type":"Point","coordinates":[-122.281727,37.806421]}},{"properties":{"city":"OAKLAND","name":"BROADWAY LIQUOR","latitude":37.817034,"zip code":"94611","longitude":-122.263402,"id":"a62iszijxnq3","address":"2860 BROADWAY","state":"CA"},"type":"Feature","geometry":{"type":"Point","coordinates":[-122.263402,37.817034]}},{"properties":{"city":"OAKLAND","name":"BROOKFIELD FOOD CENTER","latitude":37.736717,"zip code":"94603","longitude":-122.183081,"id":"a62iszbvf7ix","address":"675 98TH AVE","state":"CA"},"type":"Feature","geometry":{"type":"Point","coordinates":[-122.183081,37.736717]}},{"properties":{"city":"OAKLAND","name":"BROOKFIELD LIQUOR","latitude":37.736466,"zip code":"94603","longitude":-122.183519,"id":"a62iszekh2ze","address":"9786 EDES AVE","state":"CA"},"type":"Feature","geometry":{"type":"Point","coordinates":[-122.183519,37.736466]}},{"properties":{"city":"OAKLAND","name":"BROTHERS MARKET","latitude":37.818402,"zip code":"94609","longitude":-122.271267,"id":"a62iszlntetl","address":"2837 MARTIN LUTHER KING JR WY","state":"CA"},"type":"Feature","geometry":{"type":"Point","coordinates":[-122.271267,37.818402]}},{"properties":{"city":"OAKLAND","name":"BRUCE LIQUORS","latitude":37.742163,"zip code":"94605","longitude":-122.151449,"id":"a62iszc38zeu","address":"10729 MACARTHUR BLVD","state":"CA"},"type":"Feature","geometry":{"type":"Point","coordinates":[-122.151449,37.742163]}},{"properties":{"city":"OAKLAND","name":"BUCKINGHAM WINES &amp; SPIRITS","latitude":37.810498,"zip code":"94610","longitude":-122.244964,"id":"a62iszkb1q97","address":"3293 LAKESHORE AVE","state":"CA"},"type":"Feature","geometry":{"type":"Point","coordinates":[-122.244964,37.810498]}},{"properties":{"city":"OAKLAND","name":"BUTTARS EZ DISCOUNT MARKET","latitude":37.740242,"zip code":"94603","longitude":-122.155986,"id":"a62iszkl0lep","address":"10808 BANCROFT AVE","state":"CA"},"type":"Feature","geometry":{"type":"Point","coordinates":[-122.155986,37.740242]}},{"properties":{"city":"OAKLAND","name":"CHEVRON","latitude":37.795899,"zip code":"94612","longitude":-122.211392,"id":"a62iszf8dh2q","address":"1700 STRO ST","state":"CA"},"type":"Feature","geometry":{"type":"Point","coordinates":[-122.211392,37.795899]}},{"properties":{"city":"OAKLAND","name":"CHEVRON STATION","latitude":37.7295,"zip code":"94603","longitude":-122.193884,"id":"a62iszmsggve","address":"191 98TH AVE","state":"CA"},"type":"Feature","geometry":{"type":"Point","coordinates":[-122.193884,37.7295]}},{"properties":{"city":"OAKLAND","name":"CHICO LIQUORS","latitude":37.769228,"zip code":"94605","longitude":-122.182077,"id":"a62iszb0bzy0","address":"2801 HAVENSCOURT BLVD","state":"CA"},"type":"Feature","geometry":{"type":"Point","coordinates":[-122.182077,37.769228]}},{"properties":{"city":"OAKLAND","name":"CHOICE KORNER","latitude":37.799241,"zip code":"94607","longitude":-122.266989,"id":"a62iszcpig0l","address":"198 10TH STREET","state":"CA"},"type":"Feature","geometry":{"type":"Point","coordinates":[-122.266989,37.799241]}},{"properties":{"city":"OAKLAND","name":"CHOICE LIQUORS","latitude":37.827508,"zip code":"94609","longitude":-122.26501,"id":"a62iszh21fp2","address":"3820 TELEGRAPH AVENUE","state":"CA"},"type":"Feature","geometry":{"type":"Point","coordinates":[-122.26501,37.827508]}},{"properties":{"city":"OAKLAND","name":"CHOICE MEAT MARKET","latitude":37.840131,"zip code":"94608","longitude":-122.282901,"id":"a62isze955tw","address":"5676 SAN PABLO AVE","state":"CA"},"type":"Feature","geometry":{"type":"Point","coordinates":[-122.282901,37.840131]}},{"properties":{"city":"OAKLAND","name":"CILLES LIQUORS","latitude":37.750267,"zip code":"94621","longitude":-122.174766,"id":"a62iszlx1bt2","address":"8940 INTERNATIONAL BLVD","state":"CA"},"type":"Feature","geometry":{"type":"Point","coordinates":[-122.174766,37.750267]}},{"properties":{"city":"OAKLAND","name":"CIRCLE K","latitude":37.736871,"zip code":"94621","longitude":-122.196967,"id":"a62iszlrdqgz","address":"449 HEGENBERGER RD","state":"CA"},"type":"Feature","geometry":{"type":"Point","coordinates":[-122.196967,37.736871]}},{"properties":{"city":"OAKLAND","name":"COLISEUM SHELL","latitude":37.743657,"zip code":"94621","longitude":-122.196295,"id":"a62iszcy14ei","address":"540 HEGENBERGER RD","state":"CA"},"type":"Feature","geometry":{"type":"Point","coordinates":[-122.196295,37.743657]}},{"properties":{"city":"OAKLAND","name":"CONCEITED STAG CELLARS","latitude":37.842855,"zip code":"94611","longitude":-122.213962,"id":"a62iszqnhcdt","address":"13042 BROADWAY TER","state":"CA"},"type":"Feature","geometry":{"type":"Point","coordinates":[-122.213962,37.842855]}},{"properties":{"city":"OAKLAND","name":"CYPRESS MARKET","latitude":37.807227,"zip code":"94607","longitude":-122.293006,"id":"a62iszdnarky","address":"933 MANDELA PKWY","state":"CA"},"type":"Feature","geometry":{"type":"Point","coordinates":[-122.293006,37.807227]}},{"properties":{"city":"OAKLAND","name":"DALLAS LIQUOR","latitude":37.798954,"zip code":"94602","longitude":-122.210754,"id":"a62iszfndg6v","address":"2604 MACARTHUR BLVD","state":"CA"},"type":"Feature","geometry":{"type":"Point","coordinates":[-122.210754,37.798954]}},{"properties":{"city":"OAKLAND","name":"DALLAS MARKET","latitude":37.817204,"zip code":"94607","longitude":-122.277746,"id":"a62iszm6xacj","address":"2539 MARKET ST","state":"CA"},"type":"Feature","geometry":{"type":"Point","coordinates":[-122.277746,37.817204]}},{"properties":{"city":"OAKLAND","name":"DANNYS LIQUORS","latitude":37.812897,"zip code":"94607","longitude":-122.292822,"id":"a62iszdhh0r3","address":"1624 PERALTA ST","state":"CA"},"type":"Feature","geometry":{"type":"Point","coordinates":[-122.292822,37.812897]}},{"properties":{"city":"OAKLAND","name":"DAVES GROCERY &amp; LIQUOR","latitude":37.80236,"zip code":"94606","longitude":-122.242055,"id":"a62iszqvevrz","address":"2484 PARK BLVD","state":"CA"},"type":"Feature","geometry":{"type":"Point","coordinates":[-122.242055,37.80236]}},{"properties":{"city":"OAKLAND","name":"DE NOVO WINES","latitude":37.847578,"zip code":"94618","longitude":-122.250971,"id":"a62iszj1lu5h","address":"6082 CHABOT RD","state":"CA"},"type":"Feature","geometry":{"type":"Point","coordinates":[-122.250971,37.847578]}},{"properties":{"city":"OAKLAND","name":"DEDOMENICO CELLARS","latitude":37.858744,"zip code":"94705","longitude":-122.238792,"id":"a62iszjz1704","address":"650 ALVARADO RD","state":"CA"},"type":"Feature","geometry":{"type":"Point","coordinates":[-122.238792,37.858744]}},{"properties":{"city":"OAKLAND","name":"DIAMOND FOOD","latitude":37.797615,"zip code":"94602","longitude":-122.205806,"id":"a62iszjz4zet","address":"2979 MACARTHUR BLVD","state":"CA"},"type":"Feature","geometry":{"type":"Point","coordinates":[-122.205806,37.797615]}},{"properties":{"city":"OAKLAND","name":"DIAMOND SPRINGS VINEYARD","latitude":37.811277,"zip code":"94610","longitude":-122.238779,"id":"a62iszg8gj9b","address":"671 RLSTON AVE","state":"CA"},"type":"Feature","geometry":{"type":"Point","coordinates":[-122.238779,37.811277]}},{"properties":{"city":"OAKLAND","name":"DIAMOND WINE MERCHANTS","latitude":37.74615,"zip code":"94621","longitude":-122.207121,"id":"a62iszcakkib","address":"7303 EDGEWATER DR","state":"CA"},"type":"Feature","geometry":{"type":"Point","coordinates":[-122.207121,37.74615]}},{"properties":{"city":"OAKLAND","name":"DMC INTERNATIONAL LLC","latitude":37.832278,"zip code":"94611","longitude":-122.186857,"id":"a62iszjhs618","address":"7079 EXETER DR","state":"CA"},"type":"Feature","geometry":{"type":"Point","coordinates":[-122.186857,37.832278]}},{"properties":{"city":"OAKLAND","name":"DOLLAR TREE","latitude":37.766335,"zip code":"94605","longitude":-122.177887,"id":"a62iszd0ebqj","address":"7200 BANCROFT AVE","state":"CA"},"type":"Feature","geometry":{"type":"Point","coordinates":[-122.177887,37.766335]}},{"properties":{"city":"OAKLAND","name":"E &amp; L MARKET","latitude":37.790772,"zip code":"94606","longitude":-122.229086,"id":"a62iszfv3xx4","address":"2401 23RD AVENUE","state":"CA"},"type":"Feature","geometry":{"type":"Point","coordinates":[-122.229086,37.790772]}},{"properties":{"city":"OAKLAND","name":"E &amp; M FOOD MARKET","latitude":37.80327,"zip code":"94612","longitude":-122.268286,"id":"a62iszmkevuz","address":"332 14TH STREET","state":"CA"},"type":"Feature","geometry":{"type":"Point","coordinates":[-122.268286,37.80327]}},{"properties":{"city":"OAKLAND","name":"EAST BAY LIQUOR","latitude":37.838469,"zip code":"94609","longitude":-122.269449,"id":"a62iszr9r2lg","address":"5350 MARTIN LUTHER KING JR WY","state":"CA"},"type":"Feature","geometry":{"type":"Point","coordinates":[-122.269449,37.838469]}},{"properties":{"city":"OAKLAND","name":"EAST BAY MARKET","latitude":37.75398,"zip code":"94621","longitude":-122.177522,"id":"a62iszdfbyth","address":"8432 INTERNATIONAL BLVD","state":"CA"},"type":"Feature","geometry":{"type":"Point","coordinates":[-122.177522,37.75398]}},{"properties":{"city":"OAKLAND","name":"EAST TOWN LIQUOR","latitude":37.798512,"zip code":"94602","longitude":-122.208453,"id":"a62iszm5msok","address":"2833 MACARTHUR BLVD","state":"CA"},"type":"Feature","geometry":{"type":"Point","coordinates":[-122.208453,37.798512]}},{"properties":{"city":"OAKLAND","name":"EASTMONT","latitude":37.766278,"zip code":"94605","longitude":-122.17784,"id":"a62iszm6o5ci","address":"7210 BANCROFT AVENUE","state":"CA"},"type":"Feature","geometry":{"type":"Point","coordinates":[-122.17784,37.766278]}},{"properties":{"city":"OAKLAND","name":"EASY LIQUORS","latitude":37.827629,"zip code":"94608","longitude":-122.271722,"id":"a62iszegfzyg","address":"900 W. MACARTHUR BOULEVARD","state":"CA"},"type":"Feature","geometry":{"type":"Point","coordinates":[-122.271722,37.827629]}},{"properties":{"city":"OAKLAND","name":"EDDIES DRIVE IN LIQUORS","latitude":37.841866,"zip code":"94618","longitude":-122.251589,"id":"a62iszbhtp4m","address":"5491 COLLEGE AVE","state":"CA"},"type":"Feature","geometry":{"type":"Point","coordinates":[-122.251589,37.841866]}},{"properties":{"city":"OAKLAND","name":"EDDIES MARKET","latitude":37.762353,"zip code":"94621","longitude":-122.182446,"id":"a62iszglrxv2","address":"1935 73RD AVE","state":"CA"},"type":"Feature","geometry":{"type":"Point","coordinates":[-122.182446,37.762353]}},{"properties":{"city":"OAKLAND","name":"EDS LIQUORS","latitude":37.793545,"zip code":"94606","longitude":-122.226685,"id":"a62iszd5hmew","address":"2700 23RD AVENUE","state":"CA"},"type":"Feature","geometry":{"type":"Point","coordinates":[-122.226685,37.793545]}},{"properties":{"city":"OAKLAND","name":"ENG LIQUORS","latitude":37.787603,"zip code":"94606","longitude":-122.232011,"id":"a62iszcw4gxb","address":"2003 23RD AVENUE","state":"CA"},"type":"Feature","geometry":{"type":"Point","coordinates":[-122.232011,37.787603]}},{"properties":{"city":"OAKLAND","name":"EUROMIX DELITESSEN","latitude":37.828983,"zip code":"94611","longitude":-122.249117,"id":"a62iszp9nvm0","address":"4301 PIEDMONT AVE C","state":"CA"},"type":"Feature","geometry":{"type":"Point","coordinates":[-122.249117,37.828983]}},{"properties":{"city":"OAKLAND","name":"EVERGREEN PRODUCE","latitude":37.783669,"zip code":"94601","longitude":-122.222486,"id":"a62iszcqyied","address":"3225 FOOTHILL BLVD","state":"CA"},"type":"Feature","geometry":{"type":"Point","coordinates":[-122.222486,37.783669]}},{"properties":{"city":"OAKLAND","name":"EXPRESS LIQUOR &amp; MARKET","latitude":37.790258,"zip code":"94606","longitude":-122.247644,"id":"a62iszer0b6a","address":"1250 INTERNATIONAL BLVD","state":"CA"},"type":"Feature","geometry":{"type":"Point","coordinates":[-122.247644,37.790258]}},{"properties":{"city":"OAKLAND","name":"FAIRFAX LIQUORS","latitude":37.772659,"zip code":"94601","longitude":-122.198547,"id":"a62iszmhevl4","address":"5403 FOOTHILL BLVD","state":"CA"},"type":"Feature","geometry":{"type":"Point","coordinates":[-122.198547,37.772659]}},{"properties":{"city":"OAKLAND","name":"FAMILY MARKET","latitude":37.767426,"zip code":"94605","longitude":-122.192349,"id":"a62iszfjtow7","address":"2222 62ND AVE","state":"CA"},"type":"Feature","geometry":{"type":"Point","coordinates":[-122.192349,37.767426]}},{"properties":{"city":"OAKLAND","name":"FAMILY MARKET","latitude":37.810041,"zip code":"94607","longitude":-122.295085,"id":"a62iszmhofi5","address":"1600 12TH STREET","state":"CA"},"type":"Feature","geometry":{"type":"Point","coordinates":[-122.295085,37.810041]}},{"properties":{"city":"OAKLAND","name":"FARMSTEAD CHEESES &amp; WINES","latitude":37.824372,"zip code":"94611","longitude":-122.231635,"id":"a62isznuc3b5","address":"6218 LA SALLE AVE","state":"CA"},"type":"Feature","geometry":{"type":"Point","coordinates":[-122.231635,37.824372]}},{"properties":{"city":"OAKLAND","name":"FOOD 24 CONVENIENCE MARKET","latitude":37.802813,"zip code":"94610","longitude":-122.238834,"id":"a62iszcc7r54","address":"2900 PARK BLVD","state":"CA"},"type":"Feature","geometry":{"type":"Point","coordinates":[-122.238834,37.802813]}},{"properties":{"city":"OAKLAND","name":"FOOD KING LIQUOR","latitude":37.751089,"zip code":"94621","longitude":-122.175364,"id":"a62iszptuuib","address":"8824 INTERNATIONAL BLVD","state":"CA"},"type":"Feature","geometry":{"type":"Point","coordinates":[-122.175364,37.751089]}},{"properties":{"city":"OAKLAND","name":"FOOD TOWN MARKET","latitude":37.763306,"zip code":"94621","longitude":-122.195583,"id":"a62iszdnqwrr","address":"6421 INTERNATIONAL BLVD","state":"CA"},"type":"Feature","geometry":{"type":"Point","coordinates":[-122.195583,37.763306]}},{"properties":{"city":"OAKLAND","name":"FOOTHILL DISCOUNT LIQUORS","latitude":37.77887,"zip code":"94601","longitude":-122.2165,"id":"a62iszo1v5de","address":"3828 FOOTHILL BLVD","state":"CA"},"type":"Feature","geometry":{"type":"Point","coordinates":[-122.2165,37.77887]}},{"properties":{"city":"OAKLAND","name":"FOOTHILL MARKET","latitude":37.788097,"zip code":"94606","longitude":-122.239398,"id":"a62iszikdted","address":"1906 FOOTHILL BLVD","state":"CA"},"type":"Feature","geometry":{"type":"Point","coordinates":[-122.239398,37.788097]}},{"properties":{"city":"OAKLAND","name":"FOUR BELLS MARKET","latitude":37.741589,"zip code":"94603","longitude":-122.176507,"id":"a62iszihowqb","address":"1065 98TH AVE","state":"CA"},"type":"Feature","geometry":{"type":"Point","coordinates":[-122.176507,37.741589]}},{"properties":{"city":"OAKLAND","name":"FOUR STAR MARKET","latitude":37.786866,"zip code":"94619","longitude":-122.204544,"id":"a62iszgn2cqc","address":"2884 38TH AVE","state":"CA"},"type":"Feature","geometry":{"type":"Point","coordinates":[-122.204544,37.786866]}},{"properties":{"city":"OAKLAND","name":"FRUITVALE LIQUORS &amp; GROCERY","latitude":37.790332,"zip code":"94601","longitude":-122.220142,"id":"a62iszprt0zr","address":"2678 FRUITVALE AVE","state":"CA"},"type":"Feature","geometry":{"type":"Point","coordinates":[-122.220142,37.790332]}},{"properties":{"city":null,"name":"Farmer Joe's Produce &amp; Market Place","latitude":37.799496,"zip code":"94602","longitude":-122.216487,"id":"a62iszqbaksx","address":"3426 Fruitvale Avenue","state":"CA"},"type":"Feature","geometry":{"type":"Point","coordinates":[-122.216487,37.799496]}},{"properties":{"city":"Oakland","name":"FoodMaxx","latitude":37.737551,"zip code":"94603","longitude":-122.165374,"id":"a62iszfspsgg","address":"10950 International Boulevard","state":"CA"},"type":"Feature","geometry":{"type":"Point","coordinates":[-122.165374,37.737551]}},{"properties":{"city":"OAKLAND","name":"G B RATTO &amp; CO","latitude":37.800818,"zip code":"94607","longitude":-122.274946,"id":"a62iszeso7af","address":"821 WASHINGTON STREET","state":"CA"},"type":"Feature","geometry":{"type":"Point","coordinates":[-122.274946,37.800818]}},{"properties":{"city":"OAKLAND","name":"GALLAGHERS LIQUOR","latitude":37.828199,"zip code":"94609","longitude":-122.268804,"id":"a62iszmarp8i","address":"3849 MARTIN LUTHER KING JR WY","state":"CA"},"type":"Feature","geometry":{"type":"Point","coordinates":[-122.268804,37.828199]}},{"properties":{"city":"OAKLAND","name":"GATEWAY LIQUORS","latitude":37.842527,"zip code":"94608","longitude":-122.283678,"id":"a62iszh04zos","address":"5944 SAN PABLO AVE","state":"CA"},"type":"Feature","geometry":{"type":"Point","coordinates":[-122.283678,37.842527]}},{"properties":{"city":"OAKLAND","name":"GATEWAY SUPERMARKET","latitude":37.842106,"zip code":"94608","longitude":-122.283534,"id":"a62iszgungsh","address":"5908 SAN PABLO AVE","state":"CA"},"type":"Feature","geometry":{"type":"Point","coordinates":[-122.283534,37.842106]}},{"properties":{"city":"OAKLAND","name":"GENERAL MARKET AND GROCERY","latitude":37.833079,"zip code":"94608","longitude":-122.273388,"id":"a62iszm0838j","address":"4301 MARKET ST","state":"CA"},"type":"Feature","geometry":{"type":"Point","coordinates":[-122.273388,37.833079]}},{"properties":{"city":"OAKLAND","name":"GIANT'S LIQUOR","latitude":37.767416,"zip code":"94605","longitude":-122.169737,"id":"a62iszi03ywg","address":"7629 MACARTHUR BLVD","state":"CA"},"type":"Feature","geometry":{"type":"Point","coordinates":[-122.169737,37.767416]}},{"properties":{"city":"OAKLAND","name":"GIFT STYLIST","latitude":37.728033,"zip code":"94603","longitude":-122.197439,"id":"a62iszrgznlf","address":"9332 VISTA COURT","state":"CA"},"type":"Feature","geometry":{"type":"Point","coordinates":[-122.197439,37.728033]}},{"properties":{"city":"OAKLAND","name":"GOLDEN 7 FOOD STORE","latitude":37.816131,"zip code":"94607","longitude":-122.278593,"id":"a62iszkh3005","address":"2400 MARKET ST","state":"CA"},"type":"Feature","geometry":{"type":"Point","coordinates":[-122.278593,37.816131]}},{"properties":{"city":"OAKLAND","name":"GOLDEN 7 FOOD STORE","latitude":37.791065,"zip code":"94619","longitude":-122.205155,"id":"a62iszp7coo3","address":"3115 35TH AVE","state":"CA"},"type":"Feature","geometry":{"type":"Point","coordinates":[-122.205155,37.791065]}},{"properties":{"city":"OAKLAND","name":"GOLDEN GAS","latitude":37.770464,"zip code":"94605","longitude":-122.181768,"id":"a62iszed4wh1","address":"6600 FOOTHILL BLVD","state":"CA"},"type":"Feature","geometry":{"type":"Point","coordinates":[-122.181768,37.770464]}},{"properties":{"city":"OAKLAND","name":"GOLDEN HOURS LIQUOR STORE","latitude":37.777643,"zip code":"94601","longitude":-122.225803,"id":"a62iszclh21y","address":"3201 INTERNATIONAL BLVD","state":"CA"},"type":"Feature","geometry":{"type":"Point","coordinates":[-122.225803,37.777643]}},{"properties":{"city":"OAKLAND","name":"GOURMET MARKET","latitude":37.803316,"zip code":"94612","longitude":-122.264454,"id":"a62iszpi95hv","address":"1549 JACKSON ST","state":"CA"},"type":"Feature","geometry":{"type":"Point","coordinates":[-122.264454,37.803316]}},{"properties":{"city":"OAKLAND","name":"GRAND AM PM","latitude":37.813921,"zip code":"94607","longitude":-122.277045,"id":"a62iszgt9bt5","address":"889 W. GRAND AVENUE","state":"CA"},"type":"Feature","geometry":{"type":"Point","coordinates":[-122.277045,37.813921]}},{"properties":{"city":"OAKLAND","name":"GRAND EXPRESS MARKET","latitude":37.808951,"zip code":"94610","longitude":-122.255546,"id":"a62iszm6pctv","address":"363 GRAND AVE","state":"CA"},"type":"Feature","geometry":{"type":"Point","coordinates":[-122.255546,37.808951]}},{"properties":{"city":"OAKLAND","name":"GRAND LAKE MARKET","latitude":37.80985,"zip code":"94610","longitude":-122.259391,"id":"a62iszi8jfnj","address":"246 GRAND AVE","state":"CA"},"type":"Feature","geometry":{"type":"Point","coordinates":[-122.259391,37.80985]}},{"properties":{"city":"OAKLAND","name":"GRAND PIEDMONT LIQUORS","latitude":37.818397,"zip code":"94610","longitude":-122.244953,"id":"a62isze7l8up","address":"3900 GRAND AVE","state":"CA"},"type":"Feature","geometry":{"type":"Point","coordinates":[-122.244953,37.818397]}},{"properties":{"city":"OAKLAND","name":"GREEN VALLEY FOODS","latitude":37.804395,"zip code":"94607","longitude":-122.288102,"id":"a62iszkpmeab","address":"749 ADELINE ST","state":"CA"},"type":"Feature","geometry":{"type":"Point","coordinates":[-122.288102,37.804395]}},{"properties":{"city":"OAKLAND","name":"GROCERY OUTLET","latitude":37.817449,"zip code":"94611","longitude":-122.263084,"id":"a62iszpdkd1o","address":"2900 BROADWAY","state":"CA"},"type":"Feature","geometry":{"type":"Point","coordinates":[-122.263084,37.817449]}},{"properties":{"city":"OAKLAND","name":"HANDY MARKET","latitude":37.768221,"zip code":"94621","longitude":-122.198646,"id":"a62isze9nd9c","address":"1801 57TH AVE","state":"CA"},"type":"Feature","geometry":{"type":"Point","coordinates":[-122.198646,37.768221]}},{"properties":{"city":"OAKLAND","name":"HAPPY TIME LIQUOR","latitude":37.807342,"zip code":"94607","longitude":-122.298861,"id":"a62iszfymuf3","address":"1647 8TH ST","state":"CA"},"type":"Feature","geometry":{"type":"Point","coordinates":[-122.298861,37.807342]}},{"properties":{"city":"OAKLAND","name":"HARRYS DRIVE IN LIQUOR &amp; GROCERY","latitude":37.755242,"zip code":"94605","longitude":-122.161571,"id":"a62iszhxwlzr","address":"9002 MACARTHUR BLVD","state":"CA"},"type":"Feature","geometry":{"type":"Point","coordinates":[-122.161571,37.755242]}},{"properties":{"city":"OAKLAND","name":"HEGENBERGER SHELL","latitude":37.733318,"zip code":"94621","longitude":-122.198414,"id":"a62iszc35n4n","address":"285 HEGENBERGER RD","state":"CA"},"type":"Feature","geometry":{"type":"Point","coordinates":[-122.198414,37.733318]}},{"properties":{"city":"OAKLAND","name":"HIENS MARKET","latitude":37.803437,"zip code":"94612","longitude":-122.267346,"id":"a62iszh9bu88","address":"1451 HARRISON ST","state":"CA"},"type":"Feature","geometry":{"type":"Point","coordinates":[-122.267346,37.803437]}},{"properties":{"city":"OAKLAND","name":"HIGH STREET FOOD MART","latitude":37.767516,"zip code":"94601","longitude":-122.221222,"id":"a62iszk21znu","address":"630 HIGH ST","state":"CA"},"type":"Feature","geometry":{"type":"Point","coordinates":[-122.221222,37.767516]}},{"properties":{"city":"OAKLAND","name":"HIGHLAND MARKET","latitude":37.792773,"zip code":"94606","longitude":-122.230179,"id":"a62iszqxbnyf","address":"2467 HIGHLAND AVE","state":"CA"},"type":"Feature","geometry":{"type":"Point","coordinates":[-122.230179,37.792773]}},{"properties":{"city":"OAKLAND","name":"HOLLY MARKET","latitude":37.758677,"zip code":"94621","longitude":-122.179108,"id":"a62iszhms1iy","address":"7900 HOLLY ST","state":"CA"},"type":"Feature","geometry":{"type":"Point","coordinates":[-122.179108,37.758677]}},{"properties":{"city":"OAKLAND","name":"HOMETOWN DONUT &amp; LIQUOR &amp; FOOD","latitude":37.796904,"zip code":"94607","longitude":-122.265381,"id":"a62iszqpl0pv","address":"93 8TH ST","state":"CA"},"type":"Feature","geometry":{"type":"Point","coordinates":[-122.265381,37.796904]}},{"properties":{"city":"OAKLAND","name":"HONG KEE MARKET","latitude":37.799579,"zip code":"94607","longitude":-122.272103,"id":"a62iszl5pq98","address":"385 8TH ST","state":"CA"},"type":"Feature","geometry":{"type":"Point","coordinates":[-122.272103,37.799579]}},{"properties":{"city":"OAKLAND","name":"HUB LIQUOR STORE","latitude":37.747091,"zip code":"94603","longitude":-122.172445,"id":"a62iszdv5ehb","address":"9419 INTERNATIONAL BLVD","state":"CA"},"type":"Feature","geometry":{"type":"Point","coordinates":[-122.172445,37.747091]}},{"properties":{"city":"OAKLAND","name":"HUNTS BERRY LIQUOR","latitude":37.74519,"zip code":"94605","longitude":-122.154542,"id":"a62iszp73w92","address":"10151 FOOTHILL BLVD","state":"CA"},"type":"Feature","geometry":{"type":"Point","coordinates":[-122.154542,37.74519]}},{"properties":{"city":"OAKLAND","name":"IDEAL MARKET","latitude":37.812755,"zip code":"94607","longitude":-122.27938,"id":"a62iszf4dkph","address":"2036 MARKET ST","state":"CA"},"type":"Feature","geometry":{"type":"Point","coordinates":[-122.27938,37.812755]}},{"properties":{"city":"OAKLAND","name":"ISLAND MARKET","latitude":37.77993,"zip code":"94601","longitude":-122.206645,"id":"a62iszn06osh","address":"2314 HIGH ST","state":"CA"},"type":"Feature","geometry":{"type":"Point","coordinates":[-122.206645,37.77993]}},{"properties":{"city":"OAKLAND","name":"ISLERS LIQUORS","latitude":37.772662,"zip code":"94601","longitude":-122.201191,"id":"a62iszbv3eih","address":"5285 FOOTHILL BLVD","state":"CA"},"type":"Feature","geometry":{"type":"Point","coordinates":[-122.201191,37.772662]}},{"properties":{"city":"OAKLAND","name":"J &amp; M LIQUORS","latitude":37.768857,"zip code":"94621","longitude":-122.19423,"id":"a62iszcwrhep","address":"2151 SEMINARY AVE","state":"CA"},"type":"Feature","geometry":{"type":"Point","coordinates":[-122.19423,37.768857]}},{"properties":{"city":"OAKLAND","name":"J J BUCKLEY LLC","latitude":37.746109,"zip code":"94621","longitude":-122.207092,"id":"a62iszfv1ewd","address":"7305 EDGEWATER DR","state":"CA"},"type":"Feature","geometry":{"type":"Point","coordinates":[-122.207092,37.746109]}},{"properties":{"city":"OAKLAND","name":"J J BUCKLEY LLC","latitude":37.746109,"zip code":"94621","longitude":-122.207092,"id":"a62iszr642t1","address":"7305 EDGEWATER DR","state":"CA"},"type":"Feature","geometry":{"type":"Point","coordinates":[-122.207092,37.746109]}},{"properties":{"city":"OAKLAND","name":"JACKSONS LIQUORS","latitude":37.793345,"zip code":"94606","longitude":-122.252822,"id":"a62iszdvvrcj","address":"739 E 12TH ST","state":"CA"},"type":"Feature","geometry":{"type":"Point","coordinates":[-122.252822,37.793345]}},{"properties":{"city":"OAKLAND","name":"JALOS MARKET","latitude":37.782903,"zip code":"94601","longitude":-122.211428,"id":"a62iszjr1xt9","address":"2267 38TH AVE","state":"CA"},"type":"Feature","geometry":{"type":"Point","coordinates":[-122.211428,37.782903]}},{"properties":{"city":"OAKLAND","name":"JAX LIQUOR","latitude":37.797075,"zip code":"94606","longitude":-122.252027,"id":"a62iszimnn0j","address":"502 FOOTHILL BLVD","state":"CA"},"type":"Feature","geometry":{"type":"Point","coordinates":[-122.252027,37.797075]}},{"properties":{"city":"OAKLAND","name":"JIMS LIQUORS","latitude":37.763175,"zip code":"94605","longitude":-122.165426,"id":"a62iszkjs7ui","address":"8137 MACARTHUR BLVD","state":"CA"},"type":"Feature","geometry":{"type":"Point","coordinates":[-122.165426,37.763175]}},{"properties":{"city":"OAKLAND","name":"JO JOS MARKET","latitude":37.849467,"zip code":"94609","longitude":-122.265793,"id":"a62iszm34oaq","address":"6400 SHATTUCK AVENUE","state":"CA"},"type":"Feature","geometry":{"type":"Point","coordinates":[-122.265793,37.849467]}},{"properties":{"city":"OAKLAND","name":"JOSEPH'S LIQUOR","latitude":37.763144,"zip code":"94605","longitude":-122.165406,"id":"a62iszj3e3pb","address":"8138 MACARTHUR BLVD","state":"CA"},"type":"Feature","geometry":{"type":"Point","coordinates":[-122.165406,37.763144]}},{"properties":{"city":"OAKLAND","name":"K &amp; C SNACK CORNER","latitude":37.796496,"zip code":"94606","longitude":-122.233757,"id":"a62iszjtbasa","address":"2645 14TH AVENUE","state":"CA"},"type":"Feature","geometry":{"type":"Point","coordinates":[-122.233757,37.796496]}},{"properties":{"city":"OAKLAND","name":"K &amp; D MARKET","latitude":37.816917,"zip code":"94607","longitude":-122.282233,"id":"a62iszlnqokq","address":"1100 24TH STREET","state":"CA"},"type":"Feature","geometry":{"type":"Point","coordinates":[-122.282233,37.816917]}},{"properties":{"city":"OAKLAND","name":"KELLER MARKET","latitude":37.770422,"zip code":"94605","longitude":-122.150609,"id":"a62iszigbps2","address":"4400 KELLER AVE","state":"CA"},"type":"Feature","geometry":{"type":"Point","coordinates":[-122.150609,37.770422]}},{"properties":{"city":"OAKLAND","name":"KINGS LIQUOR &amp; GROCERY","latitude":37.775197,"zip code":"94601","longitude":-122.220752,"id":"a62iszjuikhx","address":"3715 INTERNATIONAL BLVD","state":"CA"},"type":"Feature","geometry":{"type":"Point","coordinates":[-122.220752,37.775197]}},{"properties":{"city":"OAKLAND","name":"KINGS MARKET","latitude":37.839287,"zip code":"94609","longitude":-122.269718,"id":"a62iszp993j6","address":"5442 MARTIN LUTHER KING JR WY","state":"CA"},"type":"Feature","geometry":{"type":"Point","coordinates":[-122.269718,37.839287]}},{"properties":{"city":"Oakland","name":"Koreana Plaza","latitude":37.813648,"zip code":"94612","longitude":-122.268655,"id":"a62iszgsjxnf","address":"2370 Telegraph Avenue","state":"CA"},"type":"Feature","geometry":{"type":"Point","coordinates":[-122.268655,37.813648]}},{"properties":{"city":"OAKLAND","name":"L&amp;T MARKET","latitude":37.763819,"zip code":"94605","longitude":-122.174489,"id":"a62iszoug5nr","address":"7717 BANCROFT AVE","state":"CA"},"type":"Feature","geometry":{"type":"Point","coordinates":[-122.174489,37.763819]}},{"properties":{"city":"OAKLAND","name":"LA BAR MARKET","latitude":37.777429,"zip code":"94601","longitude":-122.235216,"id":"a62iszc7kecs","address":"2701 E 9TH ST","state":"CA"},"type":"Feature","geometry":{"type":"Point","coordinates":[-122.235216,37.777429]}},{"properties":{"city":"OAKLAND","name":"LA ESTRELLA MARKET","latitude":37.779037,"zip code":"94601","longitude":-122.216665,"id":"a62iszkbarc7","address":"3800-06 FOOTHILL BLVD","state":"CA"},"type":"Feature","geometry":{"type":"Point","coordinates":[-122.216665,37.779037]}},{"properties":{"city":"OAKLAND","name":"LA FRANCHI'S LIQUORS","latitude":37.793713,"zip code":"94619","longitude":-122.200653,"id":"a62isznx8ui2","address":"3500 MACARTHUR BLVD","state":"CA"},"type":"Feature","geometry":{"type":"Point","coordinates":[-122.200653,37.793713]}},{"properties":{"city":"OAKLAND","name":"LA RAZA MARKET","latitude":37.769358,"zip code":"94601","longitude":-122.208433,"id":"a62iszepk1tg","address":"5040 INTERNATIONAL BLVD","state":"CA"},"type":"Feature","geometry":{"type":"Point","coordinates":[-122.208433,37.769358]}},{"properties":{"city":"OAKLAND","name":"LA RAZA MARKET","latitude":37.766591,"zip code":"94621","longitude":-122.197446,"id":"a62iszeqnysg","address":"1700 SEMINARY AVE","state":"CA"},"type":"Feature","geometry":{"type":"Point","coordinates":[-122.197446,37.766591]}},{"properties":{"city":"OAKLAND","name":"LAKE FOOD CENTER","latitude":37.80318,"zip code":"94612","longitude":-122.263105,"id":"a62iszdrv6pe","address":"1585 MADISON ST","state":"CA"},"type":"Feature","geometry":{"type":"Point","coordinates":[-122.263105,37.80318]}},{"properties":{"city":"OAKLAND","name":"LAKE MERRITT SUPER","latitude":37.809011,"zip code":"94610","longitude":-122.256158,"id":"a62iszjn0t66","address":"346 GRAND AVE","state":"CA"},"type":"Feature","geometry":{"type":"Point","coordinates":[-122.256158,37.809011]}},{"properties":{"city":"OAKLAND","name":"LAKESIDE MARKET","latitude":37.80296,"zip code":"94612","longitude":-122.26761,"id":"a62iszd33tz8","address":"300 14TH STREET","state":"CA"},"type":"Feature","geometry":{"type":"Point","coordinates":[-122.26761,37.80296]}},{"properties":{"city":"OAKLAND","name":"LAKESIDE MARKET","latitude":37.801454,"zip code":"94612","longitude":-122.263644,"id":"a62iszbkkgf6","address":"136 14TH STREET","state":"CA"},"type":"Feature","geometry":{"type":"Point","coordinates":[-122.263644,37.801454]}},{"properties":{"city":"OAKLAND","name":"LEES MARKET","latitude":37.848933,"zip code":"94609","longitude":-122.26572,"id":"a62iszqlswtd","address":"6342 SHATTUCK AVE","state":"CA"},"type":"Feature","geometry":{"type":"Point","coordinates":[-122.26572,37.848933]}},{"properties":{"city":"OAKLAND","name":"LIFORNIA CRU","latitude":37.816359,"zip code":"94607","longitude":-122.290171,"id":"a62iszit4pc1","address":"2121 PERALTA ST","state":"CA"},"type":"Feature","geometry":{"type":"Point","coordinates":[-122.290171,37.816359]}},{"properties":{"city":"OAKLAND","name":"LINCOLN SQUARE LIQUORS","latitude":37.797616,"zip code":"94619","longitude":-122.183287,"id":"a62iszdhfosr","address":"4100 REDWOOD RD","state":"CA"},"type":"Feature","geometry":{"type":"Point","coordinates":[-122.183287,37.797616]}},{"properties":{"city":"OAKLAND","name":"LIQUOR SECURITY","latitude":37.797972,"zip code":"94606","longitude":-122.25631,"id":"a62iszcmh0bx","address":"201 INTERNATIONAL BLVD","state":"CA"},"type":"Feature","geometry":{"type":"Point","coordinates":[-122.25631,37.797972]}},{"properties":{"city":"OAKLAND","name":"LONGS DRUG STORE","latitude":37.798733,"zip code":"94602","longitude":-122.216804,"id":"a62iszp9pvtg","address":"3320 FRUITVALE AVE","state":"CA"},"type":"Feature","geometry":{"type":"Point","coordinates":[-122.216804,37.798733]}},{"properties":{"city":"OAKLAND","name":"LOS MELLEOS TIENDA","latitude":37.765106,"zip code":"94621","longitude":-122.19943,"id":"a62iszpqgd26","address":"5913 INTERNATIONAL BLVD","state":"CA"},"type":"Feature","geometry":{"type":"Point","coordinates":[-122.19943,37.765106]}},{"properties":{"city":"Oakland","name":"LUCKY STORES INC","latitude":37.778023,"zip code":"94601","longitude":-122.236628,"id":"a62iszopho73","address":"3000 E. 9th Street","state":"CA"},"type":"Feature","geometry":{"type":"Point","coordinates":[-122.236628,37.778023]}},{"properties":{"city":"OAKLAND","name":"LUCKY TWO","latitude":37.742255,"zip code":"94603","longitude":-122.162381,"id":"a62iszd2vj69","address":"1901 103RD AVENUE","state":"CA"},"type":"Feature","geometry":{"type":"Point","coordinates":[-122.162381,37.742255]}},{"properties":{"city":"OAKLAND","name":"LUCKYS","latitude":37.800266,"zip code":"94606","longitude":-122.253657,"id":"a62iszom6c3z","address":"247 E 18TH ST","state":"CA"},"type":"Feature","geometry":{"type":"Point","coordinates":[-122.253657,37.800266]}},{"properties":{"city":"OAKLAND","name":"LUCKYS SPOT MARKET","latitude":37.795593,"zip code":"94606","longitude":-122.25036,"id":"a62iszlsumnv","address":"700 FOOTHILL BLVD","state":"CA"},"type":"Feature","geometry":{"type":"Point","coordinates":[-122.25036,37.795593]}},{"properties":{"city":"OAKLAND","name":"LUSTERS","latitude":37.738526,"zip code":"94603","longitude":-122.166068,"id":"a62iszi36i56","address":"10625 INTERNATIONAL BLVD","state":"CA"},"type":"Feature","geometry":{"type":"Point","coordinates":[-122.166068,37.738526]}},{"properties":{"city":"OAKLAND","name":"LYONS LIQUORS &amp; GROCERIES","latitude":37.77652,"zip code":"94601","longitude":-122.213859,"id":"a62iszh1fv21","address":"4100 FOOTHILL BLVD","state":"CA"},"type":"Feature","geometry":{"type":"Point","coordinates":[-122.213859,37.77652]}},{"properties":{"city":"Oakland","name":"Lucky","latitude":37.789319,"zip code":"94619","longitude":-122.196684,"id":"a62iszkvkvw0","address":"4055 MacArthur Boulevard","state":"CA"},"type":"Feature","geometry":{"type":"Point","coordinates":[-122.196684,37.789319]}},{"properties":{"city":"OAKLAND","name":"M &amp; B MARKET","latitude":37.847121,"zip code":"94608","longitude":-122.277789,"id":"a62iszfhctp6","address":"6310 MARKET ST","state":"CA"},"type":"Feature","geometry":{"type":"Point","coordinates":[-122.277789,37.847121]}},{"properties":{"city":"OAKLAND","name":"M &amp; S SHELL","latitude":37.753456,"zip code":"94605","longitude":-122.150823,"id":"a62iszn8awzv","address":"9750 GOLF LINKS RD","state":"CA"},"type":"Feature","geometry":{"type":"Point","coordinates":[-122.150823,37.753456]}},{"properties":{"city":"OAKLAND","name":"MELROSE MARKET","latitude":37.774482,"zip code":"94601","longitude":-122.206096,"id":"a62iszknt6x6","address":"4840 MELROSE AVE","state":"CA"},"type":"Feature","geometry":{"type":"Point","coordinates":[-122.206096,37.774482]}},{"properties":{"city":"OAKLAND","name":"MEWS MARKET","latitude":37.736359,"zip code":"94603","longitude":-122.17286,"id":"a62iszoxddsd","address":"992 105TH AVENUE","state":"CA"},"type":"Feature","geometry":{"type":"Point","coordinates":[-122.17286,37.736359]}},{"properties":{"city":"OAKLAND","name":"MI PUEBLO FOOD CENTER","latitude":37.774625,"zip code":"94601","longitude":-122.211799,"id":"a62iszd8lpkj","address":"1630 HIGH ST","state":"CA"},"type":"Feature","geometry":{"type":"Point","coordinates":[-122.211799,37.774625]}},{"properties":{"city":"OAKLAND","name":"MI RANCHO MARKET","latitude":37.784524,"zip code":"94606","longitude":-122.234804,"id":"a62iszk467q4","address":"1536 23RD AVENUE","state":"CA"},"type":"Feature","geometry":{"type":"Point","coordinates":[-122.234804,37.784524]}},{"properties":{"city":"OAKLAND","name":"MICROS MARKET","latitude":37.833081,"zip code":"94609","longitude":-122.267589,"id":"a62iszhnzcxh","address":"4428 MARTIN LUTHER KING JR WY","state":"CA"},"type":"Feature","geometry":{"type":"Point","coordinates":[-122.267589,37.833081]}},{"properties":{"city":"OAKLAND","name":"MID TOWN FOODS","latitude":37.791321,"zip code":"94602","longitude":-122.215175,"id":"a62iszj9c1b5","address":"2941 COOLIDGE AVE","state":"CA"},"type":"Feature","geometry":{"type":"Point","coordinates":[-122.215175,37.791321]}},{"properties":{"city":"OAKLAND","name":"MILLENNIUM MARKET","latitude":37.810965,"zip code":"94607","longitude":-122.280294,"id":"a62iszot0ceh","address":"1741 MARKET ST","state":"CA"},"type":"Feature","geometry":{"type":"Point","coordinates":[-122.280294,37.810965]}},{"properties":{"city":"OAKLAND","name":"MILLS FOOD CENTER","latitude":37.776432,"zip code":"94605","longitude":-122.183938,"id":"a62iszntlqgd","address":"5911 MACARTHUR BLVD","state":"CA"},"type":"Feature","geometry":{"type":"Point","coordinates":[-122.183938,37.776432]}},{"properties":{"city":"OAKLAND","name":"MINI MARKET","latitude":37.748805,"zip code":"94603","longitude":-122.165058,"id":"a62iszl9bhhu","address":"2001 96TH AVE","state":"CA"},"type":"Feature","geometry":{"type":"Point","coordinates":[-122.165058,37.748805]}},{"properties":{"city":"OAKLAND","name":"MOLNAR FAMILY VINEYARDS","latitude":37.808757,"zip code":"94610","longitude":-122.252962,"id":"a62iszezjzbh","address":"440 GRAND AVE","state":"CA"},"type":"Feature","geometry":{"type":"Point","coordinates":[-122.252962,37.808757]}},{"properties":{"city":"OAKLAND","name":"MONTCLAIR MART","latitude":37.840888,"zip code":"94611","longitude":-122.223055,"id":"a62iszn6twmn","address":"6773 BROADWAY TER","state":"CA"},"type":"Feature","geometry":{"type":"Point","coordinates":[-122.223055,37.840888]}},{"properties":{"city":"OAKLAND","name":"MULLEN LIQUORS","latitude":37.827827,"zip code":"94611","longitude":-122.25738,"id":"a62iszk4wnq9","address":"4001 BROADWAY","state":"CA"},"type":"Feature","geometry":{"type":"Point","coordinates":[-122.25738,37.827827]}},{"properties":{"city":"OAKLAND","name":"N &amp; A MARKET","latitude":37.823312,"zip code":"94608","longitude":-122.281324,"id":"a62iszdcqwz5","address":"3147 ADELINE ST","state":"CA"},"type":"Feature","geometry":{"type":"Point","coordinates":[-122.281324,37.823312]}},{"properties":{"city":"OAKLAND","name":"N &amp; M MARKET","latitude":37.798587,"zip code":"94606","longitude":-122.235892,"id":"a62iszj5snx5","address":"2731 13TH AVENUE","state":"CA"},"type":"Feature","geometry":{"type":"Point","coordinates":[-122.235892,37.798587]}},{"properties":{"city":"OAKLAND","name":"NASAN MARKET","latitude":37.825514,"zip code":"94608","longitude":-122.280465,"id":"a62iszgbfhih","address":"3401 ADELINE ST","state":"CA"},"type":"Feature","geometry":{"type":"Point","coordinates":[-122.280465,37.825514]}},{"properties":{"city":"OAKLAND","name":"NATION LIQUOR","latitude":37.755174,"zip code":"94621","longitude":-122.178484,"id":"a62iszh4oo1h","address":"8301 INTERNATIONAL BLVD","state":"CA"},"type":"Feature","geometry":{"type":"Point","coordinates":[-122.178484,37.755174]}},{"properties":{"city":"OAKLAND","name":"NEW GRAND LAKE MARKET","latitude":37.811717,"zip code":"94610","longitude":-122.247911,"id":"a62iszncil4o","address":"3217 GRAND AVE","state":"CA"},"type":"Feature","geometry":{"type":"Point","coordinates":[-122.247911,37.811717]}},{"properties":{"city":"OAKLAND","name":"NEW MARKET THE","latitude":37.76505,"zip code":"94605","longitude":-122.1759,"id":"a62iszp28nav","address":"7475 BANCROFT AVENUE","state":"CA"},"type":"Feature","geometry":{"type":"Point","coordinates":[-122.1759,37.76505]}},{"properties":{"city":"OAKLAND","name":"NEW SAIGON SUPERMARKET","latitude":37.792463,"zip code":"94606","longitude":-122.250147,"id":"a62iszr6z40q","address":"950 INTERNATIONAL BLVD","state":"CA"},"type":"Feature","geometry":{"type":"Point","coordinates":[-122.250147,37.792463]}},{"properties":{"city":"OAKLAND","name":"NEW TINS MARKET","latitude":37.798211,"zip code":"94607","longitude":-122.270893,"id":"a62iszml0xp4","address":"310 7TH ST","state":"CA"},"type":"Feature","geometry":{"type":"Point","coordinates":[-122.270893,37.798211]}},{"properties":{"city":"OAKLAND","name":"NEW YORK MARKET","latitude":37.825105,"zip code":"94608","longitude":-122.275408,"id":"a62iszmdpvej","address":"3446 MARKET ST","state":"CA"},"type":"Feature","geometry":{"type":"Point","coordinates":[-122.275408,37.825105]}},{"properties":{"city":"OAKLAND","name":"NICKS LIQUORS","latitude":37.817189,"zip code":"94607","longitude":-122.283451,"id":"a62iszkwj4s9","address":"2401 ADELINE ST","state":"CA"},"type":"Feature","geometry":{"type":"Point","coordinates":[-122.283451,37.817189]}},{"properties":{"city":"OAKLAND","name":"NORTHSIDE SUPER MARKET","latitude":37.834511,"zip code":"94608","longitude":-122.273037,"id":"a62isznpq2xi","address":"4505 MARKET ST","state":"CA"},"type":"Feature","geometry":{"type":"Point","coordinates":[-122.273037,37.834511]}},{"properties":{"city":"OAKLAND","name":"OAK KNOLL MARKET","latitude":37.771179,"zip code":"94605","longitude":-122.154898,"id":"a62iszla0uu7","address":"7980 MOUNTAIN BLVD","state":"CA"},"type":"Feature","geometry":{"type":"Point","coordinates":[-122.154898,37.771179]}},{"properties":{"city":"OAKLAND","name":"OAKLAND KOSHER FOODS","latitude":37.811189,"zip code":"94610","longitude":-122.242947,"id":"a62iszqu9h9g","address":"3419 LAKESHORE AVE","state":"CA"},"type":"Feature","geometry":{"type":"Point","coordinates":[-122.242947,37.811189]}},{"properties":{"city":"OAKLAND","name":"OAKLAND LIQUORS","latitude":37.79164,"zip code":"94606","longitude":-122.24424,"id":"a62iszpl7lgn","address":"1335 E 17TH ST","state":"CA"},"type":"Feature","geometry":{"type":"Point","coordinates":[-122.24424,37.79164]}},{"properties":{"city":"OAKLAND","name":"OAKLAND MARKET","latitude":37.811642,"zip code":"94607","longitude":-122.281971,"id":"a62iszln9cgn","address":"1000 18TH STREET","state":"CA"},"type":"Feature","geometry":{"type":"Point","coordinates":[-122.281971,37.811642]}},{"properties":{"city":"OAKLAND","name":"OAKLAND TRIBUNE NEWS","latitude":37.729715,"zip code":"94621","longitude":-122.200254,"id":"a62iszdcoc8v","address":"1 AIRPORT DR","state":"CA"},"type":"Feature","geometry":{"type":"Point","coordinates":[-122.200254,37.729715]}},{"properties":{"city":"OAKLAND","name":"OAKLAND WINE MARKET","latitude":37.729715,"zip code":"94621","longitude":-122.200254,"id":"a62iszpdt5ij","address":"1 AIRPORT DR","state":"CA"},"type":"Feature","geometry":{"type":"Point","coordinates":[-122.200254,37.729715]}},{"properties":{"city":"OAKLAND","name":"OAKS MARKET","latitude":37.745053,"zip code":"94605","longitude":-122.150084,"id":"a62iszdwst6x","address":"10501 FOOTHILL BLVD","state":"CA"},"type":"Feature","geometry":{"type":"Point","coordinates":[-122.150084,37.745053]}},{"properties":{"city":"OAKLAND","name":"OAKTOWN MARKET","latitude":37.784974,"zip code":"94619","longitude":-122.199341,"id":"a62iszeverli","address":"3133 HIGH ST","state":"CA"},"type":"Feature","geometry":{"type":"Point","coordinates":[-122.199341,37.784974]}},{"properties":{"city":"OAKLAND","name":"OBSIDIAN RIDGE","latitude":37.808757,"zip code":"94610","longitude":-122.252962,"id":"a62iszkosreh","address":"440 GRAND AVE","state":"CA"},"type":"Feature","geometry":{"type":"Point","coordinates":[-122.252962,37.808757]}},{"properties":{"city":"OAKLAND","name":"ONE STOP LIQUORS","latitude":37.75444,"zip code":"94621","longitude":-122.17785,"id":"a62iszb1fckm","address":"8400 INTERNATIONAL BLVD","state":"CA"},"type":"Feature","geometry":{"type":"Point","coordinates":[-122.17785,37.75444]}},{"properties":{"city":"OAKLAND","name":"ORGANIC WINE COMPANY INC THE","latitude":37.811843,"zip code":"94607","longitude":-122.300839,"id":"a62iszpmmdl8","address":"1111 PINE ST","state":"CA"},"type":"Feature","geometry":{"type":"Point","coordinates":[-122.300839,37.811843]}},{"properties":{"city":"OAKLAND","name":"ORIENT MARKET","latitude":37.799138,"zip code":"94607","longitude":-122.273274,"id":"a62isziir79y","address":"410-424 SEVENTH ST","state":"CA"},"type":"Feature","geometry":{"type":"Point","coordinates":[-122.273274,37.799138]}},{"properties":{"city":"OAKLAND","name":"ORLANDO MARKET","latitude":37.821191,"zip code":"94608","longitude":-122.279634,"id":"a62iszfbvme1","address":"2940 LINDEN ST","state":"CA"},"type":"Feature","geometry":{"type":"Point","coordinates":[-122.279634,37.821191]}},{"properties":{"city":"OAKLAND","name":"PARAMOUNT LIQUOR","latitude":37.787229,"zip code":"94606","longitude":-122.237989,"id":"a62iszf97ukj","address":"2045 FOOTHILL BLVD","state":"CA"},"type":"Feature","geometry":{"type":"Point","coordinates":[-122.237989,37.787229]}},{"properties":{"city":"OAKLAND","name":"PARK LIQUORS","latitude":37.79991,"zip code":"94607","longitude":-122.272459,"id":"a62iszq6bwo5","address":"828 FRANKLIN ST","state":"CA"},"type":"Feature","geometry":{"type":"Point","coordinates":[-122.272459,37.79991]}},{"properties":{"city":"OAKLAND","name":"PASTA SHOP THE","latitude":37.843782,"zip code":"94618","longitude":-122.251739,"id":"a62iszemie4v","address":"5655 COLLEGE AVE","state":"CA"},"type":"Feature","geometry":{"type":"Point","coordinates":[-122.251739,37.843782]}},{"properties":{"city":"OAKLAND","name":"PAUL MARCUS WINES","latitude":37.843782,"zip code":"94618","longitude":-122.251739,"id":"a62iszljtajr","address":"5655 COLLEGE AVE","state":"CA"},"type":"Feature","geometry":{"type":"Point","coordinates":[-122.251739,37.843782]}},{"properties":{"city":"OAKLAND","name":"PENNY SAVER MARKET &amp; LIQUOR","latitude":37.772754,"zip code":"94601","longitude":-122.207661,"id":"a62iszhkhpjh","address":"4800 FOOTHILL BLVD","state":"CA"},"type":"Feature","geometry":{"type":"Point","coordinates":[-122.207661,37.772754]}},{"properties":{"city":"OAKLAND","name":"PETES MARKET","latitude":37.768382,"zip code":"94605","longitude":-122.190074,"id":"a62iszr5uaxh","address":"6243 AVENAL AVE","state":"CA"},"type":"Feature","geometry":{"type":"Point","coordinates":[-122.190074,37.768382]}},{"properties":{"city":"OAKLAND","name":"PLANET WINE","latitude":37.781647,"zip code":"94606","longitude":-122.241084,"id":"a62iszoh30gu","address":"1000 22ND AVENUE","state":"CA"},"type":"Feature","geometry":{"type":"Point","coordinates":[-122.241084,37.781647]}},{"properties":{"city":"OAKLAND","name":"POPULAR MARKET","latitude":37.741753,"zip code":"94603","longitude":-122.176195,"id":"a62iszkhxq54","address":"1088 98TH AVE","state":"CA"},"type":"Feature","geometry":{"type":"Point","coordinates":[-122.176195,37.741753]}},{"properties":{"city":"OAKLAND","name":"POSS. P&amp;M MARKET, LIQUOR AND DELI","latitude":37.825875,"zip code":"94608","longitude":-122.284218,"id":"a62isziqiajk","address":"1405 34TH STREET","state":"CA"},"type":"Feature","geometry":{"type":"Point","coordinates":[-122.284218,37.825875]}},{"properties":{"city":"OAKLAND","name":"PROSPECT 772 WINE COMPANY","latitude":37.792897,"zip code":"94619","longitude":-122.180394,"id":"a62iszbpk0hz","address":"15 BERNEVES CT","state":"CA"},"type":"Feature","geometry":{"type":"Point","coordinates":[-122.180394,37.792897]}},{"properties":{"city":"OAKLAND","name":"PTAIN LIQUOR","latitude":37.815402,"zip code":"94612","longitude":-122.272035,"id":"a62iszrc7qas","address":"2531 MARTIN LUTHER KING JR WAY","state":"CA"},"type":"Feature","geometry":{"type":"Point","coordinates":[-122.272035,37.815402]}},{"properties":{"city":"OAKLAND","name":"PUSHBACK WINES","latitude":37.825262,"zip code":"94606","longitude":-122.212111,"id":"a62iszqltxhc","address":"1091 LCOT PL","state":"CA"},"type":"Feature","geometry":{"type":"Point","coordinates":[-122.212111,37.825262]}},{"properties":{"city":"Oakland","name":"Piedmont Grocery Store","latitude":37.825828,"zip code":"94611","longitude":-122.253298,"id":"a62iszjkf0c1","address":"4038 Piedmont Avenue","state":"CA"},"type":"Feature","geometry":{"type":"Point","coordinates":[-122.253298,37.825828]}},{"properties":{"city":"OAKLAND","name":"Q &amp; S MARKET","latitude":37.743203,"zip code":"94603","longitude":-122.167597,"id":"a62iszbsxwo8","address":"1524 100TH AVENUE","state":"CA"},"type":"Feature","geometry":{"type":"Point","coordinates":[-122.167597,37.743203]}},{"properties":{"city":"OAKLAND","name":"QUEEN OF SHEBA MARKET","latitude":37.785862,"zip code":"94601","longitude":-122.213983,"id":"a62iszk1env3","address":"2286 35TH AVE","state":"CA"},"type":"Feature","geometry":{"type":"Point","coordinates":[-122.213983,37.785862]}},{"properties":{"city":"OAKLAND","name":"QUIK STOP MARKET","latitude":37.791142,"zip code":"94619","longitude":-122.204975,"id":"a62iszqi82l2","address":"3130 35TH AVE","state":"CA"},"type":"Feature","geometry":{"type":"Point","coordinates":[-122.204975,37.791142]}},{"properties":{"city":"OAKLAND","name":"QUIK STOP MARKET","latitude":37.805693,"zip code":"94610","longitude":-122.249298,"id":"a62iszqfs571","address":"401 MERRITT AVE","state":"CA"},"type":"Feature","geometry":{"type":"Point","coordinates":[-122.249298,37.805693]}},{"properties":{"city":"OAKLAND","name":"QUIK STOP MARKET","latitude":37.799032,"zip code":"94602","longitude":-122.229441,"id":"a62iszow7k5k","address":"3132 BEAUMONT AVE","state":"CA"},"type":"Feature","geometry":{"type":"Point","coordinates":[-122.229441,37.799032]}},{"properties":{"city":"OAKLAND","name":"QUIK STOP MARKET","latitude":37.786924,"zip code":"94601","longitude":-122.22146,"id":"a62iszdiq8z6","address":"2400 FRUITVALE AVE","state":"CA"},"type":"Feature","geometry":{"type":"Point","coordinates":[-122.22146,37.786924]}},{"properties":{"city":"OAKLAND","name":"QUIK STOP MARKET","latitude":37.820339,"zip code":"94610","longitude":-122.254277,"id":"a62iszcls6sw","address":"66 MACARTHUR BLVD","state":"CA"},"type":"Feature","geometry":{"type":"Point","coordinates":[-122.254277,37.820339]}},{"properties":{"city":"OAKLAND","name":"ROBERT CHADDERDON SELECTIONS WEST","latitude":37.742065,"zip code":"94603","longitude":-122.18325,"id":"a62iszdty62y","address":"9401 SAN LEANDRO ST","state":"CA"},"type":"Feature","geometry":{"type":"Point","coordinates":[-122.18325,37.742065]}},{"properties":{"city":"OAKLAND","name":"ROCKYS MARKET","latitude":37.811714,"zip code":"94602","longitude":-122.212593,"id":"a62iszqw0ozp","address":"1440 LEIMERT BLVD","state":"CA"},"type":"Feature","geometry":{"type":"Point","coordinates":[-122.212593,37.811714]}},{"properties":{"city":"OAKLAND","name":"ROSS FOODS MARKET","latitude":37.748169,"zip code":"94603","longitude":-122.173272,"id":"a62iszm9tjxl","address":"9261 INTERNATIONAL BLVD","state":"CA"},"type":"Feature","geometry":{"type":"Point","coordinates":[-122.173272,37.748169]}},{"properties":{"city":"OAKLAND","name":"ROWAID MARKET","latitude":37.753234,"zip code":"94603","longitude":-122.166594,"id":"a62iszcudpn6","address":"2123 90TH AVE","state":"CA"},"type":"Feature","geometry":{"type":"Point","coordinates":[-122.166594,37.753234]}},{"properties":{"city":"OAKLAND","name":"ROYAL FOOD","latitude":37.767321,"zip code":"94605","longitude":-122.169807,"id":"a62iszoo0jis","address":"7615 MACARTHUR BLVD","state":"CA"},"type":"Feature","geometry":{"type":"Point","coordinates":[-122.169807,37.767321]}},{"properties":{"city":"OAKLAND","name":"RRIAGE TRADE LIQUORS","latitude":37.799481,"zip code":"94606","longitude":-122.251444,"id":"a62isznrhaf2","address":"350 E 18TH ST","state":"CA"},"type":"Feature","geometry":{"type":"Point","coordinates":[-122.251444,37.799481]}},{"properties":{"city":"OAKLAND","name":"S &amp; A INC","latitude":37.805769,"zip code":"94612","longitude":-122.274801,"id":"a62iszqmksie","address":"600 14TH STREET","state":"CA"},"type":"Feature","geometry":{"type":"Point","coordinates":[-122.274801,37.805769]}},{"properties":{"city":"OAKLAND","name":"S &amp; N MARKET","latitude":37.821799,"zip code":"94609","longitude":-122.270431,"id":"a62iszhdvui3","address":"3222 MARTIN LUTHER KING JR WY","state":"CA"},"type":"Feature","geometry":{"type":"Point","coordinates":[-122.270431,37.821799]}},{"properties":{"city":"OAKLAND","name":"S &amp; R ARCO","latitude":37.742923,"zip code":"94605","longitude":-122.152496,"id":"a62iszb77tps","address":"10600 MACARTHUR BLVD","state":"CA"},"type":"Feature","geometry":{"type":"Point","coordinates":[-122.152496,37.742923]}},{"properties":{"city":"OAKLAND","name":"S &amp; S MARKET","latitude":37.785352,"zip code":"94601","longitude":-122.214856,"id":"a62iszqc0h79","address":"2235 35TH AVENUE","state":"CA"},"type":"Feature","geometry":{"type":"Point","coordinates":[-122.214856,37.785352]}},{"properties":{"city":"OAKLAND","name":"S M S LIQUORS","latitude":37.838688,"zip code":"94608","longitude":-122.280028,"id":"a62iszeah1ag","address":"1049 55TH ST","state":"CA"},"type":"Feature","geometry":{"type":"Point","coordinates":[-122.280028,37.838688]}},{"properties":{"city":"OAKLAND","name":"SAEEDS MARKET","latitude":37.76748,"zip code":"94601","longitude":-122.210445,"id":"a62iszb6hmem","address":"5035 E 12TH ST","state":"CA"},"type":"Feature","geometry":{"type":"Point","coordinates":[-122.210445,37.76748]}},{"properties":{"city":"OAKLAND","name":"SAFELAND MARKET","latitude":37.772266,"zip code":"94605","longitude":-122.193915,"id":"a62iszodsg4t","address":"5701 FOOTHILL BLVD","state":"CA"},"type":"Feature","geometry":{"type":"Point","coordinates":[-122.193915,37.772266]}},{"properties":{"city":"OAKLAND","name":"SAFEWAY","latitude":37.74568,"zip code":"94621","longitude":-122.196076,"id":"a62iszgkf6az","address":"610 HEGENBERGER RD","state":"CA"},"type":"Feature","geometry":{"type":"Point","coordinates":[-122.196076,37.74568]}},{"properties":{"city":"OAKLAND","name":"SAIGON MARKET","latitude":37.812882,"zip code":"94612","longitude":-122.268843,"id":"a62iszb0wdao","address":"2331 TELEGRAPH AVENUE","state":"CA"},"type":"Feature","geometry":{"type":"Point","coordinates":[-122.268843,37.812882]}},{"properties":{"city":"OAKLAND","name":"SAMS LIQUOR STORE","latitude":37.801416,"zip code":"94607","longitude":-122.274586,"id":"a62iszeivymn","address":"907 WASHINGTON STREET","state":"CA"},"type":"Feature","geometry":{"type":"Point","coordinates":[-122.274586,37.801416]}},{"properties":{"city":"OAKLAND","name":"SAN PABLO LIQUORS","latitude":37.814799,"zip code":"94612","longitude":-122.274741,"id":"a62iszmyzigy","address":"2363-67 SAN PABLO AVE","state":"CA"},"type":"Feature","geometry":{"type":"Point","coordinates":[-122.274741,37.814799]}},{"properties":{"city":"OAKLAND","name":"SANA MARKET","latitude":37.825583,"zip code":"94609","longitude":-122.265526,"id":"a62iszoa5m5d","address":"3710 TELEGRAPH AVENUE","state":"CA"},"type":"Feature","geometry":{"type":"Point","coordinates":[-122.265526,37.825583]}},{"properties":{"city":"OAKLAND","name":"SAV MOR LIQUORS","latitude":37.810952,"zip code":"94607","longitude":-122.294388,"id":"a62iszkw5cxj","address":"1333 PERALTA ST","state":"CA"},"type":"Feature","geometry":{"type":"Point","coordinates":[-122.294388,37.810952]}},{"properties":{"city":"OAKLAND","name":"SAVE A LOT MARKET","latitude":37.842069,"zip code":"94608","longitude":-122.285859,"id":"a62iszmnd20s","address":"1228 59TH ST","state":"CA"},"type":"Feature","geometry":{"type":"Point","coordinates":[-122.285859,37.842069]}},{"properties":{"city":"OAKLAND","name":"SAVEMORE MARKET &amp; LIQUOR","latitude":37.807419,"zip code":"94602","longitude":-122.22247,"id":"a62iszn7vun0","address":"4219 PARK BLVD","state":"CA"},"type":"Feature","geometry":{"type":"Point","coordinates":[-122.22247,37.807419]}},{"properties":{"city":"OAKLAND","name":"SCHOOL MARKET","latitude":37.794453,"zip code":"94602","longitude":-122.21197,"id":"a62iszpurdlg","address":"3051 SCHOOL ST","state":"CA"},"type":"Feature","geometry":{"type":"Point","coordinates":[-122.21197,37.794453]}},{"properties":{"city":"OAKLAND","name":"SEMINARY GAS &amp; FOOD","latitude":37.780282,"zip code":"94605","longitude":-122.174656,"id":"a62iszf9hmvr","address":"6235 SEMINARY AVE","state":"CA"},"type":"Feature","geometry":{"type":"Point","coordinates":[-122.174656,37.780282]}},{"properties":{"city":"OAKLAND","name":"SEMINARY LIQUORS &amp; GROCERY","latitude":37.771962,"zip code":"94605","longitude":-122.189754,"id":"a62iszl0a97l","address":"2611 SEMINARY AVE","state":"CA"},"type":"Feature","geometry":{"type":"Point","coordinates":[-122.189754,37.771962]}},{"properties":{"city":"OAKLAND","name":"SHARIFFS MARKET","latitude":37.810052,"zip code":"94607","longitude":-122.298683,"id":"a62iszbxnu7u","address":"1044 WILLOW STREET","state":"CA"},"type":"Feature","geometry":{"type":"Point","coordinates":[-122.298683,37.810052]}},{"properties":{"city":"OAKLAND","name":"SHOPPERS MARKET","latitude":37.788668,"zip code":"94606","longitude":-122.231654,"id":"a62iszflt7c3","address":"2101 23RD AVENUE","state":"CA"},"type":"Feature","geometry":{"type":"Point","coordinates":[-122.231654,37.788668]}},{"properties":{"city":"OAKLAND","name":"SHORE ACRES GAS","latitude":37.795822,"zip code":"94606","longitude":-122.255588,"id":"a62iszdh3wnf","address":"403 E 12TH ST","state":"CA"},"type":"Feature","geometry":{"type":"Point","coordinates":[-122.255588,37.795822]}},{"properties":{"city":"OAKLAND","name":"SIERRA MARKET &amp; DELI","latitude":37.793971,"zip code":"94607","longitude":-122.267374,"id":"a62iszq3eopl","address":"311 OAK ST C3","state":"CA"},"type":"Feature","geometry":{"type":"Point","coordinates":[-122.267374,37.793971]}},{"properties":{"city":"OAKLAND","name":"SILVER GAS","latitude":37.766203,"zip code":"94605","longitude":-122.177684,"id":"a62iszcl102y","address":"7225 BANCROFT AVENUE","state":"CA"},"type":"Feature","geometry":{"type":"Point","coordinates":[-122.177684,37.766203]}},{"properties":{"city":"OAKLAND","name":"SMART &amp; FINAL","latitude":37.801144,"zip code":"94607","longitude":-122.273316,"id":"a62isze4euvm","address":"933 Broadway","state":"CA"},"type":"Feature","geometry":{"type":"Point","coordinates":[-122.273316,37.801144]}},{"properties":{"city":"OAKLAND","name":"SMART &amp; FINAL","latitude":37.773061,"zip code":"94601","longitude":-122.216226,"id":"a62iszo4p0ua","address":"1243 42ND AVE","state":"CA"},"type":"Feature","geometry":{"type":"Point","coordinates":[-122.216226,37.773061]}},{"properties":{"city":"OAKLAND","name":"SOUZAS LIQUORS","latitude":37.80245,"zip code":"94607","longitude":-122.270781,"id":"a62iszbv6auc","address":"396 12TH STREET","state":"CA"},"type":"Feature","geometry":{"type":"Point","coordinates":[-122.270781,37.80245]}},{"properties":{"city":"OAKLAND","name":"STAR LIQUOR","latitude":37.756963,"zip code":"94621","longitude":-122.182239,"id":"a62iszcvtx6j","address":"7940 INTERNATIONAL BLVD","state":"CA"},"type":"Feature","geometry":{"type":"Point","coordinates":[-122.182239,37.756963]}},{"properties":{"city":"OAKLAND","name":"STAR MARKET","latitude":37.796399,"zip code":"94606","longitude":-122.242944,"id":"a62isze8bjbn","address":"1038 E 21ST ST","state":"CA"},"type":"Feature","geometry":{"type":"Point","coordinates":[-122.242944,37.796399]}},{"properties":{"city":"OAKLAND","name":"STATE MARKET LIQUORS","latitude":37.806777,"zip code":"94607","longitude":-122.30085,"id":"a62iszmmwtaa","address":"707 WILLOW STREET","state":"CA"},"type":"Feature","geometry":{"type":"Point","coordinates":[-122.30085,37.806777]}},{"properties":{"city":"OAKLAND","name":"SUN HOP FAT 1","latitude":37.795111,"zip code":"94606","longitude":-122.254811,"id":"a62iszcrvbne","address":"501 E 12TH ST","state":"CA"},"type":"Feature","geometry":{"type":"Point","coordinates":[-122.254811,37.795111]}},{"properties":{"city":"OAKLAND","name":"SUNBEAM MARKET","latitude":37.809605,"zip code":"94607","longitude":-122.286208,"id":"a62iszqgkopk","address":"1400 ADELINE ST","state":"CA"},"type":"Feature","geometry":{"type":"Point","coordinates":[-122.286208,37.809605]}},{"properties":{"city":"OAKLAND","name":"SUNRISE MARKET","latitude":37.788224,"zip code":"94606","longitude":-122.234391,"id":"a62iszmg9jqz","address":"1880 22ND AVENUE","state":"CA"},"type":"Feature","geometry":{"type":"Point","coordinates":[-122.234391,37.788224]}},{"properties":{"city":"OAKLAND","name":"SUPERMERDO MI TIERRA","latitude":37.791384,"zip code":"94601","longitude":-122.219702,"id":"a62iszfn56yn","address":"2758 FRUITVALE AVE","state":"CA"},"type":"Feature","geometry":{"type":"Point","coordinates":[-122.219702,37.791384]}},{"properties":{"city":"OAKLAND","name":"SYBIL'S LIQUORS","latitude":37.798427,"zip code":"94606","longitude":-122.250162,"id":"a62isze1s9rg","address":"501 E 18TH ST","state":"CA"},"type":"Feature","geometry":{"type":"Point","coordinates":[-122.250162,37.798427]}},{"properties":{"city":"Emeryville","name":"Safeway","latitude":37.82959,"zip code":"94608","longitude":-122.27951,"id":"a62iszf94i7j","address":"3889 San Pablo Avenue","state":"CA"},"type":"Feature","geometry":{"type":"Point","coordinates":[-122.27951,37.82959]}},{"properties":{"city":"Oakland","name":"Safeway","latitude":37.85042,"zip code":"94618","longitude":-122.252456,"id":"a62iszmd9lgv","address":"6310 College Avenue","state":"CA"},"type":"Feature","geometry":{"type":"Point","coordinates":[-122.252456,37.85042]}},{"properties":{"city":"Oakland","name":"Safeway","latitude":37.797616,"zip code":"94602","longitude":-122.183287,"id":"a62iszbfy369","address":"4100 Redwood Road","state":"CA"},"type":"Feature","geometry":{"type":"Point","coordinates":[-122.183287,37.797616]}},{"properties":{"city":"Oakland","name":"Safeway","latitude":37.835712,"zip code":"94618","longitude":-122.251711,"id":"a62iszfvsdan","address":"5130 Broadway","state":"CA"},"type":"Feature","geometry":{"type":"Point","coordinates":[-122.251711,37.835712]}},{"properties":{"city":"Oakland","name":"Safeway","latitude":37.801214,"zip code":"94602","longitude":-122.215987,"id":"a62iszk6v6dx","address":"3550 Fruitvale Avenue","state":"CA"},"type":"Feature","geometry":{"type":"Point","coordinates":[-122.215987,37.801214]}},{"properties":{"city":"Oakland","name":"Safeway","latitude":37.816658,"zip code":"94610","longitude":-122.245512,"id":"a62iszhhruhs","address":"3747 Grand Avenue","state":"CA"},"type":"Feature","geometry":{"type":"Point","coordinates":[-122.245512,37.816658]}},{"properties":{"city":"Oakland","name":"Safeway","latitude":37.826751,"zip code":"94611","longitude":-122.20959,"id":"a62iszbbt7vf","address":"2096 Mountain Boulevard","state":"CA"},"type":"Feature","geometry":{"type":"Point","coordinates":[-122.20959,37.826751]}},{"properties":{"city":"OAKLAND","name":"T &amp; K LIQUOR","latitude":37.784217,"zip code":"94606","longitude":-122.235112,"id":"a62iszinqcpi","address":"1500 23RD AVENUE","state":"CA"},"type":"Feature","geometry":{"type":"Point","coordinates":[-122.235112,37.784217]}},{"properties":{"city":"OAKLAND","name":"TAIZ MARKET","latitude":37.748904,"zip code":"94621","longitude":-122.186178,"id":"a62iszdc57wu","address":"874 85TH AVE","state":"CA"},"type":"Feature","geometry":{"type":"Point","coordinates":[-122.186178,37.748904]}},{"properties":{"city":"OAKLAND","name":"TEA KES &amp; JANET","latitude":37.7874,"zip code":"94619","longitude":-122.203625,"id":"a62iszf7ffwg","address":"3015 38TH AVE","state":"CA"},"type":"Feature","geometry":{"type":"Point","coordinates":[-122.203625,37.7874]}},{"properties":{"city":"OAKLAND","name":"TELEGRAPH QUALITY MARKET","latitude":37.813719,"zip code":"94612","longitude":-122.268641,"id":"a62iszm9g6po","address":"2429 TELEGRAPH AVENUE","state":"CA"},"type":"Feature","geometry":{"type":"Point","coordinates":[-122.268641,37.813719]}},{"properties":{"city":"OAKLAND","name":"TERRA FIRMA WINE COMPANY","latitude":37.833556,"zip code":"94611","longitude":-122.204136,"id":"a62iszq35dzr","address":"6601 COLTON BLVD","state":"CA"},"type":"Feature","geometry":{"type":"Point","coordinates":[-122.204136,37.833556]}},{"properties":{"city":"OAKLAND","name":"THREE AMIGOS MARKET","latitude":37.7909,"zip code":"94606","longitude":-122.245858,"id":"a62iszb6p6hw","address":"1554 13TH AVENUE","state":"CA"},"type":"Feature","geometry":{"type":"Point","coordinates":[-122.245858,37.7909]}},{"properties":{"city":"OAKLAND","name":"TOLIN GROCERY","latitude":37.809941,"zip code":"94612","longitude":-122.278068,"id":"a62iszqs5xwt","address":"799 17TH STREET","state":"CA"},"type":"Feature","geometry":{"type":"Point","coordinates":[-122.278068,37.809941]}},{"properties":{"city":"OAKLAND","name":"TOLINS LIQUORS","latitude":37.760196,"zip code":"94621","longitude":-122.18903,"id":"a62iszhhbd4t","address":"7101 INTERNATIONAL BLVD","state":"CA"},"type":"Feature","geometry":{"type":"Point","coordinates":[-122.18903,37.760196]}},{"properties":{"city":"OAKLAND","name":"TWO STAR LIQUOR","latitude":37.800807,"zip code":"94602","longitude":-122.218044,"id":"a62iszmglolo","address":"2020 MACARTHUR BLVD","state":"CA"},"type":"Feature","geometry":{"type":"Point","coordinates":[-122.218044,37.800807]}},{"properties":{"city":"Oakland","name":"Trader Joe's","latitude":37.810269,"zip code":"94610","longitude":-122.24563,"id":"a62iszf38la4","address":"3250 Lakeshore Avenue","state":"CA"},"type":"Feature","geometry":{"type":"Point","coordinates":[-122.24563,37.810269]}},{"properties":{"city":"Oakland","name":"Trader Joe's","latitude":37.8454,"zip code":"94618","longitude":-122.251928,"id":"a62iszm5rjdk","address":"5727 College Avenue","state":"CA"},"type":"Feature","geometry":{"type":"Point","coordinates":[-122.251928,37.8454]}},{"properties":{"city":"OAKLAND","name":"U &amp; I LIQUOR","latitude":37.784327,"zip code":"94601","longitude":-122.226779,"id":"a62iszij5hg8","address":"2710 FOOTHILL BLVD","state":"CA"},"type":"Feature","geometry":{"type":"Point","coordinates":[-122.226779,37.784327]}},{"properties":{"city":"OAKLAND","name":"U&amp;I LIQUOR STORE","latitude":37.835577,"zip code":"94609","longitude":-122.262833,"id":"a62iszmryrnc","address":"4875 TELEGRAPH AVENUE","state":"CA"},"type":"Feature","geometry":{"type":"Point","coordinates":[-122.262833,37.835577]}},{"properties":{"city":"OAKLAND","name":"UNCLE ROSS MARKET","latitude":37.757945,"zip code":"94621","longitude":-122.191825,"id":"a62iszpaxtiz","address":"1102 71ST AVE","state":"CA"},"type":"Feature","geometry":{"type":"Point","coordinates":[-122.191825,37.757945]}},{"properties":{"city":"OAKLAND","name":"UPTOWN MARKET","latitude":37.841802,"zip code":"94609","longitude":-122.264774,"id":"a62iszh9xg32","address":"5635 SHATTUCK AVE","state":"CA"},"type":"Feature","geometry":{"type":"Point","coordinates":[-122.264774,37.841802]}},{"properties":{"city":"OAKLAND","name":"USA GROCERY &amp; LIQUOR","latitude":37.75237,"zip code":"94603","longitude":-122.168523,"id":"a62isznfhhr3","address":"1944 90TH AVE","state":"CA"},"type":"Feature","geometry":{"type":"Point","coordinates":[-122.168523,37.75237]}},{"properties":{"city":"OAKLAND","name":"VERNON MARKET","latitude":37.817882,"zip code":"94611","longitude":-122.256458,"id":"a62iszh22kan","address":"3210 HARRISON ST","state":"CA"},"type":"Feature","geometry":{"type":"Point","coordinates":[-122.256458,37.817882]}},{"properties":{"city":"OAKLAND","name":"VIGNERON IMPORTS","latitude":37.804352,"zip code":"94602","longitude":-122.201359,"id":"a62iszeq8tn7","address":"6 BARNER PL","state":"CA"},"type":"Feature","geometry":{"type":"Point","coordinates":[-122.201359,37.804352]}},{"properties":{"city":"OAKLAND","name":"VILLAGE MARKET","latitude":37.841014,"zip code":"94618","longitude":-122.236862,"id":"a62iszd01xfw","address":"5885 BROADWAY TER","state":"CA"},"type":"Feature","geometry":{"type":"Point","coordinates":[-122.236862,37.841014]}},{"properties":{"city":"OAKLAND","name":"VINH THANH RESTAURANT","latitude":37.796499,"zip code":"94606","longitude":-122.254666,"id":"a62iszjgpo9w","address":"401 INTERNATIONAL BLVD","state":"CA"},"type":"Feature","geometry":{"type":"Point","coordinates":[-122.254666,37.796499]}},{"properties":{"city":"OAKLAND","name":"VINO","latitude":37.850482,"zip code":"94618","longitude":-122.252461,"id":"a62iszpl9oep","address":"6319 COLLEGE AVE","state":"CA"},"type":"Feature","geometry":{"type":"Point","coordinates":[-122.252461,37.850482]}},{"properties":{"city":"OAKLAND","name":"VINO","latitude":37.825878,"zip code":"94611","longitude":-122.253242,"id":"a62isznepnlc","address":"4027 PIEDMONT AVE","state":"CA"},"type":"Feature","geometry":{"type":"Point","coordinates":[-122.253242,37.825878]}},{"properties":{"city":"OAKLAND","name":"VINO VOLO","latitude":37.729715,"zip code":"94621","longitude":-122.200254,"id":"a62iszhn7ty0","address":"1 AIRPORT DR","state":"CA"},"type":"Feature","geometry":{"type":"Point","coordinates":[-122.200254,37.729715]}},{"properties":{"city":"OAKLAND","name":"W&amp;L MARKET","latitude":37.838647,"zip code":"94608","longitude":-122.275671,"id":"a62iszq6ke2c","address":"942 54TH ST","state":"CA"},"type":"Feature","geometry":{"type":"Point","coordinates":[-122.275671,37.838647]}},{"properties":{"city":"OAKLAND","name":"WAH FAY LIQUOR","latitude":37.798159,"zip code":"94606","longitude":-122.244903,"id":"a62iszlx6zeb","address":"2101 8TH AVE","state":"CA"},"type":"Feature","geometry":{"type":"Point","coordinates":[-122.244903,37.798159]}},{"properties":{"city":"OAKLAND","name":"WAH MEI HING MARKET &amp; LIQUOR","latitude":37.776471,"zip code":"94601","longitude":-122.223372,"id":"a62iszodp7ls","address":"3432 INTERNATIONAL BLVD","state":"CA"},"type":"Feature","geometry":{"type":"Point","coordinates":[-122.223372,37.776471]}},{"properties":{"city":"OAKLAND","name":"WHITE HORSE LIQUORS","latitude":37.852076,"zip code":"94609","longitude":-122.260324,"id":"a62iszm3qq5h","address":"6606 TELEGRAPH AVENUE","state":"CA"},"type":"Feature","geometry":{"type":"Point","coordinates":[-122.260324,37.852076]}},{"properties":{"city":"OAKLAND","name":"WILLIAMS MARKET &amp; LIQUOR","latitude":37.844518,"zip code":"94609","longitude":-122.261373,"id":"a62iszbyk99o","address":"5830 TELEGRAPH AVENUE","state":"CA"},"type":"Feature","geometry":{"type":"Point","coordinates":[-122.261373,37.844518]}},{"properties":{"city":"OAKLAND","name":"WILLIE BROWNS LIQUOR","latitude":37.783114,"zip code":"94601","longitude":-122.223048,"id":"a62iszr0230z","address":"1933 FRUITVALE AVE","state":"CA"},"type":"Feature","geometry":{"type":"Point","coordinates":[-122.223048,37.783114]}},{"properties":{"city":"OAKLAND","name":"WINE MINE THE","latitude":37.83965,"zip code":"94609","longitude":-122.26212,"id":"a62iszp9a5uh","address":"5427 TELEGRAPH AVENUE","state":"CA"},"type":"Feature","geometry":{"type":"Point","coordinates":[-122.26212,37.83965]}},{"properties":{"city":"OAKLAND","name":"WINE ON PIEDMONT","latitude":37.827422,"zip code":"94611","longitude":-122.251195,"id":"a62iszedu2ji","address":"4183 PIEDMONT AVE","state":"CA"},"type":"Feature","geometry":{"type":"Point","coordinates":[-122.251195,37.827422]}},{"properties":{"city":"OAKLAND","name":"WINECOMMUNE COM","latitude":37.746109,"zip code":"94621","longitude":-122.207092,"id":"a62iszm9ba30","address":"7305 EDGEWATER DR","state":"CA"},"type":"Feature","geometry":{"type":"Point","coordinates":[-122.207092,37.746109]}},{"properties":{"city":"OAKLAND","name":"WOODMINSTER MARKET","latitude":37.811088,"zip code":"94602","longitude":-122.197523,"id":"a62iszjnnyc3","address":"5000 WOODMINSTER LANE","state":"CA"},"type":"Feature","geometry":{"type":"Point","coordinates":[-122.197523,37.811088]}},{"properties":{"city":"OAKLAND","name":"Whole Foods Market","latitude":37.813563,"zip code":"94612","longitude":-122.262355,"id":"a62iszd3p1i0","address":"230 Bay Place","state":"CA"},"type":"Feature","geometry":{"type":"Point","coordinates":[-122.262355,37.813563]}},{"properties":{"city":"OAKLAND","name":"YEMEN MARKET THE","latitude":37.825455,"zip code":"94608","longitude":-122.286338,"id":"a62iszjn5z2z","address":"1501 34TH STREET","state":"CA"},"type":"Feature","geometry":{"type":"Point","coordinates":[-122.286338,37.825455]}},{"properties":{"city":"OAKLAND","name":"YUMIS MARKET","latitude":37.77614,"zip code":"94601","longitude":-122.222668,"id":"a62iszif8f69","address":"3501 INTERNATIONAL BLVD","state":"CA"},"type":"Feature","geometry":{"type":"Point","coordinates":[-122.222668,37.77614]}}],"is_temporal":false,"author":{"url":"","metadata":"","contact_name":"","contact_address":"","source":"","contact_phone":""},"source":"","pagination":{"sort":null,"start":0,"total":317,"limit":1000000},"state":"complete","tags":"","published":"2014-08-10T17:51:20-04:00","id":37093}