{"type":"FeatureCollection","data_type":"Dataset","url_type":null,"permissions":[{"permissions":{"download":true,"view":true},"group_id":"everyone"}],"classification":null,"title":"Groceries_041410","count":28,"stream_id":37094,"contributor":{"url":"http://geocommons.com/users/11796","name":"puck_lo"},"data_attributes":null,"calculation_params":null,"icon_link":null,"link":"http://geocommons.com/overlays/37094.json","extent":[-122.28,37.7376,-122.165,37.8504],"geometry_types":["point"],"unique_name":null,"name":"Groceries_041410","feature_count":28,"description":"","next_feature":null,"is_raster":false,"short_classification":"Y","stats":{"latitude":{"max":37.85042,"mean":37.8044170357143,"variance":0.000769031759665341,"stdev":0.0277314218832238,"min":37.737551,"median":37.810269},"longitude":{"max":-122.165374,"mean":-122.234060392857,"variance":0.00110212472824727,"stdev":0.0331982639342372,"min":-122.27951,"median":-122.245512}},"features":[{"properties":{"city":"Oakland","name":"Farmer Joe's Produce &amp; Market Place","latitude":37.799496,"zip code":"94602","longitude":-122.216487,"id":"a62iszdhji4h","address":"3426 Fruitvale Avenue","state":"CA"},"type":"Feature","geometry":{"type":"Point","coordinates":[-122.216487,37.799496]}},{"properties":{"city":"Oakland","name":"Farmer Joe's Produce &amp; Market Place","latitude":37.793713,"zip code":"94619","longitude":-122.200653,"id":"a62iszb0ct0e","address":"3501 MacArthur Boulevard","state":"CA"},"type":"Feature","geometry":{"type":"Point","coordinates":[-122.200653,37.793713]}},{"properties":{"city":"Oakland","name":"FoodMaxx","latitude":37.737551,"zip code":"94603","longitude":-122.165374,"id":"a62iszmrfnny","address":"10950 International Boulevard","state":"CA"},"type":"Feature","geometry":{"type":"Point","coordinates":[-122.165374,37.737551]}},{"properties":{"city":"Oakland","name":"Gazzali's Supermarket","latitude":37.767476,"zip code":"94605","longitude":-122.179015,"id":"a62isznk3u9l","address":"7000 Bancroft Avenue","state":"CA"},"type":"Feature","geometry":{"type":"Point","coordinates":[-122.179015,37.767476]}},{"properties":{"city":"Oakland","name":"Grocery Outlet","latitude":37.817449,"zip code":"94611","longitude":-122.263084,"id":"a62iszi62zjg","address":"2900 Broadway","state":"CA"},"type":"Feature","geometry":{"type":"Point","coordinates":[-122.263084,37.817449]}},{"properties":{"city":"Oakland","name":"Koreana Plaza","latitude":37.813648,"zip code":"94612","longitude":-122.268655,"id":"a62iszfppkbz","address":"2370 Telegraph Avenue","state":"CA"},"type":"Feature","geometry":{"type":"Point","coordinates":[-122.268655,37.813648]}},{"properties":{"city":"Oakland","name":"Lucky","latitude":37.827937,"zip code":"94611","longitude":-122.210429,"id":"a62iszeh5d3b","address":"1967 Mountain Boulevard","state":"CA"},"type":"Feature","geometry":{"type":"Point","coordinates":[-122.210429,37.827937]}},{"properties":{"city":"Oakland","name":"Lucky","latitude":37.789319,"zip code":"94619","longitude":-122.196684,"id":"a62iszd1swup","address":"4055 MacArthur Boulevard","state":"CA"},"type":"Feature","geometry":{"type":"Point","coordinates":[-122.196684,37.789319]}},{"properties":{"city":"Oakland","name":"Lucky","latitude":37.778023,"zip code":"94601","longitude":-122.236628,"id":"a62iszdda4ba","address":"3000 E. 9th Street","state":"CA"},"type":"Feature","geometry":{"type":"Point","coordinates":[-122.236628,37.778023]}},{"properties":{"city":"Oakland","name":"Lucky","latitude":37.800927,"zip code":"94606","longitude":-122.25458,"id":"a62isziru5gw","address":"247 E. 18th Street","state":"CA"},"type":"Feature","geometry":{"type":"Point","coordinates":[-122.25458,37.800927]}},{"properties":{"city":"Oakland","name":"Mi Pueblo","latitude":37.774625,"zip code":"94601","longitude":-122.211799,"id":"a62isznhcjh5","address":"1630 High Street","state":"CA"},"type":"Feature","geometry":{"type":"Point","coordinates":[-122.211799,37.774625]}},{"properties":{"city":"Emeryville","name":"Pak-N-Save","latitude":37.82959,"zip code":"94608","longitude":-122.27951,"id":"a62iszkx02k6","address":"3889 San Pablo Avenue","state":"CA"},"type":"Feature","geometry":{"type":"Point","coordinates":[-122.27951,37.82959]}},{"properties":{"city":"Oakland","name":"Pak-N-Save","latitude":37.74568,"zip code":"94621","longitude":-122.196076,"id":"a62iszmi03s6","address":"610 Hegenberger Road","state":"CA"},"type":"Feature","geometry":{"type":"Point","coordinates":[-122.196076,37.74568]}},{"properties":{"city":"Oakland","name":"People's Grocery","latitude":37.823049,"zip code":"94608","longitude":-122.275934,"id":"a62isznjq5le","address":"3236 Market Street","state":"CA"},"type":"Feature","geometry":{"type":"Point","coordinates":[-122.275934,37.823049]}},{"properties":{"city":"Oakland","name":"Piedmont Grocery Store","latitude":37.825828,"zip code":"94611","longitude":-122.253298,"id":"a62iszkrpf0z","address":"4038 Piedmont Avenue","state":"CA"},"type":"Feature","geometry":{"type":"Point","coordinates":[-122.253298,37.825828]}},{"properties":{"city":"Oakland","name":"Safeway","latitude":37.816658,"zip code":"94610","longitude":-122.245512,"id":"a62iszcfg9q6","address":"3747 Grand Avenue","state":"CA"},"type":"Feature","geometry":{"type":"Point","coordinates":[-122.245512,37.816658]}},{"properties":{"city":"Oakland","name":"Safeway","latitude":37.801214,"zip code":"94602","longitude":-122.215987,"id":"a62iszor94x4","address":"3550 Fruitvale Avenue","state":"CA"},"type":"Feature","geometry":{"type":"Point","coordinates":[-122.215987,37.801214]}},{"properties":{"city":"Oakland","name":"Safeway","latitude":37.826751,"zip code":"94611","longitude":-122.20959,"id":"a62iszimwyco","address":"2096 Mountain Boulevard","state":"CA"},"type":"Feature","geometry":{"type":"Point","coordinates":[-122.20959,37.826751]}},{"properties":{"city":"Emeryville","name":"Safeway","latitude":37.82959,"zip code":"94608","longitude":-122.27951,"id":"a62iszbsvu81","address":"3889 San Pablo Avenue","state":"CA"},"type":"Feature","geometry":{"type":"Point","coordinates":[-122.27951,37.82959]}},{"properties":{"city":"Oakland","name":"Safeway","latitude":37.85042,"zip code":"94618","longitude":-122.252456,"id":"a62iszinjhp1","address":"6310 College Avenue","state":"CA"},"type":"Feature","geometry":{"type":"Point","coordinates":[-122.252456,37.85042]}},{"properties":{"city":"Oakland","name":"Safeway","latitude":37.797616,"zip code":"94602","longitude":-122.183287,"id":"a62iszipn895","address":"4100 Redwood Road","state":"CA"},"type":"Feature","geometry":{"type":"Point","coordinates":[-122.183287,37.797616]}},{"properties":{"city":"Oakland","name":"Safeway","latitude":37.835712,"zip code":"94618","longitude":-122.251711,"id":"a62iszjl0uqs","address":"5130 Broadway","state":"CA"},"type":"Feature","geometry":{"type":"Point","coordinates":[-122.251711,37.835712]}},{"properties":{"city":"Oakland","name":"Smart &amp; Final","latitude":37.773061,"zip code":"94601","longitude":-122.216226,"id":"a62iszfzk87w","address":"1243 42nd Avenue","state":"CA"},"type":"Feature","geometry":{"type":"Point","coordinates":[-122.216226,37.773061]}},{"properties":{"city":"Oakland","name":"Smart &amp; Final","latitude":37.801144,"zip code":"94607","longitude":-122.273316,"id":"a62iszetdro4","address":"933 Broadway","state":"CA"},"type":"Feature","geometry":{"type":"Point","coordinates":[-122.273316,37.801144]}},{"properties":{"city":"Oakland","name":"Thien Loi Hoa Supermarket","latitude":37.797968,"zip code":"94606","longitude":-122.257977,"id":"a62iszil9797","address":"1199 E. 12th Street","state":"CA"},"type":"Feature","geometry":{"type":"Point","coordinates":[-122.257977,37.797968]}},{"properties":{"city":"Oakland","name":"Trader Joe's","latitude":37.8454,"zip code":"94618","longitude":-122.251928,"id":"a62iszmx3frv","address":"5727 College Avenue","state":"CA"},"type":"Feature","geometry":{"type":"Point","coordinates":[-122.251928,37.8454]}},{"properties":{"city":"Oakland","name":"Trader Joe's","latitude":37.810269,"zip code":"94610","longitude":-122.24563,"id":"a62iszfa4hzh","address":"3250 Lakeshore Avenue","state":"CA"},"type":"Feature","geometry":{"type":"Point","coordinates":[-122.24563,37.810269]}},{"properties":{"city":"Oakland","name":"Whole Foods Market","latitude":37.813563,"zip code":"94612","longitude":-122.262355,"id":"a62iszno2ga6","address":"230 Bay Place","state":"CA"},"type":"Feature","geometry":{"type":"Point","coordinates":[-122.262355,37.813563]}}],"is_temporal":false,"author":{"url":"","metadata":"","contact_name":"","contact_address":"","source":"","contact_phone":""},"source":"","pagination":{"sort":null,"start":0,"total":28,"limit":1000000},"state":"complete","tags":"","published":"2014-08-10T17:51:23-04:00","id":37094}