{"type":"FeatureCollection","data_type":"Dataset","url_type":null,"permissions":[{"permissions":{"download":true,"view":true},"group_id":"everyone"}],"classification":null,"title":"Lab_6_Arrests_Chart","count":83,"stream_id":371447,"contributor":{"url":"http://geocommons.com/users/75895","name":"Paige"},"data_attributes":null,"calculation_params":null,"icon_link":null,"link":"http://geocommons.com/overlays/371447.json","extent":[0.0,0.0,0.0,0.0],"geometry_types":null,"unique_name":null,"name":"Lab_6_Arrests_Chart","feature_count":83,"description":"","next_feature":null,"is_raster":false,"short_classification":"Y","features":[{"properties":{"per 1,000":"14.8","county":"Alcona","total arrests":"162","federal information processing standard":"26001","id":"afacbu3aq2ko"},"type":"Feature","geometry":null},{"properties":{"per 1,000":"20.727","county":"Alger","total arrests":"199","federal information processing standard":"26003","id":"afacbtz3q479"},"type":"Feature","geometry":null},{"properties":{"per 1,000":"37.654","county":"Allegan","total arrests":"4,195","federal information processing standard":"26005","id":"afacbu9iuwa0"},"type":"Feature","geometry":null},{"properties":{"per 1,000":"36.1848","county":"Alpena","total arrests":"1,071","federal information processing standard":"26007","id":"afacbu4lyrah"},"type":"Feature","geometry":null},{"properties":{"per 1,000":"17.0059","county":"Antrim","total arrests":"401","federal information processing standard":"26009","id":"afacbtxu9zgy"},"type":"Feature","geometry":null},{"properties":{"per 1,000":"28.429","county":"Arenac","total arrests":"452","federal information processing standard":"26011","id":"afacbu1ya071"},"type":"Feature","geometry":null},{"properties":{"per 1,000":"20.42889","county":"Baraga","total arrests":"181","federal information processing standard":"26013","id":"afacbublfccb"},"type":"Feature","geometry":null},{"properties":{"per 1,000":"24.369","county":"Barry","total arrests":"1,442","federal information processing standard":"26015","id":"afacbu25ar2b"},"type":"Feature","geometry":null},{"properties":{"per 1,000":"30.1008","county":"Bay","total arrests":"3,244","federal information processing standard":"26017","id":"afacbu7dwqvz"},"type":"Feature","geometry":null},{"properties":{"per 1,000":"5.306","county":"Benzie","total arrests":"93","federal information processing standard":"26019","id":"afacbu1o3mq2"},"type":"Feature","geometry":null},{"properties":{"per 1,000":"19.8771","county":"Berrien","total arrests":"3,117","federal information processing standard":"26021","id":"afacbu2ld6x0"},"type":"Feature","geometry":null},{"properties":{"per 1,000":"22.196","county":"Branch","total arrests":"1,011","federal information processing standard":"26023","id":"afacbtwfhsuo"},"type":"Feature","geometry":null},{"properties":{"per 1,000":"32.707","county":"Calhoun","total arrests":"4,453","federal information processing standard":"26025","id":"afacbu8zzkjq"},"type":"Feature","geometry":null},{"properties":{"per 1,000":"7.744","county":"Cass","total arrests":"405","federal information processing standard":"26027","id":"afacbu6s4rk5"},"type":"Feature","geometry":null},{"properties":{"per 1,000":"27.1301","county":"Cherlovoix","total arrests":"704","federal information processing standard":"26029","id":"afacbu7gdf6k"},"type":"Feature","geometry":null},{"properties":{"per 1,000":"26.04007","county":"Cheboygen","total arrests":"681","federal information processing standard":"26031","id":"afacbu7bw5zx"},"type":"Feature","geometry":null},{"properties":{"per 1,000":"29.309","county":"Chippewa","total arrests":"1,129","federal information processing standard":"26033","id":"afacbua894du"},"type":"Feature","geometry":null},{"properties":{"per 1,000":"39.934","county":"Clare","total arrests":"1,235","federal information processing standard":"26035","id":"afacbtwl0i6a"},"type":"Feature","geometry":null},{"properties":{"per 1,000":"15.5607","county":"Clinton","total arrests":"1,173","federal information processing standard":"26037","id":"afacbty7hbka"},"type":"Feature","geometry":null},{"properties":{"per 1,000":"49.38","county":"Crawford","total arrests":"695","federal information processing standard":"26039","id":"afacbu88dxe6"},"type":"Feature","geometry":null},{"properties":{"per 1,000":"32.995","county":"Delta","total arrests":"1,224","federal information processing standard":"26041","id":"afacbtyanx4f"},"type":"Feature","geometry":null},{"properties":{"per 1,000":"4.127","county":"Dickinson","total arrests":"108","federal information processing standard":"26043","id":"afacbubsnu0s"},"type":"Feature","geometry":null},{"properties":{"per 1,000":"17.604","county":"Eaton","total arrests":"1,897","federal information processing standard":"26045","id":"afacbu8ojrd6"},"type":"Feature","geometry":null},{"properties":{"per 1,000":"41.2919","county":"Emmet","total arrests":"1,350","federal information processing standard":"26047","id":"afacbu34tn4r"},"type":"Feature","geometry":null},{"properties":{"per 1,000":"28.6573","county":"Genesee","total arrests":"12,202","federal information processing standard":"26049","id":"afacbu2gdmag"},"type":"Feature","geometry":null},{"properties":{"per 1,000":"41.1022","county":"Gladwin","total arrests":"1,056","federal information processing standard":"26051","id":"afacbu5hjmys"},"type":"Feature","geometry":null},{"properties":{"per 1,000":"18.201","county":"Gogebic","total arrests":"229","federal information processing standard":"26053","id":"afacbuaeuqft"},"type":"Feature","geometry":null},{"properties":{"per 1,000":"30.062","county":"Grand Traverse","total arrests":"2,615","federal information processing standard":"26055","id":"afacbu86qb6a"},"type":"Feature","geometry":null},{"properties":{"per 1,000":"23.589","county":"Gratiot","total arrests":"1,002","federal information processing standard":"26057","id":"afacbtws8oo9"},"type":"Feature","geometry":null},{"properties":{"per 1,000":"29.3437","county":"Hillsdale","total arrests":"1,370","federal information processing standard":"26059","id":"afacbu6szx66"},"type":"Feature","geometry":null},{"properties":{"per 1,000":"13.1047","county":"Houghton","total arrests":"480","federal information processing standard":"26061","id":"afacbu96pxh1"},"type":"Feature","geometry":null},{"properties":{"per 1,000":"25.4242","county":"Huron","total arrests":"842","federal information processing standard":"26063","id":"afacbucrdg2w"},"type":"Feature","geometry":null},{"properties":{"per 1,000":"34.4826","county":"Ingham","total arrests":"9,686","federal information processing standard":"26065","id":"afacbtyux6xx"},"type":"Feature","geometry":null},{"properties":{"per 1,000":"32.031","county":"Ionia","total arrests":"2,047","federal information processing standard":"26067","id":"afacbuaqexmp"},"type":"Feature","geometry":null},{"properties":{"per 1,000":"34.6119","county":"Iosco","total arrests":"896","federal information processing standard":"26069","id":"afacbucinzoi"},"type":"Feature","geometry":null},{"properties":{"per 1,000":"12.7782","county":"Iron","total arrests":"151","federal information processing standard":"26071","id":"afacbu5yvy03"},"type":"Feature","geometry":null},{"properties":{"per 1,000":"52.6517","county":"Isabella","total arrests":"3,702","federal information processing standard":"26073","id":"afacbu85rivp"},"type":"Feature","geometry":null},{"properties":{"per 1,000":"25.098","county":"Jackson","total arrests":"4,022","federal information processing standard":"26075","id":"afacbtxf25ma"},"type":"Feature","geometry":null},{"properties":{"per 1,000":"31.297","county":"Kalamazoo","total arrests":"7,834","federal information processing standard":"26077","id":"afacbtzggu1i"},"type":"Feature","geometry":null},{"properties":{"per 1,000":"32.8805","county":"Kalkaska","total arrests":"564","federal information processing standard":"26079","id":"afacbu2pnp3t"},"type":"Feature","geometry":null},{"properties":{"per 1,000":"27.703","county":"Kent","total arrests":"16,695","federal information processing standard":"26081","id":"afacbu1j9u2o"},"type":"Feature","geometry":null},{"properties":{"per 1,000":"4.174","county":"Keweenaw","total arrests":"9","federal information processing standard":"26083","id":"afacbtyooq7f"},"type":"Feature","geometry":null},{"properties":{"per 1,000":"22.445","county":"Lake","total arrests":"259","federal information processing standard":"26085","id":"afacbu6br1ar"},"type":"Feature","geometry":null},{"properties":{"per 1,000":"26.064","county":"Lapeer","total arrests":"2,302","federal information processing standard":"26087","id":"afacbu31c512"},"type":"Feature","geometry":null},{"properties":{"per 1,000":"1.1055","county":"Leelanau","total arrests":"24","federal information processing standard":"26089","id":"afacbua9luy5"},"type":"Feature","geometry":null},{"properties":{"per 1,000":"34.116","county":"Lenawee","total arrests":"3,408","federal information processing standard":"26091","id":"afacbuaks41h"},"type":"Feature","geometry":null},{"properties":{"per 1,000":"11.808","county":"Livingston","total arrests":"2,137","federal information processing standard":"26093","id":"afacbu8bdqxt"},"type":"Feature","geometry":null},{"properties":{"per 1,000":"31.8202","county":"Luce","total arrests":"211","federal information processing standard":"26095","id":"afacbu0bbagz"},"type":"Feature","geometry":null},{"properties":{"per 1,000":"34.824","county":"Mackinac","total arrests":"387","federal information processing standard":"26097","id":"afacbucwkm47"},"type":"Feature","geometry":null},{"properties":{"per 1,000":"20.1467","county":"Macomb","total arrests":"16,943","federal information processing standard":"26099","id":"afacbu3sngwi"},"type":"Feature","geometry":null},{"properties":{"per 1,000":"13.9085","county":"Manistee","total arrests":"344","federal information processing standard":"26101","id":"afacbu8bve7e"},"type":"Feature","geometry":null},{"properties":{"per 1,000":"37.0917","county":"Marquette","total arrests":"2,488","federal information processing standard":"26103","id":"afacbu675pp3"},"type":"Feature","geometry":null},{"properties":{"per 1,000":"6.4797","county":"Mason","total arrests":"186","federal information processing standard":"26105","id":"afacbu0511qe"},"type":"Feature","geometry":null},{"properties":{"per 1,000":"45.3759","county":"Mecosta","total arrests":"1,942","federal information processing standard":"26107","id":"afacbu51q96u"},"type":"Feature","geometry":null},{"properties":{"per 1,000":"7.366","county":"Menominee","total arrests":"177","federal information processing standard":"26109","id":"afacbty106op"},"type":"Feature","geometry":null},{"properties":{"per 1,000":"7.3897","county":"Midland","total arrests":"618","federal information processing standard":"26111","id":"afacbu9maye6"},"type":"Feature","geometry":null},{"properties":{"per 1,000":"23.099","county":"Missaukee","total arrests":"343","federal information processing standard":"26113","id":"afacbu11ouep"},"type":"Feature","geometry":null},{"properties":{"per 1,000":"19.332","county":"Monroe","total arrests":"2,939","federal information processing standard":"26115","id":"afacbty4i2a3"},"type":"Feature","geometry":null},{"properties":{"per 1,000":"27.0278","county":"Montcalm","total arrests":"1,712","federal information processing standard":"26117","id":"afacbu5ezz9b"},"type":"Feature","geometry":null},{"properties":{"per 1,000":"16.999","county":"Montmorency","total arrests":"166","federal information processing standard":"26119","id":"afacbu7g9t9f"},"type":"Feature","geometry":null},{"properties":{"per 1,000":"19.862","county":"Muskegon","total arrests":"3,420","federal information processing standard":"26121","id":"afacbu6zoz6p"},"type":"Feature","geometry":null},{"properties":{"per 1,000":"28.807","county":"Newaygo","total arrests":"1,396","federal information processing standard":"26123","id":"afacbtxp7d5k"},"type":"Feature","geometry":null},{"properties":{"per 1,000":"21.22","county":"Oakland","total arrests":"25,515","federal information processing standard":"26125","id":"afacbtxp0m5x"},"type":"Feature","geometry":null},{"properties":{"per 1,000":"36.168","county":"Oceana","total arrests":"961","federal information processing standard":"26127","id":"afacbu3h80l7"},"type":"Feature","geometry":null},{"properties":{"per 1,000":"45.532","county":"Ogemaw","total arrests":"988","federal information processing standard":"26129","id":"afacbu4j147s"},"type":"Feature","geometry":null},{"properties":{"per 1,000":"29.498","county":"Ontonagon","total arrests":"200","federal information processing standard":"26131","id":"afacbuac4ske"},"type":"Feature","geometry":null},{"properties":{"per 1,000":"19.976","county":"Osceola","total arrests":"470","federal information processing standard":"26133","id":"afacbu7t3ri2"},"type":"Feature","geometry":null},{"properties":{"per 1,000":"42.4768","county":"Oscoda","total arrests":"367","federal information processing standard":"26135","id":"afacbu60ma5r"},"type":"Feature","geometry":null},{"properties":{"per 1,000":"38.7766","county":"Otsego","total arrests":"937","federal information processing standard":"26137","id":"afacbtwz6pzi"},"type":"Feature","geometry":null},{"properties":{"per 1,000":"33.5252","county":"Ottawa","total arrests":"8,844","federal information processing standard":"26139","id":"afacbua6qa1z"},"type":"Feature","geometry":null},{"properties":{"per 1,000":"13.008","county":"Presque Isle","total arrests":"174","federal information processing standard":"26141","id":"afacbu6abgpj"},"type":"Feature","geometry":null},{"properties":{"per 1,000":"51.822","county":"Roscommon","total arrests":"1,267","federal information processing standard":"26143","id":"afacbu9ichn2"},"type":"Feature","geometry":null},{"properties":{"per 1,000":"34.92","county":"Saginaw","total arrests":"6,990","federal information processing standard":"26145","id":"afacbu0yn9pk"},"type":"Feature","geometry":null},{"properties":{"per 1,000":"19.216","county":"Saint Clair","total arrests":"3,133","federal information processing standard":"26147","id":"afacbu7uqi5v"},"type":"Feature","geometry":null},{"properties":{"per 1,000":"33.6569","county":"Saint Joseph","total arrests":"2,063","federal information processing standard":"26149","id":"afacbubczvv0"},"type":"Feature","geometry":null},{"properties":{"per 1,000":"6.2392","county":"Sanilac","total arrests":"296","federal information processing standard":"26151","id":"afacbu3897hp"},"type":"Feature","geometry":null},{"properties":{"per 1,000":"24.867","county":"Schoolcraft","total arrests":"211","federal information processing standard":"26153","id":"afacbu5a0mvu"},"type":"Feature","geometry":null},{"properties":{"per 1,000":"28.2952","county":"Shiawassee","total arrests":"1,999","federal information processing standard":"26155","id":"afacbu83hs9q"},"type":"Feature","geometry":null},{"properties":{"per 1,000":"4.147","county":"Tuscola","total arrests":"1,430","federal information processing standard":"26157","id":"afacbu4wj7ai"},"type":"Feature","geometry":null},{"properties":{"per 1,000":"55.3253","county":"Van Buren","total arrests":"4,219","federal information processing standard":"26159","id":"afacbu0bsjx6"},"type":"Feature","geometry":null},{"properties":{"per 1,000":"21.9756","county":"Washtenaw","total arrests":"7,577","federal information processing standard":"26161","id":"afacbtwkige0"},"type":"Feature","geometry":null},{"properties":{"per 1,000":"30.34191","county":"Wayne","total arrests":"55,240","federal information processing standard":"26163","id":"afacbuadt1lw"},"type":"Feature","geometry":null},{"properties":{"per 1,000":"59.556","county":"Wexford","total arrests":"1,949","federal information processing standard":"26165","id":"afacbtxhp1gn"},"type":"Feature","geometry":null}],"is_temporal":false,"author":{"url":"","metadata":null,"contact_name":null,"contact_address":null,"source":null,"contact_phone":null},"source":"","pagination":{"sort":null,"start":0,"total":83,"limit":1000000},"state":"parsed","tags":"","published":"2014-08-16T15:04:08-04:00","id":371447}