{"type":"FeatureCollection","data_type":"Dataset","url_type":null,"permissions":[{"permissions":{"download":true,"view":true},"group_id":"everyone"}],"classification":null,"title":"CRS Customers","count":673,"stream_id":371445,"contributor":{"url":"http://geocommons.com/users/76082","name":"knippysing"},"data_attributes":null,"calculation_params":null,"icon_link":null,"link":"http://geocommons.com/overlays/371445.json","extent":[-122.953,26.1822,-70.8287,48.4164],"geometry_types":["point"],"unique_name":null,"name":"CRS Customers","feature_count":673,"description":"CRS Customer Locations","next_feature":null,"is_raster":false,"short_classification":"Y","stats":{},"features":[{"properties":{"city":"Aurora","zip":"80014","geo_score":0.857,"id":"afacazexxpbp","add1":"12293 E. Iliff","geo_precision":"zip","state":"CO"},"type":"Feature","geometry":{"type":"Point","coordinates":[-104.82933,39.660437]}},{"properties":{"city":"Denver","zip":"80203","geo_score":0.857,"id":"afacazg6obfh","add1":"1350 Grant Street","geo_precision":"zip","state":"CO"},"type":"Feature","geometry":{"type":"Point","coordinates":[-104.970331,39.729205]}},{"properties":{"city":"Highlands Ranch","zip":"80126","geo_score":0.857,"id":"afacazabl6jk","add1":"9579 S. University Blvd","geo_precision":"zip","state":"CO"},"type":"Feature","geometry":{"type":"Point","coordinates":[-104.969143,39.54372]}},{"properties":{"city":"Greenwood Village","zip":"80111","geo_score":0.857,"id":"afacazkl93wi","add1":"5910 S. Holly Street","geo_precision":"zip","state":"CO"},"type":"Feature","geometry":{"type":"Point","coordinates":[-104.864703,39.666811]}},{"properties":{"city":"Denver","zip":"80237","geo_score":0.857,"id":"afacaz6jo5rh","add1":"4955 S. Ulster Street","geo_precision":"zip","state":"CO"},"type":"Feature","geometry":{"type":"Point","coordinates":[-104.903984,39.638537]}},{"properties":{"city":"Littleton","zip":"80120","geo_score":0.857,"id":"afacazig54zn","add1":"7301 S. Sante Fe Dr. Ste. 730","geo_precision":"zip","state":"CO"},"type":"Feature","geometry":{"type":"Point","coordinates":[-104.89609,39.556655]}},{"properties":{"city":"Littleton","zip":"80120","geo_score":0.857,"id":"afacaz6yr20g","add1":"8501 W. Bowles Ave. Unit D-476","geo_precision":"zip","state":"CO"},"type":"Feature","geometry":{"type":"Point","coordinates":[-104.89609,39.556655]}},{"properties":{"city":"Colorado Springs","zip":"80920","geo_score":0.857,"id":"afacazi199tw","add1":"1845 Briargate Pky","geo_precision":"zip","state":"CO"},"type":"Feature","geometry":{"type":"Point","coordinates":[-104.755956,38.965298]}},{"properties":{"city":"Colorado Springs","zip":"80920","geo_score":0.857,"id":"afacaz92vztw","add1":"7344 N. Academy Blvd","geo_precision":"zip","state":"CO"},"type":"Feature","geometry":{"type":"Point","coordinates":[-104.755956,38.965298]}},{"properties":{"city":"Lone Tree","zip":"80124","geo_score":0.857,"id":"afacazjj35ws","add1":"9233 Park Meadow Dr.","geo_precision":"zip","state":"CO"},"type":"Feature","geometry":{"type":"Point","coordinates":[-104.861962,39.531381]}},{"properties":{"city":"Denver","zip":"80207","geo_score":0.857,"id":"afacazirrk84","add1":"3700 Quebec St","geo_precision":"zip","state":"CO"},"type":"Feature","geometry":{"type":"Point","coordinates":[-104.903532,39.713186]}},{"properties":{"city":"Colorado Springs","zip":"80906","geo_score":0.857,"id":"afacaz4yyorm","add1":"1832 Southgate Road","geo_precision":"zip","state":"CO"},"type":"Feature","geometry":{"type":"Point","coordinates":[-104.835252,38.810548]}},{"properties":{"city":"Arvada","zip":"80003","geo_score":0.857,"id":"afacaz6bmpkl","add1":"7739 Wadsworth Way","geo_precision":"zip","state":"CO"},"type":"Feature","geometry":{"type":"Point","coordinates":[-105.105775,39.835086]}},{"properties":{"city":"Westminster","zip":"80021","geo_score":0.857,"id":"afacaz9jws3f","add1":"10450 Towncenter Dr  Sp 100","geo_precision":"zip","state":"CO"},"type":"Feature","geometry":{"type":"Point","coordinates":[-105.114346,39.889763]}},{"properties":{"city":"Longmont","zip":"80501","geo_score":0.857,"id":"afacaze5yfxu","add1":"425 Ken Pratt Blvd","geo_precision":"zip","state":"CO"},"type":"Feature","geometry":{"type":"Point","coordinates":[-104.998868,40.138873]}},{"properties":{"city":"Ft. Collins","zip":"80525","geo_score":0.857,"id":"afacazgpfql8","add1":"3700 S. College Ave","geo_precision":"zip","state":"CO"},"type":"Feature","geometry":{"type":"Point","coordinates":[-105.207073,40.532277]}},{"properties":{"city":"Superior","zip":"80027","geo_score":0.857,"id":"afacazedf9qu","add1":"302-A Center Drive","geo_precision":"zip","state":"CO"},"type":"Feature","geometry":{"type":"Point","coordinates":[-105.168598,39.952763]}},{"properties":{"city":"Loveland","zip":"80538","geo_score":0.857,"id":"afacaz53m46x","add1":"1550 Fall River Dr.","geo_precision":"zip","state":"CO"},"type":"Feature","geometry":{"type":"Point","coordinates":[-105.183385,40.551116]}},{"properties":{"city":"Boulder","zip":"80306","geo_score":0.857,"id":"afacaz6m1l2z","add1":"1855 29th St. Ste 1172","geo_precision":"zip","state":"CO"},"type":"Feature","geometry":{"type":"Point","coordinates":[-105.384694,40.102219]}},{"properties":{"city":"Cincinnati","zip":"45255","geo_score":0.857,"id":"afacaz5ksdi2","add1":"7711 Beechmont Avenue","geo_precision":"zip","state":"OH"},"type":"Feature","geometry":{"type":"Point","coordinates":[-84.339639,39.058412]}},{"properties":{"city":"Blue Ash","zip":"45242","geo_score":0.857,"id":"afacaz9o58il","add1":"11033 Reed-Hartman Highway","geo_precision":"zip","state":"OH"},"type":"Feature","geometry":{"type":"Point","coordinates":[-84.362996,39.266169]}},{"properties":{"city":"Hamilton","zip":"45011","geo_score":0.857,"id":"afacaz9kma53","add1":"3417 Princeton Road","geo_precision":"zip","state":"OH"},"type":"Feature","geometry":{"type":"Point","coordinates":[-84.528279,39.355335]}},{"properties":{"city":"Cincinnati","zip":"45219","geo_score":0.857,"id":"afacazh2zk4m","add1":"120 Calhoun St","geo_precision":"zip","state":"OH"},"type":"Feature","geometry":{"type":"Point","coordinates":[-84.515191,39.12851]}},{"properties":{"city":"Cincinnati","zip":"45251","geo_score":0.857,"id":"afacazkuznnj","add1":"9530 Colerain Avenue","geo_precision":"zip","state":"OH"},"type":"Feature","geometry":{"type":"Point","coordinates":[-84.599285,39.267157]}},{"properties":{"city":"Crestview Hills","zip":"41017","geo_score":0.857,"id":"afacazi8ack1","add1":"2911 Dixie Highway","geo_precision":"zip","state":"KY"},"type":"Feature","geometry":{"type":"Point","coordinates":[-84.593,39.063393]}},{"properties":{"city":"Marion","zip":"52302","geo_score":0.857,"id":"afacazjtf2a4","add1":"6201 S Gateway Dr","geo_precision":"zip","state":"IA"},"type":"Feature","geometry":{"type":"Point","coordinates":[-91.573963,42.056938]}},{"properties":{"city":"Cincinnati","zip":"45231","geo_score":0.857,"id":"afacaz8b0gkl","add1":"8420 Winton Rd","geo_precision":"zip","state":"OH"},"type":"Feature","geometry":{"type":"Point","coordinates":[-84.494943,39.240336]}},{"properties":{"city":"Florence","zip":"41042","geo_score":0.857,"id":"afacazic4owv","add1":"7150 Houston Road","geo_precision":"zip","state":"KY"},"type":"Feature","geometry":{"type":"Point","coordinates":[-84.656711,38.989548]}},{"properties":{"city":"Fairfield","zip":"45014","geo_score":0.857,"id":"afacazdva20p","add1":"500 Kolb Dr","geo_precision":"zip","state":"OH"},"type":"Feature","geometry":{"type":"Point","coordinates":[-84.499743,39.387357]}},{"properties":{"city":"Cincinnati","zip":"45208","geo_score":0.857,"id":"afacazd2zw34","add1":"3806 Paxton Drive","geo_precision":"zip","state":"OH"},"type":"Feature","geometry":{"type":"Point","coordinates":[-84.43383,39.142004]}},{"properties":{"city":"Cincinnati","zip":"45236","geo_score":0.857,"id":"afacazk1zhhn","add1":"8115 Montgomery Road","geo_precision":"zip","state":"OH"},"type":"Feature","geometry":{"type":"Point","coordinates":[-84.400496,39.192837]}},{"properties":{"city":"Mason","zip":"45040","geo_score":0.857,"id":"afacazaee933","add1":"5095 Deerfield Boulevard","geo_precision":"zip","state":"OH"},"type":"Feature","geometry":{"type":"Point","coordinates":[-84.180906,39.397999]}},{"properties":{"city":"Milford","zip":"45150","geo_score":0.857,"id":"afacazbpl2qp","add1":"1066 State Route 28","geo_precision":"zip","state":"OH"},"type":"Feature","geometry":{"type":"Point","coordinates":[-84.242159,39.193393]}},{"properties":{"city":"Springdale","zip":"45246","geo_score":0.857,"id":"afacaz92jq2k","add1":"405 E Kemper Rd","geo_precision":"zip","state":"OH"},"type":"Feature","geometry":{"type":"Point","coordinates":[-84.474394,39.283858]}},{"properties":{"city":"Cincinnati","zip":"45249","geo_score":0.857,"id":"afacaz7ak96e","add1":"11397 Montgomery Rd","geo_precision":"zip","state":"OH"},"type":"Feature","geometry":{"type":"Point","coordinates":[-84.330686,39.269226]}},{"properties":{"city":"Westchester","zip":"45069","geo_score":0.857,"id":"afacazdmsr72","add1":"9444 Civic Center Blvd","geo_precision":"zip","state":"OH"},"type":"Feature","geometry":{"type":"Point","coordinates":[-84.40536,39.336058]}},{"properties":{"city":"Westchester","zip":"45069","geo_score":0.857,"id":"afacaz7pf76w","add1":"7725 Voice Of America Centre D","geo_precision":"zip","state":"OH"},"type":"Feature","geometry":{"type":"Point","coordinates":[-84.40536,39.336058]}},{"properties":{"city":"Dayton","zip":"45431","geo_score":0.857,"id":"afacazkdn6yr","add1":"2751 Fairfield Commons","geo_precision":"zip","state":"OH"},"type":"Feature","geometry":{"type":"Point","coordinates":[-84.10966,39.765892]}},{"properties":{"city":"Cincinnati","zip":"45238","geo_score":0.857,"id":"afacaz8pt6r2","add1":"5555a Glenway Avenue, Ste 800","geo_precision":"zip","state":"OH"},"type":"Feature","geometry":{"type":"Point","coordinates":[-84.612723,39.092837]}},{"properties":{"city":"Dayton","zip":"45409","geo_score":0.857,"id":"afacaz8mvez9","add1":"1203 Brown Street","geo_precision":"zip","state":"OH"},"type":"Feature","geometry":{"type":"Point","coordinates":[-84.185439,39.723809]}},{"properties":{"city":"Centerville","zip":"45459","geo_score":0.857,"id":"afacaziu41zo","add1":"11 North Main St","geo_precision":"zip","state":"OH"},"type":"Feature","geometry":{"type":"Point","coordinates":[-84.171733,39.646371]}},{"properties":{"city":"Dayton","zip":"45459","geo_score":0.857,"id":"afacazdkoyey","add1":"2500 Miamisburg Centerville Rd","geo_precision":"zip","state":"OH"},"type":"Feature","geometry":{"type":"Point","coordinates":[-84.171733,39.646371]}},{"properties":{"city":"Beavercreek","zip":"45440","geo_score":0.857,"id":"afacaz5ifku1","add1":"49 Chestnut St","geo_precision":"zip","state":"OH"},"type":"Feature","geometry":{"type":"Point","coordinates":[-84.121086,39.675548]}},{"properties":{"city":"Dayton","zip":"45429","geo_score":0.857,"id":"afacazfyrien","add1":"4110 Far Hills Ave","geo_precision":"zip","state":"OH"},"type":"Feature","geometry":{"type":"Point","coordinates":[-84.168827,39.689504]}},{"properties":{"city":"Dayton","zip":"45409","geo_score":0.857,"id":"afacazid1mpv","add1":"6550 Miller Lane","geo_precision":"zip","state":"OH"},"type":"Feature","geometry":{"type":"Point","coordinates":[-84.185439,39.723809]}},{"properties":{"city":"Springfield","zip":"45504","geo_score":0.857,"id":"afacaziu4yun","add1":"1950 N Bechtle Ave","geo_precision":"zip","state":"OH"},"type":"Feature","geometry":{"type":"Point","coordinates":[-83.890862,39.950457]}},{"properties":{"city":"Dayton","zip":"45459","geo_score":0.857,"id":"afacaz7s5ey1","add1":"6130 Wilmington Pike","geo_precision":"zip","state":"OH"},"type":"Feature","geometry":{"type":"Point","coordinates":[-84.171733,39.646371]}},{"properties":{"city":"Parker","zip":"80134","geo_score":0.857,"id":"afacaz8z0kbt","add1":"11290 Twenty Mile Rd","geo_precision":"zip","state":"CO"},"type":"Feature","geometry":{"type":"Point","coordinates":[-104.734419,39.455267]}},{"properties":{"city":"Colorado Springs","zip":"80922","geo_score":0.857,"id":"afacazh0z56n","add1":"3120 New Center Point","geo_precision":"zip","state":"CO"},"type":"Feature","geometry":{"type":"Point","coordinates":[-104.70124,38.904817]}},{"properties":{"city":"Troy","zip":"45373","geo_score":0.857,"id":"afacazau59gn","add1":"1920 W Main","geo_precision":"zip","state":"OH"},"type":"Feature","geometry":{"type":"Point","coordinates":[-84.279668,39.965332]}},{"properties":{"city":"Sheridan","zip":"80110","geo_score":0.857,"id":"afacazbe6w3w","add1":"3702 River Point Parkway","geo_precision":"zip","state":"CO"},"type":"Feature","geometry":{"type":"Point","coordinates":[-104.950814,39.61721]}},{"properties":{"city":"Arlington","zip":"22203","geo_score":0.857,"id":"afacaz68ndjj","add1":"4301 N Fairfax Dr","geo_precision":"zip","state":"VA"},"type":"Feature","geometry":{"type":"Point","coordinates":[-77.119515,38.874775]}},{"properties":{"city":"Bethesda","zip":"20814","geo_score":0.857,"id":"afacazijy43c","add1":"4870 Bethesda Ave","geo_precision":"zip","state":"MD"},"type":"Feature","geometry":{"type":"Point","coordinates":[-77.109978,38.98261]}},{"properties":{"city":"Fairfax","zip":"22030","geo_score":0.857,"id":"afacazc27u4f","add1":"4251 Fairfax Corner Ave","geo_precision":"zip","state":"VA"},"type":"Feature","geometry":{"type":"Point","coordinates":[-77.363875,38.87289]}},{"properties":{"city":"Gaithersburg","zip":"20878","geo_score":0.857,"id":"afacaz95osvd","add1":"231 Rio Boulevard","geo_precision":"zip","state":"MD"},"type":"Feature","geometry":{"type":"Point","coordinates":[-77.252483,39.117886]}},{"properties":{"city":"Reston","zip":"20190","geo_score":0.857,"id":"afacaz8jktlv","add1":"1827 Library St","geo_precision":"zip","state":"VA"},"type":"Feature","geometry":{"type":"Point","coordinates":[-77.3418,38.96146]}},{"properties":{"city":"Union Township","zip":"45245","geo_score":0.857,"id":"afacaz8gi9br","add1":"876 Eastgate North Blvd","geo_precision":"zip","state":"OH"},"type":"Feature","geometry":{"type":"Point","coordinates":[-84.321883,39.072562]}},{"properties":{"city":"Cordova","zip":"38016","geo_score":0.857,"id":"afacazgnghpr","add1":"1245 N. Germantown Pkwy","geo_precision":"zip","state":"TN"},"type":"Feature","geometry":{"type":"Point","coordinates":[-89.979366,35.104503]}},{"properties":{"city":"Atlanta","zip":"30309","geo_score":0.857,"id":"afacaze4s3k6","add1":"1860 Peachtree Rd","geo_precision":"zip","state":"GA"},"type":"Feature","geometry":{"type":"Point","coordinates":[-84.387726,33.797854]}},{"properties":{"city":"New York","zip":"10020","geo_score":0.857,"id":"afacaz4dm596","add1":"1251 Ave of the Americas","geo_precision":"zip","state":"NY"},"type":"Feature","geometry":{"type":"Point","coordinates":[-73.996788,40.735449]}},{"properties":{"city":"Aurora","zip":"80016","geo_score":0.857,"id":"afacaz7ip2lg","add1":"6770 S Cornerstar Way","geo_precision":"zip","state":"CO"},"type":"Feature","geometry":{"type":"Point","coordinates":[-104.792475,39.591655]}},{"properties":{"city":"Lindale","zip":"55555","geo_score":0.714,"id":"afacazi9s9tx","add1":"456 Joe St.","geo_precision":"zip","state":"MO"},"type":"Feature","geometry":{"type":"Point","coordinates":[-93.766524,44.805487]}},{"properties":{"city":"Jacksonville","zip":"75766","geo_score":0.714,"id":"afacaz4rm4bg","add1":"789 Deanne Blvd.","geo_precision":"zip","state":"UT"},"type":"Feature","geometry":{"type":"Point","coordinates":[-95.392175,32.023219]}},{"properties":{"city":"Arcadia","zip":"91007","geo_score":0.857,"id":"afacaze3jfye","add1":"567 Troy Rd.","geo_precision":"zip","state":"CA"},"type":"Feature","geometry":{"type":"Point","coordinates":[-118.298662,33.786594]}},{"properties":{"city":"Camarillo","zip":"93010","geo_score":0.714,"id":"afacaza67wpp","add1":"567 Edwin Cir.","geo_precision":"zip","state":"DE"},"type":"Feature","geometry":{"type":"Point","coordinates":[-119.084253,34.307783]}},{"properties":{"city":"Salt Lake City","zip":"84101","geo_score":0.857,"id":"afacazem9mnm","add1":"567 Teri St.","geo_precision":"zip","state":"UT"},"type":"Feature","geometry":{"type":"Point","coordinates":[-111.900719,40.756095]}},{"properties":{"city":"Philadelphia","zip":"19019","geo_score":0.857,"id":"afacaz6ssf7g","add1":"567 Sandy St.","geo_precision":"zip","state":"PA"},"type":"Feature","geometry":{"type":"Point","coordinates":[-75.11787,40.001811]}},{"properties":{"city":"Los Angeles","zip":"90036","geo_score":0.857,"id":"afacaz6yrsgw","add1":"567 Kerrie Rd.","geo_precision":"zip","state":"CA"},"type":"Feature","geometry":{"type":"Point","coordinates":[-118.298662,33.786594]}},{"properties":{"city":"Portland","zip":"97203","geo_score":0.857,"id":"afacaz842qca","add1":"567 Jordan Blvd.","geo_precision":"zip","state":"OR"},"type":"Feature","geometry":{"type":"Point","coordinates":[-122.728709,45.576228]}},{"properties":{"city":"Greensboro","zip":"27401","geo_score":0.857,"id":"afacaz69xjiv","add1":"567 Kelsey Corner","geo_precision":"zip","state":"NC"},"type":"Feature","geometry":{"type":"Point","coordinates":[-79.831692,36.055285]}},{"properties":{"city":"Green City","zip":"63545","geo_score":0.857,"id":"afacazbxez1e","add1":"567 Kassandra Pl.","geo_precision":"zip","state":"MO"},"type":"Feature","geometry":{"type":"Point","coordinates":[-92.945787,40.218108]}},{"properties":{"city":"Jacksonville","zip":"32099","geo_score":0.857,"id":"afacazjt5klr","add1":"567 Bill Dr.","geo_precision":"zip","state":"FL"},"type":"Feature","geometry":{"type":"Point","coordinates":[-81.768622,30.337538]}},{"properties":{"city":"Marion","zip":"52302","geo_score":0.857,"id":"afacaz5rvmt4","add1":"567 Geri Dr.","geo_precision":"zip","state":"IA"},"type":"Feature","geometry":{"type":"Point","coordinates":[-91.573963,42.056938]}},{"properties":{"city":"Hartford","zip":"06103","geo_score":0.857,"id":"afacazgembvw","add1":"185 Asylum St","geo_precision":"zip","state":"CT"},"type":"Feature","geometry":{"type":"Point","coordinates":[-72.674636,41.766349]}},{"properties":{"city":"Farmington","zip":"06032","geo_score":0.857,"id":"afacazkjrxzm","add1":"Space E 117","geo_precision":"zip","state":"CT"},"type":"Feature","geometry":{"type":"Point","coordinates":[-72.829543,41.726769]}},{"properties":{"city":"New Haven","zip":"06511","geo_score":0.857,"id":"afacaz80kwr0","add1":"1 Broadway","geo_precision":"zip","state":"CT"},"type":"Feature","geometry":{"type":"Point","coordinates":[-72.926046,41.310547]}},{"properties":{"city":"Hartford","zip":"06105","geo_score":0.857,"id":"afacazbe7cnu","add1":"114 Woodland St","geo_precision":"zip","state":"CT"},"type":"Feature","geometry":{"type":"Point","coordinates":[-72.699537,41.774499]}},{"properties":{"city":"Washington","zip":"20004","geo_score":0.857,"id":"afacaz9ipfgy","add1":"406 10th St NW","geo_precision":"zip","state":"DC"},"type":"Feature","geometry":{"type":"Point","coordinates":[-77.019477,38.892247]}},{"properties":{"city":"Washington","zip":"20006","geo_score":0.857,"id":"afacaz7nj9em","add1":"2000 Pennsylvania Ave NW","geo_precision":"zip","state":"DC"},"type":"Feature","geometry":{"type":"Point","coordinates":[-77.041248,38.897131]}},{"properties":{"city":"Washington","zip":"20004","geo_score":0.857,"id":"afacaz8j4j8t","add1":"601 Indiana Ave NW","geo_precision":"zip","state":"DC"},"type":"Feature","geometry":{"type":"Point","coordinates":[-77.019477,38.892247]}},{"properties":{"city":"Washington","zip":"20036","geo_score":0.857,"id":"afacaz8hox2u","add1":"1801 L St NW","geo_precision":"zip","state":"DC"},"type":"Feature","geometry":{"type":"Point","coordinates":[-77.039914,38.900659]}},{"properties":{"city":"Washington","zip":"20036","geo_score":0.857,"id":"afacaz5cpd11","add1":"1850 M St NW","geo_precision":"zip","state":"DC"},"type":"Feature","geometry":{"type":"Point","coordinates":[-77.039914,38.900659]}},{"properties":{"city":"Washington","zip":"20005","geo_score":0.857,"id":"afacazbflurr","add1":"1401 I St NW","geo_precision":"zip","state":"DC"},"type":"Feature","geometry":{"type":"Point","coordinates":[-77.031695,38.904011]}},{"properties":{"city":"Washington","zip":"20005","geo_score":0.857,"id":"afacaz4wvn34","add1":"1101 Vermont Ave","geo_precision":"zip","state":"DC"},"type":"Feature","geometry":{"type":"Point","coordinates":[-77.031695,38.904011]}},{"properties":{"city":"Washington","zip":"20001","geo_score":0.857,"id":"afacazka49bk","add1":"800 North Capital St NW","geo_precision":"zip","state":"DC"},"type":"Feature","geometry":{"type":"Point","coordinates":[-77.011365,38.916778]}},{"properties":{"city":"Washington","zip":"20001","geo_score":0.857,"id":"afacazizt6pf","add1":"50 Massachusetts Ave NE","geo_precision":"zip","state":"DC"},"type":"Feature","geometry":{"type":"Point","coordinates":[-77.011365,38.916778]}},{"properties":{"city":"Washington","zip":"20006","geo_score":0.857,"id":"afacaze0qmz2","add1":"1701 Pennsylvania Ave NW","geo_precision":"zip","state":"DC"},"type":"Feature","geometry":{"type":"Point","coordinates":[-77.041248,38.897131]}},{"properties":{"city":"Washington","zip":"20006","geo_score":0.857,"id":"afacazah2l96","add1":"1724 L St NW","geo_precision":"zip","state":"DC"},"type":"Feature","geometry":{"type":"Point","coordinates":[-77.041248,38.897131]}},{"properties":{"city":"Washington","zip":"20004","geo_score":0.857,"id":"afacaz8a8od5","add1":"1299 Pennsylvania Ave NW","geo_precision":"zip","state":"DC"},"type":"Feature","geometry":{"type":"Point","coordinates":[-77.019477,38.892247]}},{"properties":{"city":"Washington","zip":"20006","geo_score":0.857,"id":"afacaz618hsb","add1":"1850 K St NW","geo_precision":"zip","state":"DC"},"type":"Feature","geometry":{"type":"Point","coordinates":[-77.041248,38.897131]}},{"properties":{"city":"Washington","zip":"20005","geo_score":0.857,"id":"afacazefiqn5","add1":"700 13th St NW","geo_precision":"zip","state":"DC"},"type":"Feature","geometry":{"type":"Point","coordinates":[-77.031695,38.904011]}},{"properties":{"city":"Washington","zip":"20005","geo_score":0.857,"id":"afacaz6be2ut","add1":"1100 13th St NW","geo_precision":"zip","state":"DC"},"type":"Feature","geometry":{"type":"Point","coordinates":[-77.031695,38.904011]}},{"properties":{"city":"Washington","zip":"20002","geo_score":0.857,"id":"afacazh5f6zj","add1":"1325 Second St NE #A","geo_precision":"zip","state":"DC"},"type":"Feature","geometry":{"type":"Point","coordinates":[-76.982147,38.908218]}},{"properties":{"city":"Washington","zip":"20037","geo_score":0.857,"id":"afacaz65gzdl","add1":"2100 Penn Ave NW","geo_precision":"zip","state":"DC"},"type":"Feature","geometry":{"type":"Point","coordinates":[-77.061781,38.918903]}},{"properties":{"city":"Chicago","zip":"60601","geo_score":0.857,"id":"afacaz6ae5vq","add1":"200 E Randolph","geo_precision":"zip","state":"IL"},"type":"Feature","geometry":{"type":"Point","coordinates":[-87.68732,41.811929]}},{"properties":{"city":"Chicago","zip":"60606","geo_score":0.857,"id":"afacaz96lwfl","add1":"200 West Adams","geo_precision":"zip","state":"IL"},"type":"Feature","geometry":{"type":"Point","coordinates":[-87.68732,41.811929]}},{"properties":{"city":"Chicago","zip":"60654","geo_score":0.857,"id":"afacaza54w08","add1":"222 W. Merchandise Mart","geo_precision":"zip","state":"IL"},"type":"Feature","geometry":{"type":"Point","coordinates":[-87.68732,41.811929]}},{"properties":{"city":"Chicago","zip":"60601","geo_score":0.857,"id":"afacaz8fb3zw","add1":"161 N. Clark St","geo_precision":"zip","state":"IL"},"type":"Feature","geometry":{"type":"Point","coordinates":[-87.68732,41.811929]}},{"properties":{"city":"Chicago","zip":"60603","geo_score":0.857,"id":"afacazirj0rm","add1":"122 S. Michigan Ave","geo_precision":"zip","state":"IL"},"type":"Feature","geometry":{"type":"Point","coordinates":[-87.72596,42.055179]}},{"properties":{"city":"Chicago","zip":"60606","geo_score":0.857,"id":"afacaz920p7q","add1":"125 S. Wacker Dr","geo_precision":"zip","state":"IL"},"type":"Feature","geometry":{"type":"Point","coordinates":[-87.68732,41.811929]}},{"properties":{"city":"Chicago","zip":"60602","geo_score":0.857,"id":"afacazfdefdc","add1":"181 West Madison Ave","geo_precision":"zip","state":"IL"},"type":"Feature","geometry":{"type":"Point","coordinates":[-87.68732,41.811929]}},{"properties":{"city":"Chicago","zip":"60612","geo_score":0.857,"id":"afacaz8t44h1","add1":"1653 W Congress Parkway","geo_precision":"zip","state":"IL"},"type":"Feature","geometry":{"type":"Point","coordinates":[-87.68732,41.811929]}},{"properties":{"city":"Chicago","zip":"60637","geo_score":0.857,"id":"afacazhw9jtt","add1":"5841 South Maryland Ave","geo_precision":"zip","state":"IL"},"type":"Feature","geometry":{"type":"Point","coordinates":[-87.68732,41.811929]}},{"properties":{"city":"Chicago","zip":"60612","geo_score":0.857,"id":"afacazika1om","add1":"1725 W. Harrison St","geo_precision":"zip","state":"IL"},"type":"Feature","geometry":{"type":"Point","coordinates":[-87.68732,41.811929]}},{"properties":{"city":"New York","zip":"10022","geo_score":0.857,"id":"afacaz4vdi9y","add1":"599 Lexington Avenue","geo_precision":"zip","state":"NY"},"type":"Feature","geometry":{"type":"Point","coordinates":[-73.967842,40.758775]}},{"properties":{"city":"Chicago","zip":"60612","geo_score":0.857,"id":"afacazao7any","add1":"1700 W. Van Buren","geo_precision":"zip","state":"IL"},"type":"Feature","geometry":{"type":"Point","coordinates":[-87.68732,41.811929]}},{"properties":{"city":"Chicago","zip":"60611","geo_score":0.857,"id":"afacaz7jpq9k","add1":"201 E. Huron ave","geo_precision":"zip","state":"IL"},"type":"Feature","geometry":{"type":"Point","coordinates":[-87.68732,41.811929]}},{"properties":{"city":"Chicago","zip":"60611","geo_score":0.857,"id":"afacazcy4k3j","add1":"57 21South Maryland Ave","geo_precision":"zip","state":"IL"},"type":"Feature","geometry":{"type":"Point","coordinates":[-87.68732,41.811929]}},{"properties":{"city":"Baltimore","zip":"21202","geo_score":0.857,"id":"afacazhugkya","add1":"10 N. Calvert St","geo_precision":"zip","state":"MD"},"type":"Feature","geometry":{"type":"Point","coordinates":[-76.608438,39.295907]}},{"properties":{"city":"Baltimore","zip":"21202","geo_score":0.857,"id":"afacazfw2lcm","add1":"One South St","geo_precision":"zip","state":"MD"},"type":"Feature","geometry":{"type":"Point","coordinates":[-76.608438,39.295907]}},{"properties":{"city":"Burlington","zip":"01803","geo_score":0.857,"id":"afacazbd0ugh","add1":"1310 Burlington Mall","geo_precision":"zip","state":"MA"},"type":"Feature","geometry":{"type":"Point","coordinates":[-71.201539,42.504844]}},{"properties":{"city":"Cambridge","zip":"02138","geo_score":0.857,"id":"afacazdt2vok","add1":"1360 Mass Ave","geo_precision":"zip","state":"MA"},"type":"Feature","geometry":{"type":"Point","coordinates":[-71.132947,42.380442]}},{"properties":{"city":"Boston","zip":"02116","geo_score":0.857,"id":"afacaza2ucz7","add1":"26 Park Plaza","geo_precision":"zip","state":"MA"},"type":"Feature","geometry":{"type":"Point","coordinates":[-71.086095,42.347207]}},{"properties":{"city":"Cambridge","zip":"02142","geo_score":0.857,"id":"afacazddm74y","add1":"238 Main st","geo_precision":"zip","state":"MA"},"type":"Feature","geometry":{"type":"Point","coordinates":[-71.084814,42.36284]}},{"properties":{"city":"Peabody","zip":"01960","geo_score":0.857,"id":"afacazc2cz4y","add1":"210 Andover St.","geo_precision":"zip","state":"MA"},"type":"Feature","geometry":{"type":"Point","coordinates":[-70.949495,42.509818]}},{"properties":{"city":"Cambridge","zip":"02142","geo_score":0.857,"id":"afacazckoa5r","add1":"3 Cambridge Ctr","geo_precision":"zip","state":"MA"},"type":"Feature","geometry":{"type":"Point","coordinates":[-71.084814,42.36284]}},{"properties":{"city":"Boston","zip":"02199","geo_score":0.857,"id":"afacazjgm5yq","add1":"800 Boylston St","geo_precision":"zip","state":"MA"},"type":"Feature","geometry":{"type":"Point","coordinates":[-71.082395,42.347247]}},{"properties":{"city":"Boston","zip":"02110","geo_score":0.857,"id":"afacazk1xq6y","add1":"1 International Place","geo_precision":"zip","state":"MA"},"type":"Feature","geometry":{"type":"Point","coordinates":[-71.051466,42.352847]}},{"properties":{"city":"Braintree","zip":"02184","geo_score":0.857,"id":"afacaz95ygk0","add1":"250 Granite St","geo_precision":"zip","state":"MA"},"type":"Feature","geometry":{"type":"Point","coordinates":[-70.974492,42.2251]}},{"properties":{"city":"Cambridge","zip":"02139","geo_score":0.857,"id":"afacazcno54g","add1":"684 Massachusetts Ave","geo_precision":"zip","state":"MA"},"type":"Feature","geometry":{"type":"Point","coordinates":[-71.103663,42.358431]}},{"properties":{"city":"Boston","zip":"02109","geo_score":0.857,"id":"afacaz5tekni","add1":"53 State St","geo_precision":"zip","state":"MA"},"type":"Feature","geometry":{"type":"Point","coordinates":[-71.054495,42.360027]}},{"properties":{"city":"Natick","zip":"01760","geo_score":0.857,"id":"afacaza7l8vq","add1":"1245 Worcester St","geo_precision":"zip","state":"MA"},"type":"Feature","geometry":{"type":"Point","coordinates":[-71.324503,42.304263]}},{"properties":{"city":"Boston","zip":"02115","geo_score":0.857,"id":"afacazfowyvf","add1":"369 Huntington Ave","geo_precision":"zip","state":"MA"},"type":"Feature","geometry":{"type":"Point","coordinates":[-71.096848,42.342043]}},{"properties":{"city":"Boston","zip":"02115","geo_score":0.857,"id":"afacazgzlxnb","add1":"300 Longwood Ave","geo_precision":"zip","state":"MA"},"type":"Feature","geometry":{"type":"Point","coordinates":[-71.096848,42.342043]}},{"properties":{"city":"Boston","zip":"02115","geo_score":0.857,"id":"afacaz9t557t","add1":"Logan International Airport","geo_precision":"zip","state":"MA"},"type":"Feature","geometry":{"type":"Point","coordinates":[-71.096848,42.342043]}},{"properties":{"city":"Boston","zip":"02210","geo_score":0.857,"id":"afacazcbeh71","add1":"27 Drydock","geo_precision":"zip","state":"MA"},"type":"Feature","geometry":{"type":"Point","coordinates":[-71.040645,42.347547]}},{"properties":{"city":"Boston","zip":"02115","geo_score":0.857,"id":"afacaz76rv0h","add1":"100 Huntington Ave","geo_precision":"zip","state":"MA"},"type":"Feature","geometry":{"type":"Point","coordinates":[-71.096848,42.342043]}},{"properties":{"city":"Pembroke","zip":"02359","geo_score":0.857,"id":"afacazjvy79n","add1":"156 Church St","geo_precision":"zip","state":"MA"},"type":"Feature","geometry":{"type":"Point","coordinates":[-70.828652,42.066768]}},{"properties":{"city":"Boston","zip":"02114","geo_score":0.857,"id":"afacaz4mtnea","add1":"209 Cambridge St","geo_precision":"zip","state":"MA"},"type":"Feature","geometry":{"type":"Point","coordinates":[-71.023661,42.362097]}},{"properties":{"city":"Boston","zip":"02210","geo_score":0.857,"id":"afacazigbi6l","add1":"300 Congress St","geo_precision":"zip","state":"MA"},"type":"Feature","geometry":{"type":"Point","coordinates":[-71.040645,42.347547]}},{"properties":{"city":"Boston","zip":"02128","geo_score":0.857,"id":"afacaz5nafoq","add1":"Logan International Airport Terminal B","geo_precision":"zip","state":"MA"},"type":"Feature","geometry":{"type":"Point","coordinates":[-71.025694,42.364197]}},{"properties":{"city":"Boston","zip":"02116","geo_score":0.857,"id":"afacaz4coufn","add1":"75 Francis St","geo_precision":"zip","state":"MA"},"type":"Feature","geometry":{"type":"Point","coordinates":[-71.086095,42.347207]}},{"properties":{"city":"Boston","zip":"02111","geo_score":0.857,"id":"afacaza3c74y","add1":"640 Atlantic Ave","geo_precision":"zip","state":"MA"},"type":"Feature","geometry":{"type":"Point","coordinates":[-71.059365,42.351047]}},{"properties":{"city":"Boston","zip":"02210","geo_score":0.857,"id":"afacazd2nuap","add1":"One Design Ctr","geo_precision":"zip","state":"MA"},"type":"Feature","geometry":{"type":"Point","coordinates":[-71.040645,42.347547]}},{"properties":{"city":"Cambridge","zip":"02138","geo_score":0.857,"id":"afacaz5r5itp","add1":"1100 Mass Ave","geo_precision":"zip","state":"MA"},"type":"Feature","geometry":{"type":"Point","coordinates":[-71.132947,42.380442]}},{"properties":{"city":"Somerville","zip":"02144","geo_score":0.857,"id":"afacazgivdgm","add1":"18-48 Holland St","geo_precision":"zip","state":"MA"},"type":"Feature","geometry":{"type":"Point","coordinates":[-71.122553,42.39593]}},{"properties":{"city":"Cambridge","zip":"02141","geo_score":0.857,"id":"afacazfehvzw","add1":"47 Commercial Street","geo_precision":"zip","state":"MA"},"type":"Feature","geometry":{"type":"Point","coordinates":[-71.080052,42.366764]}},{"properties":{"city":"Boston","zip":"02114","geo_score":0.857,"id":"afacazk45te4","add1":"101 Merrimac St","geo_precision":"zip","state":"MA"},"type":"Feature","geometry":{"type":"Point","coordinates":[-71.023661,42.362097]}},{"properties":{"city":"Boston","zip":"02116","geo_score":0.857,"id":"afacaz7uvd3a","add1":"431 Boylston St","geo_precision":"zip","state":"MA"},"type":"Feature","geometry":{"type":"Point","coordinates":[-71.086095,42.347207]}},{"properties":{"city":"Boston","zip":"02128","geo_score":0.857,"id":"afacaz5qpxpm","add1":"Logan C Pier B Airside","geo_precision":"zip","state":"MA"},"type":"Feature","geometry":{"type":"Point","coordinates":[-71.025694,42.364197]}},{"properties":{"city":"Boston","zip":"02128","geo_score":0.857,"id":"afacazdp2eue","add1":"Logan International Airport Kiosk C","geo_precision":"zip","state":"MA"},"type":"Feature","geometry":{"type":"Point","coordinates":[-71.025694,42.364197]}},{"properties":{"city":"Boston","zip":"02128","geo_score":0.857,"id":"afacaza4ebmy","add1":"Logan International Terminal B Kiosk","geo_precision":"zip","state":"MA"},"type":"Feature","geometry":{"type":"Point","coordinates":[-71.025694,42.364197]}},{"properties":{"city":"Boston","zip":"02215","geo_score":0.857,"id":"afacaziant81","add1":"133 Brookline Ave","geo_precision":"zip","state":"MA"},"type":"Feature","geometry":{"type":"Point","coordinates":[-71.107653,42.345079]}},{"properties":{"city":"Cambridge","zip":"02139","geo_score":0.857,"id":"afacazeubwdc","add1":"124 Mount Auburn St","geo_precision":"zip","state":"MA"},"type":"Feature","geometry":{"type":"Point","coordinates":[-71.103663,42.358431]}},{"properties":{"city":"Lebanon","zip":"03766","geo_score":0.857,"id":"afacazabghl8","add1":"Dartmouth-Hitchcock Medical Ce","geo_precision":"zip","state":"NH"},"type":"Feature","geometry":{"type":"Point","coordinates":[-72.23546,43.637148]}},{"properties":{"city":"Salem","zip":"03079","geo_score":0.857,"id":"afacazif4na8","add1":"99 Rockingham Park Blvd","geo_precision":"zip","state":"NH"},"type":"Feature","geometry":{"type":"Point","coordinates":[-71.202838,42.754534]}},{"properties":{"city":"Providence","zip":"02903","geo_score":0.857,"id":"afacazbulapz","add1":"593 Eddy St","geo_precision":"zip","state":"RI"},"type":"Feature","geometry":{"type":"Point","coordinates":[-71.4115,41.819459]}},{"properties":{"city":"Providence","zip":"02906","geo_score":0.857,"id":"afacaz6dhnjh","add1":"223 Thayer St","geo_precision":"zip","state":"RI"},"type":"Feature","geometry":{"type":"Point","coordinates":[-71.394717,41.8374]}},{"properties":{"city":"Providence","zip":"02903","geo_score":0.857,"id":"afacaz9ofhn2","add1":"100 Westminster St","geo_precision":"zip","state":"RI"},"type":"Feature","geometry":{"type":"Point","coordinates":[-71.4115,41.819459]}},{"properties":{"city":"Providence","zip":"02903","geo_score":0.857,"id":"afacaz7fqqou","add1":"RI Hospital - ER Building","geo_precision":"zip","state":"RI"},"type":"Feature","geometry":{"type":"Point","coordinates":[-71.4115,41.819459]}},{"properties":{"city":"Fort Collins","zip":"80525","geo_score":0.857,"id":"afacaz8st1uu","add1":"2721 Council Tree Ave","geo_precision":"zip","state":"CO"},"type":"Feature","geometry":{"type":"Point","coordinates":[-105.207073,40.532277]}},{"properties":{"city":"New York","zip":"10281","geo_score":0.857,"id":"afacazbm1h7i","add1":"200 Liberty St","geo_precision":"zip","state":"NY"},"type":"Feature","geometry":{"type":"Point","coordinates":[-74.014958,40.714643]}},{"properties":{"city":"New York","zip":"10004","geo_score":0.857,"id":"afacazgce6sr","add1":"60 Broad St","geo_precision":"zip","state":"NY"},"type":"Feature","geometry":{"type":"Point","coordinates":[-74.016389,40.691111]}},{"properties":{"city":"New York","zip":"10018","geo_score":0.857,"id":"afacaz972jiz","add1":"625 8th Ave","geo_precision":"zip","state":"NY"},"type":"Feature","geometry":{"type":"Point","coordinates":[-73.993172,40.755332]}},{"properties":{"city":"White Plains","zip":"10601","geo_score":0.857,"id":"afacaz9pfqig","add1":"125 Westchester Ave","geo_precision":"zip","state":"NY"},"type":"Feature","geometry":{"type":"Point","coordinates":[-73.769626,41.031397]}},{"properties":{"city":"New York","zip":"10001","geo_score":0.857,"id":"afacazb6po7q","add1":"151 West 34th St","geo_precision":"zip","state":"NY"},"type":"Feature","geometry":{"type":"Point","coordinates":[-73.996328,40.750422]}},{"properties":{"city":"Valhalla","zip":"10595","geo_score":0.857,"id":"afacazfsdf67","add1":"95 Grasslands Road","geo_precision":"zip","state":"NY"},"type":"Feature","geometry":{"type":"Point","coordinates":[-73.829301,41.081485]}},{"properties":{"city":"New York","zip":"10001","geo_score":0.857,"id":"afacazbkmod2","add1":"34th St","geo_precision":"zip","state":"NY"},"type":"Feature","geometry":{"type":"Point","coordinates":[-73.996328,40.750422]}},{"properties":{"city":"Hawthorne","zip":"10461","geo_score":0.857,"id":"afacaz96gzzy","add1":"19 Bradhurst Ave","geo_precision":"zip","state":"NY"},"type":"Feature","geometry":{"type":"Point","coordinates":[-73.843103,40.845279]}},{"properties":{"city":"Bronx","zip":"10461","geo_score":0.857,"id":"afacaz8jaznr","add1":"1400 Pelham Parkway South","geo_precision":"zip","state":"NY"},"type":"Feature","geometry":{"type":"Point","coordinates":[-73.843103,40.845279]}},{"properties":{"city":"New Hyde","zip":"11040","geo_score":0.857,"id":"afacaz8wxqfh","add1":"270-05 76th Ave","geo_precision":"zip","state":"NY"},"type":"Feature","geometry":{"type":"Point","coordinates":[-73.66263,40.740935]}},{"properties":{"city":"New York","zip":"10116","geo_score":0.857,"id":"afacazca2ta5","add1":"462 First Ave","geo_precision":"zip","state":"NY"},"type":"Feature","geometry":{"type":"Point","coordinates":[-73.977182,40.780751]}},{"properties":{"city":"Brooklyn","zip":"11201","geo_score":0.857,"id":"afacazd4fmky","add1":"70 Myrtle Ave","geo_precision":"zip","state":"NY"},"type":"Feature","geometry":{"type":"Point","coordinates":[-73.989319,40.694481]}},{"properties":{"city":"New York","zip":"10005","geo_score":0.857,"id":"afacaz8ypamd","add1":"80 Pine St","geo_precision":"zip","state":"NY"},"type":"Feature","geometry":{"type":"Point","coordinates":[-74.008654,40.706903]}},{"properties":{"city":"New York","zip":"10003","geo_score":0.857,"id":"afacaz785wkv","add1":"58 East 8th St","geo_precision":"zip","state":"NY"},"type":"Feature","geometry":{"type":"Point","coordinates":[-73.988564,40.730223]}},{"properties":{"city":"New York","zip":"10019","geo_score":0.857,"id":"afacazgrai26","add1":"125 West 55th St","geo_precision":"zip","state":"NY"},"type":"Feature","geometry":{"type":"Point","coordinates":[-73.985443,40.765926]}},{"properties":{"city":"New York","zip":"10003","geo_score":0.857,"id":"afacaz6by24b","add1":"6 Union Square East","geo_precision":"zip","state":"NY"},"type":"Feature","geometry":{"type":"Point","coordinates":[-73.988564,40.730223]}},{"properties":{"city":"Flushing","zip":"11371","geo_score":0.857,"id":"afacaz9a0zgf","add1":"Central Terminal Bldg. - Departure Level","geo_precision":"zip","state":"NY"},"type":"Feature","geometry":{"type":"Point","coordinates":[-73.867514,40.7712]}},{"properties":{"city":"Flushing","zip":"11371","geo_score":0.857,"id":"afacazingwrl","add1":"Laguardia Central Terminal","geo_precision":"zip","state":"NY"},"type":"Feature","geometry":{"type":"Point","coordinates":[-73.867514,40.7712]}},{"properties":{"city":"New York","zip":"10004","geo_score":0.857,"id":"afacaz8geu4v","add1":"One State St. Plaza Ste 1","geo_precision":"zip","state":"NY"},"type":"Feature","geometry":{"type":"Point","coordinates":[-74.016389,40.691111]}},{"properties":{"city":"Flushing","zip":"11371","geo_score":0.857,"id":"afacazdsevxk","add1":"Laguardia Airport A","geo_precision":"zip","state":"NY"},"type":"Feature","geometry":{"type":"Point","coordinates":[-73.867514,40.7712]}},{"properties":{"city":"Flushing","zip":"11371","geo_score":0.857,"id":"afacaz5fr0vf","add1":"Laguardia Airport B","geo_precision":"zip","state":"NY"},"type":"Feature","geometry":{"type":"Point","coordinates":[-73.867514,40.7712]}},{"properties":{"city":"Flushing","zip":"11371","geo_score":0.857,"id":"afacazh4edfj","add1":"Laguardia Airport C - main terminal","geo_precision":"zip","state":"NY"},"type":"Feature","geometry":{"type":"Point","coordinates":[-73.867514,40.7712]}},{"properties":{"city":"Hackensack","zip":"07601","geo_score":0.857,"id":"afacazd0dgfh","add1":"Space 173 - One Riverside Squa","geo_precision":"zip","state":"NJ"},"type":"Feature","geometry":{"type":"Point","coordinates":[-74.001623,40.913482]}},{"properties":{"city":"New Brunswick","zip":"08901","geo_score":0.857,"id":"afacaz95gsjk","add1":"126 College Ave","geo_precision":"zip","state":"NJ"},"type":"Feature","geometry":{"type":"Point","coordinates":[-74.444395,40.486754]}},{"properties":{"city":"Jersey City","zip":"07302","geo_score":0.857,"id":"afacaz6udb1n","add1":"101 Hudson St","geo_precision":"zip","state":"NJ"},"type":"Feature","geometry":{"type":"Point","coordinates":[-74.047304,40.726001]}},{"properties":{"city":"Morristown","zip":"07962","geo_score":0.857,"id":"afacaz4lx9fi","add1":"100 Madison Ave","geo_precision":"zip","state":"NJ"},"type":"Feature","geometry":{"type":"Point","coordinates":[-74.578269,40.867331]}},{"properties":{"city":"Morristown","zip":"07962","geo_score":0.857,"id":"afacazchi73h","add1":"111 Madison Ave","geo_precision":"zip","state":"NJ"},"type":"Feature","geometry":{"type":"Point","coordinates":[-74.578269,40.867331]}},{"properties":{"city":"Morristown","zip":"07960","geo_score":0.857,"id":"afacazhfyugp","add1":"100 Madison Ave","geo_precision":"zip","state":"NJ"},"type":"Feature","geometry":{"type":"Point","coordinates":[-74.506256,40.77165]}},{"properties":{"city":"Paterson","zip":"07503","geo_score":0.857,"id":"afacaz6iys3g","add1":"703 Main St","geo_precision":"zip","state":"NJ"},"type":"Feature","geometry":{"type":"Point","coordinates":[-74.151837,40.898098]}},{"properties":{"city":"Philadelphia","zip":"19103","geo_score":0.857,"id":"afacazkc62am","add1":"2005 Market St","geo_precision":"zip","state":"PA"},"type":"Feature","geometry":{"type":"Point","coordinates":[-75.186822,40.003361]}},{"properties":{"city":"Philadelphia","zip":"19103","geo_score":0.857,"id":"afacazj1cjp1","add1":"2 Logan Square","geo_precision":"zip","state":"PA"},"type":"Feature","geometry":{"type":"Point","coordinates":[-75.186822,40.003361]}},{"properties":{"city":"Philadelphia","zip":"19103","geo_score":0.857,"id":"afacazk13kwg","add1":"1625 Chestnut St","geo_precision":"zip","state":"PA"},"type":"Feature","geometry":{"type":"Point","coordinates":[-75.186822,40.003361]}},{"properties":{"city":"Philadelphia","zip":"19104","geo_score":0.857,"id":"afacaz9aie00","add1":"2951 Market St","geo_precision":"zip","state":"PA"},"type":"Feature","geometry":{"type":"Point","coordinates":[-75.19668,39.960912]}},{"properties":{"city":"Philadelphia","zip":"19104","geo_score":0.857,"id":"afacazfuj5bs","add1":"421 Curie Blvd","geo_precision":"zip","state":"PA"},"type":"Feature","geometry":{"type":"Point","coordinates":[-75.19668,39.960912]}},{"properties":{"city":"Philadelphia","zip":"19153","geo_score":0.857,"id":"afacazizj5st","add1":"8500 Essington Ave","geo_precision":"zip","state":"PA"},"type":"Feature","geometry":{"type":"Point","coordinates":[-75.226976,39.899412]}},{"properties":{"city":"Philadelphia","zip":"19107","geo_score":0.857,"id":"afacazg5j8dn","add1":"111 S 11th St","geo_precision":"zip","state":"PA"},"type":"Feature","geometry":{"type":"Point","coordinates":[-75.162871,39.962612]}},{"properties":{"city":"Philadelphia","zip":"19107","geo_score":0.857,"id":"afacazaw1hkz","add1":"1020 Locust St","geo_precision":"zip","state":"PA"},"type":"Feature","geometry":{"type":"Point","coordinates":[-75.162871,39.962612]}},{"properties":{"city":"Pittsburgh","zip":"15222","geo_score":0.857,"id":"afacazjng9w0","add1":"535 Smithfield St","geo_precision":"zip","state":"PA"},"type":"Feature","geometry":{"type":"Point","coordinates":[-80.024817,40.434436]}},{"properties":{"city":"Pittsburgh","zip":"15219","geo_score":0.857,"id":"afacaz5knmny","add1":"301 Grant Street","geo_precision":"zip","state":"PA"},"type":"Feature","geometry":{"type":"Point","coordinates":[-80.017075,40.375351]}},{"properties":{"city":"Pittsburgh","zip":"15229","geo_score":0.857,"id":"afacazhd0uzv","add1":"Fifth Ave Place","geo_precision":"zip","state":"PA"},"type":"Feature","geometry":{"type":"Point","coordinates":[-80.050333,40.526735]}},{"properties":{"city":"Pittsburgh","zip":"15219","geo_score":0.857,"id":"afacazj9io3p","add1":"600 Grant St","geo_precision":"zip","state":"PA"},"type":"Feature","geometry":{"type":"Point","coordinates":[-80.017075,40.375351]}},{"properties":{"city":"Pittsburgh","zip":"15219","geo_score":0.857,"id":"afacazd491x5","add1":"707 Grant St","geo_precision":"zip","state":"PA"},"type":"Feature","geometry":{"type":"Point","coordinates":[-80.017075,40.375351]}},{"properties":{"city":"Pittsburgh","zip":"15222","geo_score":0.857,"id":"afacazbpoxh6","add1":"625 Liberty Ave","geo_precision":"zip","state":"PA"},"type":"Feature","geometry":{"type":"Point","coordinates":[-80.024817,40.434436]}},{"properties":{"city":"Cleveland","zip":"44114","geo_score":0.857,"id":"afacaz50oj6h","add1":"600 Superior Ave","geo_precision":"zip","state":"OH"},"type":"Feature","geometry":{"type":"Point","coordinates":[-81.677302,41.5145]}},{"properties":{"city":"Columbus","zip":"43215","geo_score":0.857,"id":"afacazfnu3ni","add1":"20 S Third St","geo_precision":"zip","state":"OH"},"type":"Feature","geometry":{"type":"Point","coordinates":[-82.877131,39.891745]}},{"properties":{"city":"Cleveland","zip":"44106","geo_score":0.857,"id":"afacaz6vc7yi","add1":"2049 E 100th St","geo_precision":"zip","state":"OH"},"type":"Feature","geometry":{"type":"Point","coordinates":[-81.602799,41.504751]}},{"properties":{"city":"Arlington","zip":"22202","geo_score":0.857,"id":"afacazcw0vkh","add1":"2102 Crystal Plaza Jefferson D","geo_precision":"zip","state":"VA"},"type":"Feature","geometry":{"type":"Point","coordinates":[-77.059721,38.854462]}},{"properties":{"city":"Arlington","zip":"22202","geo_score":0.857,"id":"afacaz6vqc0x","add1":"1100 South Hayes St","geo_precision":"zip","state":"VA"},"type":"Feature","geometry":{"type":"Point","coordinates":[-77.059721,38.854462]}},{"properties":{"city":"Boston","zip":"02210","geo_score":0.857,"id":"afacazapds9m","add1":"23 Drydock Ave","geo_precision":"zip","state":"MA"},"type":"Feature","geometry":{"type":"Point","coordinates":[-71.040645,42.347547]}},{"properties":{"city":"Boston","zip":"02210","geo_score":0.857,"id":"afacazdd0kw6","add1":"One Au bon Pain Way","geo_precision":"zip","state":"MA"},"type":"Feature","geometry":{"type":"Point","coordinates":[-71.040645,42.347547]}},{"properties":{"city":"Ladue","zip":"63124","geo_score":0.857,"id":"afacazct06c4","add1":"9811 S Forty Dr","geo_precision":"zip","state":"MO"},"type":"Feature","geometry":{"type":"Point","coordinates":[-90.377566,38.637201]}},{"properties":{"city":"Hastings","zip":"68901","geo_score":0.857,"id":"afacazbcb8km","add1":"2303 Osborne Dr W","geo_precision":"zip","state":"NE"},"type":"Feature","geometry":{"type":"Point","coordinates":[-98.370339,40.696402]}},{"properties":{"city":"Philadelphia","zip":"19103","geo_score":0.857,"id":"afacazi7w31j","add1":"1617 JFK Blvd","geo_precision":"zip","state":"PA"},"type":"Feature","geometry":{"type":"Point","coordinates":[-75.186822,40.003361]}},{"properties":{"city":"Dedham","zip":"02026","geo_score":0.857,"id":"afacazi4vh98","add1":"950 Providence Highway","geo_precision":"zip","state":"MA"},"type":"Feature","geometry":{"type":"Point","coordinates":[-71.181141,42.244733]}},{"properties":{"city":"Clayton","zip":"63124","geo_score":0.857,"id":"afacazja7di6","add1":"9807 S Forty Dr","geo_precision":"zip","state":"MO"},"type":"Feature","geometry":{"type":"Point","coordinates":[-90.377566,38.637201]}},{"properties":{"city":"Lombard","zip":"60148","geo_score":0.857,"id":"afacazfesxil","add1":"2360 Fountain Square Dr","geo_precision":"zip","state":"IL"},"type":"Feature","geometry":{"type":"Point","coordinates":[-88.003864,41.869829]}},{"properties":{"city":"Chicago","zip":"60642","geo_score":0.857,"id":"afacaz72d4v9","add1":"855 W North Ave","geo_precision":"zip","state":"IL"},"type":"Feature","geometry":{"type":"Point","coordinates":[-87.701718,41.720589]}},{"properties":{"city":"Colorado Springs","zip":"80918","geo_score":0.857,"id":"afacazctllf3","add1":"5230 North Nevada Ave","geo_precision":"zip","state":"CO"},"type":"Feature","geometry":{"type":"Point","coordinates":[-104.807998,38.90319]}},{"properties":{"city":"Dallas","zip":"75219","geo_score":0.857,"id":"afacaza5clhe","add1":"4125 Lemmon Ave","geo_precision":"zip","state":"TX"},"type":"Feature","geometry":{"type":"Point","coordinates":[-96.777626,32.767268]}},{"properties":{"city":"Fort Worth","zip":"76107","geo_score":0.857,"id":"afacazegzyp4","add1":"5301 Camp Bowie Blvd","geo_precision":"zip","state":"TX"},"type":"Feature","geometry":{"type":"Point","coordinates":[-97.41363,32.744852]}},{"properties":{"city":"Grapevine","zip":"76051","geo_score":0.857,"id":"afacazhye0q3","add1":"1301 William D Tate Ave","geo_precision":"zip","state":"TX"},"type":"Feature","geometry":{"type":"Point","coordinates":[-97.080802,32.932843]}},{"properties":{"city":"Allen","zip":"75002","geo_score":0.857,"id":"afacazatbbvj","add1":"190 East Stacy Road","geo_precision":"zip","state":"TX"},"type":"Feature","geometry":{"type":"Point","coordinates":[-96.621938,33.055398]}},{"properties":{"city":"Dallas","zip":"75248","geo_score":0.857,"id":"afacazclf54x","add1":"16150 Dallas Parkway","geo_precision":"zip","state":"TX"},"type":"Feature","geometry":{"type":"Point","coordinates":[-96.767999,32.986006]}},{"properties":{"city":"Chicago","zip":"60602","geo_score":0.857,"id":"afacaz70c7bl","add1":"108 North State St.","geo_precision":"zip","state":"IL"},"type":"Feature","geometry":{"type":"Point","coordinates":[-87.68732,41.811929]}},{"properties":{"city":"Cleveland","zip":"44195","geo_score":0.857,"id":"afacazagp45h","add1":"9500 Euclid Ave","geo_precision":"zip","state":"OH"},"type":"Feature","geometry":{"type":"Point","coordinates":[-81.672797,41.685744]}},{"properties":{"city":"Cedar Rapids","zip":"52401","geo_score":0.857,"id":"afacaz5m8o5y","add1":"624 1st Ave NE","geo_precision":"zip","state":"IA"},"type":"Feature","geometry":{"type":"Point","coordinates":[-91.572955,41.975557]}},{"properties":{"city":"Marion","zip":"52302","geo_score":0.857,"id":"afacazch9cnq","add1":"750 Marion Blvd","geo_precision":"zip","state":"IA"},"type":"Feature","geometry":{"type":"Point","coordinates":[-91.573963,42.056938]}},{"properties":{"city":"Dubuque","zip":"52001","geo_score":0.857,"id":"afacaz8fbvjf","add1":"3300  Hillcrest Rd","geo_precision":"zip","state":"IA"},"type":"Feature","geometry":{"type":"Point","coordinates":[-90.779573,42.481114]}},{"properties":{"city":"Cedar Rapids","zip":"52240","geo_score":0.857,"id":"afacaz9zu2fk","add1":"2621 Blairsferry Rd NE","geo_precision":"zip","state":"IA"},"type":"Feature","geometry":{"type":"Point","coordinates":[-91.66128,41.569183]}},{"properties":{"city":"Cedar Rapids","zip":"52404","geo_score":0.857,"id":"afacaz8d8s83","add1":"555 33rd Ave SW","geo_precision":"zip","state":"IA"},"type":"Feature","geometry":{"type":"Point","coordinates":[-91.704467,41.919542]}},{"properties":{"city":"Iowa City","zip":"52240","geo_score":0.857,"id":"afacazh0l3wx","add1":"907 Hwy 6 East","geo_precision":"zip","state":"IA"},"type":"Feature","geometry":{"type":"Point","coordinates":[-91.66128,41.569183]}},{"properties":{"city":"Cedar Rapids","zip":"52404","geo_score":0.857,"id":"afacaz96xau0","add1":"3045 Williams Blvd SW","geo_precision":"zip","state":"IA"},"type":"Feature","geometry":{"type":"Point","coordinates":[-91.704467,41.919542]}},{"properties":{"city":"Dubuque","zip":"52001","geo_score":0.857,"id":"afacazeyejbi","add1":"240 S Locust St","geo_precision":"zip","state":"IA"},"type":"Feature","geometry":{"type":"Point","coordinates":[-90.779573,42.481114]}},{"properties":{"city":"Park Ridge","zip":"60068","geo_score":0.857,"id":"afacaz7ftzmc","add1":"1775 Dempster Street","geo_precision":"zip","state":"IL"},"type":"Feature","geometry":{"type":"Point","coordinates":[-87.843714,42.037228]}},{"properties":{"city":"Glendale","zip":"80246","geo_score":0.857,"id":"afacazahhh70","add1":"640 S. Colorado Blvd., #A","geo_precision":"zip","state":"CO"},"type":"Feature","geometry":{"type":"Point","coordinates":[-104.933591,39.704987]}},{"properties":{"city":"Staten Island","zip":"10301","geo_score":0.857,"id":"afacazkitjt4","add1":"St. George Ferry Terminal of t","geo_precision":"zip","state":"NY"},"type":"Feature","geometry":{"type":"Point","coordinates":[-74.085419,40.636493]}},{"properties":{"city":"New York","zip":"10112","geo_score":0.857,"id":"afacazaq5np9","add1":"30 Rockefeller Plaza","geo_precision":"zip","state":"NY"},"type":"Feature","geometry":{"type":"Point","coordinates":[-73.979808,40.759287]}},{"properties":{"city":"Washington","zip":"20024","geo_score":0.857,"id":"afacazasaqbk","add1":"470 L'Enfant Plaza East","geo_precision":"zip","state":"DC"},"type":"Feature","geometry":{"type":"Point","coordinates":[-77.022948,38.876494]}},{"properties":{"city":"Awesomeville","zip":"52302","geo_score":0.857,"id":"afacazi1ijj0","add1":"Delicous Ave","geo_precision":"zip","state":"IA"},"type":"Feature","geometry":{"type":"Point","coordinates":[-91.573963,42.056938]}},{"properties":{"city":"Henderson","zip":"89015","geo_score":0.857,"id":"afacazf9n2m4","add1":"605 Mall Ring Circle #140","geo_precision":"zip","state":"NV"},"type":"Feature","geometry":{"type":"Point","coordinates":[-115.193902,35.98395]}},{"properties":{"city":"Mason City","zip":"50401","geo_score":0.857,"id":"afacazaqa3ew","add1":"795 4th Street SW","geo_precision":"zip","state":"IA"},"type":"Feature","geometry":{"type":"Point","coordinates":[-93.280205,43.133571]}},{"properties":{"city":"Las Vegas","zip":"89148","geo_score":0.857,"id":"afacazg8cpyn","add1":"5130 South Fort Apache Road #250","geo_precision":"zip","state":"NV"},"type":"Feature","geometry":{"type":"Point","coordinates":[-115.272463,36.062903]}},{"properties":{"city":"Las Vegas","zip":"89183","geo_score":0.857,"id":"afacazfepcav","add1":"9911 South Eastern Avenue","geo_precision":"zip","state":"NV"},"type":"Feature","geometry":{"type":"Point","coordinates":[-115.137223,36.174971]}},{"properties":{"city":"Woodbridge","zip":"22191","geo_score":0.857,"id":"afacaz6pvrc0","add1":"14900 Potomac Town Place","geo_precision":"zip","state":"VA"},"type":"Feature","geometry":{"type":"Point","coordinates":[-77.271644,38.625541]}},{"properties":{"city":"Henderson","zip":"89074","geo_score":0.857,"id":"afacaz585day","add1":"2235 Village Walk Dr #169","geo_precision":"zip","state":"NV"},"type":"Feature","geometry":{"type":"Point","coordinates":[-115.136386,36.080358]}},{"properties":{"city":"Las Vegas","zip":"89128","geo_score":0.857,"id":"afacaz4p4pdg","add1":"7175 West Lake Mead Blvd #190","geo_precision":"zip","state":"NV"},"type":"Feature","geometry":{"type":"Point","coordinates":[-115.24018,36.119038]}},{"properties":{"city":"Potowatomie","zip":"52314","geo_score":0.857,"id":"afacaz5o5e4f","add1":"67834 State St","geo_precision":"zip","state":"IA"},"type":"Feature","geometry":{"type":"Point","coordinates":[-91.450762,41.939802]}},{"properties":{"city":"Denver","zip":"80222","geo_score":0.857,"id":"afacaz8ad7hm","add1":"2466 South Colorado Blvd A","geo_precision":"zip","state":"CO"},"type":"Feature","geometry":{"type":"Point","coordinates":[-104.924134,39.709343]}},{"properties":{"city":"Lori","zip":"52314","geo_score":0.857,"id":"afacaz9m85ln","add1":"Terianne Drive","geo_precision":"zip","state":"IA"},"type":"Feature","geometry":{"type":"Point","coordinates":[-91.450762,41.939802]}},{"properties":{"city":"New York","zip":"10065","geo_score":0.857,"id":"afacazcpggga","add1":"525 East 68th Street Greenberg Pavilion - 4th Floor","geo_precision":"zip","state":"NY"},"type":"Feature","geometry":{"type":"Point","coordinates":[-74.005973,40.714269]}},{"properties":{"city":"New York","zip":"10065","geo_score":0.857,"id":"afacaz4yao40","add1":"525 East 68th Street - Basement","geo_precision":"zip","state":"NY"},"type":"Feature","geometry":{"type":"Point","coordinates":[-74.005973,40.714269]}},{"properties":{"city":"Hartford","zip":"06106","geo_score":0.857,"id":"afacazey7q9m","add1":"80 Seymour Street","geo_precision":"zip","state":"CT"},"type":"Feature","geometry":{"type":"Point","coordinates":[-72.687787,41.745049]}},{"properties":{"city":"Sandy Springs","zip":"30328","geo_score":0.857,"id":"afacazj1kb1b","add1":"1140 Hammond Dr","geo_precision":"zip","state":"GA"},"type":"Feature","geometry":{"type":"Point","coordinates":[-84.378538,33.924269]}},{"properties":{"city":"Springfield","zip":"65804","geo_score":0.857,"id":"afacazh6l6hj","add1":"1570 East Battlefield","geo_precision":"zip","state":"MO"},"type":"Feature","geometry":{"type":"Point","coordinates":[-93.238034,37.151377]}},{"properties":{"city":"Springfield","zip":"65802","geo_score":0.857,"id":"afacaz7et2st","add1":"500 South National","geo_precision":"zip","state":"MO"},"type":"Feature","geometry":{"type":"Point","coordinates":[-93.362135,37.217827]}},{"properties":{"city":"Springfield","zip":"65804","geo_score":0.857,"id":"afacazdvjw4f","add1":"2924 East Sunshine","geo_precision":"zip","state":"MO"},"type":"Feature","geometry":{"type":"Point","coordinates":[-93.238034,37.151377]}},{"properties":{"city":"Springfield","zip":"65807","geo_score":0.857,"id":"afacaz5t5ikg","add1":"3837 South Campbell","geo_precision":"zip","state":"MO"},"type":"Feature","geometry":{"type":"Point","coordinates":[-93.348705,37.158811]}},{"properties":{"city":"Branson","zip":"65616","geo_score":0.857,"id":"afacazahbur3","add1":"2407 Green Mountain Dr","geo_precision":"zip","state":"MO"},"type":"Feature","geometry":{"type":"Point","coordinates":[-93.05634,36.653256]}},{"properties":{"city":"Springfield","zip":"65803","geo_score":0.857,"id":"afacazfb60ic","add1":"2535 N Kansas Expressway","geo_precision":"zip","state":"MO"},"type":"Feature","geometry":{"type":"Point","coordinates":[-93.247965,37.26588]}},{"properties":{"city":"Joplin","zip":"64804","geo_score":0.857,"id":"afacazic9mn5","add1":"2401 East 32nd St","geo_precision":"zip","state":"MO"},"type":"Feature","geometry":{"type":"Point","coordinates":[-94.374452,37.099335]}},{"properties":{"city":"Fort Smith","zip":"72903","geo_score":0.857,"id":"afacaz9ytd6w","add1":"2917 S 74th Street","geo_precision":"zip","state":"AR"},"type":"Feature","geometry":{"type":"Point","coordinates":[-94.356112,35.354491]}},{"properties":{"city":"Fayetteville","zip":"72701","geo_score":0.857,"id":"afacazhyec1z","add1":"3638 N Front St","geo_precision":"zip","state":"AR"},"type":"Feature","geometry":{"type":"Point","coordinates":[-94.277152,36.15369]}},{"properties":{"city":"Little Rock","zip":"72212","geo_score":0.857,"id":"afacazisx09z","add1":"11525 Cantrell Rd Space 101","geo_precision":"zip","state":"AR"},"type":"Feature","geometry":{"type":"Point","coordinates":[-92.441752,34.800793]}},{"properties":{"city":"Conway","zip":"72032","geo_score":0.857,"id":"afacazbm27cb","add1":"1050 Ellis Ave Ste 101","geo_precision":"zip","state":"AR"},"type":"Feature","geometry":{"type":"Point","coordinates":[-92.390155,35.02342]}},{"properties":{"city":"N Little Rock","zip":"72116","geo_score":0.857,"id":"afacazfqvs3y","add1":"2812 Lakewood Village Dr","geo_precision":"zip","state":"AR"},"type":"Feature","geometry":{"type":"Point","coordinates":[-92.23126,34.836479]}},{"properties":{"city":"Providence","zip":"02905","geo_score":0.857,"id":"afacazjuu7nv","add1":"101 Dudley St","geo_precision":"zip","state":"RI"},"type":"Feature","geometry":{"type":"Point","coordinates":[-71.397556,41.78149]}},{"properties":{"city":"Nashville","zip":"37232","geo_score":0.857,"id":"afacazieuxhr","add1":"1211 Medical Drive, 2nd floor VUH","geo_precision":"zip","state":"TN"},"type":"Feature","geometry":{"type":"Point","coordinates":[-86.785248,36.186605]}},{"properties":{"city":"Baltimore","zip":"21201","geo_score":0.857,"id":"afacaz9xq2og","add1":"22 S Green Street","geo_precision":"zip","state":"MD"},"type":"Feature","geometry":{"type":"Point","coordinates":[-76.623489,39.296536]}},{"properties":{"city":"Chicago","zip":"60606","geo_score":0.857,"id":"afacazbayq2m","add1":"225 S. Canal St","geo_precision":"zip","state":"IL"},"type":"Feature","geometry":{"type":"Point","coordinates":[-87.68732,41.811929]}},{"properties":{"city":"Tustin","zip":"92782","geo_score":0.857,"id":"afacazdvye93","add1":"2409 Park Ave","geo_precision":"zip","state":"CA"},"type":"Feature","geometry":{"type":"Point","coordinates":[-117.816189,33.705787]}},{"properties":{"city":"Redondo Beach","zip":"90277","geo_score":0.857,"id":"afacaz9gt54y","add1":"665 North Harbor Dr","geo_precision":"zip","state":"CA"},"type":"Feature","geometry":{"type":"Point","coordinates":[-118.298662,33.786594]}},{"properties":{"city":"Newport Beach","zip":"92663","geo_score":0.857,"id":"afacazkjbo09","add1":"630 Lido Park Dr","geo_precision":"zip","state":"CA"},"type":"Feature","geometry":{"type":"Point","coordinates":[-117.91709,33.61837]}},{"properties":{"city":"NEW YORK","zip":"10065","geo_score":0.857,"id":"afacazib4re4","add1":"525 E 68th St","geo_precision":"zip","state":"NY"},"type":"Feature","geometry":{"type":"Point","coordinates":[-74.005973,40.714269]}},{"properties":{"city":"Baltimore","zip":"21201","geo_score":0.857,"id":"afacazhf88lc","add1":"110 S. Paca Street","geo_precision":"zip","state":"MD"},"type":"Feature","geometry":{"type":"Point","coordinates":[-76.623489,39.296536]}},{"properties":{"city":"Broken Arrow","zip":"74012","geo_score":0.857,"id":"afacazdx4cpg","add1":"2201 West Detroit","geo_precision":"zip","state":"OK"},"type":"Feature","geometry":{"type":"Point","coordinates":[-95.708038,36.01899]}},{"properties":{"city":"Tulsa","zip":"74136","geo_score":0.857,"id":"afacaz92e09g","add1":"6981 S. Lewis Ave","geo_precision":"zip","state":"OK"},"type":"Feature","geometry":{"type":"Point","coordinates":[-95.920371,36.053498]}},{"properties":{"city":"Tulsa","zip":"74135","geo_score":0.857,"id":"afacazbicpng","add1":"5601 E. 41st Street","geo_precision":"zip","state":"OK"},"type":"Feature","geometry":{"type":"Point","coordinates":[-95.923175,36.092236]}},{"properties":{"city":"Tulsa","zip":"74133","geo_score":0.857,"id":"afacazhuz4bw","add1":"8930 S. Memorial Drive","geo_precision":"zip","state":"OK"},"type":"Feature","geometry":{"type":"Point","coordinates":[-95.873067,36.062203]}},{"properties":{"city":"Tulsa","zip":"74120","geo_score":0.857,"id":"afacaz7qfo79","add1":"1624 East 15th Street","geo_precision":"zip","state":"OK"},"type":"Feature","geometry":{"type":"Point","coordinates":[-95.979824,36.148593]}},{"properties":{"city":"Stillwater","zip":"74075","geo_score":0.857,"id":"afacaz9gn2x5","add1":"113 W Hall of Fame","geo_precision":"zip","state":"OK"},"type":"Feature","geometry":{"type":"Point","coordinates":[-97.068895,36.167933]}},{"properties":{"city":"Owasso","zip":"74055","geo_score":0.857,"id":"afacaz6zlufp","add1":"12417 E 96th Street North","geo_precision":"zip","state":"OK"},"type":"Feature","geometry":{"type":"Point","coordinates":[-95.909669,36.140225]}},{"properties":{"city":"Tulsa","zip":"74133","geo_score":0.857,"id":"afacazhjcj1q","add1":"11123 E 71st Street","geo_precision":"zip","state":"OK"},"type":"Feature","geometry":{"type":"Point","coordinates":[-95.873067,36.062203]}},{"properties":{"city":"Edmond","zip":"73034","geo_score":0.857,"id":"afacazb16dv5","add1":"1472 South Bryant Avenue","geo_precision":"zip","state":"OK"},"type":"Feature","geometry":{"type":"Point","coordinates":[-97.463291,35.631005]}},{"properties":{"city":"Oklahoma City","zip":"73112","geo_score":0.857,"id":"afacaz62tbov","add1":"3321 NW Expressway","geo_precision":"zip","state":"OK"},"type":"Feature","geometry":{"type":"Point","coordinates":[-97.578865,35.511007]}},{"properties":{"city":"Oklahoma City","zip":"73134","geo_score":0.857,"id":"afacazbb3gl1","add1":"4401 W. Memorial Road","geo_precision":"zip","state":"OK"},"type":"Feature","geometry":{"type":"Point","coordinates":[-97.567199,35.624134]}},{"properties":{"city":"West Hollywood","zip":"90069","geo_score":0.857,"id":"afacazd2g9no","add1":"8759 Santa Monica Boulevard","geo_precision":"zip","state":"CA"},"type":"Feature","geometry":{"type":"Point","coordinates":[-118.298662,33.786594]}},{"properties":{"city":"Oklahoma City","zip":"73116","geo_score":0.857,"id":"afacaz51knu8","add1":"6800 N. Western Avenue","geo_precision":"zip","state":"OK"},"type":"Feature","geometry":{"type":"Point","coordinates":[-97.548929,35.55089]}},{"properties":{"city":"Oklahoma City","zip":"73132","geo_score":0.857,"id":"afacazcrkssx","add1":"7101 NW Espressway #500","geo_precision":"zip","state":"OK"},"type":"Feature","geometry":{"type":"Point","coordinates":[-97.61893,35.522557]}},{"properties":{"city":"Oklahoma City","zip":"73170","geo_score":0.857,"id":"afacaz9mjm3z","add1":"10600 S. Pennsylvania","geo_precision":"zip","state":"OK"},"type":"Feature","geometry":{"type":"Point","coordinates":[-97.501459,35.2972]}},{"properties":{"city":"Norman","zip":"73069","geo_score":0.857,"id":"afacaz53au2r","add1":"2200 W. Main Street","geo_precision":"zip","state":"OK"},"type":"Feature","geometry":{"type":"Point","coordinates":[-97.438246,35.232966]}},{"properties":{"city":"Midwest City","zip":"73110","geo_score":0.857,"id":"afacaz7thv6c","add1":"7199 SE 29th St #113","geo_precision":"zip","state":"OK"},"type":"Feature","geometry":{"type":"Point","coordinates":[-97.396702,35.449507]}},{"properties":{"city":"Tucson","zip":"85704","geo_score":0.857,"id":"afacazc0tl2k","add1":"4362 North Oracle Road","geo_precision":"zip","state":"AZ"},"type":"Feature","geometry":{"type":"Point","coordinates":[-111.025654,32.35313]}},{"properties":{"city":"Olivette","zip":"63132","geo_score":0.857,"id":"afacazg8uhp4","add1":"9200 Olive Blvd","geo_precision":"zip","state":"MO"},"type":"Feature","geometry":{"type":"Point","coordinates":[-90.374716,38.674601]}},{"properties":{"city":"Philadelphia","zip":"19153","geo_score":0.857,"id":"afacazepglmn","add1":"Philly Airport","geo_precision":"zip","state":"PA"},"type":"Feature","geometry":{"type":"Point","coordinates":[-75.226976,39.899412]}},{"properties":{"city":"Bentonville","zip":"72712","geo_score":0.857,"id":"afacazhtkit5","add1":"1320 SE Walton Boulevard","geo_precision":"zip","state":"AR"},"type":"Feature","geometry":{"type":"Point","coordinates":[-94.304098,36.315355]}},{"properties":{"city":"Philladelphia","zip":"19103","geo_score":0.857,"id":"afacaz92aapa","add1":"1617 JFK Boulevard","geo_precision":"zip","state":"PA"},"type":"Feature","geometry":{"type":"Point","coordinates":[-75.186822,40.003361]}},{"properties":{"city":"Lincoln","zip":"68516","geo_score":0.857,"id":"afacazjgcvsq","add1":"3730 Village Drive","geo_precision":"zip","state":"NE"},"type":"Feature","geometry":{"type":"Point","coordinates":[-96.661769,40.777556]}},{"properties":{"city":"Lincoln","zip":"68508","geo_score":0.857,"id":"afacaz7ase0e","add1":"1133","geo_precision":"zip","state":"NE"},"type":"Feature","geometry":{"type":"Point","coordinates":[-96.624692,40.7981]}},{"properties":{"city":"Pensacola","zip":"32534","geo_score":0.857,"id":"afacazhr1dnr","add1":"165 E. Nine Mile Road","geo_precision":"zip","state":"FL"},"type":"Feature","geometry":{"type":"Point","coordinates":[-87.292335,30.534235]}},{"properties":{"city":"Crestview","zip":"32536","geo_score":0.857,"id":"afacazdz8rhz","add1":"215 Rasberry Rd.","geo_precision":"zip","state":"FL"},"type":"Feature","geometry":{"type":"Point","coordinates":[-86.533285,30.832408]}},{"properties":{"city":"Denver","zip":"80226","geo_score":0.857,"id":"afacaz6msjpp","add1":"650 S. Wadsworth Blvd","geo_precision":"zip","state":"CO"},"type":"Feature","geometry":{"type":"Point","coordinates":[-105.091502,39.710884]}},{"properties":{"city":"Tulsa","zip":"74107","geo_score":0.857,"id":"afacazdzjago","add1":"7547 S Olympia Ave","geo_precision":"zip","state":"OK"},"type":"Feature","geometry":{"type":"Point","coordinates":[-95.954871,36.076795]}},{"properties":{"city":"Oklahoma City","zip":"73128","geo_score":0.857,"id":"afacazk8rxuh","add1":"6410 SW 3rd St","geo_precision":"zip","state":"OK"},"type":"Feature","geometry":{"type":"Point","coordinates":[-97.636284,35.427335]}},{"properties":{"city":"Topeka","zip":"66604","geo_score":0.857,"id":"afacazgyx2cc","add1":"5928 S.W. 17th St","geo_precision":"zip","state":"KS"},"type":"Feature","geometry":{"type":"Point","coordinates":[-95.876376,39.078611]}},{"properties":{"city":"Manhattan","zip":"66502","geo_score":0.857,"id":"afacaz8tdj84","add1":"100 Manhattan Town Center","geo_precision":"zip","state":"KS"},"type":"Feature","geometry":{"type":"Point","coordinates":[-96.708617,39.223607]}},{"properties":{"city":"St Joseph","zip":"64506","geo_score":0.857,"id":"afacazko657h","add1":"4004 Frederick Blvd","geo_precision":"zip","state":"MO"},"type":"Feature","geometry":{"type":"Point","coordinates":[-94.757186,39.863328]}},{"properties":{"city":"North Platte","zip":"69101","geo_score":0.857,"id":"afacazdi6pku","add1":"102 Platte Oasis Parkway","geo_precision":"zip","state":"NE"},"type":"Feature","geometry":{"type":"Point","coordinates":[-100.74907,41.102555]}},{"properties":{"city":"Irvine","zip":"92606","geo_score":0.857,"id":"afacazjs3j2f","add1":"3972 Barranca Parkway","geo_precision":"zip","state":"CA"},"type":"Feature","geometry":{"type":"Point","coordinates":[-117.817338,33.701121]}},{"properties":{"city":"Scottsbluff","zip":"69361","geo_score":0.857,"id":"afacaz7staiw","add1":"2621 5th Ave","geo_precision":"zip","state":"NE"},"type":"Feature","geometry":{"type":"Point","coordinates":[-103.77023,41.872005]}},{"properties":{"city":"Laramie","zip":"82070","geo_score":0.857,"id":"afacaz71yg8s","add1":"3209 Grand Avenue","geo_precision":"zip","state":"WY"},"type":"Feature","geometry":{"type":"Point","coordinates":[-105.801022,41.43902]}},{"properties":{"city":"Lincoln","zip":"68505","geo_score":0.857,"id":"afacaz695jmu","add1":"318 Gateway Mall","geo_precision":"zip","state":"NE"},"type":"Feature","geometry":{"type":"Point","coordinates":[-96.618058,40.900275]}},{"properties":{"city":"Emporia","zip":"66801","geo_score":0.857,"id":"afacaz9xd31j","add1":"2901 Eaglecrest Dr","geo_precision":"zip","state":"KS"},"type":"Feature","geometry":{"type":"Point","coordinates":[-96.152766,38.434153]}},{"properties":{"city":"Rock Springs","zip":"82901","geo_score":0.857,"id":"afacazayofum","add1":"2471 Foothill Blvd","geo_precision":"zip","state":"WY"},"type":"Feature","geometry":{"type":"Point","coordinates":[-110.958243,41.813555]}},{"properties":{"city":"Lubbock","zip":"79423","geo_score":0.857,"id":"afacaz7fm6rb","add1":"4025 South Loop 289","geo_precision":"zip","state":"TX"},"type":"Feature","geometry":{"type":"Point","coordinates":[-101.896714,33.472975]}},{"properties":{"city":"Amarillo","zip":"79121","geo_score":0.857,"id":"afacaz719zyf","add1":"2810 Soncy Rd","geo_precision":"zip","state":"TX"},"type":"Feature","geometry":{"type":"Point","coordinates":[-101.992003,35.142756]}},{"properties":{"city":"Wichita Falls","zip":"76308","geo_score":0.857,"id":"afacaz53kcuc","add1":"2911 Kemp Blvd","geo_precision":"zip","state":"TX"},"type":"Feature","geometry":{"type":"Point","coordinates":[-98.389217,34.05815]}},{"properties":{"city":"Lawton","zip":"73505","geo_score":0.857,"id":"afacazkl99g0","add1":"6211 NW Cache Road","geo_precision":"zip","state":"OK"},"type":"Feature","geometry":{"type":"Point","coordinates":[-98.436365,34.678734]}},{"properties":{"city":"Ardmore","zip":"73401","geo_score":0.857,"id":"afacazk6ut38","add1":"2680 West Broadway","geo_precision":"zip","state":"OK"},"type":"Feature","geometry":{"type":"Point","coordinates":[-97.339465,34.332589]}},{"properties":{"city":"Lincoln","zip":"68521","geo_score":0.857,"id":"afacazfl42ws","add1":"3951 N 27th St","geo_precision":"zip","state":"NE"},"type":"Feature","geometry":{"type":"Point","coordinates":[-96.718994,40.863301]}},{"properties":{"city":"Evansville","zip":"82636","geo_score":0.857,"id":"afacaz5nhqbe","add1":"359 Miracle Street","geo_precision":"zip","state":"WY"},"type":"Feature","geometry":{"type":"Point","coordinates":[-106.175375,42.899153]}},{"properties":{"city":"Grand Island","zip":"68803","geo_score":0.857,"id":"afacaza6sfr2","add1":"721 Diers Avenue","geo_precision":"zip","state":"NE"},"type":"Feature","geometry":{"type":"Point","coordinates":[-98.521343,40.872531]}},{"properties":{"city":"Maryville","zip":"64468","geo_score":0.857,"id":"afacaz5olowj","add1":"2919 South Main St","geo_precision":"zip","state":"MO"},"type":"Feature","geometry":{"type":"Point","coordinates":[-94.827747,40.258047]}},{"properties":{"city":"York","zip":"68467","geo_score":0.857,"id":"afacazbic1qr","add1":"4619 South Lincoln Ave","geo_precision":"zip","state":"NE"},"type":"Feature","geometry":{"type":"Point","coordinates":[-97.597278,40.890132]}},{"properties":{"city":"Gillette","zip":"82716","geo_score":0.857,"id":"afacazcanzak","add1":"1927 Cliff Davis Dr","geo_precision":"zip","state":"WY"},"type":"Feature","geometry":{"type":"Point","coordinates":[-105.379716,44.291369]}},{"properties":{"city":"Kearney","zip":"68847","geo_score":0.857,"id":"afacazbf8hhy","add1":"5605 2nd Ave","geo_precision":"zip","state":"NE"},"type":"Feature","geometry":{"type":"Point","coordinates":[-99.073398,40.850493]}},{"properties":{"city":"Columbus","zip":"68601","geo_score":0.857,"id":"afacazilvvnr","add1":"328 East 23rd Street","geo_precision":"zip","state":"NE"},"type":"Feature","geometry":{"type":"Point","coordinates":[-97.385598,41.421957]}},{"properties":{"city":"Mobile","zip":"36608","geo_score":0.857,"id":"afacazasbcyj","add1":"5760 Airport Blvd","geo_precision":"zip","state":"AL"},"type":"Feature","geometry":{"type":"Point","coordinates":[-88.138891,30.698523]}},{"properties":{"city":"Pensacola","zip":"32503","geo_score":0.857,"id":"afacazei8dxc","add1":"5091 Bayou Blvd","geo_precision":"zip","state":"FL"},"type":"Feature","geometry":{"type":"Point","coordinates":[-87.236083,30.468808]}},{"properties":{"city":"Destin","zip":"32541","geo_score":0.857,"id":"afacazjkbopz","add1":"8670 Highway 98 West","geo_precision":"zip","state":"FL"},"type":"Feature","geometry":{"type":"Point","coordinates":[-86.358558,30.374367]}},{"properties":{"city":"Mobile","zip":"36693","geo_score":0.857,"id":"afacazem4l61","add1":"4940 Government Blvd","geo_precision":"zip","state":"AL"},"type":"Feature","geometry":{"type":"Point","coordinates":[-88.174502,30.635741]}},{"properties":{"city":"Amarillo","zip":"79106","geo_score":0.857,"id":"afacazhbv86r","add1":"5630 W. Amarillo Blvd","geo_precision":"zip","state":"TX"},"type":"Feature","geometry":{"type":"Point","coordinates":[-101.932689,35.265052]}},{"properties":{"city":"Foley","zip":"36536","geo_score":0.857,"id":"afacaz8ovii3","add1":"2409 S. McKenzie St","geo_precision":"zip","state":"AL"},"type":"Feature","geometry":{"type":"Point","coordinates":[-87.706371,30.42216]}},{"properties":{"city":"Ocean Springs","zip":"39564","geo_score":0.857,"id":"afacaz6i7nfu","add1":"1601 Bienville Blvd","geo_precision":"zip","state":"MS"},"type":"Feature","geometry":{"type":"Point","coordinates":[-88.719746,30.402144]}},{"properties":{"city":"McAllen","zip":"78503","geo_score":0.857,"id":"afacaze8z8qv","add1":"514 East Expressway 83","geo_precision":"zip","state":"TX"},"type":"Feature","geometry":{"type":"Point","coordinates":[-98.33773,26.182171]}},{"properties":{"city":"McAllen","zip":"78504","geo_score":0.857,"id":"afacaz6eo7qv","add1":"4601 North 10th St","geo_precision":"zip","state":"TX"},"type":"Feature","geometry":{"type":"Point","coordinates":[-98.233488,26.326284]}},{"properties":{"city":"Laredo","zip":"78041","geo_score":0.857,"id":"afacazclkur9","add1":"7601 San Dario","geo_precision":"zip","state":"TX"},"type":"Feature","geometry":{"type":"Point","coordinates":[-99.475079,27.556714]}},{"properties":{"city":"Harlingen","zip":"78550","geo_score":0.857,"id":"afacaz4hysc9","add1":"1519 West Harrison","geo_precision":"zip","state":"TX"},"type":"Feature","geometry":{"type":"Point","coordinates":[-97.758049,26.225908]}},{"properties":{"city":"Corpus Christi","zip":"78412","geo_score":0.857,"id":"afacaze7me3e","add1":"6691 S. Padre Island","geo_precision":"zip","state":"TX"},"type":"Feature","geometry":{"type":"Point","coordinates":[-97.351868,27.68456]}},{"properties":{"city":"Lubbock","zip":"79416","geo_score":0.857,"id":"afacazeqhd53","add1":"6501 4th St","geo_precision":"zip","state":"TX"},"type":"Feature","geometry":{"type":"Point","coordinates":[-101.957394,33.587073]}},{"properties":{"city":"Altus","zip":"73521","geo_score":0.857,"id":"afacaz722eql","add1":"3501 North Main St","geo_precision":"zip","state":"OK"},"type":"Feature","geometry":{"type":"Point","coordinates":[-99.228973,34.695901]}},{"properties":{"city":"Ada","zip":"74820","geo_score":0.857,"id":"afacaza3cybg","add1":"1220 North Mississippi","geo_precision":"zip","state":"OK"},"type":"Feature","geometry":{"type":"Point","coordinates":[-96.616955,34.781476]}},{"properties":{"city":"Edinburg","zip":"78539","geo_score":0.857,"id":"afacazhh2pu9","add1":"1913 West Trenton Rd","geo_precision":"zip","state":"TX"},"type":"Feature","geometry":{"type":"Point","coordinates":[-98.071951,26.295627]}},{"properties":{"city":"Cheyenne","zip":"82009","geo_score":0.857,"id":"afacazj7ublx","add1":"1401 Dell Range Blvd","geo_precision":"zip","state":"WY"},"type":"Feature","geometry":{"type":"Point","coordinates":[-104.660353,41.377698]}},{"properties":{"city":"New Hyde Park","zip":"11040","geo_score":0.857,"id":"afacazh1sz38","add1":"270-05 76th Ave","geo_precision":"zip","state":"NY"},"type":"Feature","geometry":{"type":"Point","coordinates":[-73.66263,40.740935]}},{"properties":{"city":"Nashville","zip":"37204","geo_score":0.857,"id":"afacaz5u12jx","add1":"719 Thompson Lane","geo_precision":"zip","state":"TN"},"type":"Feature","geometry":{"type":"Point","coordinates":[-86.850099,36.119294]}},{"properties":{"city":"Washington","zip":"20004","geo_score":0.857,"id":"afacaz86xhfd","add1":"1300 Pennsylvania Ave NW","geo_precision":"zip","state":"DC"},"type":"Feature","geometry":{"type":"Point","coordinates":[-77.019477,38.892247]}},{"properties":{"city":"Lawrence","zip":"66046","geo_score":0.857,"id":"afacazbgn1i5","add1":"3140 Iowa St, #110","geo_precision":"zip","state":"KS"},"type":"Feature","geometry":{"type":"Point","coordinates":[-95.315453,38.878682]}},{"properties":{"city":"Manhasset","zip":"11030","geo_score":0.857,"id":"afacazb7xgb4","add1":"300 Community Drive","geo_precision":"zip","state":"NY"},"type":"Feature","geometry":{"type":"Point","coordinates":[-73.679852,40.798712]}},{"properties":{"city":"Overland Park","zip":"66213","geo_score":0.857,"id":"afacaz5cdbjb","add1":"12010 Metcalf","geo_precision":"zip","state":"KS"},"type":"Feature","geometry":{"type":"Point","coordinates":[-94.704936,38.898243]}},{"properties":{"city":"Wichita","zip":"67209","geo_score":0.857,"id":"afacazgwhw0e","add1":"320 S Ridge Road","geo_precision":"zip","state":"KS"},"type":"Feature","geometry":{"type":"Point","coordinates":[-97.435012,37.666579]}},{"properties":{"city":"Wichita,","zip":"67206","geo_score":0.857,"id":"afacaza6qgl2","add1":"2035 N. Rock Road","geo_precision":"zip","state":"KS"},"type":"Feature","geometry":{"type":"Point","coordinates":[-97.342752,37.613954]}},{"properties":{"city":"Omaha","zip":"68144","geo_score":0.857,"id":"afacaz59lo84","add1":"3350 S. 143rd Plaza","geo_precision":"zip","state":"NE"},"type":"Feature","geometry":{"type":"Point","coordinates":[-96.118847,41.233498]}},{"properties":{"city":"Salina","zip":"67401","geo_score":0.857,"id":"afacazjmvqp1","add1":"2875 S. Ninth","geo_precision":"zip","state":"KS"},"type":"Feature","geometry":{"type":"Point","coordinates":[-97.454475,38.783891]}},{"properties":{"city":"Omaha","zip":"68114","geo_score":0.857,"id":"afacaz9pxa1d","add1":"7450 Dodge Street","geo_precision":"zip","state":"NE"},"type":"Feature","geometry":{"type":"Point","coordinates":[-96.053634,41.263262]}},{"properties":{"city":"Wichita","zip":"67216","geo_score":0.857,"id":"afacaz9eo29c","add1":"4760 S. Broadway","geo_precision":"zip","state":"KS"},"type":"Feature","geometry":{"type":"Point","coordinates":[-97.333934,37.520852]}},{"properties":{"city":"Hutchinson,","zip":"67501","geo_score":0.857,"id":"afacazczmpw4","add1":"1609 E. 17th","geo_precision":"zip","state":"KS"},"type":"Feature","geometry":{"type":"Point","coordinates":[-98.008943,38.096956]}},{"properties":{"city":"Omaha","zip":"68164","geo_score":0.857,"id":"afacaz6ss2lz","add1":"13208 W. Maple","geo_precision":"zip","state":"NE"},"type":"Feature","geometry":{"type":"Point","coordinates":[-96.104795,41.306689]}},{"properties":{"city":"Hays","zip":"67601","geo_score":0.857,"id":"afacazfw50ws","add1":"4101 N. Vine","geo_precision":"zip","state":"KS"},"type":"Feature","geometry":{"type":"Point","coordinates":[-99.423996,38.907234]}},{"properties":{"city":"Papillion","zip":"68046","geo_score":0.857,"id":"afacazhtgwai","add1":"1202 N. Washington","geo_precision":"zip","state":"NE"},"type":"Feature","geometry":{"type":"Point","coordinates":[-96.150297,41.183888]}},{"properties":{"city":"Newton","zip":"67114","geo_score":0.857,"id":"afacazd0w3m8","add1":"601 Manchester Lane","geo_precision":"zip","state":"KS"},"type":"Feature","geometry":{"type":"Point","coordinates":[-97.390037,38.102789]}},{"properties":{"city":"Council Bluffs","zip":"51501","geo_score":0.857,"id":"afacazbyl4pi","add1":"3000 Dial Drive","geo_precision":"zip","state":"IA"},"type":"Feature","geometry":{"type":"Point","coordinates":[-95.875086,41.23238]}},{"properties":{"city":"Andover","zip":"67002","geo_score":0.857,"id":"afacazbncrum","add1":"436 S. Andover Road","geo_precision":"zip","state":"KS"},"type":"Feature","geometry":{"type":"Point","coordinates":[-97.098431,37.701532]}},{"properties":{"city":"Great Bend","zip":"67530","geo_score":0.857,"id":"afacaz8mg4xx","add1":"3209 E. 10th Street","geo_precision":"zip","state":"KS"},"type":"Feature","geometry":{"type":"Point","coordinates":[-98.775074,38.393567]}},{"properties":{"city":"McPherson","zip":"67460","geo_score":0.857,"id":"afacazh9gw7y","add1":"2280 E. Kansas Avenue","geo_precision":"zip","state":"KS"},"type":"Feature","geometry":{"type":"Point","coordinates":[-97.786435,38.369453]}},{"properties":{"city":"Garden City","zip":"67846","geo_score":0.857,"id":"afacazcwf35z","add1":"3030 E. Kansas","geo_precision":"zip","state":"KS"},"type":"Feature","geometry":{"type":"Point","coordinates":[-100.910993,38.163356]}},{"properties":{"city":"Bellevue","zip":"68123","geo_score":0.857,"id":"afacazc3z3jq","add1":"10402 S. 15th Street","geo_precision":"zip","state":"NE"},"type":"Feature","geometry":{"type":"Point","coordinates":[-95.923622,41.074721]}},{"properties":{"city":"Omaha","zip":"68130","geo_score":0.857,"id":"afacazjcm0ze","add1":"2829 S. 181st Street","geo_precision":"zip","state":"NE"},"type":"Feature","geometry":{"type":"Point","coordinates":[-96.19506,41.234004]}},{"properties":{"city":"Dodge City","zip":"67801","geo_score":0.857,"id":"afacazhzg0d9","add1":"406 W. Wyatt Earp Blvd","geo_precision":"zip","state":"KS"},"type":"Feature","geometry":{"type":"Point","coordinates":[-99.902421,37.690531]}},{"properties":{"city":"Fremont","zip":"68025","geo_score":0.857,"id":"afacaz7ce4h4","add1":"3420 E. Elk Lane","geo_precision":"zip","state":"NE"},"type":"Feature","geometry":{"type":"Point","coordinates":[-96.501672,41.487786]}},{"properties":{"city":"Park City","zip":"67219","geo_score":0.857,"id":"afacaz8ycs1k","add1":"996 E Connolly Court","geo_precision":"zip","state":"KS"},"type":"Feature","geometry":{"type":"Point","coordinates":[-97.265034,37.773805]}},{"properties":{"city":"Derby","zip":"67037","geo_score":0.857,"id":"afacazkaz8d0","add1":"1245 North Rock Road","geo_precision":"zip","state":"KS"},"type":"Feature","geometry":{"type":"Point","coordinates":[-97.228475,37.566129]}},{"properties":{"city":"Wichita","zip":"67205","geo_score":0.857,"id":"afacaza3xmna","add1":"10728 W 21st North","geo_precision":"zip","state":"KS"},"type":"Feature","geometry":{"type":"Point","coordinates":[-97.444035,37.773675]}},{"properties":{"city":"Liberal","zip":"67901","geo_score":0.857,"id":"afacaz5cdq2u","add1":"2611 N. Kansas Avenue","geo_precision":"zip","state":"KS"},"type":"Feature","geometry":{"type":"Point","coordinates":[-100.873809,37.043237]}},{"properties":{"city":"Omaha","zip":"68134","geo_score":0.857,"id":"afacazeg2zfq","add1":"6222 N 72nd St","geo_precision":"zip","state":"NE"},"type":"Feature","geometry":{"type":"Point","coordinates":[-96.054739,41.321109]}},{"properties":{"city":"Lee's Summit","zip":"64081","geo_score":0.857,"id":"afacazdr2g0f","add1":"1690 NW Chipman Rd","geo_precision":"zip","state":"MO"},"type":"Feature","geometry":{"type":"Point","coordinates":[-94.400625,38.914352]}},{"properties":{"city":"Kansas City","zip":"64105","geo_score":0.857,"id":"afacazcrvcsg","add1":"1100 Main St, Ste 101","geo_precision":"zip","state":"MO"},"type":"Feature","geometry":{"type":"Point","coordinates":[-94.595033,39.102704]}},{"properties":{"city":"Olathe","zip":"66061","geo_score":0.857,"id":"afacaz5nuza3","add1":"16535 W 119th St.","geo_precision":"zip","state":"KS"},"type":"Feature","geometry":{"type":"Point","coordinates":[-94.723848,38.850286]}},{"properties":{"city":"Kansas City","zip":"64154","geo_score":0.857,"id":"afacaz6om5if","add1":"9026 N Skyview","geo_precision":"zip","state":"MO"},"type":"Feature","geometry":{"type":"Point","coordinates":[-94.641184,39.278393]}},{"properties":{"city":"Tucson","zip":"85711","geo_score":0.857,"id":"afacazka70yw","add1":"6129 East Broadway Blvd","geo_precision":"zip","state":"AZ"},"type":"Feature","geometry":{"type":"Point","coordinates":[-110.883744,32.214075]}},{"properties":{"city":"Aurora","zip":"80011","geo_score":0.857,"id":"afacazcf0zj4","add1":"13100 E. Colfax Avenue","geo_precision":"zip","state":"CO"},"type":"Feature","geometry":{"type":"Point","coordinates":[-104.822765,39.788286]}},{"properties":{"city":"EL PASO","zip":"79902","geo_score":0.857,"id":"afacazc97hcb","add1":"9071 ALAMEDA","geo_precision":"zip","state":"TX"},"type":"Feature","geometry":{"type":"Point","coordinates":[-106.544218,31.879779]}},{"properties":{"city":"El Paso","zip":"79936","geo_score":0.857,"id":"afacazji6z6d","add1":"1490 N. ZARAGOZA","geo_precision":"zip","state":"TX"},"type":"Feature","geometry":{"type":"Point","coordinates":[-106.243004,31.711209]}},{"properties":{"city":"EL PASO","zip":"79906","geo_score":0.857,"id":"afacazhgrqgz","add1":"7120 AIRPORT ROAD","geo_precision":"zip","state":"TX"},"type":"Feature","geometry":{"type":"Point","coordinates":[-106.41224,31.813569]}},{"properties":{"city":"EL PASO","zip":"79936","geo_score":0.857,"id":"afacazfh52hm","add1":"1898 LEE TREVINO DRIVE","geo_precision":"zip","state":"TX"},"type":"Feature","geometry":{"type":"Point","coordinates":[-106.243004,31.711209]}},{"properties":{"city":"EL PASO","zip":"79932","geo_score":0.857,"id":"afacazd72d5c","add1":"7910 ARTCRAFT RD","geo_precision":"zip","state":"TX"},"type":"Feature","geometry":{"type":"Point","coordinates":[-106.607588,31.877386]}},{"properties":{"city":"EL PASO","zip":"79901","geo_score":0.857,"id":"afacazd328fv","add1":"3100 A NORTH MESA","geo_precision":"zip","state":"TX"},"type":"Feature","geometry":{"type":"Point","coordinates":[-106.484592,31.763608]}},{"properties":{"city":"LAS CRUCES","zip":"88001","geo_score":0.857,"id":"afacazk8q70g","add1":"503 SOLANO","geo_precision":"zip","state":"NM"},"type":"Feature","geometry":{"type":"Point","coordinates":[-106.577492,32.002045]}},{"properties":{"city":"YUCAIPA","zip":"92399","geo_score":0.857,"id":"afacazh1mq7u","add1":"33505 YUCAIPA BLVD.","geo_precision":"zip","state":"CA"},"type":"Feature","geometry":{"type":"Point","coordinates":[-116.947805,34.049457]}},{"properties":{"city":"HIGHLAND","zip":"92346","geo_score":0.857,"id":"afacaz4gm8bx","add1":"7261 BOULDER AVE.","geo_precision":"zip","state":"CA"},"type":"Feature","geometry":{"type":"Point","coordinates":[-117.14027,34.156543]}},{"properties":{"city":"CATHEDRAL CITY","zip":"92234","geo_score":0.857,"id":"afacaz6bwktc","add1":"68-980 HWY 111","geo_precision":"zip","state":"CA"},"type":"Feature","geometry":{"type":"Point","coordinates":[-116.277152,33.647301]}},{"properties":{"city":"INDIO","zip":"92201","geo_score":0.857,"id":"afacaz5bybg1","add1":"81-770 HWY 111","geo_precision":"zip","state":"CA"},"type":"Feature","geometry":{"type":"Point","coordinates":[-115.72138,33.660853]}},{"properties":{"city":"PALM DESERT","zip":"92260","geo_score":0.857,"id":"afacazcvs178","add1":"73-125 HIGHWAY 111","geo_precision":"zip","state":"CA"},"type":"Feature","geometry":{"type":"Point","coordinates":[-116.402695,33.680623]}},{"properties":{"city":"YUCCA VALLEY","zip":"92284","geo_score":0.857,"id":"afacaz7jhrc6","add1":"57-222 29 PALMS HIGHWAY","geo_precision":"zip","state":"CA"},"type":"Feature","geometry":{"type":"Point","coordinates":[-115.896753,34.451263]}},{"properties":{"city":"DESERT HOT SPRINGS","zip":"92240","geo_score":0.857,"id":"afacaz9o6nxj","add1":"13-010 PALM DRIVE","geo_precision":"zip","state":"CA"},"type":"Feature","geometry":{"type":"Point","coordinates":[-116.35251,33.890015]}},{"properties":{"city":"PALM SPRINGS","zip":"92262","geo_score":0.857,"id":"afacaz718xva","add1":"2520 N. PALM CANYON DR.","geo_precision":"zip","state":"CA"},"type":"Feature","geometry":{"type":"Point","coordinates":[-116.527996,33.842567]}},{"properties":{"city":"NEEDLES","zip":"92363","geo_score":0.857,"id":"afacazksl4vb","add1":"2601 NEEDLES HIGHWAY","geo_precision":"zip","state":"CA"},"type":"Feature","geometry":{"type":"Point","coordinates":[-114.413847,34.482234]}},{"properties":{"city":"BLYTHE","zip":"92225","geo_score":0.857,"id":"afacazgokw8z","add1":"160 S LOVEKIN","geo_precision":"zip","state":"CA"},"type":"Feature","geometry":{"type":"Point","coordinates":[-114.573845,33.61058]}},{"properties":{"city":"EL CENTRO","zip":"92243","geo_score":0.857,"id":"afacazgr9rbt","add1":"2215 S. 4TH AVENUE","geo_precision":"zip","state":"CA"},"type":"Feature","geometry":{"type":"Point","coordinates":[-115.503842,32.900509]}},{"properties":{"city":"BRAWLEY","zip":"92227","geo_score":0.857,"id":"afacaz96wqev","add1":"115 MAIN STREET","geo_precision":"zip","state":"CA"},"type":"Feature","geometry":{"type":"Point","coordinates":[-115.280168,33.096382]}},{"properties":{"city":"EL CENTRO, CA 92243","zip":"92243","geo_score":0.857,"id":"afacazk2ej3g","add1":"1498 ADAMS AVENUE","geo_precision":"zip","state":"CA"},"type":"Feature","geometry":{"type":"Point","coordinates":[-115.503842,32.900509]}},{"properties":{"city":"THOUSAND PALMS","zip":"92276","geo_score":0.857,"id":"afacazfxhefy","add1":"72-305 VARNER ROAD","geo_precision":"zip","state":"CA"},"type":"Feature","geometry":{"type":"Point","coordinates":[-116.393413,33.843837]}},{"properties":{"city":"BULLHEAD CITY","zip":"86442","geo_score":0.857,"id":"afacazcib521","add1":"2195 HIGHWAY 95","geo_precision":"zip","state":"AZ"},"type":"Feature","geometry":{"type":"Point","coordinates":[-114.621355,35.100833]}},{"properties":{"city":"BERMUDA DUNES","zip":"92201","geo_score":0.857,"id":"afacaz5dr5ni","add1":"40-050 WASHINGTON STREET","geo_precision":"zip","state":"CA"},"type":"Feature","geometry":{"type":"Point","coordinates":[-115.72138,33.660853]}},{"properties":{"city":"YUMA","zip":"85364","geo_score":0.857,"id":"afacazj8fneh","add1":"388 W. 32ND STREET","geo_precision":"zip","state":"AZ"},"type":"Feature","geometry":{"type":"Point","coordinates":[-114.648722,32.615305]}},{"properties":{"city":"CATHEDRAL CITY","zip":"92234","geo_score":0.857,"id":"afacazb9dmdr","add1":"32-250 DATE PALM DRIVE","geo_precision":"zip","state":"CA"},"type":"Feature","geometry":{"type":"Point","coordinates":[-116.277152,33.647301]}},{"properties":{"city":"COACHELLA","zip":"92236","geo_score":0.857,"id":"afacaz695u7j","add1":"50-087 HARRISON STREET","geo_precision":"zip","state":"CA"},"type":"Feature","geometry":{"type":"Point","coordinates":[-116.143588,33.646405]}},{"properties":{"city":"BIG BEAR LAKE","zip":"92315","geo_score":0.857,"id":"afacazfitjv1","add1":"41-717 BIG BEAR BLVD.","geo_precision":"zip","state":"CA"},"type":"Feature","geometry":{"type":"Point","coordinates":[-116.855585,34.235286]}},{"properties":{"city":"LAKE HAVASU","zip":"86403","geo_score":0.857,"id":"afacazb4w32a","add1":"275 N LAKE HAVASU AVE.","geo_precision":"zip","state":"AZ"},"type":"Feature","geometry":{"type":"Point","coordinates":[-114.372457,34.5539]}},{"properties":{"city":"LA QUINTA","zip":"92253","geo_score":0.857,"id":"afacazctrq5f","add1":"78-672 HIGHWAY 111","geo_precision":"zip","state":"CA"},"type":"Feature","geometry":{"type":"Point","coordinates":[-116.259176,33.670978]}},{"properties":{"city":"CALEXICO","zip":"92231","geo_score":0.857,"id":"afacazfuvd9q","add1":"221 BIRCH STREET","geo_precision":"zip","state":"CA"},"type":"Feature","geometry":{"type":"Point","coordinates":[-115.518355,32.946832]}},{"properties":{"city":"YUMA","zip":"85364","geo_score":0.857,"id":"afacazgi6pxj","add1":"1020 E. 16TH STREET","geo_precision":"zip","state":"AZ"},"type":"Feature","geometry":{"type":"Point","coordinates":[-114.648722,32.615305]}},{"properties":{"city":"COACHELLA","zip":"92236","geo_score":0.857,"id":"afacaz7wkhod","add1":"45-761 Dillon Rd","geo_precision":"zip","state":"CA"},"type":"Feature","geometry":{"type":"Point","coordinates":[-116.143588,33.646405]}},{"properties":{"city":"TWENTY-NINE PALMS","zip":"92278","geo_score":0.857,"id":"afacazhzawm3","add1":"BLDG. 1081, P.O.BOX 6178 MCAGCC","geo_precision":"zip","state":"CA"},"type":"Feature","geometry":{"type":"Point","coordinates":[-115.277758,34.311015]}},{"properties":{"city":"BULLHEAD CITY","zip":"86429","geo_score":0.857,"id":"afacazkq0wbv","add1":"640 HIGHWAY 95","geo_precision":"zip","state":"AZ"},"type":"Feature","geometry":{"type":"Point","coordinates":[-114.538599,35.171497]}},{"properties":{"city":"PALM DESERT","zip":"92260","geo_score":0.857,"id":"afacaz7lys36","add1":"36879 Cook St.","geo_precision":"zip","state":"CA"},"type":"Feature","geometry":{"type":"Point","coordinates":[-116.402695,33.680623]}},{"properties":{"city":"PALM SPRINGS","zip":"92264","geo_score":0.857,"id":"afacaz5ivhs0","add1":"425 S. SUNRISE WAY","geo_precision":"zip","state":"CA"},"type":"Feature","geometry":{"type":"Point","coordinates":[-116.511883,33.797145]}},{"properties":{"city":"LAKE HAVASU","zip":"86404","geo_score":0.857,"id":"afacazh3czro","add1":"14875 S. Highway 95","geo_precision":"zip","state":"AZ"},"type":"Feature","geometry":{"type":"Point","coordinates":[-114.330704,34.557533]}},{"properties":{"city":"San Luis","zip":"85349","geo_score":0.857,"id":"afacazhphj1c","add1":"1517 N. Main Street","geo_precision":"zip","state":"AZ"},"type":"Feature","geometry":{"type":"Point","coordinates":[-114.754999,32.540068]}},{"properties":{"city":"Yuma","zip":"85365","geo_score":0.857,"id":"afacazga3bhh","add1":"MCAS Building #965","geo_precision":"zip","state":"AZ"},"type":"Feature","geometry":{"type":"Point","coordinates":[-114.490471,32.709332]}},{"properties":{"city":"EL PASO","zip":"79924","geo_score":0.857,"id":"afacazk7gx4u","add1":"9330 Dyer St.","geo_precision":"zip","state":"TX"},"type":"Feature","geometry":{"type":"Point","coordinates":[-106.502841,31.87224]}},{"properties":{"city":"El Paso","zip":"79912","geo_score":0.857,"id":"afacazh9748p","add1":"6031 N. Mesa St.","geo_precision":"zip","state":"TX"},"type":"Feature","geometry":{"type":"Point","coordinates":[-106.364151,31.741777]}},{"properties":{"city":"EL PASO","zip":"79935","geo_score":0.857,"id":"afacaz5b600n","add1":"10620 Montana Ave.","geo_precision":"zip","state":"TX"},"type":"Feature","geometry":{"type":"Point","coordinates":[-106.331988,31.770111]}},{"properties":{"city":"Anthony","zip":"79821","geo_score":0.857,"id":"afacazae2ir6","add1":"2001 Mt. Pass Blvd","geo_precision":"zip","state":"TX"},"type":"Feature","geometry":{"type":"Point","coordinates":[-106.359795,31.725097]}},{"properties":{"city":"Nashville","zip":"37203","geo_score":0.857,"id":"afacazc7pws3","add1":"131 21st Ave. South","geo_precision":"zip","state":"TN"},"type":"Feature","geometry":{"type":"Point","coordinates":[-86.791598,36.150406]}},{"properties":{"city":"Hollywood","zip":"90028","geo_score":0.857,"id":"afacaze4zv0l","add1":"6290 sunset Boulevard","geo_precision":"zip","state":"CA"},"type":"Feature","geometry":{"type":"Point","coordinates":[-118.326743,34.098343]}},{"properties":{"city":"San Diego","zip":"92106","geo_score":0.857,"id":"afacazhgod38","add1":"2400 Historic Decatur Road","geo_precision":"zip","state":"CA"},"type":"Feature","geometry":{"type":"Point","coordinates":[-117.232764,32.709355]}},{"properties":{"city":"Walnut Creek","zip":"94596","geo_score":0.857,"id":"afacaz69o2hn","add1":"1352 Locust Street","geo_precision":"zip","state":"CA"},"type":"Feature","geometry":{"type":"Point","coordinates":[-122.076074,37.884925]}},{"properties":{"city":"Pasadena","zip":"91102","geo_score":0.857,"id":"afacazfbwdhf","add1":"621 East Colorado Blvd","geo_precision":"zip","state":"CA"},"type":"Feature","geometry":{"type":"Point","coordinates":[-118.298662,33.786594]}},{"properties":{"city":"Santa Monica","zip":"90401","geo_score":0.857,"id":"afacazk28yx9","add1":"201 Arizona Ave","geo_precision":"zip","state":"CA"},"type":"Feature","geometry":{"type":"Point","coordinates":[-118.298662,33.786594]}},{"properties":{"city":"Castle Rock","zip":"80108","geo_score":0.857,"id":"afacaz6p2445","add1":"32 E. Allen St","geo_precision":"zip","state":"CO"},"type":"Feature","geometry":{"type":"Point","coordinates":[-104.773313,39.505205]}},{"properties":{"city":"Philadelphia","zip":"19107","geo_score":0.857,"id":"afacazh2m6gt","add1":"8500 Essington Ave, Suite E-14","geo_precision":"zip","state":"PA"},"type":"Feature","geometry":{"type":"Point","coordinates":[-75.162871,39.962612]}},{"properties":{"city":"Boston","zip":"02215","geo_score":0.857,"id":"afacaz8t7en9","add1":"One Joslin Place","geo_precision":"zip","state":"MA"},"type":"Feature","geometry":{"type":"Point","coordinates":[-71.107653,42.345079]}},{"properties":{"city":"Pittsburgh","zip":"66762","geo_score":0.857,"id":"afacazb2zkzk","add1":"921 S. Broadway Street","geo_precision":"zip","state":"KS"},"type":"Feature","geometry":{"type":"Point","coordinates":[-94.741907,37.484493]}},{"properties":{"city":"Baxter Springs","zip":"66713","geo_score":0.857,"id":"afacaz6ijiad","add1":"1920 Military Avenue","geo_precision":"zip","state":"KS"},"type":"Feature","geometry":{"type":"Point","coordinates":[-94.789814,37.139184]}},{"properties":{"city":"Gardner","zip":"66030","geo_score":0.857,"id":"afacaz6dlpku","add1":"651 E. Main Street","geo_precision":"zip","state":"KS"},"type":"Feature","geometry":{"type":"Point","coordinates":[-94.94139,38.814998]}},{"properties":{"city":"Lawton","zip":"73505","geo_score":0.857,"id":"afacazhbucb9","add1":"4702 N.W. Cache Rd.","geo_precision":"zip","state":"OK"},"type":"Feature","geometry":{"type":"Point","coordinates":[-98.436365,34.678734]}},{"properties":{"city":"Lawton","zip":"73501","geo_score":0.857,"id":"afacazk2oai9","add1":"8 SE.Lee Blvd","geo_precision":"zip","state":"OK"},"type":"Feature","geometry":{"type":"Point","coordinates":[-98.448452,34.635378]}},{"properties":{"city":"Ozark","zip":"65721","geo_score":0.857,"id":"afacaz59zjga","add1":"1693 W. Jackson St.","geo_precision":"zip","state":"MO"},"type":"Feature","geometry":{"type":"Point","coordinates":[-93.248796,37.065052]}},{"properties":{"city":"Branson","zip":"65616","geo_score":0.857,"id":"afacazb64keb","add1":"1550 State Highway 248","geo_precision":"zip","state":"MO"},"type":"Feature","geometry":{"type":"Point","coordinates":[-93.05634,36.653256]}},{"properties":{"city":"Marshall","zip":"65340","geo_score":0.857,"id":"afacazafugpo","add1":"202 E. Mitchell Street","geo_precision":"zip","state":"MO"},"type":"Feature","geometry":{"type":"Point","coordinates":[-93.206594,38.958075]}},{"properties":{"city":"Concordia","zip":"64020","geo_score":0.857,"id":"afacazkjuric","add1":"108 NW. 4th St.","geo_precision":"zip","state":"MO"},"type":"Feature","geometry":{"type":"Point","coordinates":[-93.59571,39.015918]}},{"properties":{"city":"Quincy","zip":"62301","geo_score":0.857,"id":"afacazgpthbn","add1":"3300 Broadway St.","geo_precision":"zip","state":"IL"},"type":"Feature","geometry":{"type":"Point","coordinates":[-91.31098,39.936435]}},{"properties":{"city":"Springfield","zip":"65807","geo_score":0.857,"id":"afacaz4by8m6","add1":"1808 W. Battlefield St.","geo_precision":"zip","state":"MO"},"type":"Feature","geometry":{"type":"Point","coordinates":[-93.348705,37.158811]}},{"properties":{"city":"Springfield","zip":"65802","geo_score":0.857,"id":"afacazck0eeo","add1":"240 S. Bypass North","geo_precision":"zip","state":"MO"},"type":"Feature","geometry":{"type":"Point","coordinates":[-93.362135,37.217827]}},{"properties":{"city":"Springfield","zip":"65803","geo_score":0.857,"id":"afacaz51w1zt","add1":"726 W. Kearney St.","geo_precision":"zip","state":"MO"},"type":"Feature","geometry":{"type":"Point","coordinates":[-93.247965,37.26588]}},{"properties":{"city":"Springfield","zip":"65804","geo_score":0.857,"id":"afacaz9fgmvj","add1":"2237 E. Sunshine St.","geo_precision":"zip","state":"MO"},"type":"Feature","geometry":{"type":"Point","coordinates":[-93.238034,37.151377]}},{"properties":{"city":"Joplin","zip":"64804","geo_score":0.857,"id":"afacazfmpvhz","add1":"1930 S. Main St.","geo_precision":"zip","state":"MO"},"type":"Feature","geometry":{"type":"Point","coordinates":[-94.374452,37.099335]}},{"properties":{"city":"Joplin","zip":"64804","geo_score":0.857,"id":"afacaziqc00m","add1":"2408 Rangeline Rd.","geo_precision":"zip","state":"MO"},"type":"Feature","geometry":{"type":"Point","coordinates":[-94.374452,37.099335]}},{"properties":{"city":"Nevada","zip":"64772","geo_score":0.857,"id":"afacazc4w7e1","add1":"105 S. Osage Blvd.","geo_precision":"zip","state":"MO"},"type":"Feature","geometry":{"type":"Point","coordinates":[-94.386553,37.776465]}},{"properties":{"city":"Webb City","zip":"64870","geo_score":0.857,"id":"afacaz958lkv","add1":"1731 S. Madison St.","geo_precision":"zip","state":"MO"},"type":"Feature","geometry":{"type":"Point","coordinates":[-94.476059,37.112837]}},{"properties":{"city":"Fort Scott","zip":"66701","geo_score":0.857,"id":"afacaz6ddjbb","add1":"2101 S. Main Street","geo_precision":"zip","state":"KS"},"type":"Feature","geometry":{"type":"Point","coordinates":[-94.695238,37.935593]}},{"properties":{"city":"Camdenton","zip":"65020","geo_score":0.857,"id":"afacaz5i6pax","add1":"298 E. US. Highway 54","geo_precision":"zip","state":"MO"},"type":"Feature","geometry":{"type":"Point","coordinates":[-92.845464,37.935869]}},{"properties":{"city":"Monett","zip":"65708","geo_score":0.857,"id":"afacazbppyr4","add1":"836 E. Highway 60","geo_precision":"zip","state":"MO"},"type":"Feature","geometry":{"type":"Point","coordinates":[-93.934986,36.802435]}},{"properties":{"city":"Mount Vernon","zip":"65712","geo_score":0.857,"id":"afacaz4gzr6t","add1":"1101 E. Mount Vernon Blvd.","geo_precision":"zip","state":"MO"},"type":"Feature","geometry":{"type":"Point","coordinates":[-93.824061,37.064637]}},{"properties":{"city":"Neosho","zip":"64850","geo_score":0.857,"id":"afacazibgfj9","add1":"3075 Gardner-Edgewood Drive","geo_precision":"zip","state":"MO"},"type":"Feature","geometry":{"type":"Point","coordinates":[-94.41272,36.90951]}},{"properties":{"city":"Lebanon","zip":"65536","geo_score":0.857,"id":"afacazg22ssn","add1":"300 Jefferson Ave.","geo_precision":"zip","state":"MO"},"type":"Feature","geometry":{"type":"Point","coordinates":[-92.592953,37.760596]}},{"properties":{"city":"Marshfield","zip":"65706","geo_score":0.857,"id":"afacazao44ri","add1":"1251 Banning St.","geo_precision":"zip","state":"MO"},"type":"Feature","geometry":{"type":"Point","coordinates":[-92.932494,37.274421]}},{"properties":{"city":"Minot","zip":"58701","geo_score":0.857,"id":"afacaz9tlqe7","add1":"2302 SW 15th Street","geo_precision":"zip","state":"ND"},"type":"Feature","geometry":{"type":"Point","coordinates":[-101.153769,48.148343]}},{"properties":{"city":"Bismarck","zip":"58504","geo_score":0.857,"id":"afacazk6eohy","add1":"434 S 3rd Street","geo_precision":"zip","state":"ND"},"type":"Feature","geometry":{"type":"Point","coordinates":[-100.547064,46.502216]}},{"properties":{"city":"Grand Forks","zip":"58201","geo_score":0.857,"id":"afacazj79edb","add1":"2851 S Columbia Rd","geo_precision":"zip","state":"ND"},"type":"Feature","geometry":{"type":"Point","coordinates":[-97.431501,47.9041]}},{"properties":{"city":"Fargo","zip":"58103","geo_score":0.857,"id":"afacaza1nkvj","add1":"2800 13th Ave SW","geo_precision":"zip","state":"ND"},"type":"Feature","geometry":{"type":"Point","coordinates":[-96.825841,46.832152]}},{"properties":{"city":"Dickinson","zip":"58601","geo_score":0.857,"id":"afacazj1x0ff","add1":"289 W 15th Street","geo_precision":"zip","state":"ND"},"type":"Feature","geometry":{"type":"Point","coordinates":[-102.756514,46.805716]}},{"properties":{"city":"Yuma","zip":"85364","geo_score":0.857,"id":"afacaz96d5c6","add1":"3101 4th Ave S","geo_precision":"zip","state":"AZ"},"type":"Feature","geometry":{"type":"Point","coordinates":[-114.648722,32.615305]}},{"properties":{"city":"Cathedral City","zip":"92234","geo_score":0.857,"id":"afacazegunx3","add1":"32400 Date Palm Drive","geo_precision":"zip","state":"CA"},"type":"Feature","geometry":{"type":"Point","coordinates":[-116.277152,33.647301]}},{"properties":{"city":"Rancho Mirage","zip":"92270","geo_score":0.857,"id":"afacaz4fz7lt","add1":"71740 Hwy 111","geo_precision":"zip","state":"CA"},"type":"Feature","geometry":{"type":"Point","coordinates":[-116.431961,33.703598]}},{"properties":{"city":"Williston","zip":"58801","geo_score":0.857,"id":"afacaz7lp0a2","add1":"106 26th Street W","geo_precision":"zip","state":"ND"},"type":"Feature","geometry":{"type":"Point","coordinates":[-103.838538,48.416414]}},{"properties":{"city":"Palm Desert","zip":"92211","geo_score":0.857,"id":"afacazb1xpxr","add1":"74999 Frank Sinatra Drive","geo_precision":"zip","state":"CA"},"type":"Feature","geometry":{"type":"Point","coordinates":[-116.339766,33.76437]}},{"properties":{"city":"Yuma","zip":"85365","geo_score":0.857,"id":"afacazkhstu0","add1":"1100 East 16th Street","geo_precision":"zip","state":"AZ"},"type":"Feature","geometry":{"type":"Point","coordinates":[-114.490471,32.709332]}},{"properties":{"city":"Bismarck","zip":"58501","geo_score":0.857,"id":"afacazb94b0u","add1":"3200 N 14th Street","geo_precision":"zip","state":"ND"},"type":"Feature","geometry":{"type":"Point","coordinates":[-100.502724,46.981207]}},{"properties":{"city":"Calexico","zip":"92231","geo_score":0.857,"id":"afacaz8i72ja","add1":"2505 Scaroni Road","geo_precision":"zip","state":"CA"},"type":"Feature","geometry":{"type":"Point","coordinates":[-115.518355,32.946832]}},{"properties":{"city":"Fergus Falls","zip":"56537","geo_score":0.857,"id":"afacazkdq7nc","add1":"605 Kennedy Park Road","geo_precision":"zip","state":"MN"},"type":"Feature","geometry":{"type":"Point","coordinates":[-96.189783,46.368293]}},{"properties":{"city":"Jamestown","zip":"58401","geo_score":0.857,"id":"afacazdk7yfl","add1":"611 25th Street SW","geo_precision":"zip","state":"ND"},"type":"Feature","geometry":{"type":"Point","coordinates":[-98.851773,46.902488]}},{"properties":{"city":"Beaumont","zip":"92223","geo_score":0.857,"id":"afacaz9reb38","add1":"1585 E 6th Street","geo_precision":"zip","state":"CA"},"type":"Feature","geometry":{"type":"Point","coordinates":[-116.977248,33.972515]}},{"properties":{"city":"Yucca Valley","zip":"92284","geo_score":0.857,"id":"afacaze6evlg","add1":"57796 29 Palms Hwy","geo_precision":"zip","state":"CA"},"type":"Feature","geometry":{"type":"Point","coordinates":[-115.896753,34.451263]}},{"properties":{"city":"El Centro","zip":"92243","geo_score":0.857,"id":"afacaz4umzar","add1":"2421 N Cottonwood","geo_precision":"zip","state":"CA"},"type":"Feature","geometry":{"type":"Point","coordinates":[-115.503842,32.900509]}},{"properties":{"city":"Fargo","zip":"58103","geo_score":0.857,"id":"afacazifs9d9","add1":"2350 45th St. S","geo_precision":"zip","state":"ND"},"type":"Feature","geometry":{"type":"Point","coordinates":[-96.825841,46.832152]}},{"properties":{"city":"Yuma","zip":"85367","geo_score":0.857,"id":"afacazghfkbq","add1":"11274 Fortuna Rd","geo_precision":"zip","state":"AZ"},"type":"Feature","geometry":{"type":"Point","coordinates":[-114.404216,32.656575]}},{"properties":{"city":"Fargo","zip":"58102","geo_score":0.857,"id":"afacazkikqgp","add1":"2001 16th St N","geo_precision":"zip","state":"ND"},"type":"Feature","geometry":{"type":"Point","coordinates":[-96.802581,46.949131]}},{"properties":{"city":"La Quinta","zip":"92253","geo_score":0.857,"id":"afacazepzfio","add1":"45-305 Seeley Drive","geo_precision":"zip","state":"CA"},"type":"Feature","geometry":{"type":"Point","coordinates":[-116.259176,33.670978]}},{"properties":{"city":"Anna","zip":"75409","geo_score":0.857,"id":"afacazbxukw9","add1":"2605 west White Street","geo_precision":"zip","state":"TX"},"type":"Feature","geometry":{"type":"Point","coordinates":[-96.524804,33.323709]}},{"properties":{"city":"Mishawaka","zip":"46545","geo_score":0.857,"id":"afacazdq5nio","add1":"6502 N. Grape Rd.","geo_precision":"zip","state":"IN"},"type":"Feature","geometry":{"type":"Point","coordinates":[-86.304735,41.696407]}},{"properties":{"city":"South Bend","zip":"46614","geo_score":0.857,"id":"afacazg3xvli","add1":"2051 E. Ireland Rd.","geo_precision":"zip","state":"IN"},"type":"Feature","geometry":{"type":"Point","coordinates":[-86.236117,41.598937]}},{"properties":{"city":"Elkhart","zip":"46514","geo_score":0.857,"id":"afacazjakr5k","add1":"105 County Road 6 W","geo_precision":"zip","state":"IN"},"type":"Feature","geometry":{"type":"Point","coordinates":[-85.936943,41.698661]}},{"properties":{"city":"Goshen","zip":"46528","geo_score":0.857,"id":"afacaz9446qp","add1":"2815 Gateway South Dr","geo_precision":"zip","state":"IN"},"type":"Feature","geometry":{"type":"Point","coordinates":[-85.839139,41.624763]}},{"properties":{"city":"La Porte","zip":"46350","geo_score":0.857,"id":"afacaz6lamwe","add1":"1115 E. Lincolnway","geo_precision":"zip","state":"IN"},"type":"Feature","geometry":{"type":"Point","coordinates":[-86.797803,41.598931]}},{"properties":{"city":"Valparaiso","zip":"46383","geo_score":0.857,"id":"afacaz87ze62","add1":"501 N. Silhavy Road","geo_precision":"zip","state":"IN"},"type":"Feature","geometry":{"type":"Point","coordinates":[-87.107531,41.458928]}},{"properties":{"city":"Richmond","zip":"23298","geo_score":0.857,"id":"afacaz9ro9la","add1":"1250 East Marshall St","geo_precision":"zip","state":"VA"},"type":"Feature","geometry":{"type":"Point","coordinates":[-77.431555,37.540646]}},{"properties":{"city":"Richmond","zip":"23298","geo_score":0.857,"id":"afacazfgb936","add1":"305 North 18th Street","geo_precision":"zip","state":"VA"},"type":"Feature","geometry":{"type":"Point","coordinates":[-77.431555,37.540646]}},{"properties":{"city":"Short Hills","zip":"07078","geo_score":0.857,"id":"afacazg8gyva","add1":"1200 Morris Turnpike","geo_precision":"zip","state":"NJ"},"type":"Feature","geometry":{"type":"Point","coordinates":[-74.334316,40.745934]}},{"properties":{"city":"Durham","zip":"27708","geo_score":0.857,"id":"afacaz7keihq","add1":"125 Science Drive","geo_precision":"zip","state":"NC"},"type":"Feature","geometry":{"type":"Point","coordinates":[-78.92398,36.028685]}},{"properties":{"city":"Marion","zip":"52302","geo_score":0.857,"id":"afacaz8of4x2","add1":"1301 5th Ave","geo_precision":"zip","state":"IA"},"type":"Feature","geometry":{"type":"Point","coordinates":[-91.573963,42.056938]}},{"properties":{"city":"Cedar Hill","zip":"75104","geo_score":0.857,"id":"afacazgxo0rz","add1":"216 FM 1382","geo_precision":"zip","state":"TX"},"type":"Feature","geometry":{"type":"Point","coordinates":[-96.777626,32.767268]}},{"properties":{"city":"Mansfield","zip":"76063","geo_score":0.857,"id":"afacaz98l8qd","add1":"1701 Hwy 157","geo_precision":"zip","state":"TX"},"type":"Feature","geometry":{"type":"Point","coordinates":[-97.184178,32.609024]}},{"properties":{"city":"Rowlett","zip":"75088","geo_score":0.857,"id":"afacazb676kj","add1":"3612 Hwy 66","geo_precision":"zip","state":"TX"},"type":"Feature","geometry":{"type":"Point","coordinates":[-96.555019,32.928105]}},{"properties":{"city":"Grand Prairie","zip":"75052","geo_score":0.857,"id":"afacazjyyqy7","add1":"2559 Sara Jane Parkway","geo_precision":"zip","state":"TX"},"type":"Feature","geometry":{"type":"Point","coordinates":[-96.777626,32.767268]}},{"properties":{"city":"Georgetown","zip":"78626","geo_score":0.857,"id":"afacaz5mlw0l","add1":"500 W Morrow St","geo_precision":"zip","state":"TX"},"type":"Feature","geometry":{"type":"Point","coordinates":[-97.574706,30.668034]}},{"properties":{"city":"Duncanville","zip":"75116","geo_score":0.857,"id":"afacaz6lw812","add1":"243 S Cedar Ridge Rd","geo_precision":"zip","state":"TX"},"type":"Feature","geometry":{"type":"Point","coordinates":[-96.777626,32.767268]}},{"properties":{"city":"Wylie","zip":"75098","geo_score":0.857,"id":"afacazegifnn","add1":"413 S Hwy 78","geo_precision":"zip","state":"TX"},"type":"Feature","geometry":{"type":"Point","coordinates":[-96.528045,32.9579]}},{"properties":{"city":"Grand Prairie","zip":"75051","geo_score":0.857,"id":"afacaz7pxgrw","add1":"301 W. Hwy 303","geo_precision":"zip","state":"TX"},"type":"Feature","geometry":{"type":"Point","coordinates":[-96.777626,32.767268]}},{"properties":{"city":"Garland","zip":"75042","geo_score":0.857,"id":"afacazejitdm","add1":"1430 W. Buckingham Rd.","geo_precision":"zip","state":"TX"},"type":"Feature","geometry":{"type":"Point","coordinates":[-96.690125,32.829977]}},{"properties":{"city":"Norfolk","zip":"23510","geo_score":0.857,"id":"afacaz69cz88","add1":"300 Monticello Avenue","geo_precision":"zip","state":"VA"},"type":"Feature","geometry":{"type":"Point","coordinates":[-76.292412,36.881047]}},{"properties":{"city":"Chesapeake","zip":"23321","geo_score":0.857,"id":"afacazdfngre","add1":"4444 Portsmouth Blvd.","geo_precision":"zip","state":"VA"},"type":"Feature","geometry":{"type":"Point","coordinates":[-76.411056,36.780704]}},{"properties":{"city":"Little Rock","zip":"72211","geo_score":0.857,"id":"afacaz8xvp3c","add1":"10701 Kanis Rd","geo_precision":"zip","state":"AR"},"type":"Feature","geometry":{"type":"Point","coordinates":[-92.430851,34.783664]}},{"properties":{"city":"Tucson","zip":"85712","geo_score":0.857,"id":"afacaz9u7wvo","add1":"4821 E. Grant Road Suite 101","geo_precision":"zip","state":"AZ"},"type":"Feature","geometry":{"type":"Point","coordinates":[-110.883744,32.253714]}},{"properties":{"city":"Las Vegas","zip":"89117","geo_score":0.857,"id":"afacazgnel9l","add1":"740 S Rampart","geo_precision":"zip","state":"NV"},"type":"Feature","geometry":{"type":"Point","coordinates":[-115.217932,36.130992]}},{"properties":{"city":"Raleigh","zip":"27610","geo_score":0.857,"id":"afacaza7y2ub","add1":"3000 New Bern Avenue","geo_precision":"zip","state":"NC"},"type":"Feature","geometry":{"type":"Point","coordinates":[-78.555281,35.693209]}},{"properties":{"city":"West Fargo","zip":"58078","geo_score":0.857,"id":"afacaz4zgao8","add1":"1640 13th Ave E","geo_precision":"zip","state":"ND"},"type":"Feature","geometry":{"type":"Point","coordinates":[-96.925828,46.890692]}},{"properties":{"city":"Cincinnati","zip":"45263","geo_score":0.857,"id":"afacaz875kb0","add1":"1 East 6th Street","geo_precision":"zip","state":"OH"},"type":"Feature","geometry":{"type":"Point","coordinates":[-84.53822,39.166759]}},{"properties":{"city":"Cedar Rapids","zip":"52401","geo_score":0.857,"id":"afacaz4gevn9","add1":"123 3rd St SE","geo_precision":"zip","state":"IA"},"type":"Feature","geometry":{"type":"Point","coordinates":[-91.572955,41.975557]}},{"properties":{"city":"Springfield","zip":"65807","geo_score":0.857,"id":"afacazcr1tcf","add1":"2040 W. Vista","geo_precision":"zip","state":"MO"},"type":"Feature","geometry":{"type":"Point","coordinates":[-93.348705,37.158811]}},{"properties":{"city":"New Hyde Park","zip":"11040","geo_score":0.857,"id":"afacaz50lufi","add1":"75-59 263rd Street,","geo_precision":"zip","state":"NY"},"type":"Feature","geometry":{"type":"Point","coordinates":[-73.66263,40.740935]}},{"properties":{"city":"Lakewood","zip":"80401","geo_score":0.857,"id":"afacazeriy3t","add1":"14740 West Colfax Ave","geo_precision":"zip","state":"CO"},"type":"Feature","geometry":{"type":"Point","coordinates":[-105.358604,39.889154]}},{"properties":{"city":"Salem","zip":"44460","geo_score":0.857,"id":"afacazkgcnr6","add1":"2388 E. State St","geo_precision":"zip","state":"OH"},"type":"Feature","geometry":{"type":"Point","coordinates":[-80.948144,40.865614]}},{"properties":{"city":"East Liverpool","zip":"43920","geo_score":0.857,"id":"afacazjlvz9k","add1":"15957 St. 170","geo_precision":"zip","state":"OH"},"type":"Feature","geometry":{"type":"Point","coordinates":[-80.597849,40.645897]}},{"properties":{"city":"Boston","zip":"02116","geo_score":0.857,"id":"afacazcygudk","add1":"209 Berkeley St.","geo_precision":"zip","state":"MA"},"type":"Feature","geometry":{"type":"Point","coordinates":[-71.086095,42.347207]}},{"properties":{"city":"Boston","zip":"02115","geo_score":0.857,"id":"afacazfn48x2","add1":"364-370 Brookline Ave.","geo_precision":"zip","state":"MA"},"type":"Feature","geometry":{"type":"Point","coordinates":[-71.096848,42.342043]}},{"properties":{"city":"Burlington","zip":"01803","geo_score":0.857,"id":"afacazhyvj9p","add1":"2 Wayside Road","geo_precision":"zip","state":"MA"},"type":"Feature","geometry":{"type":"Point","coordinates":[-71.201539,42.504844]}},{"properties":{"city":"Boston","zip":"02215","geo_score":0.857,"id":"afacazgw2jfz","add1":"201 Brookline Avenue","geo_precision":"zip","state":"MA"},"type":"Feature","geometry":{"type":"Point","coordinates":[-71.107653,42.345079]}},{"properties":{"city":"Natick","zip":"01760","geo_score":0.857,"id":"afacazj0gy0u","add1":"1400 Worcester Road","geo_precision":"zip","state":"MA"},"type":"Feature","geometry":{"type":"Point","coordinates":[-71.324503,42.304263]}},{"properties":{"city":"Newton","zip":"02464","geo_score":0.857,"id":"afacazivbf3l","add1":"241 Needham Street","geo_precision":"zip","state":"MA"},"type":"Feature","geometry":{"type":"Point","coordinates":[-71.221849,42.36599]}},{"properties":{"city":"Boston","zip":"02110","geo_score":0.857,"id":"afacaz80rz8m","add1":"2 Seaport Lane","geo_precision":"zip","state":"MA"},"type":"Feature","geometry":{"type":"Point","coordinates":[-71.051466,42.352847]}},{"properties":{"city":"Woburn","zip":"01801","geo_score":0.857,"id":"afacaz4z7b3a","add1":"345 Washington Street","geo_precision":"zip","state":"MA"},"type":"Feature","geometry":{"type":"Point","coordinates":[-71.157271,42.488595]}},{"properties":{"city":"Lincoln","zip":"68512","geo_score":0.857,"id":"afacazknbh67","add1":"1701 Pine Lake Rd, Suite 4","geo_precision":"zip","state":"NE"},"type":"Feature","geometry":{"type":"Point","coordinates":[-96.686643,40.785689]}},{"properties":{"city":"Duncan","zip":"73533","geo_score":0.857,"id":"afacazexnbf3","add1":"2002 N US Hwy 81","geo_precision":"zip","state":"OK"},"type":"Feature","geometry":{"type":"Point","coordinates":[-97.612251,34.41953]}},{"properties":{"city":"Kansas City","zip":"64112","geo_score":0.857,"id":"afacazfvjz35","add1":"310 Ward Parkway","geo_precision":"zip","state":"MO"},"type":"Feature","geometry":{"type":"Point","coordinates":[-94.594981,39.035705]}},{"properties":{"city":"Irvine","zip":"92612","geo_score":0.857,"id":"afacazjbhwpk","add1":"4213 Campus Dr","geo_precision":"zip","state":"CA"},"type":"Feature","geometry":{"type":"Point","coordinates":[-117.782805,33.615525]}},{"properties":{"city":"El Segundo","zip":"90245","geo_score":0.857,"id":"afacaz9wkfxi","add1":"720 Allied Way","geo_precision":"zip","state":"CA"},"type":"Feature","geometry":{"type":"Point","coordinates":[-118.378687,33.922236]}},{"properties":{"city":"Las Angeles","zip":"90046","geo_score":0.857,"id":"afacaz5p2jhc","add1":"8000 W Sunset Bl","geo_precision":"zip","state":"CA"},"type":"Feature","geometry":{"type":"Point","coordinates":[-118.298662,33.786594]}},{"properties":{"city":"Irvine","zip":"92618","geo_score":0.857,"id":"afacaz75sz65","add1":"81 Fortune Dr","geo_precision":"zip","state":"CA"},"type":"Feature","geometry":{"type":"Point","coordinates":[-117.73269,33.641579]}},{"properties":{"city":"Santa Monica","zip":"90003","geo_score":0.857,"id":"afacazb219fw","add1":"2025 Wilshire CL","geo_precision":"zip","state":"CA"},"type":"Feature","geometry":{"type":"Point","coordinates":[-118.273156,33.949164]}},{"properties":{"city":"Los Angeles","zip":"90036","geo_score":0.857,"id":"afacazhy52qq","add1":"110 S. Fairfax Ave","geo_precision":"zip","state":"CA"},"type":"Feature","geometry":{"type":"Point","coordinates":[-118.298662,33.786594]}},{"properties":{"city":"Beaverton","zip":"97005","geo_score":0.857,"id":"afacazg3h61w","add1":"3435 SW Cedar Hills","geo_precision":"zip","state":"OR"},"type":"Feature","geometry":{"type":"Point","coordinates":[-122.902324,45.497617]}},{"properties":{"city":"Portland","zip":"97204","geo_score":0.857,"id":"afacazb35av4","add1":"508 SW Taylor St","geo_precision":"zip","state":"OR"},"type":"Feature","geometry":{"type":"Point","coordinates":[-122.675106,45.51809]}},{"properties":{"city":"Long Beach","zip":"90003","geo_score":0.857,"id":"afacazg7ywlb","add1":"6451 E Pacific Coast Hwy","geo_precision":"zip","state":"CA"},"type":"Feature","geometry":{"type":"Point","coordinates":[-118.273156,33.949164]}},{"properties":{"city":"Seattle","zip":"98109","geo_score":0.857,"id":"afacazgnntzu","add1":"446 Terry Ave North","geo_precision":"zip","state":"WA"},"type":"Feature","geometry":{"type":"Point","coordinates":[-122.052333,47.583868]}},{"properties":{"city":"Seattle","zip":"98105","geo_score":0.857,"id":"afacazh8f2ta","add1":"2681 NE University Village St","geo_precision":"zip","state":"WA"},"type":"Feature","geometry":{"type":"Point","coordinates":[-121.803388,47.432251]}},{"properties":{"city":"Hillsboro","zip":"97124","geo_score":0.857,"id":"afacaz9chxr3","add1":"2065 NW 185th Ave","geo_precision":"zip","state":"OR"},"type":"Feature","geometry":{"type":"Point","coordinates":[-122.953316,45.62337]}},{"properties":{"city":"San Jose","zip":"95128","geo_score":0.857,"id":"afacazjgevxj","add1":"3055 Olin Ave #1030","geo_precision":"zip","state":"CA"},"type":"Feature","geometry":{"type":"Point","coordinates":[-121.705327,37.189396]}},{"properties":{"city":"Hollywood","zip":"90028","geo_score":0.857,"id":"afacaza4ks3c","add1":"6374-A Sunset BL","geo_precision":"zip","state":"CA"},"type":"Feature","geometry":{"type":"Point","coordinates":[-118.326743,34.098343]}},{"properties":{"city":"Westwood","zip":"90024","geo_score":0.857,"id":"afacazimiefz","add1":"10916 Lindbrook Dr","geo_precision":"zip","state":"CA"},"type":"Feature","geometry":{"type":"Point","coordinates":[-118.298662,33.786594]}},{"properties":{"city":"Torrance","zip":"90005","geo_score":0.857,"id":"afacaz5fzbzp","add1":"2533 Pacific Coast Hwy","geo_precision":"zip","state":"CA"},"type":"Feature","geometry":{"type":"Point","coordinates":[-118.298662,33.786594]}},{"properties":{"city":"Jonesboro","zip":"72401","geo_score":0.857,"id":"afacazdwv2lm","add1":"2506 E Highland","geo_precision":"zip","state":"AR"},"type":"Feature","geometry":{"type":"Point","coordinates":[-90.717613,35.989238]}},{"properties":{"city":"Bryant","zip":"72022","geo_score":0.857,"id":"afacaz6ewpk9","add1":"206 W Commerce","geo_precision":"zip","state":"AR"},"type":"Feature","geometry":{"type":"Point","coordinates":[-92.493519,34.612417]}},{"properties":{"city":"Arkadelphia","zip":"71923","geo_score":0.857,"id":"afacaz7je5dq","add1":"118 Malvern Road","geo_precision":"zip","state":"AR"},"type":"Feature","geometry":{"type":"Point","coordinates":[-93.08545,34.037043]}},{"properties":{"city":"Texarkana","zip":"71854","geo_score":0.857,"id":"afacazjl7c1i","add1":"3801 East 9th","geo_precision":"zip","state":"AR"},"type":"Feature","geometry":{"type":"Point","coordinates":[-93.876485,33.431043]}},{"properties":{"city":"Paragould","zip":"72450","geo_score":0.857,"id":"afacaz5ubibf","add1":"1700 Linwood Dr.","geo_precision":"zip","state":"AR"},"type":"Feature","geometry":{"type":"Point","coordinates":[-90.627888,36.009793]}},{"properties":{"city":"Abilene","zip":"79606","geo_score":0.857,"id":"afacazb1lssx","add1":"4400 Ridgemont Drive","geo_precision":"zip","state":"TX"},"type":"Feature","geometry":{"type":"Point","coordinates":[-99.908645,32.303126]}},{"properties":{"city":"Greenville","zip":"75401","geo_score":0.857,"id":"afacazj9y628","add1":"6929 Interstate 30","geo_precision":"zip","state":"TX"},"type":"Feature","geometry":{"type":"Point","coordinates":[-96.054416,33.220114]}},{"properties":{"city":"Paris","zip":"75460","geo_score":0.857,"id":"afacazaewj90","add1":"2835 NE Loop 286","geo_precision":"zip","state":"TX"},"type":"Feature","geometry":{"type":"Point","coordinates":[-95.505234,33.693439]}},{"properties":{"city":"Texarkana","zip":"75503","geo_score":0.857,"id":"afacaza5afc2","add1":"3310 St. Michael Drive","geo_precision":"zip","state":"TX"},"type":"Feature","geometry":{"type":"Point","coordinates":[-94.116906,33.464376]}},{"properties":{"city":"Waxahachie","zip":"75168","geo_score":0.857,"id":"afacazga18q3","add1":"1735 Hwy 77n","geo_precision":"zip","state":"TX"},"type":"Feature","geometry":{"type":"Point","coordinates":[-96.716638,32.374937]}},{"properties":{"city":"Bossier city","zip":"71111","geo_score":0.857,"id":"afacazivmmf4","add1":"2509 Beene Blvd","geo_precision":"zip","state":"LA"},"type":"Feature","geometry":{"type":"Point","coordinates":[-93.586698,32.516708]}},{"properties":{"city":"Marion","zip":"52402","geo_score":0.857,"id":"afacazbnobtb","add1":"6201 S Gateway DR","geo_precision":"zip","state":"IA"},"type":"Feature","geometry":{"type":"Point","coordinates":[-91.681029,42.020105]}},{"properties":{"city":"Virginia Beach","zip":"23451","geo_score":0.857,"id":"afacaz7tcafi","add1":"2928 Shore Drive","geo_precision":"zip","state":"VA"},"type":"Feature","geometry":{"type":"Point","coordinates":[-75.996319,36.841538]}},{"properties":{"city":"Norfolk","zip":"23518","geo_score":0.857,"id":"afacazgkm56k","add1":"2300 Little Creek Road","geo_precision":"zip","state":"VA"},"type":"Feature","geometry":{"type":"Point","coordinates":[-76.216448,36.907997]}},{"properties":{"city":"Virginia Beach","zip":"23462","geo_score":0.857,"id":"afacaz5y3ewc","add1":"5600 Princess Anne Road","geo_precision":"zip","state":"VA"},"type":"Feature","geometry":{"type":"Point","coordinates":[-76.159102,36.818204]}},{"properties":{"city":"Virginia Beach","zip":"23454","geo_score":0.857,"id":"afacazibl7qo","add1":"2196 First Colonial Road","geo_precision":"zip","state":"VA"},"type":"Feature","geometry":{"type":"Point","coordinates":[-76.041876,36.88237]}},{"properties":{"city":"Virginia Beach","zip":"23462","geo_score":0.857,"id":"afacaz4skenc","add1":"4540 Princess Anne Road","geo_precision":"zip","state":"VA"},"type":"Feature","geometry":{"type":"Point","coordinates":[-76.159102,36.818204]}},{"properties":{"city":"Chesapeake","zip":"23321","geo_score":0.857,"id":"afacazdl7tgl","add1":"3277 Western Branch Blvd.","geo_precision":"zip","state":"VA"},"type":"Feature","geometry":{"type":"Point","coordinates":[-76.411056,36.780704]}},{"properties":{"city":"Norfolk","zip":"23508","geo_score":0.857,"id":"afacazi4gj5m","add1":"3901 Hampton Blvd.","geo_precision":"zip","state":"VA"},"type":"Feature","geometry":{"type":"Point","coordinates":[-76.299963,36.884447]}},{"properties":{"city":"Portsmouth","zip":"23702","geo_score":0.857,"id":"afacazallqql","add1":"4701 George Washington Highway","geo_precision":"zip","state":"VA"},"type":"Feature","geometry":{"type":"Point","coordinates":[-76.329263,36.804098]}},{"properties":{"city":"Virginia Beach","zip":"23464","geo_score":0.857,"id":"afacazd9gg3d","add1":"6119 Indian River Road","geo_precision":"zip","state":"VA"},"type":"Feature","geometry":{"type":"Point","coordinates":[-76.178375,36.799473]}},{"properties":{"city":"Virginia Beach","zip":"23462","geo_score":0.857,"id":"afacazhbec6p","add1":"627 Independence Blvd","geo_precision":"zip","state":"VA"},"type":"Feature","geometry":{"type":"Point","coordinates":[-76.159102,36.818204]}},{"properties":{"city":"Nags Head","zip":"27959","geo_score":0.857,"id":"afacaze6ph1p","add1":"2424 S. Croatan Hwy","geo_precision":"zip","state":"NC"},"type":"Feature","geometry":{"type":"Point","coordinates":[-75.661879,36.02153]}},{"properties":{"city":"Kill Devil Hills","zip":"27948","geo_score":0.857,"id":"afacazbel38d","add1":"3210 N. Croatan Hwy.","geo_precision":"zip","state":"NC"},"type":"Feature","geometry":{"type":"Point","coordinates":[-75.634892,35.772912]}},{"properties":{"city":"Corolla","zip":"27927","geo_score":0.857,"id":"afacaz6wlfe3","add1":"809 Ocean Trail","geo_precision":"zip","state":"NC"},"type":"Feature","geometry":{"type":"Point","coordinates":[-75.825512,36.391941]}},{"properties":{"city":"Newport News","zip":"23606","geo_score":0.857,"id":"afacazbxkdq5","add1":"12425 Warwick Blvd","geo_precision":"zip","state":"VA"},"type":"Feature","geometry":{"type":"Point","coordinates":[-76.493022,37.073526]}},{"properties":{"city":"Hampton","zip":"23666","geo_score":0.857,"id":"afacazc79wnq","add1":"2129 W. Mercury Blvd.","geo_precision":"zip","state":"VA"},"type":"Feature","geometry":{"type":"Point","coordinates":[-76.371056,37.048757]}},{"properties":{"city":"Grandy","zip":"27939","geo_score":0.857,"id":"afacazgf23wh","add1":"6520 Caratoke Hwy.","geo_precision":"zip","state":"NC"},"type":"Feature","geometry":{"type":"Point","coordinates":[-75.975578,36.293128]}},{"properties":{"city":"Williamsburg","zip":"23803","geo_score":0.857,"id":"afacazbjuhj9","add1":"1347 Richmond Road","geo_precision":"zip","state":"VA"},"type":"Feature","geometry":{"type":"Point","coordinates":[-77.389253,37.21713]}},{"properties":{"city":"Newport News","zip":"23601","geo_score":0.857,"id":"afacazetwubq","add1":"11202 Jefferson Ave","geo_precision":"zip","state":"VA"},"type":"Feature","geometry":{"type":"Point","coordinates":[-76.463471,37.058296]}},{"properties":{"city":"Williamsburg","zip":"23188","geo_score":0.857,"id":"afacazdoe978","add1":"6384 Richmond Rd.","geo_precision":"zip","state":"VA"},"type":"Feature","geometry":{"type":"Point","coordinates":[-76.773832,37.34822]}},{"properties":{"city":"Yorktown","zip":"23692","geo_score":0.857,"id":"afacazhjya2b","add1":"6605 George Washington Memorial Hwy.","geo_precision":"zip","state":"VA"},"type":"Feature","geometry":{"type":"Point","coordinates":[-76.46856,37.165423]}},{"properties":{"city":"Newport News","zip":"23602","geo_score":0.857,"id":"afacaz8252bu","add1":"12753 Jefferson Ave.","geo_precision":"zip","state":"VA"},"type":"Feature","geometry":{"type":"Point","coordinates":[-76.510952,37.125384]}},{"properties":{"city":"Canston","zip":"02920","geo_score":0.857,"id":"afacaz56g55h","add1":"5 New London Ave","geo_precision":"zip","state":"RI"},"type":"Feature","geometry":{"type":"Point","coordinates":[-71.451725,41.762323]}},{"properties":{"city":"North Attleboro","zip":"02760","geo_score":0.857,"id":"afacaz5bd7cg","add1":"1250 So Washington St","geo_precision":"zip","state":"MA"},"type":"Feature","geometry":{"type":"Point","coordinates":[-71.370334,41.927877]}},{"properties":{"city":"Smithfield","zip":"02917","geo_score":0.857,"id":"afacaz4v5u25","add1":"180 Smithfield Crossing","geo_precision":"zip","state":"RI"},"type":"Feature","geometry":{"type":"Point","coordinates":[-71.522562,41.907877]}},{"properties":{"city":"Glastonbury","zip":"06033","geo_score":0.857,"id":"afacazgb0qid","add1":"2450 Main Street","geo_precision":"zip","state":"CT"},"type":"Feature","geometry":{"type":"Point","coordinates":[-72.539332,41.703451]}},{"properties":{"city":"Manchester","zip":"06040","geo_score":0.857,"id":"afacaz9mbti0","add1":"179 Deming Street","geo_precision":"zip","state":"CT"},"type":"Feature","geometry":{"type":"Point","coordinates":[-72.421195,41.864542]}},{"properties":{"city":"Dartmouth","zip":"02747","geo_score":0.857,"id":"afacazj9ljt2","add1":"84 Dartmouth Mall","geo_precision":"zip","state":"MA"},"type":"Feature","geometry":{"type":"Point","coordinates":[-71.007578,41.639261]}},{"properties":{"city":"Newport","zip":"02840","geo_score":0.857,"id":"afacaza6za7a","add1":"49 Long Wharf North","geo_precision":"zip","state":"RI"},"type":"Feature","geometry":{"type":"Point","coordinates":[-71.28752,41.515786]}},{"properties":{"city":"Enfield","zip":"06082","geo_score":0.857,"id":"afacazhfrfvv","add1":"90 Elm St. #79","geo_precision":"zip","state":"CT"},"type":"Feature","geometry":{"type":"Point","coordinates":[-72.571477,41.962597]}},{"properties":{"city":"Bristol","zip":"06010","geo_score":0.857,"id":"afacazkgstd8","add1":"1184 Farmington Ave","geo_precision":"zip","state":"CT"},"type":"Feature","geometry":{"type":"Point","coordinates":[-72.942048,41.733154]}},{"properties":{"city":"Waterford","zip":"06385","geo_score":0.857,"id":"afacazcs9afe","add1":"Waterford Common Shopping Center","geo_precision":"zip","state":"CT"},"type":"Feature","geometry":{"type":"Point","coordinates":[-72.126498,41.456698]}},{"properties":{"city":"East Greenwich","zip":"02818","geo_score":0.857,"id":"afacazhr1jv1","add1":"1000 Division St","geo_precision":"zip","state":"RI"},"type":"Feature","geometry":{"type":"Point","coordinates":[-71.474503,41.647879]}},{"properties":{"city":"Newington","zip":"06111","geo_score":0.857,"id":"afacazjkgnsp","add1":"3120 Berlin Turnpike","geo_precision":"zip","state":"CT"},"type":"Feature","geometry":{"type":"Point","coordinates":[-72.729646,41.685985]}},{"properties":{"city":"Seekonk","zip":"02771","geo_score":0.857,"id":"afacaz4zx6zd","add1":"211A Highland Ave","geo_precision":"zip","state":"MA"},"type":"Feature","geometry":{"type":"Point","coordinates":[-71.330054,41.889267]}},{"properties":{"city":"West Hartford","zip":"06117","geo_score":0.857,"id":"afacazg5h4re","add1":"2534 Albany Avenue","geo_precision":"zip","state":"CT"},"type":"Feature","geometry":{"type":"Point","coordinates":[-72.86899,41.581209]}},{"properties":{"city":"Plainville","zip":"02762","geo_score":0.857,"id":"afacazg6ooii","add1":"Plainville commons Marketplace","geo_precision":"zip","state":"MA"},"type":"Feature","geometry":{"type":"Point","coordinates":[-71.308388,42.023155]}},{"properties":{"city":"Wakefield","zip":"02879","geo_score":0.857,"id":"afacaz6mqc5w","add1":"160 Old Tower Hill Road","geo_precision":"zip","state":"RI"},"type":"Feature","geometry":{"type":"Point","coordinates":[-71.534202,41.443653]}},{"properties":{"city":"Warwick","zip":"02886","geo_score":0.857,"id":"afacaz6ru5aw","add1":"1000 Bald Hill Road","geo_precision":"zip","state":"RI"},"type":"Feature","geometry":{"type":"Point","coordinates":[-71.461169,41.681212]}},{"properties":{"city":"Manchester","zip":"06040","geo_score":0.857,"id":"afacazh9jaeh","add1":"194 Buckland Hills Drive","geo_precision":"zip","state":"CT"},"type":"Feature","geometry":{"type":"Point","coordinates":[-72.421195,41.864542]}},{"properties":{"city":"Lisbon","zip":"06351","geo_score":0.857,"id":"afacazb6usuc","add1":"160 River Road","geo_precision":"zip","state":"CT"},"type":"Feature","geometry":{"type":"Point","coordinates":[-71.940629,41.584265]}},{"properties":{"city":"Providence","zip":"02903","geo_score":0.857,"id":"afacazakblu1","add1":"43 Providence Place","geo_precision":"zip","state":"RI"},"type":"Feature","geometry":{"type":"Point","coordinates":[-71.4115,41.819459]}},{"properties":{"city":"Groton","zip":"06340","geo_score":0.857,"id":"afacaz767esy","add1":"220 Route 12","geo_precision":"zip","state":"CT"},"type":"Feature","geometry":{"type":"Point","coordinates":[-72.052298,41.353987]}},{"properties":{"city":"Wethersfield","zip":"06109","geo_score":0.857,"id":"afacaz4vr5tz","add1":"1129 Silas Dean Highway","geo_precision":"zip","state":"CT"},"type":"Feature","geometry":{"type":"Point","coordinates":[-72.655648,41.690377]}},{"properties":{"city":"Farmington","zip":"06032","geo_score":0.857,"id":"afacaz8phmiw","add1":"West Farms Shopping Center","geo_precision":"zip","state":"CT"},"type":"Feature","geometry":{"type":"Point","coordinates":[-72.829543,41.726769]}},{"properties":{"city":"Marion","zip":"52302","geo_score":0.857,"id":"afacaz7njuxu","add1":"6201 South Gateway Dr","geo_precision":"zip","state":"IA"},"type":"Feature","geometry":{"type":"Point","coordinates":[-91.573963,42.056938]}},{"properties":{"city":"Canton","zip":"06019","geo_score":0.857,"id":"afacazhdvlbb","add1":"110 Albany Turnpike","geo_precision":"zip","state":"CT"},"type":"Feature","geometry":{"type":"Point","coordinates":[-72.899645,41.842882]}},{"properties":{"city":"Hills","zip":"52317","geo_score":0.857,"id":"afacazha0a0t","add1":"1234 Address","geo_precision":"zip","state":"IA"},"type":"Feature","geometry":{"type":"Point","coordinates":[-91.604798,41.763944]}},{"properties":{"city":"Tester","zip":"55555","geo_score":0.714,"id":"afacaz4qx5ge","add1":"Test","geo_precision":"zip","state":"IA"},"type":"Feature","geometry":{"type":"Point","coordinates":[-93.766524,44.805487]}},{"properties":{"city":"New York","zip":"10038","geo_score":0.857,"id":"afacaz978k4j","add1":"111 Fulton Street","geo_precision":"zip","state":"NY"},"type":"Feature","geometry":{"type":"Point","coordinates":[-74.003368,40.710223]}},{"properties":{"city":"Laguna Niguel","zip":"92677","geo_score":0.857,"id":"afacazaclpbt","add1":"27321 La Paz Road","geo_precision":"zip","state":"CA"},"type":"Feature","geometry":{"type":"Point","coordinates":[-117.74311,33.500583]}},{"properties":{"city":"Chicago","zip":"60611","geo_score":0.857,"id":"afacazaehjnw","add1":"251 East Huron St","geo_precision":"zip","state":"IL"},"type":"Feature","geometry":{"type":"Point","coordinates":[-87.68732,41.811929]}},{"properties":{"city":"Akron","zip":"44307","geo_score":0.857,"id":"afacaz68yu95","add1":"400 Wabash Ave.","geo_precision":"zip","state":"OH"},"type":"Feature","geometry":{"type":"Point","coordinates":[-81.547618,41.0745]}},{"properties":{"city":"New York","zip":"10017","geo_score":0.857,"id":"afacazjdbvza","add1":"400 Madison &amp; 47th St","geo_precision":"zip","state":"NY"},"type":"Feature","geometry":{"type":"Point","coordinates":[-73.973196,40.752955]}},{"properties":{"city":"Atlanta","zip":"30309","geo_score":0.857,"id":"afacazdcxfie","add1":"1968 Peachtree Rd, NW","geo_precision":"zip","state":"GA"},"type":"Feature","geometry":{"type":"Point","coordinates":[-84.387726,33.797854]}},{"properties":{"city":"Cedar Rapids","zip":"52404","geo_score":0.857,"id":"afacaza5au2a","add1":"7725 Kirkwood Blvd. SW","geo_precision":"zip","state":"IA"},"type":"Feature","geometry":{"type":"Point","coordinates":[-91.704467,41.919542]}},{"properties":{"city":"Wooster","zip":"01608","geo_score":0.857,"id":"afacaz9flcbh","add1":"1 Mercantile Place","geo_precision":"zip","state":"MA"},"type":"Feature","geometry":{"type":"Point","coordinates":[-71.925696,42.293501]}},{"properties":{"city":"Culver City","zip":"90232","geo_score":0.857,"id":"afacazin2xnb","add1":"9523 Culver Boulevard","geo_precision":"zip","state":"CA"},"type":"Feature","geometry":{"type":"Point","coordinates":[-118.298662,33.786594]}},{"properties":{"city":"Marion","zip":"52402","geo_score":0.857,"id":"afacazgc6rvz","add1":"6201 South Gateway Dr","geo_precision":"zip","state":"IA"},"type":"Feature","geometry":{"type":"Point","coordinates":[-91.681029,42.020105]}},{"properties":{"city":"Ames","zip":"50010","geo_score":0.857,"id":"afacaz6ttjoc","add1":"2900 University Blvd","geo_precision":"zip","state":"IA"},"type":"Feature","geometry":{"type":"Point","coordinates":[-93.600254,42.037879]}},{"properties":{"city":"New York","zip":"10116","geo_score":0.857,"id":"afacazferszh","add1":"462 First St","geo_precision":"zip","state":"NY"},"type":"Feature","geometry":{"type":"Point","coordinates":[-73.977182,40.780751]}},{"properties":{"city":"Cedar Rapids","zip":"52404","geo_score":0.857,"id":"afacazaqb65b","add1":"6301 Kirkwood blvd. SW","geo_precision":"zip","state":"IA"},"type":"Feature","geometry":{"type":"Point","coordinates":[-91.704467,41.919542]}},{"properties":{"city":"Cedar Rapids","zip":"52401","geo_score":0.857,"id":"afacazhldu9l","add1":"370 1st Ave NE","geo_precision":"zip","state":"IA"},"type":"Feature","geometry":{"type":"Point","coordinates":[-91.572955,41.975557]}},{"properties":{"city":"Houston","zip":"77089","geo_score":0.857,"id":"afacazha5bf7","add1":"12830 Scarsdale Blvd","geo_precision":"zip","state":"TX"},"type":"Feature","geometry":{"type":"Point","coordinates":[-95.235712,29.58949]}},{"properties":{"city":"Encino","zip":"92677","geo_score":0.857,"id":"afacazibll44","add1":"16542 Ventura","geo_precision":"zip","state":"CA"},"type":"Feature","geometry":{"type":"Point","coordinates":[-117.74311,33.500583]}},{"properties":{"city":"Cedar Rapids","zip":"52402","geo_score":0.857,"id":"afacazeh1lt3","add1":"3025 C Ave NE","geo_precision":"zip","state":"IA"},"type":"Feature","geometry":{"type":"Point","coordinates":[-91.681029,42.020105]}},{"properties":{"city":"Forest Hills","zip":"11375","geo_score":0.857,"id":"afacaz838ri5","add1":"107-16 70th Rd","geo_precision":"zip","state":"NY"},"type":"Feature","geometry":{"type":"Point","coordinates":[-73.850969,40.710658]}},{"properties":{"city":"New York","zip":"10024","geo_score":0.857,"id":"afacazapzrdc","add1":"432 Columbus Avenue","geo_precision":"zip","state":"NY"},"type":"Feature","geometry":{"type":"Point","coordinates":[-73.965653,40.80813]}},{"properties":{"city":"Bayside","zip":"11361","geo_score":0.857,"id":"afacazk3v1om","add1":"39-02 Bell Blvd","geo_precision":"zip","state":"NY"},"type":"Feature","geometry":{"type":"Point","coordinates":[-73.773026,40.764438]}},{"properties":{"city":"Brooklyn","zip":"11209","geo_score":0.857,"id":"afacaz9ybbgr","add1":"9201 Fourth Ave","geo_precision":"zip","state":"NY"},"type":"Feature","geometry":{"type":"Point","coordinates":[-74.033196,40.618715]}},{"properties":{"city":"New York","zip":"10028","geo_score":0.857,"id":"afacaz5w8cx4","add1":"220 East 86th Street","geo_precision":"zip","state":"NY"},"type":"Feature","geometry":{"type":"Point","coordinates":[-73.953914,40.776629]}},{"properties":{"city":"Yonkers","zip":"10710","geo_score":0.857,"id":"afacaz9d7zpg","add1":"2650 Central Park Ave","geo_precision":"zip","state":"NY"},"type":"Feature","geometry":{"type":"Point","coordinates":[-73.84736,40.967946]}},{"properties":{"city":"Long Island City","zip":"11101","geo_score":0.857,"id":"afacazju8kje","add1":"37-11 35th Avenue","geo_precision":"zip","state":"NY"},"type":"Feature","geometry":{"type":"Point","coordinates":[-73.934502,40.744622]}},{"properties":{"city":"Metuchen","zip":"08840","geo_score":0.857,"id":"afacazk7fe05","add1":"61 US Highway #1","geo_precision":"zip","state":"NJ"},"type":"Feature","geometry":{"type":"Point","coordinates":[-74.323481,40.552604]}},{"properties":{"city":"Friendswood","zip":"77546","geo_score":0.857,"id":"afacazj8wurk","add1":"614 S. Friendswood Drive","geo_precision":"zip","state":"TX"},"type":"Feature","geometry":{"type":"Point","coordinates":[-95.156545,29.482185]}},{"properties":{"city":"The Woodlands","zip":"77380","geo_score":0.857,"id":"afacaz865wnd","add1":"6700 Woodlands Pkwy","geo_precision":"zip","state":"TX"},"type":"Feature","geometry":{"type":"Point","coordinates":[-95.489385,30.157994]}},{"properties":{"city":"Houston","zip":"77058","geo_score":0.857,"id":"afacaz7vxfai","add1":"487 Bay Area Blvd","geo_precision":"zip","state":"TX"},"type":"Feature","geometry":{"type":"Point","coordinates":[-95.099828,29.571604]}},{"properties":{"city":"Sugar Land","zip":"77479","geo_score":0.857,"id":"afacazfgi9br","add1":"2115 Town Square Place","geo_precision":"zip","state":"TX"},"type":"Feature","geometry":{"type":"Point","coordinates":[-95.666778,29.552921]}},{"properties":{"city":"Houston","zip":"77070","geo_score":0.857,"id":"afacaz7vkdr9","add1":"9730 Cypresswood Drive","geo_precision":"zip","state":"TX"},"type":"Feature","geometry":{"type":"Point","coordinates":[-95.434241,29.83399]}},{"properties":{"city":"Houston","zip":"77024","geo_score":0.857,"id":"afacazi4u2zf","add1":"9827 Katy Freeway","geo_precision":"zip","state":"TX"},"type":"Feature","geometry":{"type":"Point","coordinates":[-95.503553,29.789672]}},{"properties":{"city":"Austin","zip":"78701","geo_score":0.857,"id":"afacaz7bhqrj","add1":"114 W. 7th Street","geo_precision":"zip","state":"TX"},"type":"Feature","geometry":{"type":"Point","coordinates":[-97.741382,30.268335]}},{"properties":{"city":"Katy","zip":"77494","geo_score":0.857,"id":"afacazdyqwq7","add1":"23501 Cinco Ranch Blvd","geo_precision":"zip","state":"TX"},"type":"Feature","geometry":{"type":"Point","coordinates":[-95.434241,29.83399]}},{"properties":{"city":"San Antonio","zip":"78256","geo_score":0.857,"id":"afacazcopqt7","add1":"15900 La Cantera Parkway","geo_precision":"zip","state":"TX"},"type":"Feature","geometry":{"type":"Point","coordinates":[-98.461582,29.437532]}},{"properties":{"city":"Dallas","zip":"75201","geo_score":0.857,"id":"afacaz4zmfqn","add1":"2000 Mc Kinney Ave","geo_precision":"zip","state":"TX"},"type":"Feature","geometry":{"type":"Point","coordinates":[-96.790329,32.781179]}},{"properties":{"city":"Cedar Rapids","zip":"52401","geo_score":0.857,"id":"afacaz8kbj47","add1":"DoubleTree by Hilton Hotel","geo_precision":"zip","state":"IA"},"type":"Feature","geometry":{"type":"Point","coordinates":[-91.572955,41.975557]}},{"properties":{"city":"Sacramento","zip":"95864","geo_score":0.857,"id":"afacazfcxa8g","add1":"4315 Arden Way","geo_precision":"zip","state":"CA"},"type":"Feature","geometry":{"type":"Point","coordinates":[-121.379467,38.586554]}},{"properties":{"city":"Berkeley","zip":"94705","geo_score":0.857,"id":"afacazaianoq","add1":"3000 Telegraph Ave","geo_precision":"zip","state":"CA"},"type":"Feature","geometry":{"type":"Point","coordinates":[-122.242029,37.85983]}},{"properties":{"city":"Mill Valley","zip":"94941","geo_score":0.857,"id":"afacazaa2rli","add1":"731 East Blithedale","geo_precision":"zip","state":"CA"},"type":"Feature","geometry":{"type":"Point","coordinates":[-122.562937,37.886325]}},{"properties":{"city":"San Jose","zip":"95115","geo_score":0.857,"id":"afacaz8wdcuh","add1":"1140 Blossom Hill Rd","geo_precision":"zip","state":"CA"},"type":"Feature","geometry":{"type":"Point","coordinates":[-121.705327,37.189396]}},{"properties":{"city":"Campbell","zip":"95008","geo_score":0.857,"id":"afacazd9eff7","add1":"1690 South Bascom Ave","geo_precision":"zip","state":"CA"},"type":"Feature","geometry":{"type":"Point","coordinates":[-121.705327,37.189396]}},{"properties":{"city":"Capitola","zip":"95010","geo_score":0.857,"id":"afacazimljld","add1":"1710 41st Ave","geo_precision":"zip","state":"CA"},"type":"Feature","geometry":{"type":"Point","coordinates":[-122.000537,37.012368]}},{"properties":{"city":"Santa Rosa","zip":"95401","geo_score":0.857,"id":"afacazi7lfi9","add1":"390 Coddingtown Mall","geo_precision":"zip","state":"CA"},"type":"Feature","geometry":{"type":"Point","coordinates":[-122.783159,38.450412]}},{"properties":{"city":"Davis","zip":"95616","geo_score":0.857,"id":"afacazirewbm","add1":"500 First St","geo_precision":"zip","state":"CA"},"type":"Feature","geometry":{"type":"Point","coordinates":[-121.749016,38.521776]}},{"properties":{"city":"Folsom","zip":"95630","geo_score":0.857,"id":"afacazjw8lu5","add1":"270 Palladio Pkwy","geo_precision":"zip","state":"CA"},"type":"Feature","geometry":{"type":"Point","coordinates":[-121.18217,38.668237]}},{"properties":{"city":"San Francisco","zip":"94109","geo_score":0.857,"id":"afacaz50dnzy","add1":"1765 California St","geo_precision":"zip","state":"CA"},"type":"Feature","geometry":{"type":"Point","coordinates":[-122.420782,37.795219]}},{"properties":{"city":"Fresno","zip":"93704","geo_score":0.857,"id":"afacazey1i0c","add1":"650 W. Shaw Ave","geo_precision":"zip","state":"CA"},"type":"Feature","geometry":{"type":"Point","coordinates":[-119.670552,36.92709]}},{"properties":{"city":"San Francisco","zip":"94117","geo_score":0.857,"id":"afacazieh8rx","add1":"690 Stanyan St","geo_precision":"zip","state":"CA"},"type":"Feature","geometry":{"type":"Point","coordinates":[-122.443882,37.769079]}},{"properties":{"city":"Oakland","zip":"94612","geo_score":0.857,"id":"afacazj2bqah","add1":"230 Bay Place","geo_precision":"zip","state":"CA"},"type":"Feature","geometry":{"type":"Point","coordinates":[-122.27018,37.809435]}},{"properties":{"city":"Lafayette","zip":"94549","geo_score":0.857,"id":"afacaz8y6h0d","add1":"3502 Mt Diablo Blvd","geo_precision":"zip","state":"CA"},"type":"Feature","geometry":{"type":"Point","coordinates":[-122.120089,37.901223]}},{"properties":{"city":"Los Altos","zip":"94022","geo_score":0.857,"id":"afacazc9kxqq","add1":"4800 El Camino Real","geo_precision":"zip","state":"CA"},"type":"Feature","geometry":{"type":"Point","coordinates":[-122.100518,37.35133]}},{"properties":{"city":"Los Gatos","zip":"95032","geo_score":0.857,"id":"afacaz64rofi","add1":"15980 Los Gatos Blvd","geo_precision":"zip","state":"CA"},"type":"Feature","geometry":{"type":"Point","coordinates":[-121.66186,37.070923]}},{"properties":{"city":"Mill Valley","zip":"94941","geo_score":0.857,"id":"afacaz7k8nzi","add1":"414 Miller Ave","geo_precision":"zip","state":"CA"},"type":"Feature","geometry":{"type":"Point","coordinates":[-122.562937,37.886325]}},{"properties":{"city":"Monterey","zip":"93940","geo_score":0.857,"id":"afacaz4jc5n7","add1":"800 Del Monte Center","geo_precision":"zip","state":"CA"},"type":"Feature","geometry":{"type":"Point","coordinates":[-121.688623,36.521811]}},{"properties":{"city":"Napa","zip":"94558","geo_score":0.857,"id":"afacazby0b0g","add1":"3682 Bel Aire Plaza","geo_precision":"zip","state":"CA"},"type":"Feature","geometry":{"type":"Point","coordinates":[-122.280529,38.278526]}},{"properties":{"city":"San Francisco","zip":"94114","geo_score":0.857,"id":"afacaz8qni7w","add1":"3950 24th St","geo_precision":"zip","state":"CA"},"type":"Feature","geometry":{"type":"Point","coordinates":[-122.439332,37.758279]}},{"properties":{"city":"Novato","zip":"94945","geo_score":0.857,"id":"afacazjq4esk","add1":"790 DeLong Ave","geo_precision":"zip","state":"CA"},"type":"Feature","geometry":{"type":"Point","coordinates":[-122.505534,38.110197]}},{"properties":{"city":"San Francisco","zip":"94112","geo_score":0.857,"id":"afacaz90m4y7","add1":"1150 Ocean Ave","geo_precision":"zip","state":"CA"},"type":"Feature","geometry":{"type":"Point","coordinates":[-122.439382,37.721981]}},{"properties":{"city":"Palo Alto","zip":"94301","geo_score":0.857,"id":"afacazbqdadu","add1":"774 Emerson St","geo_precision":"zip","state":"CA"},"type":"Feature","geometry":{"type":"Point","coordinates":[-121.705327,37.189396]}},{"properties":{"city":"Petaluma","zip":"94952","geo_score":0.857,"id":"afacaz6k4hsb","add1":"621 E. Washington St","geo_precision":"zip","state":"CA"},"type":"Feature","geometry":{"type":"Point","coordinates":[-122.822588,38.265366]}},{"properties":{"city":"San Francisco","zip":"94107","geo_score":0.857,"id":"afacazji90fc","add1":"450 Rhode Island St","geo_precision":"zip","state":"CA"},"type":"Feature","geometry":{"type":"Point","coordinates":[-122.393681,37.769029]}},{"properties":{"city":"Redwood City","zip":"94063","geo_score":0.857,"id":"afacaz6uqafb","add1":"1250 Jefferson Ave","geo_precision":"zip","state":"CA"},"type":"Feature","geometry":{"type":"Point","coordinates":[-122.212846,37.490387]}},{"properties":{"city":"Reno","zip":"89502","geo_score":0.714,"id":"afacazir91rd","add1":"6139 South Virginia St","geo_precision":"zip","state":"CA"},"type":"Feature","geometry":{"type":"Point","coordinates":[-119.717965,39.491856]}},{"properties":{"city":"Roseville","zip":"95678","geo_score":0.857,"id":"afacaz6mprd4","add1":"1001 Galleria Blvd","geo_precision":"zip","state":"CA"},"type":"Feature","geometry":{"type":"Point","coordinates":[-121.329951,38.708236]}},{"properties":{"city":"San Mateo","zip":"94403","geo_score":0.857,"id":"afacaze29gc3","add1":"1010 Park Place","geo_precision":"zip","state":"CA"},"type":"Feature","geometry":{"type":"Point","coordinates":[-122.304079,37.541486]}},{"properties":{"city":"San Rafael","zip":"94901","geo_score":0.857,"id":"afacazkn43yi","add1":"340 Third St","geo_precision":"zip","state":"CA"},"type":"Feature","geometry":{"type":"Point","coordinates":[-122.504286,37.970948]}},{"properties":{"city":"San Ramon","zip":"94583","geo_score":0.857,"id":"afacaze52hhr","add1":"100 Sunset Dr","geo_precision":"zip","state":"CA"},"type":"Feature","geometry":{"type":"Point","coordinates":[-121.975531,37.768556]}},{"properties":{"city":"Santa Cruz","zip":"95062","geo_score":0.857,"id":"afacazk97psm","add1":"911 Soquel Ave","geo_precision":"zip","state":"CA"},"type":"Feature","geometry":{"type":"Point","coordinates":[-122.025796,37.004394]}},{"properties":{"city":"Santa Rosa","zip":"95405","geo_score":0.857,"id":"afacazggd1ni","add1":"1181 Yulupa Ave","geo_precision":"zip","state":"CA"},"type":"Feature","geometry":{"type":"Point","coordinates":[-122.786392,38.444714]}},{"properties":{"city":"Sebastopol","zip":"95472","geo_score":0.857,"id":"afacazhab30q","add1":"6910 McKinley St","geo_precision":"zip","state":"CA"},"type":"Feature","geometry":{"type":"Point","coordinates":[-122.915552,38.372415]}},{"properties":{"city":"Sonoma","zip":"95476","geo_score":0.857,"id":"afacazkcxkol","add1":"201 West Napa St","geo_precision":"zip","state":"CA"},"type":"Feature","geometry":{"type":"Point","coordinates":[-122.476819,38.255943]}},{"properties":{"city":"San Francisco","zip":"94107","geo_score":0.857,"id":"afacazglpypv","add1":"399 4th St","geo_precision":"zip","state":"CA"},"type":"Feature","geometry":{"type":"Point","coordinates":[-122.393681,37.769029]}},{"properties":{"city":"Cupertino","zip":"95014","geo_score":0.857,"id":"afacazixljds","add1":"20955 Stevens Creek Blvd","geo_precision":"zip","state":"CA"},"type":"Feature","geometry":{"type":"Point","coordinates":[-121.705327,37.189396]}},{"properties":{"city":"Walnut Creek","zip":"94596","geo_score":0.857,"id":"afacaz5izqud","add1":"1333 E. Newell Ave","geo_precision":"zip","state":"CA"},"type":"Feature","geometry":{"type":"Point","coordinates":[-122.076074,37.884925]}},{"properties":{"city":"Marion","zip":"52302","geo_score":0.857,"id":"afacaz9g9f2v","add1":"6201 South Gateway Dr.","geo_precision":"zip","state":"IA"},"type":"Feature","geometry":{"type":"Point","coordinates":[-91.573963,42.056938]}},{"properties":{"city":"North Liberty","zip":"52317","geo_score":0.714,"id":"afacaz5dn8qt","add1":"822 Austa","geo_precision":"zip","state":"KS"},"type":"Feature","geometry":{"type":"Point","coordinates":[-91.604798,41.763944]}},{"properties":{"city":"Albany","zip":"12210","geo_score":0.857,"id":"afacazjdt35g","add1":"2 Empire Plaza","geo_precision":"zip","state":"NY"},"type":"Feature","geometry":{"type":"Point","coordinates":[-73.758115,42.683079]}},{"properties":{"city":"Hartford","zip":"06103","geo_score":0.857,"id":"afacazhdsnmo","add1":"10 State House Square","geo_precision":"zip","state":"CT"},"type":"Feature","geometry":{"type":"Point","coordinates":[-72.674636,41.766349]}},{"properties":{"city":"San Diego","zip":"92122","geo_score":0.857,"id":"afacaz68q7wl","add1":"4545 La Jolla Village Dr.","geo_precision":"zip","state":"CA"},"type":"Feature","geometry":{"type":"Point","coordinates":[-117.203924,32.85477]}},{"properties":{"city":"Marina Del Rey","zip":"90292","geo_score":0.857,"id":"afacaz9llvgp","add1":"13455 Maxella Ave.","geo_precision":"zip","state":"CA"},"type":"Feature","geometry":{"type":"Point","coordinates":[-118.298662,33.786594]}},{"properties":{"city":"Irvine","zip":"92618","geo_score":0.857,"id":"afacazj1tok3","add1":"31 Fortune Dr.","geo_precision":"zip","state":"CA"},"type":"Feature","geometry":{"type":"Point","coordinates":[-117.73269,33.641579]}}],"is_temporal":false,"author":{"url":"","metadata":"","contact_name":"","contact_address":"","source":"","contact_phone":""},"source":"","pagination":{"sort":null,"start":0,"total":673,"limit":1000000},"state":"complete","tags":"","published":"2014-08-16T15:03:39-04:00","id":371445}