{"type":"FeatureCollection","data_type":"Dataset","url_type":null,"permissions":[{"permissions":{"download":true,"view":true},"group_id":"everyone"}],"classification":null,"title":"Education_","count":50,"stream_id":371575,"contributor":{"url":"http://geocommons.com/users/75761","name":"weath116"},"data_attributes":null,"calculation_params":null,"icon_link":null,"link":"http://geocommons.com/overlays/371575.json","extent":[0.0,0.0,0.0,0.0],"geometry_types":null,"unique_name":null,"name":"Education_","feature_count":50,"description":"","next_feature":null,"is_raster":false,"short_classification":"Y","features":[{"properties":{"high school":"81.9","college":"29.7","id":"afaglfaj40cb","state":"Alabama"},"type":"Feature","geometry":null},{"properties":{"high school":"91.6","college":"37","id":"afaglf7av690","state":"Alaska"},"type":"Feature","geometry":null},{"properties":{"high school":"83.8","college":"34.3","id":"afaglfhqwqij","state":"Arizona"},"type":"Feature","geometry":null},{"properties":{"high school":"82","college":"25.1","id":"afaglf9wbxgl","state":"Arkansas"},"type":"Feature","geometry":null},{"properties":{"high school":"80.2","college":"40.4","id":"afaglf8cxbrm","state":"California"},"type":"Feature","geometry":null},{"properties":{"high school":"88.9","college":"48.3","id":"afaglfdua7a1","state":"Colorado"},"type":"Feature","geometry":null},{"properties":{"high school":"88.6","college":"50.8","id":"afaglfd4rp6r","state":"Connecticut"},"type":"Feature","geometry":null},{"properties":{"high school":"87.2","college":"38.3","id":"afaglf826qcm","state":"Delaware"},"type":"Feature","geometry":null},{"properties":{"high school":"85.2","college":"34.8","id":"afaglfctuc9n","state":"Florida"},"type":"Feature","geometry":null},{"properties":{"high school":"83.9","college":"37.2","id":"afaglfjajvga","state":"Georgia"},"type":"Feature","geometry":null},{"properties":{"high school":"90.3","college":"39","id":"afaglfiul3m2","state":"Hawaii"},"type":"Feature","geometry":null},{"properties":{"high school":"87.9","college":"31.4","id":"afaglfal5yl9","state":"Idaho"},"type":"Feature","geometry":null},{"properties":{"high school":"85.9","college":"41.1","id":"afaglfkjodb1","state":"Illinois"},"type":"Feature","geometry":null},{"properties":{"high school":"86.2","college":"31","id":"afaglf7zbfrw","state":"Indiana"},"type":"Feature","geometry":null},{"properties":{"high school":"90.3","college":"31.6","id":"afaglffmj1ed","state":"Iowa"},"type":"Feature","geometry":null},{"properties":{"high school":"89.5","college":"39.7","id":"afaglfljubjh","state":"Kansas"},"type":"Feature","geometry":null},{"properties":{"high school":"81.3","college":"27.6","id":"afaglflck28s","state":"Kentucky"},"type":"Feature","geometry":null},{"properties":{"high school":"81.2","college":"26.8","id":"afaglf6w26x0","state":"Louisiana"},"type":"Feature","geometry":null},{"properties":{"high school":"89.7","college":"34.3","id":"afaglflo9h91","state":"Maine"},"type":"Feature","geometry":null},{"properties":{"high school":"88","college":"50.6","id":"afaglfkblsfz","state":"Maryland"},"type":"Feature","geometry":null},{"properties":{"high school":"88.7","college":"54.5","id":"afaglfgxvob0","state":"Massachusetts"},"type":"Feature","geometry":null},{"properties":{"high school":"88.1","college":"34.1","id":"afaglfih1dft","state":"Michigan"},"type":"Feature","geometry":null},{"properties":{"high school":"91.6","college":"41.5","id":"afaglf73ifzg","state":"Minnesota"},"type":"Feature","geometry":null},{"properties":{"high school":"79.9","college":"26.2","id":"afaglfgmsp2q","state":"Mississippi"},"type":"Feature","geometry":null},{"properties":{"high school":"86.5","college":"34.1","id":"afaglf8v87ms","state":"Missouri"},"type":"Feature","geometry":null},{"properties":{"high school":"90.9","college":"35.5","id":"afaglfbu6lty","state":"Montana"},"type":"Feature","geometry":null},{"properties":{"high school":"90.1","college":"35.7","id":"afaglfbqszz6","state":"Nebraska"},"type":"Feature","geometry":null},{"properties":{"high school":"83.5","college":"28.9","id":"afaglflcxq3p","state":"Nevada"},"type":"Feature","geometry":null},{"properties":{"high school":"90.9","college":"45.3","id":"afaglfd77g16","state":"New Hampshire"},"type":"Feature","geometry":null},{"properties":{"high school":"87.4","college":"47.2","id":"afaglfi8gjs1","state":"New Jersey"},"type":"Feature","geometry":null},{"properties":{"high school":"82.4","college":"35.4","id":"afaglfakijmd","state":"New Mexico"},"type":"Feature","geometry":null},{"properties":{"high school":"84.1","college":"45.7","id":"afaglfe21laq","state":"New York"},"type":"Feature","geometry":null},{"properties":{"high school":"83.6","college":"34.7","id":"afaglf9z7sob","state":"North Carolina"},"type":"Feature","geometry":null},{"properties":{"high school":"89.6","college":"33.5","id":"afaglf6o7t7h","state":"North Dakota"},"type":"Feature","geometry":null},{"properties":{"high school":"87.6","college":"32.8","id":"afaglfj822vq","state":"Ohio"},"type":"Feature","geometry":null},{"properties":{"high school":"85.5","college":"29.4","id":"afaglf79g77z","state":"Oklahoma"},"type":"Feature","geometry":null},{"properties":{"high school":"88.6","college":"38.2","id":"afaglfcc7gxf","state":"Oregon"},"type":"Feature","geometry":null},{"properties":{"high school":"87.5","college":"36.3","id":"afaglfgxrr1a","state":"Pennsylvania"},"type":"Feature","geometry":null},{"properties":{"high school":"83.7","college":"41.3","id":"afaglfk3goxx","state":"Rhode Island"},"type":"Feature","geometry":null},{"properties":{"high school":"83.2","college":"32.2","id":"afaglf6gs2hv","state":"South Carolina"},"type":"Feature","geometry":null},{"properties":{"high school":"90.3","college":"32.4","id":"afaglfktio6o","state":"South Dakota"},"type":"Feature","geometry":null},{"properties":{"high school":"83","college":"30.9","id":"afaglfazdgwb","state":"Tennessee"},"type":"Feature","geometry":null},{"properties":{"high school":"79.6","college":"33.6","id":"afaglfj07q7p","state":"Texas"},"type":"Feature","geometry":null},{"properties":{"high school":"90.4","college":"38.5","id":"afaglfc3853o","state":"Utah"},"type":"Feature","geometry":null},{"properties":{"high school":"90.6","college":"44.3","id":"afaglfc38c0p","state":"Vermont"},"type":"Feature","geometry":null},{"properties":{"high school":"85.9","college":"47.5","id":"afaglflu4cp5","state":"Virginia"},"type":"Feature","geometry":null},{"properties":{"high school":"89.6","college":"41.6","id":"afaglfai904n","state":"Washington"},"type":"Feature","geometry":null},{"properties":{"high school":"82.2","college":"23.8","id":"afaglfbg94zs","state":"West Virginia"},"type":"Feature","geometry":null},{"properties":{"high school":"89.6","college":"34.3","id":"afaglfkv1pdg","state":"Wisconsin"},"type":"Feature","geometry":null},{"properties":{"high school":"91.7","college":"31.5","id":"afaglf8pp42v","state":"Wyoming"},"type":"Feature","geometry":null}],"is_temporal":false,"author":{"url":"","metadata":null,"contact_name":null,"contact_address":null,"source":null,"contact_phone":null},"source":"","pagination":{"sort":null,"start":0,"total":50,"limit":1000000},"state":"parsed","tags":"","published":"2014-08-16T15:13:31-04:00","id":371575}