{"type":"FeatureCollection","data_type":"Dataset","url_type":null,"permissions":[{"permissions":{"download":true,"view":true},"group_id":"everyone"}],"classification":null,"title":"RCN GeoCommons Spreadsheet","count":18,"stream_id":372897,"contributor":{"url":"http://geocommons.com/users/75064","name":"djw371"},"data_attributes":null,"calculation_params":null,"icon_link":null,"link":"http://geocommons.com/overlays/372897.json","extent":[-76.4838,40.7032,-72.5767,42.4537],"geometry_types":["point"],"unique_name":null,"name":"RCN GeoCommons Spreadsheet","feature_count":18,"description":"","next_feature":null,"is_raster":false,"short_classification":"Y","stats":{},"features":[{"properties":{"city":"New York","name":"Dylan Welch","zip":"10012","contact":"7815769445","geo_score":1.0,"street address":"70 Washington Square S","chapters":"New York University","project?":"Project Synapse","major":"International Relations","skills?":"Building out Systems","policy idea?":"Mandatory Civic Education","id":"afcq287v4r4e","interests":"Economics, Development, Systemics","geo_precision":"range","state":"NY"},"type":"Feature","geometry":{"type":"Point","coordinates":[-73.996852,40.729645]}},{"properties":{"city":"New York","name":"Lee Ciocia","zip":"10012","contact":"xxxxxx","geo_score":1.0,"street address":"70 Washington Square S","chapters":"New York University","project?":"Project Synapse","major":"International Relations","skills?":"Being a Mensch","policy idea?":"Core Membership","id":"afcq27y5o0rc","interests":"Making $$$$$","geo_precision":"range","state":"NY"},"type":"Feature","geometry":{"type":"Point","coordinates":[-73.996852,40.729645]}},{"properties":{"city":"New York","name":"Erich Helmrich","zip":"10012","contact":"xxxxxx","geo_score":1.0,"street address":"70 Washington Square S","chapters":"New York University","project?":"World Conquest","major":"GLSP","skills?":"Geopolitics","policy idea?":"American World Stewardship","id":"afcq280erbs8","interests":"Foreign Defense Policy","geo_precision":"range","state":"NY"},"type":"Feature","geometry":{"type":"Point","coordinates":[-73.996852,40.729645]}},{"properties":{"city":"New York","name":"Student #1","zip":"10065","contact":"xxxxxx","geo_score":0.902,"street address":"695 Park Ave","chapters":"Hunter College","project?":"xxxxxx","major":"xxxxxx","skills?":"xxxxxx","policy idea?":"xxxxxx","id":"afcq280gxs9s","interests":"xxxxxx","geo_precision":"street","state":"NY"},"type":"Feature","geometry":{"type":"Point","coordinates":[-73.965238,40.769169]}},{"properties":{"city":"New York","name":"Student #2","zip":"10065","contact":"xxxxxx","geo_score":0.902,"street address":"695 Park Ave","chapters":"Hunter College","project?":"xxxxxx","major":"xxxxxx","skills?":"xxxxxx","policy idea?":"xxxxxx","id":"afcq27sxawep","interests":"xxxxxx","geo_precision":"street","state":"NY"},"type":"Feature","geometry":{"type":"Point","coordinates":[-73.965238,40.769169]}},{"properties":{"city":"New York","name":"Student #3","zip":"10065","contact":"xxxxxx","geo_score":0.902,"street address":"695 Park Ave","chapters":"Hunter College","project?":"xxxxxx","major":"xxxxxx","skills?":"xxxxxx","policy idea?":"xxxxxx","id":"afcq27vsrru7","interests":"xxxxxx","geo_precision":"street","state":"NY"},"type":"Feature","geometry":{"type":"Point","coordinates":[-73.965238,40.769169]}},{"properties":{"city":"New York","name":"Renegades","zip":"10027","contact":"xxxxxx","geo_score":1.0,"street address":"535 W 116th St","chapters":"Columbia University","project?":"Sedition","major":"Doing their own thing","skills?":"Any?","policy idea?":"Independence from Roo","id":"afcq281dd72i","interests":"Treason","geo_precision":"range","state":"NY"},"type":"Feature","geometry":{"type":"Point","coordinates":[-73.963119,40.807659]}},{"properties":{"city":"New York","name":"Student #1","zip":"10031","contact":"xxxxxx","geo_score":1.0,"street address":"160 Convent Ave","chapters":"City College of New York","project?":"xxxxxx","major":"xxxxxx","skills?":"xxxxxx","policy idea?":"xxxxxx","id":"afcq27rpkhru","interests":"xxxxxx","geo_precision":"range","state":"NY"},"type":"Feature","geometry":{"type":"Point","coordinates":[-73.948749,40.821263]}},{"properties":{"city":"Jamaica","name":"Student #1","zip":"11451","contact":"xxxxxx","geo_score":0.707,"street address":"94-20 Guy R Brewer Boulevard","chapters":"Queens College, CUNY","project?":"xxxxxx","major":"xxxxxx","skills?":"xxxxxx","policy idea?":"xxxxxx","id":"afcq2859vwg0","interests":"xxxxxx","geo_precision":"range","state":"NY"},"type":"Feature","geometry":{"type":"Point","coordinates":[-73.79603,40.703224]}},{"properties":{"city":"New Haven","name":"Student #1","zip":"6511","contact":"xxxxxx","geo_score":0.902,"street address":"195 Prospect Street","chapters":"Yale University","project?":"xxxxxx","major":"xxxxxx","skills?":"xxxxxx","policy idea?":"xxxxxx","id":"afcq27ute7i3","interests":"Churning out Future U.S. Presidents","geo_precision":"range","state":"CT"},"type":"Feature","geometry":{"type":"Point","coordinates":[-72.923427,41.319129]}},{"properties":{"city":"New Haven","name":"Student #2","zip":"6511","contact":"xxxxxx","geo_score":0.902,"street address":"195 Prospect Street","chapters":"Yale University","project?":"xxxxxx","major":"xxxxxx","skills?":"xxxxxx","policy idea?":"xxxxxx","id":"afcq284didrg","interests":"Trying to Forget George W. Bush","geo_precision":"range","state":"CT"},"type":"Feature","geometry":{"type":"Point","coordinates":[-72.923427,41.319129]}},{"properties":{"city":"New Haven","name":"Student #3","zip":"6511","contact":"xxxxxx","geo_score":0.902,"street address":"195 Prospect Street","chapters":"Yale University","project?":"xxxxxx","major":"xxxxxx","skills?":"xxxxxx","policy idea?":"xxxxxx","id":"afcq27spyjhv","interests":"\"We're better than that, really!\"","geo_precision":"range","state":"CT"},"type":"Feature","geometry":{"type":"Point","coordinates":[-72.923427,41.319129]}},{"properties":{"city":"Ithaca","name":"Student #1","zip":"14850","contact":"xxxxxx","geo_score":1.0,"street address":"410 Thurston Ave","chapters":"Cornell Univeristy","project?":"xxxxxx","major":"xxxxxx","skills?":"xxxxxx","policy idea?":"xxxxxx","id":"afcq27vmc3o1","interests":"xxxxxx","geo_precision":"range","state":"NY"},"type":"Feature","geometry":{"type":"Point","coordinates":[-76.483757,42.453697]}},{"properties":{"city":"Ithaca","name":"Student #2","zip":"14850","contact":"xxxxxx","geo_score":1.0,"street address":"410 Thurston Ave","chapters":"Cornell Univeristy","project?":"xxxxxx","major":"xxxxxx","skills?":"xxxxxx","policy idea?":"xxxxxx","id":"afcq283ocyx6","interests":"xxxxxx","geo_precision":"range","state":"NY"},"type":"Feature","geometry":{"type":"Point","coordinates":[-76.483757,42.453697]}},{"properties":{"city":"Ithaca","name":"Student #3","zip":"14850","contact":"xxxxxx","geo_score":1.0,"street address":"410 Thurston Ave","chapters":"Cornell Univeristy","project?":"xxxxxx","major":"xxxxxx","skills?":"xxxxxx","policy idea?":"xxxxxx","id":"afcq287cyjke","interests":"xxxxxx","geo_precision":"range","state":"NY"},"type":"Feature","geometry":{"type":"Point","coordinates":[-76.483757,42.453697]}},{"properties":{"city":"South Hadley","name":"Madeline McNally","zip":"1075","contact":"xxxxxx","geo_score":0.992,"street address":"50 College St","chapters":"Mount Holyoke College","project?":"Policy Expo","major":"????","skills?":"Swagger","policy idea?":"Public Chipotle Dispensaries","id":"afcq27v1tyll","interests":"Chipotle","geo_precision":"range","state":"MA"},"type":"Feature","geometry":{"type":"Point","coordinates":[-72.576654,42.255471]}},{"properties":{"city":"South Hadley","name":"Student #1","zip":"1075","contact":"xxxxxx","geo_score":0.992,"street address":"50 College St","chapters":"Mount Holyoke College","project?":"xxxxxx","major":"xxxxxx","skills?":"xxxxxx","policy idea?":"xxxxxx","id":"afcq281yivlf","interests":"xxxxxx","geo_precision":"range","state":"MA"},"type":"Feature","geometry":{"type":"Point","coordinates":[-72.576654,42.255471]}},{"properties":{"city":"South Hadley","name":"Student #2","zip":"1075","contact":"xxxxxx","geo_score":0.992,"street address":"50 College St","chapters":"Mount Holyoke College","project?":"xxxxxx","major":"xxxxxx","skills?":"xxxxxx","policy idea?":"xxxxxx","id":"afcq27v6zzfv","interests":"xxxxxx","geo_precision":"range","state":"MA"},"type":"Feature","geometry":{"type":"Point","coordinates":[-72.576654,42.255471]}}],"is_temporal":false,"author":{"url":"","metadata":"","contact_name":"","contact_address":"","source":"","contact_phone":""},"source":"","pagination":{"sort":null,"start":0,"total":18,"limit":1000000},"state":"complete","tags":"","published":"2014-08-16T17:25:48-04:00","id":372897}