{"type":"FeatureCollection","data_type":"Dataset","url_type":null,"permissions":[{"permissions":{"download":true,"view":true},"group_id":"everyone"}],"classification":null,"title":"Map data condensed","count":31,"stream_id":373106,"contributor":{"url":"http://geocommons.com/users/76462","name":"int1024"},"data_attributes":null,"calculation_params":null,"icon_link":null,"link":"http://geocommons.com/overlays/373106.json","extent":[-111.28,-28.5492,156.1,56.7431],"geometry_types":["point"],"unique_name":null,"name":"Map data condensed","feature_count":31,"description":"","next_feature":null,"is_raster":false,"short_classification":"Y","stats":{"fte":{"max":16,"mean":1.93548387096774,"variance":7.19569892473118,"stdev":2.68247999521547,"median":1,"min":1}},"features":[{"properties":{"city":"Barnaul","fte":1,"geo_score":0.714,"id":"afdcs5ht7mcv","geo_precision":"zip"},"type":"Feature","geometry":{"type":"Point","coordinates":[75.55,30.3833333]}},{"properties":{"city":"Belgorod","fte":1,"geo_score":0.714,"id":"afdcs5esyx96","geo_precision":"zip"},"type":"Feature","geometry":{"type":"Point","coordinates":[-111.2799571,45.7796508]}},{"properties":{"city":"Chelyabinsk","fte":2,"geo_score":0.714,"id":"afdcs57p1h2w","geo_precision":"zip"},"type":"Feature","geometry":{"type":"Point","coordinates":[61.4297222,55.1544444]}},{"properties":{"city":"Ekaterinburg","fte":2,"geo_score":0.714,"id":"afdcs58vvkpm","geo_precision":"zip"},"type":"Feature","geometry":{"type":"Point","coordinates":[60.802728,56.743108]}},{"properties":{"city":"Irkutsk","fte":1,"geo_score":0.714,"id":"afdcs5gh43yg","geo_precision":"zip"},"type":"Feature","geometry":{"type":"Point","coordinates":[104.4791667,52.1125]}},{"properties":{"city":"Kazan","fte":2,"geo_score":0.714,"id":"afdcs564845j","geo_precision":"zip"},"type":"Feature","geometry":{"type":"Point","coordinates":[121.8469444,13.3222222]}},{"properties":{"city":"Kemerovo","fte":1,"geo_score":0.857,"id":"afdcs5e2mnxi","geo_precision":"zip"},"type":"Feature","geometry":{"type":"Point","coordinates":[128.6666667,32.8333333]}},{"properties":{"city":"Khabarovsk","fte":1,"geo_score":0.714,"id":"afdcs54kpe0z","geo_precision":"zip"},"type":"Feature","geometry":{"type":"Point","coordinates":[46.8115,33.8115]}},{"properties":{"city":"Krasnodar","fte":3,"geo_score":0.857,"id":"afdcs5hv1hqu","geo_precision":"zip"},"type":"Feature","geometry":{"type":"Point","coordinates":[-65.6333333,33.2166667]}},{"properties":{"city":"Krasnoyarsk","fte":1,"geo_score":0.714,"id":"afdcs5cqcdau","geo_precision":"zip"},"type":"Feature","geometry":{"type":"Point","coordinates":[30.5175,53.4469444]}},{"properties":{"city":"Lipetsk","fte":1,"geo_score":0.714,"id":"afdcs5461j25","geo_precision":"zip"},"type":"Feature","geometry":{"type":"Point","coordinates":[22.95,36.5]}},{"properties":{"city":"Moscow","fte":16,"geo_score":0.714,"id":"afdcs52gdvyx","geo_precision":"zip"},"type":"Feature","geometry":{"type":"Point","coordinates":[17.3025,44.3027778]}},{"properties":{"city":"Nizhni Novgorod","fte":2,"geo_score":0.714,"id":"afdcs56qyx92","geo_precision":"zip"},"type":"Feature","geometry":{"type":"Point","coordinates":[26.0666667,43.2]}},{"properties":{"city":"Novosibirsk","fte":2,"geo_score":0.714,"id":"afdcs5dj9ct2","geo_precision":"zip"},"type":"Feature","geometry":{"type":"Point","coordinates":[141.9666667,47.4833333]}},{"properties":{"city":"Omsk","fte":1,"geo_score":0.714,"id":"afdcs5evhtu3","geo_precision":"zip"},"type":"Feature","geometry":{"type":"Point","coordinates":[73.310514,54.967042]}},{"properties":{"city":"Orenburg","fte":1,"geo_score":0.714,"id":"afdcs5a6qvi6","geo_precision":"zip"},"type":"Feature","geometry":{"type":"Point","coordinates":[8.87539078763587,47.2844319836629]}},{"properties":{"city":"Penza","fte":1,"geo_score":0.714,"id":"afdcs5i4mhs6","geo_precision":"zip"},"type":"Feature","geometry":{"type":"Point","coordinates":[49.0777,37.0959]}},{"properties":{"city":"Perm","fte":1,"geo_score":0.714,"id":"afdcs5hclnkc","geo_precision":"zip"},"type":"Feature","geometry":{"type":"Point","coordinates":[38.9255556,-15.4272222]}},{"properties":{"city":"Rostov-on-Don","fte":2,"geo_score":0.714,"id":"afdcs5ifo21z","geo_precision":"zip"},"type":"Feature","geometry":{"type":"Point","coordinates":[39.818089,47.258208]}},{"properties":{"city":"Saint-Petersburg","fte":3,"geo_score":0.714,"id":"afdcs5hwccc1","geo_precision":"zip"},"type":"Feature","geometry":{"type":"Point","coordinates":[-63.0333333,18.0166667]}},{"properties":{"city":"Samara","fte":2,"geo_score":0.714,"id":"afdcs59s134d","geo_precision":"zip"},"type":"Feature","geometry":{"type":"Point","coordinates":[156.1,-6.9333333]}},{"properties":{"city":"Saratov","fte":1,"geo_score":0.714,"id":"afdcs53w25is","geo_precision":"zip"},"type":"Feature","geometry":{"type":"Point","coordinates":[14.2868614196777,50.5974041605386]}},{"properties":{"city":"Stavropol","fte":1,"geo_score":0.714,"id":"afdcs54csifw","geo_precision":"zip"},"type":"Feature","geometry":{"type":"Point","coordinates":[49.25,53.6666667]}},{"properties":{"city":"Tambov","fte":1,"geo_score":0.714,"id":"afdcs5box36o","geo_precision":"zip"},"type":"Feature","geometry":{"type":"Point","coordinates":[-55.12555556,-28.54916667]}},{"properties":{"city":"Tula","fte":1,"geo_score":0.714,"id":"afdcs5cjam6w","geo_precision":"zip"},"type":"Feature","geometry":{"type":"Point","coordinates":[120.1597,-5.1695]}},{"properties":{"city":"Tyumen","fte":2,"geo_score":0.714,"id":"afdcs5czvkfq","geo_precision":"zip"},"type":"Feature","geometry":{"type":"Point","coordinates":[33.5166667,45.25]}},{"properties":{"city":"Ufa","fte":2,"geo_score":0.714,"id":"afdcs58p0ob0","geo_precision":"zip"},"type":"Feature","geometry":{"type":"Point","coordinates":[22.0666667,-16.5333333]}},{"properties":{"city":"Vladivostok","fte":1,"geo_score":0.857,"id":"afdcs5ae8qtj","geo_precision":"zip"},"type":"Feature","geometry":{"type":"Point","coordinates":[6.4166667,-26.25]}},{"properties":{"city":"Volgograd","fte":2,"geo_score":0.714,"id":"afdcs52m82zp","geo_precision":"zip"},"type":"Feature","geometry":{"type":"Point","coordinates":[18.6419444,43.4133333]}},{"properties":{"city":"Voronezh","fte":1,"geo_score":0.714,"id":"afdcs53htbi5","geo_precision":"zip"},"type":"Feature","geometry":{"type":"Point","coordinates":[40.5,51.0]}},{"properties":{"city":"Yaroslavl","fte":1,"geo_score":0.714,"id":"afdcs559c89p","geo_precision":"zip"},"type":"Feature","geometry":{"type":"Point","coordinates":[38.8825,53.2908333]}}],"is_temporal":false,"author":{"url":"","metadata":"","contact_name":"","contact_address":"","source":"","contact_phone":""},"source":"","pagination":{"sort":null,"start":0,"total":31,"limit":1000000},"state":"complete","tags":"","published":"2014-08-16T17:49:54-04:00","id":373106}