{"type":"FeatureCollection","data_type":"Dataset","url_type":null,"permissions":[{"permissions":{"download":true,"view":true},"group_id":"everyone"}],"classification":null,"title":"Pennsylvania Fish and Boat Commission, Approved Trout Water Bodies - Points, Pennsylvania, 2008","count":126,"stream_id":3740,"contributor":{"url":"http://geocommons.com/users/139","name":"Burkey"},"data_attributes":null,"calculation_params":null,"icon_link":null,"link":"http://geocommons.com/overlays/3740.json","extent":[-80.5041,39.7255,-74.8186,42.1494],"geometry_types":null,"unique_name":null,"name":"Pennsylvania Fish and Boat Commission, Approved Trout Water Bodies - Points, Pennsylvania, 2008","feature_count":126,"description":"Abstract:\n\nMany streams, lakes, ponds, and reservoirs are officially classified as &quot;approved trout waters.&quot; This means that these waters contain significant portions that are open to public fishing and are stocked with trout. The waters in this layer are lakes (not flowing waters) classified as &quot;approved trout waters&quot; and these are open to trout harvest during the &quot;extended season&quot; (see Commonwealth Inland Waters). Unlisted tributary streams (those not included in this list of &quot;approved trout waters&quot;) are not open to harvest of trout during the &quot;extended season.&quot; Only approved trout waters and all waters downstream of approved trout waters are open during this period. Spearing fish is not permitted in any of these waters at any time of the year. \n\nThese waters are closed to all fishing (including taking of minnows) from March 1 to 8 a.m. on the opening day of the trout season. Some of these waters have been included in the Early Season Trout-Stocked Waters Program and are open from March 1 through March 31. A person shall be deemed to be fishing if he or she has in possession any fishing line, rod, or other device that can be used for fishing while on or in any water or on the banks within 25 feet of any water where fishing is prohibited.\n\nCheck with the nearest Fish &amp; Boat Commission office if there is any question about whether or not a water area is &quot;approved.&quot;\n\nThis layer is current through the new fishing regulations released December of 2006 for the 2007 fishing season.\n\nPurpose:\n\nMapping and analysis of the approved trout waters in Pennsylvania. Promotion of Pennsylvania trout fishing opportunities.\n\nSupplemental_Information:\n\nThis layer was created based on the 1:24000 National Hydropahy Dataset (NHD) water bodies layer.  The appropriate water bodies were copied into the layer based on the regulatory definition of each approved trout water.  This resulted in one lake per each defined approved trout water.  To create the points, XTools Pro version 3.1 was used to calculate the centroids of each lake polygon.","next_feature":null,"is_raster":false,"short_classification":"Y","stats":{"Map_ID":{"max":228,"variance":3193.02,"mean":69.8333333333333,"stdev":56.5068137484321,"min":0,"median":58},"GNIS_ID":{"max":1217394.0,"variance":336902243911.058,"mean":752308.23015873,"stdev":580432.807404146,"min":-9999.0,"median":1179343.0},"Longitude":{"max":-74.81868,"variance":2.95157675953943,"mean":-77.4517931984127,"stdev":1.71801535486137,"min":-80.505,"median":-77.26778},"Latitude":{"max":42.148928,"variance":0.378636136897319,"mean":40.8535990952381,"stdev":0.615334166853523,"min":39.724031,"median":40.81201}},"features":[{"properties":{"Year_Round":"","Map_ID":2,"Prim_Acc":"Antietam Reservoir","GNIS_ID":1198174.0,"Region":"Southeast","GNIS_NAME":"Antietam Reservoir","County":"Berks","Longitude":-75.870538,"Latitude":40.355998,"Early_Open":"Y","id":"a62i3ui6e71o","YR_MapID":""},"type":"Feature","geometry":{"type":"Point","coordinates":[-75.8708700000007,40.3570999999993]}},{"properties":{"Year_Round":"","Map_ID":31,"Prim_Acc":"Aylesworth Creek Lake Parking Lot","GNIS_ID":1200581.0,"Region":"Northeast","GNIS_NAME":"Aylesworth Creek Lake","County":"Lackawanna","Longitude":-75.528208,"Latitude":41.521648,"Early_Open":"","id":"a62i3unpg5dx","YR_MapID":""},"type":"Feature","geometry":{"type":"Point","coordinates":[-75.5282299999999,41.5225800000007]}},{"properties":{"Year_Round":"","Map_ID":192,"Prim_Acc":"Beechwood Lake Access","GNIS_ID":1169118.0,"Region":"Northcentral","GNIS_NAME":"Beechwood Lake","County":"Tioga","Longitude":-77.5097,"Latitude":41.85276,"Early_Open":"","id":"a62i3unqen3z","YR_MapID":""},"type":"Feature","geometry":{"type":"Point","coordinates":[-77.51512,41.8516500000005]}},{"properties":{"Year_Round":"","Map_ID":61,"Prim_Acc":"Bessemer Lake","GNIS_ID":-9999.0,"Region":"Northwest","GNIS_NAME":"Bessemer Lake","County":"Lawrence","Longitude":-80.505,"Latitude":40.97583,"Early_Open":"","id":"a62i3ugs5wfx","YR_MapID":""},"type":"Feature","geometry":{"type":"Point","coordinates":[-80.5041099999999,40.9774400000006]}},{"properties":{"Year_Round":"Y","Map_ID":0,"Prim_Acc":"Blue Spruce Lake Parking Lot","GNIS_ID":1194987.0,"Region":"Southwest","GNIS_NAME":"Blue Spruce Lake","County":"Indiana","Longitude":-79.164043,"Latitude":40.689352,"Early_Open":"","id":"a62i3ucgfvo4","YR_MapID":"B"},"type":"Feature","geometry":{"type":"Point","coordinates":[-79.1638199999998,40.6906099999997]}},{"properties":{"Year_Round":"","Map_ID":112,"Prim_Acc":"Boy Scout Dam","GNIS_ID":-9999.0,"Region":"Northcentral","GNIS_NAME":"Boy Scout Dam","County":"Centre","Longitude":-77.605914,"Latitude":40.763571,"Early_Open":"","id":"a62i3ujnsapt","YR_MapID":""},"type":"Feature","geometry":{"type":"Point","coordinates":[-77.6044500000007,40.76325]}},{"properties":{"Year_Round":"","Map_ID":228,"Prim_Acc":"Bradford Reservoir No. 3","GNIS_ID":1210263.0,"Region":"Northcentral","GNIS_NAME":"Bradford Reservoir No. 3 (Manilla Reservoir)","County":"McKean","Longitude":-78.740327,"Latitude":41.954539,"Early_Open":"","id":"a62i3ucwwew5","YR_MapID":""},"type":"Feature","geometry":{"type":"Point","coordinates":[-78.74244,41.9535799999994]}},{"properties":{"Year_Round":"","Map_ID":23,"Prim_Acc":"Brady's Lake","GNIS_ID":1195007.0,"Region":"Southwest","GNIS_NAME":"Bradys Run Lake","County":"Beaver","Longitude":-75.52225,"Latitude":41.16454,"Early_Open":"","id":"a62i3umza5s5","YR_MapID":""},"type":"Feature","geometry":{"type":"Point","coordinates":[-80.3590999999997,40.7291000000005]}},{"properties":{"Year_Round":"","Map_ID":35,"Prim_Acc":"Canoe Creek State Park Launch 1","GNIS_ID":1194846.0,"Region":"Southcentral","GNIS_NAME":"Canoe Lake","County":"Blair","Longitude":-78.286265,"Latitude":40.48115,"Early_Open":"","id":"a62i3uf28qgi","YR_MapID":""},"type":"Feature","geometry":{"type":"Point","coordinates":[-78.2780399999993,40.4825899999996]}},{"properties":{"Year_Round":"","Map_ID":117,"Prim_Acc":"Canonsburg Lake","GNIS_ID":-9999.0,"Region":"Southwest","GNIS_NAME":"Canonsburg Lake","County":"Washington","Longitude":-80.13151,"Latitude":40.27038,"Early_Open":"","id":"a62i3udzvhtp","YR_MapID":""},"type":"Feature","geometry":{"type":"Point","coordinates":[-80.1343699999998,40.2677500000009]}},{"properties":{"Year_Round":"Y","Map_ID":0,"Prim_Acc":"Cascade Quarry","GNIS_ID":-9999.0,"Region":"Northwest","GNIS_NAME":"Cascade Quarry","County":"Lawrence","Longitude":-80.320232,"Latitude":41.000489,"Early_Open":"","id":"a62i3ujucyy2","YR_MapID":"A"},"type":"Feature","geometry":{"type":"Point","coordinates":[-80.3197600000003,40.9992399999992]}},{"properties":{"Year_Round":"","Map_ID":104,"Prim_Acc":"Chapman State Park","GNIS_ID":1210257.0,"Region":"Northwest","GNIS_NAME":"Chapman Dam Reservoir","County":"Warren","Longitude":-79.179672,"Latitude":41.749094,"Early_Open":"","id":"a62i3uej9tjz","YR_MapID":""},"type":"Feature","geometry":{"type":"Point","coordinates":[-79.1766800000005,41.7500299999993]}},{"properties":{"Year_Round":"","Map_ID":43,"Prim_Acc":"Childrens Lake Boat Launch","GNIS_ID":-9999.0,"Region":"Southcentral","GNIS_NAME":"Childrens Lake","County":"Cumberland","Longitude":-77.12528,"Latitude":40.14722,"Early_Open":"Y","id":"a62i3uhzggc2","YR_MapID":""},"type":"Feature","geometry":{"type":"Point","coordinates":[-77.1263099999997,40.1484199999995]}},{"properties":{"Year_Round":"","Map_ID":69,"Prim_Acc":"Cloe Lake Access","GNIS_ID":1172024.0,"Region":"Northcentral","GNIS_NAME":"Cloe Lake","County":"Jefferson","Longitude":-78.90559,"Latitude":40.94977,"Early_Open":"","id":"a62i3ucxgtcv","YR_MapID":""},"type":"Feature","geometry":{"type":"Point","coordinates":[-78.9094600000008,40.9496099999997]}},{"properties":{"Year_Round":"","Map_ID":227,"Prim_Acc":"Cold Stream Dam","GNIS_ID":-9999.0,"Region":"Northcentral","GNIS_NAME":"Cold Stream Dam","County":"Centre","Longitude":-78.20959,"Latitude":40.899436,"Early_Open":"","id":"a62i3ujioie9","YR_MapID":""},"type":"Feature","geometry":{"type":"Point","coordinates":[-78.2084900000009,40.8982400000005]}},{"properties":{"Year_Round":"","Map_ID":78,"Prim_Acc":"Cowans Gap Lake Ramp","GNIS_ID":1172551.0,"Region":"Southcentral","GNIS_NAME":"Cowans Gap Lake","County":"Fulton","Longitude":-77.92466,"Latitude":40.0004,"Early_Open":"","id":"a62i3ufq1d25","YR_MapID":""},"type":"Feature","geometry":{"type":"Point","coordinates":[-77.9249199999995,39.9983900000007]}},{"properties":{"Year_Round":"","Map_ID":85,"Prim_Acc":"Deep Creek Dam Parking Lot","GNIS_ID":1176086.0,"Region":"Southeast","GNIS_NAME":"Deep Creek Dam","County":"Montgomery","Longitude":-75.485978,"Latitude":40.334912,"Early_Open":"Y","id":"a62i3ukk8pfo","YR_MapID":""},"type":"Feature","geometry":{"type":"Point","coordinates":[-75.4796700000006,40.3366900000001]}},{"properties":{"Year_Round":"","Map_ID":129,"Prim_Acc":"Lake Donegal Access 1","GNIS_ID":-9999.0,"Region":"Southwest","GNIS_NAME":"Donegal Lake","County":"Westmoreland","Longitude":-79.37075,"Latitude":40.14242,"Early_Open":"","id":"a62i3uif5rx2","YR_MapID":""},"type":"Feature","geometry":{"type":"Point","coordinates":[-79.3691799999997,40.1389999999993]}},{"properties":{"Year_Round":"","Map_ID":44,"Prim_Acc":"Doubling Gap Lake Parking Lot","GNIS_ID":-9999.0,"Region":"Southcentral","GNIS_NAME":"Doubling Gap Lake","County":"Cumberland","Longitude":-77.415465,"Latitude":40.282248,"Early_Open":"Y","id":"a62i3ujpg6ul","YR_MapID":""},"type":"Feature","geometry":{"type":"Point","coordinates":[-77.4142599999996,40.2835699999996]}},{"properties":{"Year_Round":"Y","Map_ID":0,"Prim_Acc":"Duck Harbor Pond Access","GNIS_ID":1173567.0,"Region":"Northeast","GNIS_NAME":"Duck Harbor Pond","County":"Wayne","Longitude":-75.21417,"Latitude":41.75028,"Early_Open":"","id":"a62i3ukyouxl","YR_MapID":"C"},"type":"Feature","geometry":{"type":"Point","coordinates":[-75.2086899999995,41.7535499999994]}},{"properties":{"Year_Round":"","Map_ID":36,"Prim_Acc":"Duman Dam","GNIS_ID":1173589.0,"Region":"Southwest","GNIS_NAME":"Duman Dam","County":"Cambria","Longitude":-78.83733,"Latitude":40.57082,"Early_Open":"","id":"a62i3uftp4ki","YR_MapID":""},"type":"Feature","geometry":{"type":"Point","coordinates":[-78.8351199999998,40.5708599999998]}},{"properties":{"Year_Round":"","Map_ID":52,"Prim_Acc":"Dunlap Lake Access","GNIS_ID":-9999.0,"Region":"Southwest","GNIS_NAME":"Dunlap Creek Lake","County":"Fayette","Longitude":-79.80079,"Latitude":39.92578,"Early_Open":"","id":"a62i3ufoka1h","YR_MapID":""},"type":"Feature","geometry":{"type":"Point","coordinates":[-79.8007099999996,39.9245599999995]}},{"properties":{"Year_Round":"","Map_ID":43,"Prim_Acc":"East Basin Pond","GNIS_ID":-9999.0,"Region":"Northwest","GNIS_NAME":"East Basin Pond","County":"Erie","Longitude":-80.130829,"Latitude":42.148928,"Early_Open":"","id":"a62i3upwxxuu","YR_MapID":""},"type":"Feature","geometry":{"type":"Point","coordinates":[-80.1319000000003,42.1494000000003]}},{"properties":{"Year_Round":"","Map_ID":37,"Prim_Acc":"Elton Sportsmens Dam","GNIS_ID":-9999.0,"Region":"Southwest","GNIS_NAME":"Elton Sportsmens Dam","County":"Cambria","Longitude":-78.787307,"Latitude":40.281928,"Early_Open":"","id":"a62i3uigpbu5","YR_MapID":""},"type":"Feature","geometry":{"type":"Point","coordinates":[-78.7865899999997,40.2815699999992]}},{"properties":{"Year_Round":"","Map_ID":40,"Prim_Acc":"F.E. Walter Reservoir","GNIS_ID":-9999.0,"Region":"Northeast","GNIS_NAME":"F.E. Walter Reservoir (Bear Creek Reservoir)","County":"Carbon","Longitude":-75.717533,"Latitude":41.113072,"Early_Open":"","id":"a62i3ufwecsl","YR_MapID":""},"type":"Feature","geometry":{"type":"Point","coordinates":[-75.7165700000005,41.1189400000003]}},{"properties":{"Year_Round":"","Map_ID":40,"Prim_Acc":"F.E. Walter Reservoir","GNIS_ID":-9999.0,"Region":"Northeast","GNIS_NAME":"F.E. Walter Reservoir (Bear Creek Reservoir)","County":"Luzerne","Longitude":-75.717533,"Latitude":41.113072,"Early_Open":"","id":"a62i3uqfsosf","YR_MapID":""},"type":"Feature","geometry":{"type":"Point","coordinates":[-75.7165700000005,41.1189400000003]}},{"properties":{"Year_Round":"","Map_ID":73,"Prim_Acc":"Fairview Lake","GNIS_ID":1209051.0,"Region":"Northeast","GNIS_NAME":"Fairview Lake","County":"Pike","Longitude":-75.1925,"Latitude":41.39528,"Early_Open":"","id":"a62i3ufm4bzs","YR_MapID":""},"type":"Feature","geometry":{"type":"Point","coordinates":[-75.1859199999999,41.3977300000006]}},{"properties":{"Year_Round":"Y","Map_ID":0,"Prim_Acc":"Carverston Road-Francis Slocum State Park","GNIS_ID":1195481.0,"Region":"Northeast","GNIS_NAME":"Frances Slocum Lake","County":"Luzerne","Longitude":-75.888311,"Latitude":41.331296,"Early_Open":"","id":"a62i3un6htla","YR_MapID":"D"},"type":"Feature","geometry":{"type":"Point","coordinates":[-75.8910300000007,41.3353200000002]}},{"properties":{"Year_Round":"","Map_ID":45,"Prim_Acc":"Fuller Lake","GNIS_ID":1175326.0,"Region":"Southcentral","GNIS_NAME":"Fuller Lake","County":"Cumberland","Longitude":-77.298517,"Latitude":40.030726,"Early_Open":"Y","id":"a62i3uivqbyz","YR_MapID":""},"type":"Feature","geometry":{"type":"Point","coordinates":[-77.2993299999998,40.0301099999997]}},{"properties":{"Year_Round":"","Map_ID":5,"Prim_Acc":"Glade Run Access","GNIS_ID":1194998.0,"Region":"Northwest","GNIS_NAME":"Glade Run Lake","County":"Butler","Longitude":-79.90036,"Latitude":40.71543,"Early_Open":"","id":"a62i3ucjd0h8","YR_MapID":""},"type":"Feature","geometry":{"type":"Point","coordinates":[-79.8996800000005,40.7137000000003]}},{"properties":{"Year_Round":"Y","Map_ID":0,"Prim_Acc":"Glatco Lake","GNIS_ID":1175684.0,"Region":"Southcentral","GNIS_NAME":"Glatco Lake","County":"York","Longitude":-76.944769,"Latitude":39.841048,"Early_Open":"Y","id":"a62i3udmaj9u","YR_MapID":"G"},"type":"Feature","geometry":{"type":"Point","coordinates":[-76.9437500000004,39.8407399999997]}},{"properties":{"Year_Round":"","Map_ID":18,"Prim_Acc":"Goss Run Dam","GNIS_ID":-9999.0,"Region":"Northcentral","GNIS_NAME":"Goss Run Dam","County":"Clearfield","Longitude":-78.350659,"Latitude":40.839648,"Early_Open":"","id":"a62i3uiil8nh","YR_MapID":""},"type":"Feature","geometry":{"type":"Point","coordinates":[-78.3514899999991,40.8398300000008]}},{"properties":{"Year_Round":"","Map_ID":94,"Prim_Acc":"Greenwood Lake Fishing Pier","GNIS_ID":-9999.0,"Region":"Southcentral","GNIS_NAME":"Greenwood Lake","County":"Huntingdon","Longitude":-77.758115,"Latitude":40.650725,"Early_Open":"","id":"a62i3uqkvlj7","YR_MapID":""},"type":"Feature","geometry":{"type":"Point","coordinates":[-77.7585500000005,40.6498800000009]}},{"properties":{"Year_Round":"","Map_ID":205,"Prim_Acc":"Halfway Lake Parking Lot","GNIS_ID":1176389.0,"Region":"Northcentral","GNIS_NAME":"Halfway Lake","County":"Union","Longitude":-77.190302,"Latitude":40.990227,"Early_Open":"","id":"a62i3uhcss7s","YR_MapID":""},"type":"Feature","geometry":{"type":"Point","coordinates":[-77.1902900000005,40.9910400000008]}},{"properties":{"Year_Round":"","Map_ID":195,"Prim_Acc":"Hamilton Lake","GNIS_ID":1195765.0,"Region":"Northcentral","GNIS_NAME":"Hamilton Lake","County":"Tioga","Longitude":-77.25694,"Latitude":41.73457,"Early_Open":"","id":"a62i3ul16o5s","YR_MapID":""},"type":"Feature","geometry":{"type":"Point","coordinates":[-77.2614699999995,41.7367300000005]}},{"properties":{"Year_Round":"","Map_ID":94,"Prim_Acc":"Hamlin Lake","GNIS_ID":-9999.0,"Region":"Northcentral","GNIS_NAME":"Hamlin Lake","County":"McKean","Longitude":-78.43832,"Latitude":41.80679,"Early_Open":"","id":"a62i3ui5j72e","YR_MapID":""},"type":"Feature","geometry":{"type":"Point","coordinates":[-78.4465500000006,41.8068500000009]}},{"properties":{"Year_Round":"","Map_ID":6,"Prim_Acc":"Harbor Acres Lake Access","GNIS_ID":1201885.0,"Region":"Northwest","GNIS_NAME":"Harbar Acres Lake","County":"Butler","Longitude":-79.85079,"Latitude":41.03544,"Early_Open":"","id":"a62i3unpa28a","YR_MapID":""},"type":"Feature","geometry":{"type":"Point","coordinates":[-79.8536999999997,41.0377300000001]}},{"properties":{"Year_Round":"","Map_ID":42,"Prim_Acc":"Harveys Lake","GNIS_ID":1200085.0,"Region":"Northeast","GNIS_NAME":"Harveys Lake","County":"Luzerne","Longitude":-76.05806,"Latitude":41.36444,"Early_Open":"","id":"a62i3ujjtkk0","YR_MapID":""},"type":"Feature","geometry":{"type":"Point","coordinates":[-76.0412899999992,41.3648699999994]}},{"properties":{"Year_Round":"","Map_ID":15,"Prim_Acc":"Hickory Run Lake","GNIS_ID":1176976.0,"Region":"Northeast","GNIS_NAME":"Hickory Run Lake","County":"Carbon","Longitude":-75.685266,"Latitude":41.04261,"Early_Open":"","id":"a62i3ujah7t8","YR_MapID":""},"type":"Feature","geometry":{"type":"Point","coordinates":[-75.6843599999993,41.0430899999993]}},{"properties":{"Year_Round":"","Map_ID":60,"Prim_Acc":"Hidden Lake","GNIS_ID":1176989.0,"Region":"Northeast","GNIS_NAME":"Hidden Lake","County":"Monroe","Longitude":-75.04639,"Latitude":41.05497,"Early_Open":"","id":"a62i3ugu43aq","YR_MapID":""},"type":"Feature","geometry":{"type":"Point","coordinates":[-75.0479599999999,41.0524600000008]}},{"properties":{"Year_Round":"Y","Map_ID":0,"Prim_Acc":"Holman Lake Access 1","GNIS_ID":1212831.0,"Region":"Southcentral","GNIS_NAME":"Holman Lake","County":"Perry","Longitude":-77.175117,"Latitude":40.455315,"Early_Open":"Y","id":"a62i3unpyy2k","YR_MapID":"C"},"type":"Feature","geometry":{"type":"Point","coordinates":[-77.1805600000007,40.4543099999992]}},{"properties":{"Year_Round":"","Map_ID":152,"Prim_Acc":"Hunters Lake","GNIS_ID":1198919.0,"Region":"Northeast","GNIS_NAME":"Hunters Lake","County":"Sullivan","Longitude":-76.62307,"Latitude":41.38399,"Early_Open":"","id":"a62i3uem7gd7","YR_MapID":""},"type":"Feature","geometry":{"type":"Point","coordinates":[-76.6207900000009,41.3837199999998]}},{"properties":{"Year_Round":"","Map_ID":135,"Prim_Acc":"Indian Lake","GNIS_ID":-9999.0,"Region":"Southwest","GNIS_NAME":"Indian Lake","County":"Westmoreland","Longitude":-78.85913,"Latitude":40.03912,"Early_Open":"","id":"a62i3ugidsu1","YR_MapID":""},"type":"Feature","geometry":{"type":"Point","coordinates":[-79.7289899999996,40.2958199999994]}},{"properties":{"Year_Round":"","Map_ID":21,"Prim_Acc":"Janesville Dam Access","GNIS_ID":-9999.0,"Region":"Northcentral","GNIS_NAME":"Janesville Dam","County":"Clearfield","Longitude":-78.42197,"Latitude":40.75091,"Early_Open":"","id":"a62i3updyau5","YR_MapID":""},"type":"Feature","geometry":{"type":"Point","coordinates":[-78.4238600000008,40.7540700000009]}},{"properties":{"Year_Round":"Y","Map_ID":0,"Prim_Acc":"Ricketts Glen State Park Access","GNIS_ID":1177996.0,"Region":"Northeast","GNIS_NAME":"Jean, Lake","County":"Luzerne/Sullivan","Longitude":-76.301447,"Latitude":41.336778,"Early_Open":"","id":"a62i3uhaenlu","YR_MapID":"G"},"type":"Feature","geometry":{"type":"Point","coordinates":[-76.2923599999995,41.3420200000001]}},{"properties":{"Year_Round":"","Map_ID":83,"Prim_Acc":"Justus Lake","GNIS_ID":-9999.0,"Region":"Northwest","GNIS_NAME":"Justus Lake","County":"Venango","Longitude":-79.77499,"Latitude":41.47697,"Early_Open":"","id":"a62i3unefvnu","YR_MapID":""},"type":"Feature","geometry":{"type":"Point","coordinates":[-79.7710200000001,41.4736699999994]}},{"properties":{"Year_Round":"Y","Map_ID":0,"Prim_Acc":"Kaercher Creek Dam Access","GNIS_ID":-9999.0,"Region":"Southeast","GNIS_NAME":"Kaercher Creek Dam","County":"Berks","Longitude":-75.96629,"Latitude":40.5607,"Early_Open":"Y","id":"a62i3uo7fo87","YR_MapID":"J"},"type":"Feature","geometry":{"type":"Point","coordinates":[-75.9658099999997,40.5594500000006]}},{"properties":{"Year_Round":"","Map_ID":130,"Prim_Acc":"Kettle Creek State Park Access","GNIS_ID":1195498.0,"Region":"Northcentral","GNIS_NAME":"Kettle Creek Lake","County":"Clinton","Longitude":-77.93233,"Latitude":41.37384,"Early_Open":"","id":"a62i3umljfvs","YR_MapID":""},"type":"Feature","geometry":{"type":"Point","coordinates":[-77.9300999999996,41.3676799999995]}},{"properties":{"Year_Round":"","Map_ID":136,"Prim_Acc":"Keystone State Park Lake Access","GNIS_ID":1178438.0,"Region":"Southwest","GNIS_NAME":"Keystone Lake","County":"Westmoreland","Longitude":-79.38619,"Latitude":40.37779,"Early_Open":"","id":"a62i3ulf97e8","YR_MapID":""},"type":"Feature","geometry":{"type":"Point","coordinates":[-79.3833699999996,40.3736300000001]}},{"properties":{"Year_Round":"Y","Map_ID":0,"Prim_Acc":"Koon Lake Boat Access","GNIS_ID":1200093.0,"Region":"Southcentral","GNIS_NAME":"Koon Lake","County":"Bedford","Longitude":-78.65764,"Latitude":39.77467,"Early_Open":"","id":"a62i3uoyfgzu","YR_MapID":"E"},"type":"Feature","geometry":{"type":"Point","coordinates":[-78.6586000000007,39.7745900000009]}},{"properties":{"Year_Round":"","Map_ID":99,"Prim_Acc":"Kooser Lake Parking Lot","GNIS_ID":1192720.0,"Region":"Southwest","GNIS_NAME":"Kooser Lake","County":"Somerset","Longitude":-79.224982,"Latitude":40.058181,"Early_Open":"","id":"a62i3ucx9nv3","YR_MapID":""},"type":"Feature","geometry":{"type":"Point","coordinates":[-79.2257300000001,40.0573000000005]}},{"properties":{"Year_Round":"","Map_ID":33,"Prim_Acc":"Lackawanna State Park Access","GNIS_ID":1195656.0,"Region":"Northeast","GNIS_NAME":"Lackawanna Lake","County":"Lackawanna","Longitude":-75.707957,"Latitude":41.56369,"Early_Open":"","id":"a62i3ubps4gt","YR_MapID":""},"type":"Feature","geometry":{"type":"Point","coordinates":[-75.7074100000009,41.5668900000001]}},{"properties":{"Year_Round":"","Map_ID":43,"Prim_Acc":"Lake Francis","GNIS_ID":1212420.0,"Region":"Northeast","GNIS_NAME":"Lake Francis","County":"Luzerne","Longitude":-75.88143,"Latitude":41.08887,"Early_Open":"","id":"a62i3uhzr1x3","YR_MapID":""},"type":"Feature","geometry":{"type":"Point","coordinates":[-75.8832199999997,41.0877700000001]}},{"properties":{"Year_Round":"","Map_ID":45,"Prim_Acc":"Lake Irena","GNIS_ID":1195182.0,"Region":"Northeast","GNIS_NAME":"Lake Irena","County":"Luzerne","Longitude":-76.00395,"Latitude":40.98115,"Early_Open":"","id":"a62i3udkv5q5","YR_MapID":""},"type":"Feature","geometry":{"type":"Point","coordinates":[-76.0025900000001,40.9816699999992]}},{"properties":{"Year_Round":"","Map_ID":75,"Prim_Acc":"Lake Loch Lomond","GNIS_ID":-9999.0,"Region":"Northeast","GNIS_NAME":"Lake Loch Lomond","County":"Pike","Longitude":-74.89527,"Latitude":41.20903,"Early_Open":"","id":"a62i3uqhfxbs","YR_MapID":""},"type":"Feature","geometry":{"type":"Point","coordinates":[-74.8953299999994,41.2064699999992]}},{"properties":{"Year_Round":"Y","Map_ID":0,"Prim_Acc":"Codorus State Park Main Launch","GNIS_ID":1192890.0,"Region":"Southcentral","GNIS_NAME":"Lake Marburg","County":"York","Longitude":-76.910712,"Latitude":39.797176,"Early_Open":"Y","id":"a62i3uqdojms","YR_MapID":"H"},"type":"Feature","geometry":{"type":"Point","coordinates":[-76.9026200000008,39.7932700000001]}},{"properties":{"Year_Round":"","Map_ID":76,"Prim_Acc":"Lake Minisink","GNIS_ID":1181338.0,"Region":"Northeast","GNIS_NAME":"Lake Minisink","County":"Pike","Longitude":-75.05067,"Latitude":41.21377,"Early_Open":"","id":"a62i3uj21wry","YR_MapID":""},"type":"Feature","geometry":{"type":"Point","coordinates":[-75.0531100000008,41.2159400000001]}},{"properties":{"Year_Round":"","Map_ID":42,"Prim_Acc":"Lake Rowena","GNIS_ID":1185577.0,"Region":"Southwest","GNIS_NAME":"Lake Rowena","County":"Cambria","Longitude":-78.71107,"Latitude":40.485,"Early_Open":"","id":"a62i3ujj9rw9","YR_MapID":""},"type":"Feature","geometry":{"type":"Point","coordinates":[-78.7150700000002,40.4808400000002]}},{"properties":{"Year_Round":"","Map_ID":44,"Prim_Acc":"Lake Took A While","GNIS_ID":-9999.0,"Region":"Northeast","GNIS_NAME":"Lake Took A While (Riverlands)","County":"Luzerne","Longitude":-76.134444,"Latitude":41.097216,"Early_Open":"","id":"a62i3udkzlzd","YR_MapID":""},"type":"Feature","geometry":{"type":"Point","coordinates":[-76.1350199999997,41.0951000000005]}},{"properties":{"Year_Round":"","Map_ID":65,"Prim_Acc":"Lake Wilma Parking Lot","GNIS_ID":-9999.0,"Region":"Southwest","GNIS_NAME":"Lake Wilma","County":"Greene","Longitude":-80.197187,"Latitude":39.724031,"Early_Open":"","id":"a62i3ulwblws","YR_MapID":""},"type":"Feature","geometry":{"type":"Point","coordinates":[-80.19902,39.72552]}},{"properties":{"Year_Round":"","Map_ID":130,"Prim_Acc":"Lake Winola","GNIS_ID":-9999.0,"Region":"Northeast","GNIS_NAME":"Lake Winola","County":"Wyoming","Longitude":-75.84285,"Latitude":41.51006,"Early_Open":"","id":"a62i3ugezm5s","YR_MapID":""},"type":"Feature","geometry":{"type":"Point","coordinates":[-75.8490299999994,41.5132400000002]}},{"properties":{"Year_Round":"Y","Map_ID":0,"Prim_Acc":"Lakeside Quarry","GNIS_ID":-9999.0,"Region":"Southcentral","GNIS_NAME":"Lakeside Quarry","County":"Lebanon","Longitude":-76.29196,"Latitude":40.37475,"Early_Open":"Y","id":"a62i3uohyvvp","YR_MapID":"F"},"type":"Feature","geometry":{"type":"Point","coordinates":[-76.2919399999992,40.3742600000005]}},{"properties":{"Year_Round":"","Map_ID":44,"Prim_Acc":"Laurel Run Reservoir","GNIS_ID":1195561.0,"Region":"Northcentral","GNIS_NAME":"Laural Run Reservoir","County":"Elk","Longitude":-78.6,"Latitude":41.41444,"Early_Open":"","id":"a62i3uqlxl9e","YR_MapID":""},"type":"Feature","geometry":{"type":"Point","coordinates":[-78.5971000000009,41.4125299999997]}},{"properties":{"Year_Round":"","Map_ID":102,"Prim_Acc":"Laurel Hill Lake","GNIS_ID":1178948.0,"Region":"Southwest","GNIS_NAME":"Laurel Hill Lake","County":"Somerset","Longitude":-79.238948,"Latitude":39.99501,"Early_Open":"","id":"a62i3uibajp9","YR_MapID":""},"type":"Feature","geometry":{"type":"Point","coordinates":[-79.2345999999998,39.9991399999999]}},{"properties":{"Year_Round":"","Map_ID":47,"Prim_Acc":"Laurel Lake Boat Launch","GNIS_ID":1194510.0,"Region":"Southcentral","GNIS_NAME":"Laurel Lake","County":"Cumberland","Longitude":-77.26778,"Latitude":40.03805,"Early_Open":"Y","id":"a62i3umn4w7s","YR_MapID":""},"type":"Feature","geometry":{"type":"Point","coordinates":[-77.2702399999998,40.03953]}},{"properties":{"Year_Round":"","Map_ID":79,"Prim_Acc":"Leaser Lake South Ramp","GNIS_ID":1217394.0,"Region":"Southeast","GNIS_NAME":"Leaser Lake","County":"Lehigh","Longitude":-75.83276,"Latitude":40.67105,"Early_Open":"Y","id":"a62i3ufkuhcv","YR_MapID":""},"type":"Feature","geometry":{"type":"Point","coordinates":[-75.8350900000005,40.67447]}},{"properties":{"Year_Round":"","Map_ID":73,"Prim_Acc":"Letterkenny Reservoir","GNIS_ID":1179223.0,"Region":"Southcentral","GNIS_NAME":"Letterkenny Reservoir","County":"Franklin","Longitude":-77.69788,"Latitude":40.11207,"Early_Open":"Y","id":"a62i3uduxfdy","YR_MapID":""},"type":"Feature","geometry":{"type":"Point","coordinates":[-77.69427,40.1117099999992]}},{"properties":{"Year_Round":"","Map_ID":26,"Prim_Acc":"Levittown Lake","GNIS_ID":-9999.0,"Region":"Southeast","GNIS_NAME":"Levittown Lake","County":"Bucks","Longitude":-74.81868,"Latitude":40.1471,"Early_Open":"Y","id":"a62i3uolhpp8","YR_MapID":""},"type":"Feature","geometry":{"type":"Point","coordinates":[-74.8186100000003,40.1488599999994]}},{"properties":{"Year_Round":"","Map_ID":46,"Prim_Acc":"Lily Lake","GNIS_ID":1179343.0,"Region":"Northeast","GNIS_NAME":"Lily Lake","County":"Luzerne","Longitude":-76.08359,"Latitude":41.13832,"Early_Open":"","id":"a62i3uqvzzyd","YR_MapID":""},"type":"Feature","geometry":{"type":"Point","coordinates":[-76.0809800000007,41.1424900000002]}},{"properties":{"Year_Round":"","Map_ID":78,"Prim_Acc":"Lily Pond","GNIS_ID":1179344.0,"Region":"Northeast","GNIS_NAME":"Lily Pond","County":"Pike","Longitude":-74.856423,"Latitude":41.361023,"Early_Open":"","id":"a62i3uhx86l4","YR_MapID":""},"type":"Feature","geometry":{"type":"Point","coordinates":[-74.8546200000001,41.3625200000006]}},{"properties":{"Year_Round":"","Map_ID":122,"Prim_Acc":"Lions Lake","GNIS_ID":1212231.0,"Region":"Southcentral","GNIS_NAME":"Lions Lake","County":"Lebanon","Longitude":-76.45438,"Latitude":40.35915,"Early_Open":"Y","id":"a62i3ujyr9g9","YR_MapID":""},"type":"Feature","geometry":{"type":"Point","coordinates":[-76.4533699999993,40.3586799999994]}},{"properties":{"Year_Round":"","Map_ID":77,"Prim_Acc":"Little Mud Pond","GNIS_ID":1179613.0,"Region":"Northeast","GNIS_NAME":"Little Mud Pond","County":"Pike","Longitude":-75.00455,"Latitude":41.27158,"Early_Open":"","id":"a62i3umi15sk","YR_MapID":""},"type":"Feature","geometry":{"type":"Point","coordinates":[-75.0101300000006,41.2667799999999]}},{"properties":{"Year_Round":"","Map_ID":141,"Prim_Acc":"Little Pine Creek State Park Access","GNIS_ID":-9999.0,"Region":"Northcentral","GNIS_NAME":"Little Pine Lake","County":"Lycoming","Longitude":-77.34948,"Latitude":41.36189,"Early_Open":"","id":"a62i3ug0o1lg","YR_MapID":""},"type":"Feature","geometry":{"type":"Point","coordinates":[-77.3552,41.3631600000008]}},{"properties":{"Year_Round":"","Map_ID":86,"Prim_Acc":"Loch Alsh Reservoir Parking Lot","GNIS_ID":-9999.0,"Region":"Southeast","GNIS_NAME":"Loch Alsh Reservoir","County":"Montgomery","Longitude":-75.205097,"Latitude":40.155692,"Early_Open":"Y","id":"a62i3umqoh7g","YR_MapID":""},"type":"Feature","geometry":{"type":"Point","coordinates":[-75.2034299999996,40.1564500000004]}},{"properties":{"Year_Round":"","Map_ID":115,"Prim_Acc":"Locust Lake Boat Launch","GNIS_ID":1192826.0,"Region":"Southeast","GNIS_NAME":"Locust Lake","County":"Schuylkill","Longitude":-76.121028,"Latitude":40.784452,"Early_Open":"Y","id":"a62i3ud1le7q","YR_MapID":""},"type":"Feature","geometry":{"type":"Point","coordinates":[-76.1235099999995,40.7824400000009]}},{"properties":{"Year_Round":"","Map_ID":122,"Prim_Acc":"Lake Alden - Long Pond Access","GNIS_ID":1179871.0,"Region":"Northeast","GNIS_NAME":"Long Pond","County":"Wayne","Longitude":-75.34198,"Latitude":41.66939,"Early_Open":"","id":"a62i3uczpb9f","YR_MapID":""},"type":"Feature","geometry":{"type":"Point","coordinates":[-75.3435100000006,41.6645399999998]}},{"properties":{"Year_Round":"","Map_ID":4,"Prim_Acc":"Lower Deer Lake Parking Lot","GNIS_ID":-9999.0,"Region":"Southwest","GNIS_NAME":"Lower Deer Lake","County":"Allegheny","Longitude":-79.830619,"Latitude":40.618874,"Early_Open":"","id":"a62i3uqb8i6p","YR_MapID":""},"type":"Feature","geometry":{"type":"Point","coordinates":[-79.8277899999994,40.6205499999996]}},{"properties":{"Year_Round":"","Map_ID":25,"Prim_Acc":"Hereford Manor Lake Access","GNIS_ID":1176868.0,"Region":"Southwest","GNIS_NAME":"Lower Hereford Manor Lake","County":"Beaver","Longitude":-80.16236,"Latitude":40.81201,"Early_Open":"","id":"a62i3un0l2rv","YR_MapID":""},"type":"Feature","geometry":{"type":"Point","coordinates":[-80.1631400000006,40.8140899999999]}},{"properties":{"Year_Round":"","Map_ID":79,"Prim_Acc":"Bear Wallow Access","GNIS_ID":1180019.0,"Region":"Northeast","GNIS_NAME":"Lower Promised Land Lake","County":"Pike","Longitude":-75.21173,"Latitude":41.31945,"Early_Open":"","id":"a62i3ugwrivt","YR_MapID":""},"type":"Feature","geometry":{"type":"Point","coordinates":[-75.2225099999996,41.3158500000009]}},{"properties":{"Year_Round":"","Map_ID":144,"Prim_Acc":"Lower Twin Lake","GNIS_ID":1209372.0,"Region":"Southwest","GNIS_NAME":"Lower Twin Lake","County":"Westmoreland","Longitude":-79.47557,"Latitude":40.31872,"Early_Open":"","id":"a62i3ugv7aln","YR_MapID":""},"type":"Feature","geometry":{"type":"Point","coordinates":[-79.4769300000007,40.3191700000007]}},{"properties":{"Year_Round":"","Map_ID":25,"Prim_Acc":"Core Creek Park 24 Hour Access","GNIS_ID":1212227.0,"Region":"Southeast","GNIS_NAME":"Luxembourg, Lake","County":"Bucks","Longitude":-74.91912,"Latitude":40.199964,"Early_Open":"Y","id":"a62i3ujeu93f","YR_MapID":""},"type":"Feature","geometry":{"type":"Point","coordinates":[-74.9133000000002,40.2055999999993]}},{"properties":{"Year_Round":"","Map_ID":168,"Prim_Acc":"Lyman Run State Park Access","GNIS_ID":1195752.0,"Region":"Northcentral","GNIS_NAME":"Lyman Run Reservoir","County":"Potter","Longitude":-77.76503,"Latitude":41.72334,"Early_Open":"","id":"a62i3uckbsci","YR_MapID":""},"type":"Feature","geometry":{"type":"Point","coordinates":[-77.7655400000004,41.7230600000003]}},{"properties":{"Year_Round":"","Map_ID":139,"Prim_Acc":"Mammoth Dam Access","GNIS_ID":1194636.0,"Region":"Southwest","GNIS_NAME":"Mammoth Lake","County":"Westmoreland","Longitude":-79.45658,"Latitude":40.21471,"Early_Open":"","id":"a62i3uf0qwdc","YR_MapID":""},"type":"Feature","geometry":{"type":"Point","coordinates":[-79.4557399999994,40.2137600000006]}},{"properties":{"Year_Round":"","Map_ID":123,"Prim_Acc":"Marquette Lake","GNIS_ID":1180435.0,"Region":"Southcentral","GNIS_NAME":"Marquette Lake","County":"Lebanon","Longitude":-76.59748,"Latitude":40.43317,"Early_Open":"Y","id":"a62i3up2x5sf","YR_MapID":""},"type":"Feature","geometry":{"type":"Point","coordinates":[-76.59764,40.4344199999996]}},{"properties":{"Year_Round":"","Map_ID":36,"Prim_Acc":"Merli-Sarnoski Access","GNIS_ID":1181954.0,"Region":"Northeast","GNIS_NAME":"Merli-Sarnoski Park Lake","County":"Lackawanna","Longitude":-75.53364,"Latitude":41.58967,"Early_Open":"","id":"a62i3ulaiinb","YR_MapID":""},"type":"Feature","geometry":{"type":"Point","coordinates":[-75.5342700000001,41.5905000000002]}},{"properties":{"Year_Round":"","Map_ID":4,"Prim_Acc":"Middle Deer Lake Parking Lot","GNIS_ID":-9999.0,"Region":"Southwest","GNIS_NAME":"Middle Deer Lake","County":"Allegheny","Longitude":-79.82651,"Latitude":40.62161,"Early_Open":"","id":"a62i3ur132h3","YR_MapID":""},"type":"Feature","geometry":{"type":"Point","coordinates":[-79.8232499999995,40.6223499999996]}},{"properties":{"Year_Round":"","Map_ID":55,"Prim_Acc":"Middletown Reservoir","GNIS_ID":1202636.0,"Region":"Southcentral","GNIS_NAME":"Middletown Reservoir","County":"Dauphin","Longitude":-76.68688,"Latitude":40.21127,"Early_Open":"Y","id":"a62i3uhb6jc6","YR_MapID":""},"type":"Feature","geometry":{"type":"Point","coordinates":[-76.6872600000006,40.20946]}},{"properties":{"Year_Round":"","Map_ID":101,"Prim_Acc":"Minsi Lake","GNIS_ID":1181336.0,"Region":"Southeast","GNIS_NAME":"Minsi Lake","County":"Northampton","Longitude":-75.17824,"Latitude":40.91385,"Early_Open":"Y","id":"a62i3umb15ds","YR_MapID":""},"type":"Feature","geometry":{"type":"Point","coordinates":[-75.1715100000001,40.9143499999991]}},{"properties":{"Year_Round":"","Map_ID":49,"Prim_Acc":"Moon Lake","GNIS_ID":1181495.0,"Region":"Northeast","GNIS_NAME":"Moon Lake","County":"Luzerne","Longitude":-76.046517,"Latitude":41.251498,"Early_Open":"","id":"a62i3ub8z801","YR_MapID":""},"type":"Feature","geometry":{"type":"Point","coordinates":[-76.0480499999994,41.2537100000009]}},{"properties":{"Year_Round":"Y","Map_ID":0,"Prim_Acc":"Mountain Lake","GNIS_ID":-9999.0,"Region":"Northeast","GNIS_NAME":"Mountain Lake","County":"Bradford","Longitude":-76.585353,"Latitude":41.764005,"Early_Open":"","id":"a62i3uor2u1d","YR_MapID":"A"},"type":"Feature","geometry":{"type":"Point","coordinates":[-76.5867199999993,41.7667299999994]}},{"properties":{"Year_Round":"","Map_ID":66,"Prim_Acc":"Muddy Run Lake Access","GNIS_ID":1194376.0,"Region":"Southeast","GNIS_NAME":"Muddy Run Recreation Reservoir","County":"Lancaster","Longitude":-76.27552,"Latitude":39.84872,"Early_Open":"Y","id":"a62i3ul91yk8","YR_MapID":""},"type":"Feature","geometry":{"type":"Point","coordinates":[-76.2787900000003,39.8449199999996]}},{"properties":{"Year_Round":"","Map_ID":8,"Prim_Acc":"North Park Boat Launch","GNIS_ID":1182617.0,"Region":"Southwest","GNIS_NAME":"North Park Lake","County":"Allegheny","Longitude":-79.99821,"Latitude":40.5982,"Early_Open":"","id":"a62i3uc3ah4w","YR_MapID":""},"type":"Feature","geometry":{"type":"Point","coordinates":[-80.0022300000001,40.5989800000007]}},{"properties":{"Year_Round":"","Map_ID":141,"Prim_Acc":"Northmoreland Lake","GNIS_ID":-9999.0,"Region":"Southwest","GNIS_NAME":"Northmoreland Lake","County":"Westmoreland","Longitude":-79.61688,"Latitude":40.57597,"Early_Open":"","id":"a62i3ue5k385","YR_MapID":""},"type":"Feature","geometry":{"type":"Point","coordinates":[-79.6178899999995,40.5752699999994]}},{"properties":{"Year_Round":"","Map_ID":173,"Prim_Acc":"Opossum Lake Boat Launch 1","GNIS_ID":1194648.0,"Region":"Southcentral","GNIS_NAME":"Opossum Creek Lake","County":"Cumberland","Longitude":-77.27767,"Latitude":40.22922,"Early_Open":"Y","id":"a62i3up13fi4","YR_MapID":""},"type":"Feature","geometry":{"type":"Point","coordinates":[-77.2792599999994,40.2299899999999]}},{"properties":{"Year_Round":"","Map_ID":136,"Prim_Acc":"Oxbow Access","GNIS_ID":1183165.0,"Region":"Northeast","GNIS_NAME":"Oxbow Lake","County":"Wyoming","Longitude":-75.89417,"Latitude":41.60972,"Early_Open":"","id":"a62i3uehkas7","YR_MapID":""},"type":"Feature","geometry":{"type":"Point","coordinates":[-75.8953500000007,41.6083699999999]}},{"properties":{"Year_Round":"","Map_ID":28,"Prim_Acc":"Parker Dam Access","GNIS_ID":-9999.0,"Region":"Northcentral","GNIS_NAME":"Parker Lake","County":"Clearfield","Longitude":-78.49724,"Latitude":41.2057,"Early_Open":"","id":"a62i3ul4llpp","YR_MapID":""},"type":"Feature","geometry":{"type":"Point","coordinates":[-78.5077999999994,41.1963400000004]}},{"properties":{"Year_Round":"","Map_ID":100,"Prim_Acc":"Stone Valley Lake Access","GNIS_ID":1211883.0,"Region":"Southcentral","GNIS_NAME":"Perez Lake","County":"Huntingdon","Longitude":-77.911751,"Latitude":40.663836,"Early_Open":"","id":"a62i3ujren0o","YR_MapID":""},"type":"Feature","geometry":{"type":"Point","coordinates":[-77.9143600000007,40.6630800000002]}},{"properties":{"Year_Round":"","Map_ID":40,"Prim_Acc":"Lake Pleasant Access","GNIS_ID":1184097.0,"Region":"Northwest","GNIS_NAME":"Pleasant, Lake","County":"Erie","Longitude":-79.89494,"Latitude":42.0044,"Early_Open":"","id":"a62i3uhbm4l5","YR_MapID":""},"type":"Feature","geometry":{"type":"Point","coordinates":[-79.8978000000007,42.0041899999997]}},{"properties":{"Year_Round":"","Map_ID":120,"Prim_Acc":"Poe Lake","GNIS_ID":1195068.0,"Region":"Northcentral","GNIS_NAME":"Poe Lake","County":"Centre","Longitude":-77.44783,"Latitude":40.82843,"Early_Open":"","id":"a62i3ul8p5hu","YR_MapID":""},"type":"Feature","geometry":{"type":"Point","coordinates":[-77.4718799999992,40.8214700000008]}},{"properties":{"Year_Round":"","Map_ID":123,"Prim_Acc":"Pumping Station Dam Parking Lot","GNIS_ID":1195123.0,"Region":"Southeast","GNIS_NAME":"Pumping Station Dam","County":"Schuylkill","Longitude":-76.146022,"Latitude":40.872492,"Early_Open":"Y","id":"a62i3uq49x9h","YR_MapID":""},"type":"Feature","geometry":{"type":"Point","coordinates":[-76.1455700000006,40.8710599999995]}},{"properties":{"Year_Round":"","Map_ID":155,"Prim_Acc":"Quaker Lake","GNIS_ID":1184522.0,"Region":"Northeast","GNIS_NAME":"Quaker Lake","County":"Susquehanna","Longitude":-75.92889,"Latitude":41.97417,"Early_Open":"","id":"a62i3un1z3cm","YR_MapID":""},"type":"Feature","geometry":{"type":"Point","coordinates":[-75.9201699999994,41.9773299999997]}},{"properties":{"Year_Round":"","Map_ID":124,"Prim_Acc":"Rabbit Run Reservoir","GNIS_ID":-9999.0,"Region":"Southeast","GNIS_NAME":"Rabbit Run Reservoir","County":"Schuylkill","Longitude":-75.981018,"Latitude":40.776041,"Early_Open":"Y","id":"a62i3ufvx32o","YR_MapID":""},"type":"Feature","geometry":{"type":"Point","coordinates":[-75.9808200000007,40.7752899999996]}},{"properties":{"Year_Round":"","Map_ID":28,"Prim_Acc":"Raccoon State Park Access","GNIS_ID":-9999.0,"Region":"Southwest","GNIS_NAME":"Raccoon Lake","County":"Beaver","Longitude":-80.39417,"Latitude":40.50389,"Early_Open":"","id":"a62i3uq87ewe","YR_MapID":""},"type":"Feature","geometry":{"type":"Point","coordinates":[-80.3935899999997,40.5052899999991]}},{"properties":{"Year_Round":"","Map_ID":54,"Prim_Acc":"Ridgway Reservoir","GNIS_ID":1199378.0,"Region":"Northcentral","GNIS_NAME":"Ridgway Reservoir","County":"Elk","Longitude":-78.776843,"Latitude":41.425163,"Early_Open":"","id":"a62i3uhhsjee","YR_MapID":""},"type":"Feature","geometry":{"type":"Point","coordinates":[-78.7826299999997,41.4384800000007]}},{"properties":{"Year_Round":"","Map_ID":19,"Prim_Acc":"Scott's Run Lake-French Creek State Park Access","GNIS_ID":1187176.0,"Region":"Southeast","GNIS_NAME":"Scotts Run Lake","County":"Berks","Longitude":-75.78147,"Latitude":40.21623,"Early_Open":"Y","id":"a62i3un22oyo","YR_MapID":""},"type":"Feature","geometry":{"type":"Point","coordinates":[-75.7995699999992,40.2110400000002]}},{"properties":{"Year_Round":"","Map_ID":169,"Prim_Acc":"Shepard and Meyer Reservoir Access","GNIS_ID":1187472.0,"Region":"Southcentral","GNIS_NAME":"Sheppard-Meyers Dam","County":"York","Longitude":-76.95444,"Latitude":39.73222,"Early_Open":"Y","id":"a62i3uceuckq","YR_MapID":""},"type":"Feature","geometry":{"type":"Point","coordinates":[-76.9549999999999,39.7329000000009]}},{"properties":{"Year_Round":"","Map_ID":66,"Prim_Acc":"Snow Hill Dam","GNIS_ID":-9999.0,"Region":"Northeast","GNIS_NAME":"Snow Hill Dam","County":"Monroe","Longitude":-75.192417,"Latitude":41.14964,"Early_Open":"","id":"a62i3uef9oll","YR_MapID":""},"type":"Feature","geometry":{"type":"Point","coordinates":[-75.1927799999994,41.1501700000009]}},{"properties":{"Year_Round":"","Map_ID":4,"Prim_Acc":"Sinnemahoning State Park Access","GNIS_ID":-9999.0,"Region":"Northcentral","GNIS_NAME":"Stevenson Reservoir","County":"Cameron","Longitude":-78.02999,"Latitude":41.42215,"Early_Open":"","id":"a62i3ucpk0us","YR_MapID":""},"type":"Feature","geometry":{"type":"Point","coordinates":[-78.0256000000009,41.4175099999993]}},{"properties":{"Year_Round":"","Map_ID":128,"Prim_Acc":"Stover's Dam","GNIS_ID":-9999.0,"Region":"Southcentral","GNIS_NAME":"Stoevers Dam","County":"Lebanon","Longitude":-76.40515,"Latitude":40.35677,"Early_Open":"Y","id":"a62i3uc36jgo","YR_MapID":""},"type":"Feature","geometry":{"type":"Point","coordinates":[-76.4086299999999,40.3559000000005]}},{"properties":{"Year_Round":"","Map_ID":5,"Prim_Acc":"Sunfish Pond","GNIS_ID":1189066.0,"Region":"Northeast","GNIS_NAME":"Sunfish Pond","County":"Bradford","Longitude":-76.697643,"Latitude":41.645916,"Early_Open":"","id":"a62i3upbnvnv","YR_MapID":""},"type":"Feature","geometry":{"type":"Point","coordinates":[-76.6967600000007,41.64365]}},{"properties":{"Year_Round":"Y","Map_ID":0,"Prim_Acc":"Sylvan Lake","GNIS_ID":1189219.0,"Region":"Northeast","GNIS_NAME":"Sylvan Lake","County":"Luzerne","Longitude":-76.15528,"Latitude":41.25806,"Early_Open":"","id":"a62i3uqkgb6w","YR_MapID":"F"},"type":"Feature","geometry":{"type":"Point","coordinates":[-76.1556899999996,41.2583799999994]}},{"properties":{"Year_Round":"","Map_ID":31,"Prim_Acc":"Tannery Dam Parking Lot","GNIS_ID":1178197.0,"Region":"Northcentral","GNIS_NAME":"Tannery Dam","County":"Clearfield","Longitude":-78.756404,"Latitude":41.131401,"Early_Open":"","id":"a62i3ug3duxj","YR_MapID":""},"type":"Feature","geometry":{"type":"Point","coordinates":[-78.75605,41.1324299999997]}},{"properties":{"Year_Round":"","Map_ID":68,"Prim_Acc":"Tobyhanna State Park Access","GNIS_ID":1193538.0,"Region":"Northeast","GNIS_NAME":"Tobyhanna Lake","County":"Monroe","Longitude":-75.404052,"Latitude":41.203622,"Early_Open":"","id":"a62i3ugtnct2","YR_MapID":""},"type":"Feature","geometry":{"type":"Point","coordinates":[-75.4063399999996,41.2053300000007]}},{"properties":{"Year_Round":"Y","Map_ID":0,"Prim_Acc":"Tuscarora Lake Boat Launch","GNIS_ID":1195051.0,"Region":"Southeast","GNIS_NAME":"Tuscarora Lake","County":"Schuylkill","Longitude":-76.0101,"Latitude":40.80911,"Early_Open":"Y","id":"a62i3ui2w0m0","YR_MapID":"I"},"type":"Feature","geometry":{"type":"Point","coordinates":[-76.0198899999996,40.8038099999995]}},{"properties":{"Year_Round":"","Map_ID":58,"Prim_Acc":"Upper Twin Lake Access","GNIS_ID":-9999.0,"Region":"Northcentral","GNIS_NAME":"Twin Lakes","County":"Elk","Longitude":-79.47246,"Latitude":40.32385,"Early_Open":"","id":"a62i3umz2606","YR_MapID":""},"type":"Feature","geometry":{"type":"Point","coordinates":[-78.7570300000007,41.6122099999993]}},{"properties":{"Year_Round":"","Map_ID":4,"Prim_Acc":"Upper Deer Lake Parking Lot","GNIS_ID":1191003.0,"Region":"Southwest","GNIS_NAME":"Upper Deer Lake","County":"Allegheny","Longitude":-79.819325,"Latitude":40.620249,"Early_Open":"","id":"a62i3ugz5oso","YR_MapID":""},"type":"Feature","geometry":{"type":"Point","coordinates":[-79.8210099999997,40.6192300000003]}},{"properties":{"Year_Round":"","Map_ID":42,"Prim_Acc":"Fairview Gravel Pit Access","GNIS_ID":-9999.0,"Region":"Northwest","GNIS_NAME":"Upper Gravel Pit","County":"Erie","Longitude":-80.27823,"Latitude":42.03172,"Early_Open":"","id":"a62i3ugdfomd","YR_MapID":""},"type":"Feature","geometry":{"type":"Point","coordinates":[-80.2802200000006,42.0307200000007]}},{"properties":{"Year_Round":"","Map_ID":25,"Prim_Acc":"Hereford Manor Lake Access","GNIS_ID":-9999.0,"Region":"Southwest","GNIS_NAME":"Upper Hereford Manor Lake","County":"Beaver","Longitude":-80.16236,"Latitude":40.81201,"Early_Open":"","id":"a62i3uho2fze","YR_MapID":""},"type":"Feature","geometry":{"type":"Point","coordinates":[-80.1635999999999,40.8240100000003]}},{"properties":{"Year_Round":"","Map_ID":149,"Prim_Acc":"Upper Twin Lake Access","GNIS_ID":1209374.0,"Region":"Southwest","GNIS_NAME":"Upper Twin Lake","County":"Westmoreland","Longitude":-79.47246,"Latitude":40.32385,"Early_Open":"","id":"a62i3uduk70p","YR_MapID":""},"type":"Feature","geometry":{"type":"Point","coordinates":[-79.4751500000002,40.3244599999999]}},{"properties":{"Year_Round":"","Map_ID":125,"Prim_Acc":"Upper Woods Pond","GNIS_ID":1190265.0,"Region":"Northeast","GNIS_NAME":"Upper Woods Pond","County":"Wayne","Longitude":-75.27984,"Latitude":41.7621,"Early_Open":"","id":"a62i3uh43mqo","YR_MapID":""},"type":"Feature","geometry":{"type":"Point","coordinates":[-75.2763200000009,41.7603600000003]}},{"properties":{"Year_Round":"","Map_ID":61,"Prim_Acc":"Virgin Run Lake Access","GNIS_ID":-9999.0,"Region":"Southwest","GNIS_NAME":"Virgin Run Lake/Dam","County":"Fayette","Longitude":-79.72456,"Latitude":40.04034,"Early_Open":"","id":"a62i3unylb7m","YR_MapID":""},"type":"Feature","geometry":{"type":"Point","coordinates":[-79.7239300000001,40.0384200000008]}},{"properties":{"Year_Round":"","Map_ID":12,"Prim_Acc":"Waynesboro Reservoir Access","GNIS_ID":1190722.0,"Region":"Southcentral","GNIS_NAME":"Waynesboro Reservoir","County":"Adams","Longitude":-77.45528,"Latitude":39.81806,"Early_Open":"Y","id":"a62i3ulp7xcu","YR_MapID":""},"type":"Feature","geometry":{"type":"Point","coordinates":[-77.4540199999992,39.8193499999998]}},{"properties":{"Year_Round":"","Map_ID":43,"Prim_Acc":"West Basin Pond","GNIS_ID":-9999.0,"Region":"Northwest","GNIS_NAME":"West Basin Pond","County":"Erie","Longitude":-80.134343,"Latitude":42.147178,"Early_Open":"","id":"a62i3um9aoca","YR_MapID":""},"type":"Feature","geometry":{"type":"Point","coordinates":[-80.1330600000001,42.1478000000007]}},{"properties":{"Year_Round":"","Map_ID":128,"Prim_Acc":"Whipoorwill Dam Parking Lot","GNIS_ID":-9999.0,"Region":"Southeast","GNIS_NAME":"Whipoorwill Dam","County":"Schuylkill","Longitude":-76.212013,"Latitude":40.783091,"Early_Open":"Y","id":"a62i3uci3o6s","YR_MapID":""},"type":"Feature","geometry":{"type":"Point","coordinates":[-76.2108399999997,40.7834700000003]}},{"properties":{"Year_Round":"","Map_ID":108,"Prim_Acc":"Whipple Lake Access","GNIS_ID":-9999.0,"Region":"Southcentral","GNIS_NAME":"Whipple Lake","County":"Huntingdon","Longitude":-77.86564,"Latitude":40.68698,"Early_Open":"","id":"a62i3uh5sn6a","YR_MapID":""},"type":"Feature","geometry":{"type":"Point","coordinates":[-77.8643499999998,40.6854000000004]}},{"properties":{"Year_Round":"","Map_ID":159,"Prim_Acc":"Zerbe Rod &amp; Gun Club Pond","GNIS_ID":-9999.0,"Region":"Northcentral","GNIS_NAME":"Zerbe Rod &amp; Gun Club Pond","County":"Northumberland","Longitude":-76.656708,"Latitude":40.785785,"Early_Open":"","id":"a62i3ufo4n8i","YR_MapID":""},"type":"Feature","geometry":{"type":"Point","coordinates":[-76.6556000000001,40.7860199999996]}}],"is_temporal":false,"author":{"url":"http://www.pasda.psu.edu/uci/MetadataDisplay.aspx?entry=PASDA&file=ApprovedTroutWaterbodies_pt200802.xml&dataset=985","metadata":"http://www.pasda.psu.edu/uci/FullMetadataDisplay.aspx?file=ApprovedTroutWaterbodies_pt200802.xml","contact_name":"","contact_address":"","source":"Pennsylvania Fish and Boat Commission","contact_phone":""},"source":"http://www.pasda.psu.edu/uci/MetadataDisplay.aspx?entry=PASDA&file=ApprovedTroutWaterbodies_pt200802.xml&dataset=985","pagination":{"sort":null,"start":0,"total":126,"limit":1000000},"state":"complete","tags":"environment,fishing,pennsylvania,recreation,trout,water","published":"2008-02-15T12:00:00Z","id":3740}