{"type":"FeatureCollection","data_type":"Dataset","url_type":null,"permissions":[{"permissions":{"download":true,"view":true},"group_id":"everyone"}],"classification":null,"title":"OpenGearCityAndStates","count":233,"stream_id":374582,"contributor":{"url":"http://geocommons.com/users/50950","name":"snelson"},"data_attributes":null,"calculation_params":null,"icon_link":null,"link":"http://geocommons.com/overlays/374582.json","extent":[-168.022,24.8598,-70.1913,47.6788],"geometry_types":["point"],"unique_name":null,"name":"OpenGearCityAndStates","feature_count":233,"description":"","next_feature":null,"is_raster":false,"short_classification":"Y","stats":{},"features":[{"properties":{"city":"Boston","geo_score":0.714,"id":"afhqhs8nzvqr","geo_precision":"city","state":"MA"},"type":"Feature","geometry":{"type":"Point","coordinates":[-71.026964,42.370567]}},{"properties":{"city":"Boston","geo_score":0.714,"id":"afhqhs4mp05i","geo_precision":"city","state":"MA"},"type":"Feature","geometry":{"type":"Point","coordinates":[-71.026964,42.370567]}},{"properties":{"city":"Troy","geo_score":0.714,"id":"afhqhs7hij9n","geo_precision":"city","state":"MI"},"type":"Feature","geometry":{"type":"Point","coordinates":[-82.89105,43.675016]}},{"properties":{"city":"Cincinnati","geo_score":0.714,"id":"afhqhs92gszq","geo_precision":"city","state":"OH"},"type":"Feature","geometry":{"type":"Point","coordinates":[-84.53822,39.166759]}},{"properties":{"city":"Houston","geo_score":0.714,"id":"afhqhs2lu51y","geo_precision":"city","state":"TX"},"type":"Feature","geometry":{"type":"Point","coordinates":[-96.919704,29.845783]}},{"properties":{"city":"West Des Moines","geo_score":0.714,"id":"afhqhs53cwdo","geo_precision":"city","state":"IA"},"type":"Feature","geometry":{"type":"Point","coordinates":[-93.572173,41.672687]}},{"properties":{"city":"Portland","geo_score":0.714,"id":"afhqhrvaie46","geo_precision":"city","state":"OR"},"type":"Feature","geometry":{"type":"Point","coordinates":[-122.693157,45.498931]}},{"properties":{"city":"Eugene","geo_score":0.714,"id":"afhqhs8qf1l2","geo_precision":"city","state":"OR"},"type":"Feature","geometry":{"type":"Point","coordinates":[-123.074193,44.117868]}},{"properties":{"city":"Missoula","geo_score":0.714,"id":"afhqhs6q8bxu","geo_precision":"city","state":"MT"},"type":"Feature","geometry":{"type":"Point","coordinates":[-113.909123,46.853606]}},{"properties":{"city":"Palm Beach","geo_score":0.714,"id":"afhqhrvprdn5","geo_precision":"city","state":"FL"},"type":"Feature","geometry":{"type":"Point","coordinates":[-80.138655,26.823395]}},{"properties":{"city":"St. Louis","geo_score":0.0,"id":"afhqhs00yf2c","geo_precision":"unmatched","state":"MO"},"type":"Feature","geometry":null},{"properties":{"city":"Philadelphia","geo_score":0.714,"id":"afhqhs0iastf","geo_precision":"city","state":"PA"},"type":"Feature","geometry":{"type":"Point","coordinates":[-75.11787,40.001811]}},{"properties":{"city":"Westwood","geo_score":0.714,"id":"afhqhs93y35d","geo_precision":"city","state":"MA"},"type":"Feature","geometry":{"type":"Point","coordinates":[-71.199238,42.220548]}},{"properties":{"city":"Hingham","geo_score":0.0,"id":"afhqhs3g4xvc","geo_precision":"unmatched","state":"MA"},"type":"Feature","geometry":null},{"properties":{"city":"Litchfield Park","geo_score":0.714,"id":"afhqhs2tpmrm","geo_precision":"city","state":"AZ"},"type":"Feature","geometry":{"type":"Point","coordinates":[-112.18717,33.276539]}},{"properties":{"city":"Longmeadow","geo_score":0.714,"id":"afhqhry2ra23","geo_precision":"city","state":"MA"},"type":"Feature","geometry":{"type":"Point","coordinates":[-72.567882,42.049194]}},{"properties":{"city":"Bedford","geo_score":0.714,"id":"afhqhs9yiacx","geo_precision":"city","state":"NH"},"type":"Feature","geometry":{"type":"Point","coordinates":[-71.535515,42.93743]}},{"properties":{"city":"Kingwood","geo_score":0.714,"id":"afhqhsbe2fxh","geo_precision":"city","state":"TX"},"type":"Feature","geometry":{"type":"Point","coordinates":[-95.261044,30.033553]}},{"properties":{"city":"Lexington","geo_score":0.0,"id":"afhqhs664vvo","geo_precision":"unmatched","state":"MA"},"type":"Feature","geometry":null},{"properties":{"city":"Alpharetta","geo_score":0.714,"id":"afhqhs05zhw0","geo_precision":"city","state":"GA"},"type":"Feature","geometry":{"type":"Point","coordinates":[-83.92379,31.462401]}},{"properties":{"city":"Salem","geo_score":0.714,"id":"afhqhsb6fb7x","geo_precision":"city","state":"NH"},"type":"Feature","geometry":{"type":"Point","coordinates":[-71.196195,42.872045]}},{"properties":{"city":"Action","geo_score":0.0,"id":"afhqhs5su40u","geo_precision":"unmatched","state":"MA"},"type":"Feature","geometry":null},{"properties":{"city":"Wakefield","geo_score":0.714,"id":"afhqhsaudkjx","geo_precision":"city","state":"RI"},"type":"Feature","geometry":{"type":"Point","coordinates":[-71.534202,41.443653]}},{"properties":{"city":"Cromwell","geo_score":0.714,"id":"afhqhs8mo8qh","geo_precision":"city","state":"CT"},"type":"Feature","geometry":{"type":"Point","coordinates":[-72.667807,41.608529]}},{"properties":{"city":"Portland","geo_score":0.714,"id":"afhqhrw2l54n","geo_precision":"city","state":"ME"},"type":"Feature","geometry":{"type":"Point","coordinates":[-70.262393,43.658784]}},{"properties":{"city":"Exeter","geo_score":0.0,"id":"afhqhs4buik6","geo_precision":"unmatched","state":"NH"},"type":"Feature","geometry":null},{"properties":{"city":"Londonderry","geo_score":0.714,"id":"afhqhs3iz6bj","geo_precision":"city","state":"NH"},"type":"Feature","geometry":{"type":"Point","coordinates":[-71.387776,42.8712]}},{"properties":{"city":"Windsor","geo_score":0.714,"id":"afhqhrzgn9ys","geo_precision":"city","state":"CT"},"type":"Feature","geometry":{"type":"Point","coordinates":[-72.660245,41.933846]}},{"properties":{"city":"Concord","geo_score":0.714,"id":"afhqhs3hujni","geo_precision":"city","state":"NH"},"type":"Feature","geometry":{"type":"Point","coordinates":[-71.536101,43.230314]}},{"properties":{"city":"Kennebunk","geo_score":0.714,"id":"afhqhs4elkeu","geo_precision":"city","state":"ME"},"type":"Feature","geometry":{"type":"Point","coordinates":[-70.508663,43.377863]}},{"properties":{"city":"Nashville","geo_score":0.714,"id":"afhqhs9jtir3","geo_precision":"city","state":"TN"},"type":"Feature","geometry":{"type":"Point","coordinates":[-86.778098,36.165688]}},{"properties":{"city":"Smithville","geo_score":0.714,"id":"afhqhrxc6gsk","geo_precision":"city","state":"RI"},"type":"Feature","geometry":{"type":"Point","coordinates":[-71.497804,41.853899]}},{"properties":{"city":"West Lebanon","geo_score":0.714,"id":"afhqhs104srj","geo_precision":"city","state":"NH"},"type":"Feature","geometry":{"type":"Point","coordinates":[-71.840883,43.967542]}},{"properties":{"city":"Danvers","geo_score":0.714,"id":"afhqhs912nms","geo_precision":"city","state":"MA"},"type":"Feature","geometry":{"type":"Point","coordinates":[-70.920328,42.548428]}},{"properties":{"city":"East Lansing","geo_score":0.714,"id":"afhqhs513m95","geo_precision":"city","state":"MI"},"type":"Feature","geometry":{"type":"Point","coordinates":[-84.555535,42.732535]}},{"properties":{"city":"Also Viejo","geo_score":0.714,"id":"afhqhryle53n","geo_precision":"city","state":"CA"},"type":"Feature","geometry":{"type":"Point","coordinates":[-117.751341,33.603459]}},{"properties":{"city":"Boston","geo_score":0.714,"id":"afhqhs7czhtp","geo_precision":"city","state":"MA"},"type":"Feature","geometry":{"type":"Point","coordinates":[-71.026964,42.370567]}},{"properties":{"city":"Wallingford","geo_score":0.714,"id":"afhqhs60g5j1","geo_precision":"city","state":"CT"},"type":"Feature","geometry":{"type":"Point","coordinates":[-72.81892,41.449868]}},{"properties":{"city":"Wallingford","geo_score":0.714,"id":"afhqhs5qmk7c","geo_precision":"city","state":"CT"},"type":"Feature","geometry":{"type":"Point","coordinates":[-72.81892,41.449868]}},{"properties":{"city":"South Easton","geo_score":0.714,"id":"afhqhryn9v3e","geo_precision":"city","state":"MA"},"type":"Feature","geometry":{"type":"Point","coordinates":[-71.712013,42.100096]}},{"properties":{"city":"Plyhmouth","geo_score":0.0,"id":"afhqhsajs61r","geo_precision":"unmatched","state":"MA"},"type":"Feature","geometry":null},{"properties":{"city":"Auburn","geo_score":0.714,"id":"afhqhs4y6yl5","geo_precision":"city","state":"MA"},"type":"Feature","geometry":{"type":"Point","coordinates":[-71.947184,42.184835]}},{"properties":{"city":"Raynham","geo_score":0.714,"id":"afhqhs3rpe72","geo_precision":"city","state":"MA"},"type":"Feature","geometry":{"type":"Point","coordinates":[-71.048941,41.9367]}},{"properties":{"city":"Frisco","geo_score":0.714,"id":"afhqhsa6nzdp","geo_precision":"city","state":"TX"},"type":"Feature","geometry":{"type":"Point","coordinates":[-96.542746,30.642421]}},{"properties":{"city":"Castle Rock","geo_score":0.714,"id":"afhqhrvqvl7s","geo_precision":"city","state":"CO"},"type":"Feature","geometry":{"type":"Point","coordinates":[-108.03241,37.690498]}},{"properties":{"city":"Westborough","geo_score":0.714,"id":"afhqhrwp5p9r","geo_precision":"city","state":"MA"},"type":"Feature","geometry":{"type":"Point","coordinates":[-72.260635,42.175649]}},{"properties":{"city":"Golden","geo_score":0.714,"id":"afhqhrxok76m","geo_precision":"city","state":"CO"},"type":"Feature","geometry":{"type":"Point","coordinates":[-104.500735,40.536158]}},{"properties":{"city":"Williston","geo_score":0.714,"id":"afhqhs8f5xea","geo_precision":"city","state":"VT"},"type":"Feature","geometry":{"type":"Point","coordinates":[-73.026735,44.430096]}},{"properties":{"city":"Grayslake","geo_score":0.714,"id":"afhqhs7syoaq","geo_precision":"city","state":"IL"},"type":"Feature","geometry":{"type":"Point","coordinates":[-88.054502,42.352423]}},{"properties":{"city":"Norwich","geo_score":0.714,"id":"afhqhsbeo92q","geo_precision":"city","state":"CT"},"type":"Feature","geometry":{"type":"Point","coordinates":[-71.994757,41.499398]}},{"properties":{"city":"Helena","geo_score":0.714,"id":"afhqhs8u5615","geo_precision":"city","state":"MT"},"type":"Feature","geometry":{"type":"Point","coordinates":[-112.197616,46.70934]}},{"properties":{"city":"Springfield","geo_score":0.714,"id":"afhqhsbsze9v","geo_precision":"city","state":"MA"},"type":"Feature","geometry":{"type":"Point","coordinates":[-72.604842,42.170731]}},{"properties":{"city":"Springfield","geo_score":0.714,"id":"afhqhs0d8qao","geo_precision":"city","state":"MA"},"type":"Feature","geometry":{"type":"Point","coordinates":[-72.604842,42.170731]}},{"properties":{"city":"Housin","geo_score":0.0,"id":"afhqhrvkin4x","geo_precision":"unmatched","state":"TX"},"type":"Feature","geometry":null},{"properties":{"city":"Osterville","geo_score":0.714,"id":"afhqhry8b7ys","geo_precision":"city","state":"MA"},"type":"Feature","geometry":{"type":"Point","coordinates":[-70.191269,41.810178]}},{"properties":{"city":"Mitchel Field","geo_score":0.714,"id":"afhqhs1cg76o","geo_precision":"city","state":"NY"},"type":"Feature","geometry":{"type":"Point","coordinates":[-75.334337,43.219792]}},{"properties":{"city":"Minneola","geo_score":0.714,"id":"afhqhsbngt60","geo_precision":"city","state":"NY"},"type":"Feature","geometry":{"type":"Point","coordinates":[-79.440048,42.175057]}},{"properties":{"city":"Elmsford","geo_score":0.714,"id":"afhqhs1s6x1t","geo_precision":"city","state":"NY"},"type":"Feature","geometry":{"type":"Point","coordinates":[-73.836784,41.058732]}},{"properties":{"city":"New York","geo_score":0.714,"id":"afhqhs4todv6","geo_precision":"city","state":"NY"},"type":"Feature","geometry":{"type":"Point","coordinates":[-74.005973,40.714269]}},{"properties":{"city":"Valle Stream","geo_score":0.714,"id":"afhqhs03xwn1","geo_precision":"city","state":"NY"},"type":"Feature","geometry":{"type":"Point","coordinates":[-73.697828,40.676052]}},{"properties":{"city":"White Plains","geo_score":0.714,"id":"afhqhs89djf4","geo_precision":"city","state":"NY"},"type":"Feature","geometry":{"type":"Point","coordinates":[-73.769626,41.031397]}},{"properties":{"city":"Flushing","geo_score":0.714,"id":"afhqhry4g52f","geo_precision":"city","state":"NY"},"type":"Feature","geometry":{"type":"Point","coordinates":[-73.817356,40.76538]}},{"properties":{"city":"Manchester","geo_score":0.714,"id":"afhqhs2xmxmd","geo_precision":"city","state":"CA"},"type":"Feature","geometry":{"type":"Point","coordinates":[-123.661507,38.950236]}},{"properties":{"city":"Sand Diego","geo_score":0.714,"id":"afhqhs5qaznn","geo_precision":"city","state":"CA"},"type":"Feature","geometry":{"type":"Point","coordinates":[-117.174366,32.7211]}},{"properties":{"city":"Peoria","geo_score":0.714,"id":"afhqhrxvlaro","geo_precision":"city","state":"IL"},"type":"Feature","geometry":{"type":"Point","coordinates":[-89.589847,40.693137]}},{"properties":{"city":"Duluth","geo_score":0.714,"id":"afhqhs9r929k","geo_precision":"city","state":"GA"},"type":"Feature","geometry":{"type":"Point","coordinates":[-84.092267,33.962979]}},{"properties":{"city":"Miller Place","geo_score":0.714,"id":"afhqhs8b77av","geo_precision":"city","state":"NY"},"type":"Feature","geometry":{"type":"Point","coordinates":[-72.637078,40.922326]}},{"properties":{"city":"Medford","geo_score":0.714,"id":"afhqhs4cg2zx","geo_precision":"city","state":"NY"},"type":"Feature","geometry":{"type":"Point","coordinates":[-72.637078,40.922326]}},{"properties":{"city":"Round Rock","geo_score":0.714,"id":"afhqhs86fdbk","geo_precision":"city","state":"TX"},"type":"Feature","geometry":{"type":"Point","coordinates":[-97.635103,30.530497]}},{"properties":{"city":"Port Jefferson","geo_score":0.714,"id":"afhqhs4l9ay6","geo_precision":"city","state":"NY"},"type":"Feature","geometry":{"type":"Point","coordinates":[-74.905417,41.782874]}},{"properties":{"city":"Glendale","geo_score":0.714,"id":"afhqhs4owdiy","geo_precision":"city","state":"AZ"},"type":"Feature","geometry":{"type":"Point","coordinates":[-112.18717,33.276539]}},{"properties":{"city":"Pleasanton","geo_score":0.714,"id":"afhqhrw2j9p1","geo_precision":"city","state":"CA"},"type":"Feature","geometry":{"type":"Point","coordinates":[-120.662985,38.68296]}},{"properties":{"city":"Tallahasse","geo_score":0.714,"id":"afhqhryjgexw","geo_precision":"city","state":"FL"},"type":"Feature","geometry":{"type":"Point","coordinates":[-84.203379,30.418514]}},{"properties":{"city":"Leesburg","geo_score":0.714,"id":"afhqhs769ahp","geo_precision":"city","state":"VA"},"type":"Feature","geometry":{"type":"Point","coordinates":[-77.605404,39.041987]}},{"properties":{"city":"Phoenix","geo_score":0.0,"id":"afhqhs1e8nfu","geo_precision":"unmatched","state":"AZ"},"type":"Feature","geometry":null},{"properties":{"city":"Vero Beach","geo_score":0.714,"id":"afhqhs7qmp53","geo_precision":"city","state":"FL"},"type":"Feature","geometry":{"type":"Point","coordinates":[-80.40294,27.638005]}},{"properties":{"city":"Bala Cynwyd","geo_score":0.714,"id":"afhqhrzwse2t","geo_precision":"city","state":"PA"},"type":"Feature","geometry":{"type":"Point","coordinates":[-77.071369,40.473417]}},{"properties":{"city":"Parsippany","geo_score":0.714,"id":"afhqhrxo6m1s","geo_precision":"city","state":"NJ"},"type":"Feature","geometry":{"type":"Point","coordinates":[-74.407706,40.852118]}},{"properties":{"city":"Somerset","geo_score":0.714,"id":"afhqhs7962j3","geo_precision":"city","state":"NJ"},"type":"Feature","geometry":{"type":"Point","coordinates":[-74.523648,40.491002]}},{"properties":{"city":"Lancaster","geo_score":0.714,"id":"afhqhs3kfjdv","geo_precision":"city","state":"PA"},"type":"Feature","geometry":{"type":"Point","coordinates":[-76.402184,40.131484]}},{"properties":{"city":"Hunt Valley","geo_score":0.714,"id":"afhqhs0hhhi0","geo_precision":"city","state":"MD"},"type":"Feature","geometry":{"type":"Point","coordinates":[-76.39135,39.53344]}},{"properties":{"city":"Freehold","geo_score":0.714,"id":"afhqhs79grc4","geo_precision":"city","state":"NJ"},"type":"Feature","geometry":{"type":"Point","coordinates":[-74.306284,40.236423]}},{"properties":{"city":"Philadelphia","geo_score":0.714,"id":"afhqhryhyota","geo_precision":"city","state":"PA"},"type":"Feature","geometry":{"type":"Point","coordinates":[-75.11787,40.001811]}},{"properties":{"city":"Roseland","geo_score":0.714,"id":"afhqhryzty5t","geo_precision":"city","state":"NJ"},"type":"Feature","geometry":{"type":"Point","coordinates":[-74.306093,40.820499]}},{"properties":{"city":"Marlton","geo_score":0.714,"id":"afhqhrzqidq9","geo_precision":"city","state":"NJ"},"type":"Feature","geometry":{"type":"Point","coordinates":[-75.357413,39.664003]}},{"properties":{"city":"Montoursvile","geo_score":0.714,"id":"afhqhrz44lht","geo_precision":"city","state":"PA"},"type":"Feature","geometry":{"type":"Point","coordinates":[-76.881055,41.307308]}},{"properties":{"city":"Wilmington","geo_score":0.714,"id":"afhqhsa3lpt4","geo_precision":"city","state":"DE"},"type":"Feature","geometry":{"type":"Point","coordinates":[-75.58437,39.68678]}},{"properties":{"city":"Milwaukee","geo_score":0.714,"id":"afhqhs2829ve","geo_precision":"city","state":"WI"},"type":"Feature","geometry":{"type":"Point","coordinates":[-87.958409,43.011264]}},{"properties":{"city":"Allentown","geo_score":0.714,"id":"afhqhs2ne90x","geo_precision":"city","state":"PA"},"type":"Feature","geometry":{"type":"Point","coordinates":[-75.470026,40.607497]}},{"properties":{"city":"Baton Rouge","geo_score":0.714,"id":"afhqhsbpiy4y","geo_precision":"city","state":"LA"},"type":"Feature","geometry":{"type":"Point","coordinates":[-92.176237,30.159092]}},{"properties":{"city":"Franklin","geo_score":0.714,"id":"afhqhs6nx81s","geo_precision":"city","state":"TN"},"type":"Feature","geometry":{"type":"Point","coordinates":[-86.965691,35.890746]}},{"properties":{"city":"Columbia","geo_score":0.714,"id":"afhqhrz6z17h","geo_precision":"city","state":"MD"},"type":"Feature","geometry":{"type":"Point","coordinates":[-76.887905,39.206132]}},{"properties":{"city":"Cambridge","geo_score":0.714,"id":"afhqhrw16m88","geo_precision":"city","state":"MA"},"type":"Feature","geometry":{"type":"Point","coordinates":[-71.103663,42.358431]}},{"properties":{"city":"Germantown","geo_score":0.714,"id":"afhqhs38rm9o","geo_precision":"city","state":"MD"},"type":"Feature","geometry":{"type":"Point","coordinates":[-77.282223,39.135512]}},{"properties":{"city":"Pittsburg","geo_score":0.714,"id":"afhqhryjpdd9","geo_precision":"city","state":"PA"},"type":"Feature","geometry":{"type":"Point","coordinates":[-80.024817,40.434436]}},{"properties":{"city":"Washington","geo_score":0.714,"id":"afhqhs2e4pw7","geo_precision":"city","state":"DC"},"type":"Feature","geometry":{"type":"Point","coordinates":[-77.036366,38.895112]}},{"properties":{"city":"Philadelphia","geo_score":0.714,"id":"afhqhs6ayczd","geo_precision":"city","state":"PA"},"type":"Feature","geometry":{"type":"Point","coordinates":[-75.11787,40.001811]}},{"properties":{"city":"New York","geo_score":0.714,"id":"afhqhs5jwjyc","geo_precision":"city","state":"NY"},"type":"Feature","geometry":{"type":"Point","coordinates":[-74.005973,40.714269]}},{"properties":{"city":"Fort Myers","geo_score":0.714,"id":"afhqhs4mibpe","geo_precision":"city","state":"FL"},"type":"Feature","geometry":{"type":"Point","coordinates":[-81.863698,26.561465]}},{"properties":{"city":"Fenton","geo_score":0.714,"id":"afhqhs90eu4p","geo_precision":"city","state":"MO"},"type":"Feature","geometry":{"type":"Point","coordinates":[-90.46737,38.529903]}},{"properties":{"city":"Fenton","geo_score":0.714,"id":"afhqhs262dub","geo_precision":"city","state":"MO"},"type":"Feature","geometry":{"type":"Point","coordinates":[-90.46737,38.529903]}},{"properties":{"city":"Ruston","geo_score":0.714,"id":"afhqhs6wc4qx","geo_precision":"city","state":"LA"},"type":"Feature","geometry":{"type":"Point","coordinates":[-92.639756,32.580553]}},{"properties":{"city":"Mishawaka","geo_score":0.714,"id":"afhqhs4y31c3","geo_precision":"city","state":"IN"},"type":"Feature","geometry":{"type":"Point","coordinates":[-86.287884,41.61536]}},{"properties":{"city":"Greenwood","geo_score":0.714,"id":"afhqhrvacyw2","geo_precision":"city","state":"IN"},"type":"Feature","geometry":{"type":"Point","coordinates":[-86.100454,39.491246]}},{"properties":{"city":"Kansas City","geo_score":0.714,"id":"afhqhs7x658k","geo_precision":"city","state":"MO"},"type":"Feature","geometry":{"type":"Point","coordinates":[-94.598583,39.102404]}},{"properties":{"city":"Sterling Heights","geo_score":0.714,"id":"afhqhsacput1","geo_precision":"city","state":"MI"},"type":"Feature","geometry":{"type":"Point","coordinates":[-83.068475,42.564395]}},{"properties":{"city":"Kansas City","geo_score":0.714,"id":"afhqhs80spop","geo_precision":"city","state":"MO"},"type":"Feature","geometry":{"type":"Point","coordinates":[-94.598583,39.102404]}},{"properties":{"city":"St. Cloud","geo_score":0.714,"id":"afhqhs59z9jx","geo_precision":"city","state":"MN"},"type":"Feature","geometry":{"type":"Point","coordinates":[-91.979323,43.894685]}},{"properties":{"city":"Rockford Village","geo_score":0.0,"id":"afhqhsaa327l","geo_precision":"unmatched","state":"MI"},"type":"Feature","geometry":null},{"properties":{"city":"Cincinnati","geo_score":0.714,"id":"afhqhs1oklsn","geo_precision":"city","state":"OH"},"type":"Feature","geometry":{"type":"Point","coordinates":[-84.53822,39.166759]}},{"properties":{"city":"Farmington","geo_score":0.714,"id":"afhqhs6fdymn","geo_precision":"city","state":"MI"},"type":"Feature","geometry":{"type":"Point","coordinates":[-83.385489,42.445035]}},{"properties":{"city":"Chasterfield","geo_score":0.714,"id":"afhqhs8bydut","geo_precision":"city","state":"MO"},"type":"Feature","geometry":{"type":"Point","coordinates":[-90.650024,38.637002]}},{"properties":{"city":"Brookdfield","geo_score":0.0,"id":"afhqhrzypt7u","geo_precision":"unmatched","state":"WI"},"type":"Feature","geometry":null},{"properties":{"city":"Apple Valley","geo_score":0.714,"id":"afhqhrwd0ufg","geo_precision":"city","state":"MN"},"type":"Feature","geometry":{"type":"Point","coordinates":[-93.914797,45.691931]}},{"properties":{"city":"Mahwah","geo_score":0.714,"id":"afhqhs8z39h2","geo_precision":"city","state":"NJ"},"type":"Feature","geometry":{"type":"Point","coordinates":[-74.172766,41.053446]}},{"properties":{"city":"Kansas City","geo_score":0.714,"id":"afhqhrz3bfek","geo_precision":"city","state":"MO"},"type":"Feature","geometry":{"type":"Point","coordinates":[-94.598583,39.102404]}},{"properties":{"city":"Gilbert","geo_score":0.714,"id":"afhqhrzpvjxm","geo_precision":"city","state":"AZ"},"type":"Feature","geometry":{"type":"Point","coordinates":[-111.815281,33.335401]}},{"properties":{"city":"Sugar Land","geo_score":0.714,"id":"afhqhsa9hrsj","geo_precision":"city","state":"TX"},"type":"Feature","geometry":{"type":"Point","coordinates":[-95.756462,29.525461]}},{"properties":{"city":"Indianapolis","geo_score":0.714,"id":"afhqhrwsdu25","geo_precision":"city","state":"IN"},"type":"Feature","geometry":{"type":"Point","coordinates":[-86.13216,39.775092]}},{"properties":{"city":"Kentwood","geo_score":0.714,"id":"afhqhrzh8gp6","geo_precision":"city","state":"MI"},"type":"Feature","geometry":{"type":"Point","coordinates":[-85.644749,42.869473]}},{"properties":{"city":"Elk Grove","geo_score":0.714,"id":"afhqhs5iva89","geo_precision":"city","state":"CA"},"type":"Feature","geometry":{"type":"Point","coordinates":[-123.618031,39.076371]}},{"properties":{"city":"Cypress","geo_score":0.714,"id":"afhqhrytds7e","geo_precision":"city","state":"TX"},"type":"Feature","geometry":{"type":"Point","coordinates":[-95.26911,33.044009]}},{"properties":{"city":"Fitchburg","geo_score":0.714,"id":"afhqhs82slxm","geo_precision":"city","state":"WI"},"type":"Feature","geometry":{"type":"Point","coordinates":[-89.469843,42.960832]}},{"properties":{"city":"Torrance","geo_score":0.714,"id":"afhqhs7snxlo","geo_precision":"city","state":"CA"},"type":"Feature","geometry":{"type":"Point","coordinates":[-118.303805,33.835665]}},{"properties":{"city":"Kalamazoo","geo_score":0.714,"id":"afhqhry874b6","geo_precision":"city","state":"MI"},"type":"Feature","geometry":{"type":"Point","coordinates":[-85.510095,42.261596]}},{"properties":{"city":"Waukesha","geo_score":0.714,"id":"afhqhsb616rn","geo_precision":"city","state":"WI"},"type":"Feature","geometry":{"type":"Point","coordinates":[-88.217715,42.987835]}},{"properties":{"city":"Orlando","geo_score":0.714,"id":"afhqhs2qkbq3","geo_precision":"city","state":"FL"},"type":"Feature","geometry":{"type":"Point","coordinates":[-81.373291,28.545179]}},{"properties":{"city":"Lawrenceville","geo_score":0.714,"id":"afhqhs9ihug8","geo_precision":"city","state":"GA"},"type":"Feature","geometry":{"type":"Point","coordinates":[-84.103226,33.929464]}},{"properties":{"city":"Columbus","geo_score":0.714,"id":"afhqhs7hdj23","geo_precision":"city","state":"GA"},"type":"Feature","geometry":{"type":"Point","coordinates":[-84.97823,32.472864]}},{"properties":{"city":"Mandarin","geo_score":0.714,"id":"afhqhs3ghlxh","geo_precision":"city","state":"FL"},"type":"Feature","geometry":{"type":"Point","coordinates":[-81.65926,30.160519]}},{"properties":{"city":"Lexington","geo_score":0.0,"id":"afhqhs7lmw8l","geo_precision":"unmatched","state":"KY"},"type":"Feature","geometry":null},{"properties":{"city":"FT. Lauderdale","geo_score":0.714,"id":"afhqhs9b9x1e","geo_precision":"city","state":"FL"},"type":"Feature","geometry":{"type":"Point","coordinates":[-80.208381,26.166474]}},{"properties":{"city":"Moorestown","geo_score":0.714,"id":"afhqhs41ck5d","geo_precision":"city","state":"NJ"},"type":"Feature","geometry":{"type":"Point","coordinates":[-74.253756,40.425107]}},{"properties":{"city":"Peachtree City","geo_score":0.714,"id":"afhqhsb5levo","geo_precision":"city","state":"GA"},"type":"Feature","geometry":{"type":"Point","coordinates":[-84.93687,31.593502]}},{"properties":{"city":"Richmond","geo_score":0.714,"id":"afhqhsaglweg","geo_precision":"city","state":"VA"},"type":"Feature","geometry":{"type":"Point","coordinates":[-76.83774,37.914858]}},{"properties":{"city":"Sarasota","geo_score":0.714,"id":"afhqhry17izi","geo_precision":"city","state":"FL"},"type":"Feature","geometry":{"type":"Point","coordinates":[-82.537169,27.335023]}},{"properties":{"city":"Ft. Myers","geo_score":0.0,"id":"afhqhrz5maba","geo_precision":"unmatched","state":"FL"},"type":"Feature","geometry":null},{"properties":{"city":"Portland","geo_score":0.714,"id":"afhqhs6anmrt","geo_precision":"city","state":"OR"},"type":"Feature","geometry":{"type":"Point","coordinates":[-122.693157,45.498931]}},{"properties":{"city":"Hunstville","geo_score":0.0,"id":"afhqhry85b9u","geo_precision":"unmatched","state":"AL"},"type":"Feature","geometry":null},{"properties":{"city":"Birmingham","geo_score":0.714,"id":"afhqhrzsnv3h","geo_precision":"city","state":"AL"},"type":"Feature","geometry":{"type":"Point","coordinates":[-86.801904,33.456412]}},{"properties":{"city":"Tampa","geo_score":0.714,"id":"afhqhrvmau4b","geo_precision":"city","state":"FL"},"type":"Feature","geometry":{"type":"Point","coordinates":[-82.582035,27.996097]}},{"properties":{"city":"Marietta","geo_score":0.714,"id":"afhqhs40ad0a","geo_precision":"city","state":"GA"},"type":"Feature","geometry":{"type":"Point","coordinates":[-84.557181,33.912473]}},{"properties":{"city":"Lake Mary","geo_score":0.714,"id":"afhqhrz07ryj","geo_precision":"city","state":"FL"},"type":"Feature","geometry":{"type":"Point","coordinates":[-81.350772,28.7577]}},{"properties":{"city":"Lakeland","geo_score":0.714,"id":"afhqhrz4f54q","geo_precision":"city","state":"FL"},"type":"Feature","geometry":{"type":"Point","coordinates":[-81.956122,28.059997]}},{"properties":{"city":"Roswell","geo_score":0.714,"id":"afhqhrxqtzcn","geo_precision":"city","state":"GA"},"type":"Feature","geometry":{"type":"Point","coordinates":[-84.370475,34.055198]}},{"properties":{"city":"Hendersonville","geo_score":0.714,"id":"afhqhrxg2hpb","geo_precision":"city","state":"TN"},"type":"Feature","geometry":{"type":"Point","coordinates":[-86.612045,36.347551]}},{"properties":{"city":"El Paso","geo_score":0.714,"id":"afhqhs217or1","geo_precision":"city","state":"TX"},"type":"Feature","geometry":{"type":"Point","coordinates":[-99.561747,32.342351]}},{"properties":{"city":"Gainesville","geo_score":0.714,"id":"afhqhs4uoux2","geo_precision":"city","state":"GA"},"type":"Feature","geometry":{"type":"Point","coordinates":[-83.837912,34.334398]}},{"properties":{"city":"Matthews","geo_score":0.0,"id":"afhqhs1j2xzj","geo_precision":"unmatched","state":"NC"},"type":"Feature","geometry":null},{"properties":{"city":"Altamonte Springs","geo_score":0.714,"id":"afhqhrwapzrc","geo_precision":"city","state":"FL"},"type":"Feature","geometry":{"type":"Point","coordinates":[-84.327675,30.08076]}},{"properties":{"city":"Richmond Carytown","geo_score":0.714,"id":"afhqhsanorv9","geo_precision":"city","state":"VA"},"type":"Feature","geometry":{"type":"Point","coordinates":[-76.83774,37.914858]}},{"properties":{"city":"Suwanee","geo_score":0.714,"id":"afhqhsb5kzgb","geo_precision":"city","state":"GA"},"type":"Feature","geometry":{"type":"Point","coordinates":[-84.026171,34.042479]}},{"properties":{"city":"Vancouver","geo_score":0.714,"id":"afhqhs9bttkk","geo_precision":"city","state":"WA"},"type":"Feature","geometry":{"type":"Point","coordinates":[-122.713366,45.74327]}},{"properties":{"city":"Naschville","geo_score":0.0,"id":"afhqhs3r1p99","geo_precision":"unmatched","state":"TN"},"type":"Feature","geometry":null},{"properties":{"city":"Orlando","geo_score":0.714,"id":"afhqhry1liio","geo_precision":"city","state":"FL"},"type":"Feature","geometry":{"type":"Point","coordinates":[-81.373291,28.545179]}},{"properties":{"city":"Orlando","geo_score":0.714,"id":"afhqhs8rdfb6","geo_precision":"city","state":"FL"},"type":"Feature","geometry":{"type":"Point","coordinates":[-81.373291,28.545179]}},{"properties":{"city":"Phoenix","geo_score":0.0,"id":"afhqhs12aar9","geo_precision":"unmatched","state":"AZ"},"type":"Feature","geometry":null},{"properties":{"city":"Lake Norman","geo_score":0.714,"id":"afhqhs5xjwj3","geo_precision":"city","state":"NC"},"type":"Feature","geometry":{"type":"Point","coordinates":[-79.73794,35.162723]}},{"properties":{"city":"West Knoxville","geo_score":0.714,"id":"afhqhrzadx91","geo_precision":"city","state":"TN"},"type":"Feature","geometry":{"type":"Point","coordinates":[-83.955185,35.97036]}},{"properties":{"city":"Charlotte","geo_score":0.714,"id":"afhqhs1azlup","geo_precision":"city","state":"NC"},"type":"Feature","geometry":{"type":"Point","coordinates":[-80.804151,35.26002]}},{"properties":{"city":"Las Vegas","geo_score":0.714,"id":"afhqhs0z1w7k","geo_precision":"city","state":"NV"},"type":"Feature","geometry":{"type":"Point","coordinates":[-115.10647,36.17372]}},{"properties":{"city":"San Ramon","geo_score":0.714,"id":"afhqhsap9nd7","geo_precision":"city","state":"CA"},"type":"Feature","geometry":{"type":"Point","coordinates":[-116.976549,33.031572]}},{"properties":{"city":"Orange","geo_score":0.714,"id":"afhqhs4ojabv","geo_precision":"city","state":"CA"},"type":"Feature","geometry":{"type":"Point","coordinates":[-117.853112,33.787795]}},{"properties":{"city":"Fresno","geo_score":0.714,"id":"afhqhs2helyb","geo_precision":"city","state":"CA"},"type":"Feature","geometry":{"type":"Point","coordinates":[-119.801015,36.8411]}},{"properties":{"city":"Richardson","geo_score":0.714,"id":"afhqhs7etpve","geo_precision":"city","state":"TX"},"type":"Feature","geometry":{"type":"Point","coordinates":[-96.726826,32.962811]}},{"properties":{"city":"Chandler","geo_score":0.714,"id":"afhqhs73q7ew","geo_precision":"city","state":"AZ"},"type":"Feature","geometry":{"type":"Point","coordinates":[-111.686171,33.212186]}},{"properties":{"city":"Roseville","geo_score":0.714,"id":"afhqhs2h3dxl","geo_precision":"city","state":"CA"},"type":"Feature","geometry":{"type":"Point","coordinates":[-121.25603,38.74073]}},{"properties":{"city":"Columbus","geo_score":0.714,"id":"afhqhrxxxdc8","geo_precision":"city","state":"OH"},"type":"Feature","geometry":{"type":"Point","coordinates":[-84.15053,40.97793]}},{"properties":{"city":"Walnut Creek","geo_score":0.714,"id":"afhqhrzcjjtv","geo_precision":"city","state":"CA"},"type":"Feature","geometry":{"type":"Point","coordinates":[-122.481647,38.517964]}},{"properties":{"city":"Brentwood","geo_score":0.714,"id":"afhqhs2xr2ii","geo_precision":"city","state":"CA"},"type":"Feature","geometry":{"type":"Point","coordinates":[-118.473969,34.051954]}},{"properties":{"city":"Carlsbad","geo_score":0.714,"id":"afhqhs0vnlm1","geo_precision":"city","state":"CA"},"type":"Feature","geometry":{"type":"Point","coordinates":[-116.846046,33.016928]}},{"properties":{"city":"Orem","geo_score":0.714,"id":"afhqhs4bzyly","geo_precision":"city","state":"UT"},"type":"Feature","geometry":{"type":"Point","coordinates":[-111.72496,40.311353]}},{"properties":{"city":"Tracy","geo_score":0.714,"id":"afhqhs6aqdwe","geo_precision":"city","state":"CA"},"type":"Feature","geometry":{"type":"Point","coordinates":[-121.407804,37.688679]}},{"properties":{"city":"West Las","geo_score":0.0,"id":"afhqhrwcvwmr","geo_precision":"unmatched","state":"NV"},"type":"Feature","geometry":null},{"properties":{"city":"Staten Island","geo_score":0.714,"id":"afhqhrvaxmzx","geo_precision":"city","state":"NY"},"type":"Feature","geometry":{"type":"Point","coordinates":[-77.646948,43.277284]}},{"properties":{"city":"Glendale","geo_score":0.714,"id":"afhqhs2kiqmr","geo_precision":"city","state":"CA"},"type":"Feature","geometry":{"type":"Point","coordinates":[-118.298662,33.786594]}},{"properties":{"city":"Los Angeles","geo_score":0.714,"id":"afhqhrwqb8m2","geo_precision":"city","state":"CA"},"type":"Feature","geometry":{"type":"Point","coordinates":[-120.618608,38.052816]}},{"properties":{"city":"Salt Lake City","geo_score":0.714,"id":"afhqhsa7bvyn","geo_precision":"city","state":"UT"},"type":"Feature","geometry":{"type":"Point","coordinates":[-111.900719,40.756095]}},{"properties":{"city":"Tukwila","geo_score":0.714,"id":"afhqhrysh284","geo_precision":"city","state":"WA"},"type":"Feature","geometry":{"type":"Point","coordinates":[-122.260956,47.473988]}},{"properties":{"city":"Federal Way","geo_score":0.714,"id":"afhqhs86r5ke","geo_precision":"city","state":"WA"},"type":"Feature","geometry":{"type":"Point","coordinates":[-121.803388,47.432251]}},{"properties":{"city":"San Diego","geo_score":0.714,"id":"afhqhrwtv3td","geo_precision":"city","state":"CA"},"type":"Feature","geometry":{"type":"Point","coordinates":[-117.174366,32.7211]}},{"properties":{"city":"Honolulu","geo_score":0.714,"id":"afhqhsb5kscq","geo_precision":"city","state":"HI"},"type":"Feature","geometry":{"type":"Point","coordinates":[-168.021815,24.859832]}},{"properties":{"city":"Phoenix","geo_score":0.0,"id":"afhqhs11mjrr","geo_precision":"unmatched","state":"AZ"},"type":"Feature","geometry":null},{"properties":{"city":"Phoenix","geo_score":0.0,"id":"afhqhrybfoej","geo_precision":"unmatched","state":"AZ"},"type":"Feature","geometry":null},{"properties":{"city":"Phoenix","geo_score":0.0,"id":"afhqhsbaannp","geo_precision":"unmatched","state":"AZ"},"type":"Feature","geometry":null},{"properties":{"city":"Houston","geo_score":0.714,"id":"afhqhsb879tl","geo_precision":"city","state":"TX"},"type":"Feature","geometry":{"type":"Point","coordinates":[-96.919704,29.845783]}},{"properties":{"city":"Ridgeland","geo_score":0.714,"id":"afhqhrw50jo9","geo_precision":"city","state":"MS"},"type":"Feature","geometry":{"type":"Point","coordinates":[-90.13731,32.436064]}},{"properties":{"city":"Lakewood","geo_score":0.714,"id":"afhqhs1p8go3","geo_precision":"city","state":"NY"},"type":"Feature","geometry":{"type":"Point","coordinates":[-79.440009,42.12481]}},{"properties":{"city":"Wheatfield","geo_score":0.714,"id":"afhqhry9k9t4","geo_precision":"city","state":"NY"},"type":"Feature","geometry":{"type":"Point","coordinates":[-74.224314,41.81426]}},{"properties":{"city":"Chenango","geo_score":0.714,"id":"afhqhs1bv4pu","geo_precision":"city","state":"NY"},"type":"Feature","geometry":{"type":"Point","coordinates":[-75.998535,42.659791]}},{"properties":{"city":"Albany","geo_score":0.714,"id":"afhqhs0402qo","geo_precision":"city","state":"NY"},"type":"Feature","geometry":{"type":"Point","coordinates":[-73.970812,42.614852]}},{"properties":{"city":"Buffalo","geo_score":0.714,"id":"afhqhrzkvpqv","geo_precision":"city","state":"NY"},"type":"Feature","geometry":{"type":"Point","coordinates":[-78.832706,42.929303]}},{"properties":{"city":"Berwyn","geo_score":0.714,"id":"afhqhsaoyxvv","geo_precision":"city","state":"PA"},"type":"Feature","geometry":{"type":"Point","coordinates":[-76.001602,40.523982]}},{"properties":{"city":"Albany","geo_score":0.714,"id":"afhqhs4jbtuu","geo_precision":"city","state":"NY"},"type":"Feature","geometry":{"type":"Point","coordinates":[-73.970812,42.614852]}},{"properties":{"city":"Redmond","geo_score":0.714,"id":"afhqhrvfflzd","geo_precision":"city","state":"WA"},"type":"Feature","geometry":{"type":"Point","coordinates":[-122.121034,47.678756]}},{"properties":{"city":"Redmond","geo_score":0.714,"id":"afhqhrzkrlbp","geo_precision":"city","state":"WA"},"type":"Feature","geometry":{"type":"Point","coordinates":[-122.121034,47.678756]}},{"properties":{"city":"Pittsburg","geo_score":0.714,"id":"afhqhrwpxqht","geo_precision":"city","state":"PA"},"type":"Feature","geometry":{"type":"Point","coordinates":[-80.024817,40.434436]}},{"properties":{"city":"Robinson","geo_score":0.714,"id":"afhqhs8hpj3m","geo_precision":"city","state":"PA"},"type":"Feature","geometry":{"type":"Point","coordinates":[-79.12204,40.403698]}},{"properties":{"city":"Dublin","geo_score":0.714,"id":"afhqhs26n9uj","geo_precision":"city","state":"OH"},"type":"Feature","geometry":{"type":"Point","coordinates":[-83.011389,39.969036]}},{"properties":{"city":"Florence","geo_score":0.714,"id":"afhqhs3t4dyg","geo_precision":"city","state":"KY"},"type":"Feature","geometry":{"type":"Point","coordinates":[-84.747789,38.962372]}},{"properties":{"city":"Aakron","geo_score":0.714,"id":"afhqhs5c2k23","geo_precision":"city","state":"OH"},"type":"Feature","geometry":{"type":"Point","coordinates":[-81.507831,41.012239]}},{"properties":{"city":"Miamisburg","geo_score":0.714,"id":"afhqhs4b75j7","geo_precision":"city","state":"OH"},"type":"Feature","geometry":{"type":"Point","coordinates":[-84.27464,39.641658]}},{"properties":{"city":"Kansas City","geo_score":0.714,"id":"afhqhs89p3hi","geo_precision":"city","state":"MO"},"type":"Feature","geometry":{"type":"Point","coordinates":[-94.598583,39.102404]}},{"properties":{"city":"Kansas City","geo_score":0.714,"id":"afhqhsfj0229","geo_precision":"city","state":"MO"},"type":"Feature","geometry":{"type":"Point","coordinates":[-94.598583,39.102404]}},{"properties":{"city":"Franklin","geo_score":0.714,"id":"afhqhsks46qb","geo_precision":"city","state":"MA"},"type":"Feature","geometry":{"type":"Point","coordinates":[-71.016162,42.441763]}},{"properties":{"city":"Roseland","geo_score":0.714,"id":"afhqhskg49x1","geo_precision":"city","state":"NJ"},"type":"Feature","geometry":{"type":"Point","coordinates":[-74.306093,40.820499]}},{"properties":{"city":"Cleveland","geo_score":0.714,"id":"afhqhsojsqjr","geo_precision":"city","state":"OH"},"type":"Feature","geometry":{"type":"Point","coordinates":[-81.599648,41.523401]}},{"properties":{"city":"Westerville","geo_score":0.714,"id":"afhqhsrqzqfp","geo_precision":"city","state":"OH"},"type":"Feature","geometry":{"type":"Point","coordinates":[-82.896457,40.10447]}},{"properties":{"city":"Cumming","geo_score":0.714,"id":"afhqhslvyx5s","geo_precision":"city","state":"GA"},"type":"Feature","geometry":{"type":"Point","coordinates":[-84.092588,34.193041]}},{"properties":{"city":"Beaverton","geo_score":0.714,"id":"afhqhsbvewhb","geo_precision":"city","state":"OR"},"type":"Feature","geometry":{"type":"Point","coordinates":[-122.800146,45.496289]}},{"properties":{"city":"Oklahoma City","geo_score":0.714,"id":"afhqhsoixihm","geo_precision":"city","state":"OK"},"type":"Feature","geometry":{"type":"Point","coordinates":[-97.562817,35.491608]}},{"properties":{"city":"Woodland Hills","geo_score":0.714,"id":"afhqhss9vh6l","geo_precision":"city","state":"CA"},"type":"Feature","geometry":{"type":"Point","coordinates":[-121.397892,39.08337]}},{"properties":{"city":"San Bernandino","geo_score":0.714,"id":"afhqhsftc0zr","geo_precision":"city","state":"CA"},"type":"Feature","geometry":{"type":"Point","coordinates":[-117.289765,34.108345]}},{"properties":{"city":"Arlington","geo_score":0.714,"id":"afhqhsqu9lz7","geo_precision":"city","state":"TX"},"type":"Feature","geometry":{"type":"Point","coordinates":[-97.291484,32.771419]}},{"properties":{"city":"Novi","geo_score":0.714,"id":"afhqhse40138","geo_precision":"city","state":"MI"},"type":"Feature","geometry":{"type":"Point","coordinates":[-83.522221,42.468959]}},{"properties":{"city":"Albuquerque","geo_score":0.714,"id":"afhqhsre3o3k","geo_precision":"city","state":"NM"},"type":"Feature","geometry":{"type":"Point","coordinates":[-106.651137,35.084491]}},{"properties":{"city":"Colorado Springs","geo_score":0.714,"id":"afhqhse01m88","geo_precision":"city","state":"CO"},"type":"Feature","geometry":{"type":"Point","coordinates":[-104.857828,38.861469]}},{"properties":{"city":"Westminster","geo_score":0.714,"id":"afhqhsgn3318","geo_precision":"city","state":"CO"},"type":"Feature","geometry":{"type":"Point","coordinates":[-105.034487,39.872535]}},{"properties":{"city":"Las Colinas","geo_score":0.714,"id":"afhqhsldv8mo","geo_precision":"city","state":"TX"},"type":"Feature","geometry":{"type":"Point","coordinates":[-96.241147,29.298532]}},{"properties":{"city":"Raleigh","geo_score":0.714,"id":"afhqhsikqakl","geo_precision":"city","state":"NC"},"type":"Feature","geometry":{"type":"Point","coordinates":[-82.293464,36.034279]}},{"properties":{"city":"Folsom","geo_score":0.714,"id":"afhqhsotgajq","geo_precision":"city","state":"CA"},"type":"Feature","geometry":{"type":"Point","coordinates":[-121.310796,38.594181]}},{"properties":{"city":"Vintage","geo_score":0.0,"id":"afhqhsq7dscy","geo_precision":"unmatched","state":"TX"},"type":"Feature","geometry":null},{"properties":{"city":"Katy","geo_score":0.714,"id":"afhqhsloltos","geo_precision":"city","state":"TX"},"type":"Feature","geometry":{"type":"Point","coordinates":[-96.671371,31.38323]}},{"properties":{"city":"North San Antonio","geo_score":0.714,"id":"afhqhspdfhjp","geo_precision":"city","state":"TX"},"type":"Feature","geometry":{"type":"Point","coordinates":[-102.192713,33.770506]}},{"properties":{"city":"The Woodlands","geo_score":0.714,"id":"afhqhsf4i334","geo_precision":"city","state":"TX"},"type":"Feature","geometry":{"type":"Point","coordinates":[-95.489385,30.157994]}},{"properties":{"city":"Denver Tech Center","geo_score":0.714,"id":"afhqhsjvl9wn","geo_precision":"city","state":"CO"},"type":"Feature","geometry":{"type":"Point","coordinates":[-106.046711,37.869875]}},{"properties":{"city":"Orlando","geo_score":0.714,"id":"afhqhseadmgb","geo_precision":"city","state":"FL"},"type":"Feature","geometry":{"type":"Point","coordinates":[-81.373291,28.545179]}},{"properties":{"city":"Keen","geo_score":0.714,"id":"afhqhsh0yh48","geo_precision":"city","state":"NH"},"type":"Feature","geometry":{"type":"Point","coordinates":[-72.248052,42.903656]}},{"properties":{"city":"Indianapolis","geo_score":0.714,"id":"afhqhsivbzpg","geo_precision":"city","state":"IN"},"type":"Feature","geometry":{"type":"Point","coordinates":[-86.13216,39.775092]}},{"properties":{"city":"Centennial","geo_score":0.714,"id":"afhqhsj0ny5f","geo_precision":"city","state":"CO"},"type":"Feature","geometry":{"type":"Point","coordinates":[-104.876923,39.579155]}},{"properties":{"city":"Houston","geo_score":0.714,"id":"afhqhsm9qxiv","geo_precision":"city","state":"TX"},"type":"Feature","geometry":{"type":"Point","coordinates":[-96.919704,29.845783]}},{"properties":{"city":"Brooklyn","geo_score":0.714,"id":"afhqhsi6k3ir","geo_precision":"city","state":"NY"},"type":"Feature","geometry":{"type":"Point","coordinates":[-73.989319,40.694481]}},{"properties":{"city":"Voorhees","geo_score":0.714,"id":"afhqhsivqlf6","geo_precision":"city","state":"NJ"},"type":"Feature","geometry":{"type":"Point","coordinates":[-74.965057,39.839156]}}],"is_temporal":false,"author":{"url":"","metadata":"","contact_name":"","contact_address":"","source":"","contact_phone":""},"source":"","pagination":{"sort":null,"start":0,"total":233,"limit":1000000},"state":"complete","tags":"","published":"2014-08-16T19:47:53-04:00","id":374582}