{"type":"FeatureCollection","data_type":"Dataset","url_type":null,"permissions":[{"permissions":{"download":true,"view":true},"group_id":"everyone"}],"classification":null,"title":"MA 2011 Hospital Charge Data","count":60,"stream_id":374532,"contributor":{"url":"http://geocommons.com/users/76838","name":"ray.campbell@rac3.com"},"data_attributes":null,"calculation_params":null,"icon_link":null,"link":"http://geocommons.com/overlays/374532.json","extent":[-73.2496,41.2777,-70.1029,42.7733],"geometry_types":["point"],"unique_name":null,"name":"MA 2011 Hospital Charge Data","feature_count":60,"description":"2011 CMS Medicare charge and payment data.","next_feature":null,"is_raster":false,"short_classification":"Y","stats":{"cumulative avtopa z-score":{"max":233.58,"mean":-11.4758333333333,"variance":4507.5165230226,"stdev":67.1380408041715,"median":-28.3,"min":-104.64},"total discharges":{"max":14202,"mean":3228.0,"variance":6777240.94915254,"stdev":2603.31345580062,"median":2746,"min":11},"drg #":{"max":100,"mean":64.0333333333333,"variance":745.117514124294,"stdev":27.296840735226,"median":71,"min":1},"cumulative avcoch z-score":{"max":299.26,"mean":-12.6353333333333,"variance":4723.74420158192,"stdev":68.7295002279365,"median":-25.64,"min":-90.04},"total payments":{"max":0,"mean":0.0,"variance":0.0,"stdev":0.0,"median":0,"min":0}},"features":[{"properties":{"city":"Worcester","cumulative avtopa z-score":-0.21,"geo_score":0.902,"zip code":"01605","hospital referral region":"MA - Worcester","drg #":1,"total discharges":1571,"street":"107 Lincoln Street","cumulative avcoch z-score":-0.7,"provider name":"Adcare Hospital Of Worcester Inc","id":"afhng1nu5frk","total payments":0,"geo_precision":"range"},"type":"Feature","geometry":{"type":"Point","coordinates":[-71.795302,42.27659]}},{"properties":{"city":"Newburyport","cumulative avtopa z-score":-52.01,"geo_score":0.732,"zip code":"01950","hospital referral region":"MA - Boston","drg #":61,"total discharges":2198,"street":"25 Highland Avenue","cumulative avcoch z-score":-42.85,"provider name":"Anna Jaques Hospital","id":"afhng1n3rzxi","total payments":0,"geo_precision":"range"},"type":"Feature","geometry":{"type":"Point","coordinates":[-70.940688,42.479938]}},{"properties":{"city":"Greenfield","cumulative avtopa z-score":-33.95,"geo_score":0.488,"zip code":"01301","hospital referral region":"MA - Springfield","drg #":35,"total discharges":935,"street":"164 High Street","cumulative avcoch z-score":1.18,"provider name":"Baystate Franklin Medical Center","id":"afhng1tzlu4i","total payments":0,"geo_precision":"zip"},"type":"Feature","geometry":{"type":"Point","coordinates":[-72.581478,42.575086]}},{"properties":{"city":"Ware","cumulative avtopa z-score":-15.21,"geo_score":0.756,"zip code":"01082","hospital referral region":"MA - Springfield","drg #":13,"total discharges":233,"street":"85 South Street","cumulative avcoch z-score":-8.06,"provider name":"Baystate Mary Lane Hospital","id":"afhng1rel579","total payments":0,"geo_precision":"range"},"type":"Feature","geometry":{"type":"Point","coordinates":[-72.241244,42.253344]}},{"properties":{"city":"Springfield","cumulative avtopa z-score":32.15,"geo_score":0.805,"zip code":"01199","hospital referral region":"MA - Springfield","drg #":98,"total discharges":7140,"street":"759 Chestnut Street","cumulative avcoch z-score":-14.29,"provider name":"Baystate Medical Center","id":"afhng1p473zo","total payments":0,"geo_precision":"range"},"type":"Feature","geometry":{"type":"Point","coordinates":[-72.605187,42.120736]}},{"properties":{"city":"Pittsfield","cumulative avtopa z-score":-2.84,"geo_score":0.756,"zip code":"01201","hospital referral region":"NY - Albany","drg #":84,"total discharges":3491,"street":"725 North Street","cumulative avcoch z-score":-40.81,"provider name":"Berkshire Medical Center Inc","id":"afhng1s8n2kr","total payments":0,"geo_precision":"range"},"type":"Feature","geometry":{"type":"Point","coordinates":[-73.249631,42.458197]}},{"properties":{"city":"Needham","cumulative avtopa z-score":-35.05,"geo_score":0.805,"zip code":"02494","hospital referral region":"MA - Boston","drg #":33,"total discharges":797,"street":"148 Chestnut Street","cumulative avcoch z-score":-20.52,"provider name":"Beth Israel Deaconess Hospital - Needham","id":"afhng1oy459m","total payments":0,"geo_precision":"range"},"type":"Feature","geometry":{"type":"Point","coordinates":[-71.237324,42.277395]}},{"properties":{"city":"Boston","cumulative avtopa z-score":147.33,"geo_score":0.902,"zip code":"02215","hospital referral region":"MA - Boston","drg #":100,"total discharges":7286,"street":"330 Brookline Avenue","cumulative avcoch z-score":-3.1,"provider name":"Beth Israel Deaconess Medical Center","id":"afhng1s3y9oe","total payments":0,"geo_precision":"range"},"type":"Feature","geometry":{"type":"Point","coordinates":[-71.107459,42.338701]}},{"properties":{"city":"Beverly","cumulative avtopa z-score":-55.18,"geo_score":0.488,"zip code":"01915","hospital referral region":"MA - Boston","drg #":82,"total discharges":4843,"street":"85 Herrick Street","cumulative avcoch z-score":-67.25,"provider name":"Beverly Hospital Corporation","id":"afhng1n04m5i","total payments":0,"geo_precision":"zip"},"type":"Feature","geometry":{"type":"Point","coordinates":[-70.886994,42.58065]}},{"properties":{"city":"Boston","cumulative avtopa z-score":233.58,"geo_score":0.902,"zip code":"02118","hospital referral region":"MA - Boston","drg #":94,"total discharges":4614,"street":"1 Boston Medical Center Place","cumulative avcoch z-score":-20.83,"provider name":"Boston Medical Center Corporation","id":"afhng1xaeipz","total payments":0,"geo_precision":"range"},"type":"Feature","geometry":{"type":"Point","coordinates":[-71.075178,42.334471]}},{"properties":{"city":"Boston","cumulative avtopa z-score":119.3,"geo_score":0.805,"zip code":"02115","hospital referral region":"MA - Boston","drg #":99,"total discharges":6899,"street":"75 Francis Street","cumulative avcoch z-score":272.62,"provider name":"Brigham And Women's Hospital","id":"afhng1pchzr5","total payments":0,"geo_precision":"range"},"type":"Feature","geometry":{"type":"Point","coordinates":[-71.11098,42.390645]}},{"properties":{"city":"Cambridge","cumulative avtopa z-score":69.37,"geo_score":0.71,"zip code":"02138","hospital referral region":"MA - Boston","drg #":65,"total discharges":2355,"street":"1493 Cambridge Street","cumulative avcoch z-score":-16.89,"provider name":"Cambridge Health Alliance","id":"afhng1zh0kgp","total payments":0,"geo_precision":"street"},"type":"Feature","geometry":{"type":"Point","coordinates":[-71.10788,42.374645]}},{"properties":{"city":"Hyannis","cumulative avtopa z-score":8.98,"geo_score":0.902,"zip code":"02601","hospital referral region":"MA - Boston","drg #":95,"total discharges":6378,"street":"88 Lewis Bay Road","cumulative avcoch z-score":-57.12,"provider name":"Cape Cod Hospital","id":"afhng1ozo157","total payments":0,"geo_precision":"range"},"type":"Feature","geometry":{"type":"Point","coordinates":[-70.274788,41.652938]}},{"properties":{"city":"Boston","cumulative avtopa z-score":57.2,"geo_score":0.902,"zip code":"02124","hospital referral region":"MA - Boston","drg #":52,"total discharges":1540,"street":"2100 Dorchester Avenue","cumulative avcoch z-score":-39.59,"provider name":"Carney Hospital","id":"afhng1sgoed5","total payments":0,"geo_precision":"range"},"type":"Feature","geometry":{"type":"Point","coordinates":[-71.066409,42.277984]}},{"properties":{"city":"Clinton","cumulative avtopa z-score":-12.68,"geo_score":0.488,"zip code":"01510","hospital referral region":"MA - Worcester","drg #":11,"total discharges":177,"street":"201 Highland Street","cumulative avcoch z-score":7.64,"provider name":"Clinton Hospital Association","id":"afhng1pj3xg9","total payments":0,"geo_precision":"zip"},"type":"Feature","geometry":{"type":"Point","coordinates":[-71.687523,42.413972]}},{"properties":{"city":"Northampton","cumulative avtopa z-score":-77.07,"geo_score":0.902,"zip code":"01060","hospital referral region":"MA - Springfield","drg #":62,"total discharges":2174,"street":"30 Locust Street","cumulative avcoch z-score":-28.93,"provider name":"Cooley Dickinson Hospital Inc,The","id":"afhng1r291gf","total payments":0,"geo_precision":"range"},"type":"Feature","geometry":{"type":"Point","coordinates":[-72.654388,42.332011]}},{"properties":{"city":"W Concord","cumulative avtopa z-score":-60.0,"geo_score":0.379,"zip code":"01742","hospital referral region":"MA - Boston","drg #":53,"total discharges":1560,"street":"Old Road To 9 Acre Corner","cumulative avcoch z-score":-4.57,"provider name":"Emerson Hospital","id":"afhng1udie3o","total payments":0,"geo_precision":"street"},"type":"Feature","geometry":{"type":"Point","coordinates":[-71.56215,42.394071]}},{"properties":{"city":"Falmouth","cumulative avtopa z-score":-60.38,"geo_score":0.488,"zip code":"02540","hospital referral region":"MA - Boston","drg #":69,"total discharges":2629,"street":"67 &amp; 100 Ter Heun Drive","cumulative avcoch z-score":-62.29,"provider name":"Falmouth Hospital","id":"afhng1xobacd","total payments":0,"geo_precision":"zip"},"type":"Feature","geometry":{"type":"Point","coordinates":[-70.649475,41.543442]}},{"properties":{"city":"Boston","cumulative avtopa z-score":1.85,"geo_score":0.812,"zip code":"02130","hospital referral region":"MA - Boston","drg #":57,"total discharges":2103,"street":"1153 Centre Street","cumulative avcoch z-score":48.61,"provider name":"Faulkner Hospital","id":"afhng1pp2xny","total payments":0,"geo_precision":"range"},"type":"Feature","geometry":{"type":"Point","coordinates":[-71.127163,42.301029]}},{"properties":{"city":"Brockton","cumulative avtopa z-score":-28.3,"geo_score":0.902,"zip code":"02301","hospital referral region":"MA - Boston","drg #":84,"total discharges":4026,"street":"235 North Pearl Street","cumulative avcoch z-score":-82.42,"provider name":"Good Samaritan Medical Center","id":"afhng1qruwhj","total payments":0,"geo_precision":"range"},"type":"Feature","geometry":{"type":"Point","coordinates":[-71.066078,42.098804]}},{"properties":{"city":"Melrose","cumulative avtopa z-score":-52.87,"geo_score":0.902,"zip code":"02176","hospital referral region":"MA - Boston","drg #":84,"total discharges":5323,"street":"585 Lebanon Street","cumulative avcoch z-score":-70.62,"provider name":"Hallmark Health System","id":"afhng1vavusb","total payments":0,"geo_precision":"range"},"type":"Feature","geometry":{"type":"Point","coordinates":[-71.06166,42.459196]}},{"properties":{"city":"Southbridge","cumulative avtopa z-score":-12.18,"geo_score":0.756,"zip code":"01550","hospital referral region":"MA - Worcester","drg #":35,"total discharges":996,"street":"100 South Street","cumulative avcoch z-score":-19.69,"provider name":"Harrington Memorial Hospital","id":"afhng1xlke2k","total payments":0,"geo_precision":"range"},"type":"Feature","geometry":{"type":"Point","coordinates":[-72.042928,42.077062]}},{"properties":{"city":"Leominster","cumulative avtopa z-score":-16.74,"geo_score":0.902,"zip code":"01453","hospital referral region":"MA - Worcester","drg #":45,"total discharges":1237,"street":"60 Hospital Road","cumulative avcoch z-score":3.63,"provider name":"Healthalliance Hospitals, Inc","id":"afhng1yrvn0b","total payments":0,"geo_precision":"range"},"type":"Feature","geometry":{"type":"Point","coordinates":[-71.760875,42.540927]}},{"properties":{"city":"Gardner","cumulative avtopa z-score":-12.84,"geo_score":0.902,"zip code":"01440","hospital referral region":"MA - Worcester","drg #":37,"total discharges":1013,"street":"242 Green Street","cumulative avcoch z-score":-29.89,"provider name":"Heywood Hospital","id":"afhng1nsbvim","total payments":0,"geo_precision":"range"},"type":"Feature","geometry":{"type":"Point","coordinates":[-71.986329,42.586807]}},{"properties":{"city":"Methuen","cumulative avtopa z-score":-53.85,"geo_score":0.777,"zip code":"01844","hospital referral region":"MA - Boston","drg #":74,"total discharges":3113,"street":"70 East Street","cumulative avcoch z-score":-39.31,"provider name":"Holy Family Hospital","id":"afhng1nk44mc","total payments":0,"geo_precision":"range"},"type":"Feature","geometry":{"type":"Point","coordinates":[-71.167786,42.725501]}},{"properties":{"city":"Holyoke","cumulative avtopa z-score":-50.98,"geo_score":0.902,"zip code":"01040","hospital referral region":"MA - Springfield","drg #":59,"total discharges":1817,"street":"575 Beech Street","cumulative avcoch z-score":-50.38,"provider name":"Holyoke Medical Center","id":"afhng1rk7n85","total payments":0,"geo_precision":"range"},"type":"Feature","geometry":{"type":"Point","coordinates":[-72.628468,42.199338]}},{"properties":{"city":"Plymouth","cumulative avtopa z-score":-66.98,"geo_score":0.902,"zip code":"02360","hospital referral region":"MA - Boston","drg #":80,"total discharges":3920,"street":"275 Sandwich Street","cumulative avcoch z-score":-65.09,"provider name":"Jordan Hospital Inc","id":"afhng1zvjij9","total payments":0,"geo_precision":"range"},"type":"Feature","geometry":{"type":"Point","coordinates":[-70.644959,41.944385]}},{"properties":{"city":"Burlington","cumulative avtopa z-score":-22.33,"geo_score":0.61,"zip code":"01803","hospital referral region":"MA - Boston","drg #":98,"total discharges":6156,"street":"41 &amp; 45 Mall Road","cumulative avcoch z-score":-71.02,"provider name":"Lahey Clinic Hospital","id":"afhng1lmi3po","total payments":0,"geo_precision":"range"},"type":"Feature","geometry":{"type":"Point","coordinates":[-71.189431,42.512247]}},{"properties":{"city":"Lawrence","cumulative avtopa z-score":-8.65,"geo_score":0.643,"zip code":"01842","hospital referral region":"MA - Boston","drg #":81,"total discharges":3119,"street":"One General Street","cumulative avcoch z-score":-28.68,"provider name":"Lawrence General Hospital","id":"afhng1y7awcz","total payments":0,"geo_precision":"street"},"type":"Feature","geometry":{"type":"Point","coordinates":[-71.15153,42.70916]}},{"properties":{"city":"Lowell","cumulative avtopa z-score":-13.74,"geo_score":0.902,"zip code":"01854","hospital referral region":"MA - Boston","drg #":74,"total discharges":2746,"street":"295 Varnum Avenue","cumulative avcoch z-score":-25.64,"provider name":"Lowell General Hospital","id":"afhng1sbdtag","total payments":0,"geo_precision":"range"},"type":"Feature","geometry":{"type":"Point","coordinates":[-71.341147,42.646436]}},{"properties":{"city":"Marlborough","cumulative avtopa z-score":-39.32,"geo_score":0.902,"zip code":"01752","hospital referral region":"MA - Worcester","drg #":38,"total discharges":1068,"street":"157 Union Street","cumulative avcoch z-score":0.07,"provider name":"Marlborough Hospital","id":"afhng1ynk5fq","total payments":0,"geo_precision":"range"},"type":"Feature","geometry":{"type":"Point","coordinates":[-71.554832,42.353803]}},{"properties":{"city":"Boston","cumulative avtopa z-score":125.54,"geo_score":0.902,"zip code":"02114","hospital referral region":"MA - Boston","drg #":100,"total discharges":9349,"street":"55 Fruit Street","cumulative avcoch z-score":299.26,"provider name":"Massachusetts General Hospital","id":"afhng1jk1v3i","total payments":0,"geo_precision":"range"},"type":"Feature","geometry":{"type":"Point","coordinates":[-71.069803,42.362495]}},{"properties":{"city":"Springfield","cumulative avtopa z-score":-39.82,"geo_score":0.902,"zip code":"01104","hospital referral region":"MA - Springfield","drg #":73,"total discharges":2968,"street":"271 Carew Street","cumulative avcoch z-score":4.07,"provider name":"Mercy Medical Center","id":"afhng1ylg0fp","total payments":0,"geo_precision":"range"},"type":"Feature","geometry":{"type":"Point","coordinates":[-72.595615,42.114904]}},{"properties":{"city":"Haverhill","cumulative avtopa z-score":-45.88,"geo_score":0.902,"zip code":"01830","hospital referral region":"MA - Boston","drg #":48,"total discharges":1320,"street":"140 Lincoln Avenue","cumulative avcoch z-score":-26.21,"provider name":"Merrimack Valley Hospital","id":"afhng1xhhad9","total payments":0,"geo_precision":"range"},"type":"Feature","geometry":{"type":"Point","coordinates":[-71.046562,42.762526]}},{"properties":{"city":"Framingham","cumulative avtopa z-score":-48.21,"geo_score":0.805,"zip code":"01701","hospital referral region":"MA - Boston","drg #":87,"total discharges":3953,"street":"115 Lincoln Street","cumulative avcoch z-score":-49.94,"provider name":"Metrowest Medical Center","id":"afhng1of5zsz","total payments":0,"geo_precision":"range"},"type":"Feature","geometry":{"type":"Point","coordinates":[-71.419641,42.284284]}},{"properties":{"city":"Milford","cumulative avtopa z-score":-61.63,"geo_score":0.902,"zip code":"01757","hospital referral region":"MA - Boston","drg #":71,"total discharges":2891,"street":"14 Prospect Street","cumulative avcoch z-score":-21.04,"provider name":"Milford Regional Medical Center","id":"afhng1t04uwm","total payments":0,"geo_precision":"range"},"type":"Feature","geometry":{"type":"Point","coordinates":[-71.528424,42.132168]}},{"properties":{"city":"Milton","cumulative avtopa z-score":-48.85,"geo_score":0.902,"zip code":"02186","hospital referral region":"MA - Boston","drg #":47,"total discharges":1530,"street":"199 Reedsdale Road","cumulative avcoch z-score":-25.69,"provider name":"Milton Hospital Inc","id":"afhng1paqrgp","total payments":0,"geo_precision":"range"},"type":"Feature","geometry":{"type":"Point","coordinates":[-71.077432,42.254479]}},{"properties":{"city":"Taunton","cumulative avtopa z-score":-55.75,"geo_score":0.902,"zip code":"02780","hospital referral region":"MA - Boston","drg #":70,"total discharges":2805,"street":"88 Washington Street","cumulative avcoch z-score":-79.97,"provider name":"Morton Hospital","id":"afhng1kh8pn2","total payments":0,"geo_precision":"range"},"type":"Feature","geometry":{"type":"Point","coordinates":[-71.096415,41.903932]}},{"properties":{"city":"Cambridge","cumulative avtopa z-score":-13.97,"geo_score":0.902,"zip code":"02138","hospital referral region":"MA - Boston","drg #":74,"total discharges":2782,"street":"330 Mount Auburn Street","cumulative avcoch z-score":-34.55,"provider name":"Mount Auburn Hospital","id":"afhng1sl1i7t","total payments":0,"geo_precision":"range"},"type":"Feature","geometry":{"type":"Point","coordinates":[-71.135055,42.374896]}},{"properties":{"city":"Nantucket","cumulative avtopa z-score":0.0,"geo_score":0.715,"zip code":"2554","hospital referral region":"MA - Boston","drg #":1,"total discharges":11,"street":"57 Prospect Street","cumulative avcoch z-score":0.13,"provider name":"Nantucket Cottage Hospital","id":"afhng1lavlii","total payments":0,"geo_precision":"street"},"type":"Feature","geometry":{"type":"Point","coordinates":[-70.102899,41.277716]}},{"properties":{"city":"Ayer","cumulative avtopa z-score":-27.04,"geo_score":0.902,"zip code":"01432","hospital referral region":"MA - Boston","drg #":23,"total discharges":582,"street":"200 Groton Road","cumulative avcoch z-score":-5.48,"provider name":"Nashoba Valley Medical Center","id":"afhng1k6ouom","total payments":0,"geo_precision":"range"},"type":"Feature","geometry":{"type":"Point","coordinates":[-71.571179,42.578606]}},{"properties":{"city":"Boston","cumulative avtopa z-score":-7.29,"geo_score":0.902,"zip code":"02120","hospital referral region":"MA - Boston","drg #":9,"total discharges":1792,"street":"125 Parker Hill Avenue","cumulative avcoch z-score":-4.55,"provider name":"New England Baptist Hospital","id":"afhng1urgev9","total payments":0,"geo_precision":"range"},"type":"Feature","geometry":{"type":"Point","coordinates":[-71.107464,42.330296]}},{"properties":{"city":"Newton","cumulative avtopa z-score":-66.14,"geo_score":0.837,"zip code":"02462","hospital referral region":"MA - Boston","drg #":77,"total discharges":3627,"street":"2014 Washington Street","cumulative avcoch z-score":52.19,"provider name":"Newton-Wellesley Hospital","id":"afhng1vn270p","total payments":0,"geo_precision":"range"},"type":"Feature","geometry":{"type":"Point","coordinates":[-71.247126,42.331785]}},{"properties":{"city":"Westfield","cumulative avtopa z-score":-48.05,"geo_score":0.902,"zip code":"01085","hospital referral region":"MA - Springfield","drg #":36,"total discharges":879,"street":"115 West Silver Street","cumulative avcoch z-score":-16.71,"provider name":"Noble Hospital","id":"afhng1q9hn9o","total payments":0,"geo_precision":"range"},"type":"Feature","geometry":{"type":"Point","coordinates":[-72.76043,42.117774]}},{"properties":{"city":"North Adams","cumulative avtopa z-score":-17.71,"geo_score":0.902,"zip code":"01247","hospital referral region":"MA - Springfield","drg #":20,"total discharges":670,"street":"71 Hospital Avenue","cumulative avcoch z-score":-1.94,"provider name":"North Adams Regional Hospital","id":"afhng1r4rbd5","total payments":0,"geo_precision":"range"},"type":"Feature","geometry":{"type":"Point","coordinates":[-73.109886,42.705908]}},{"properties":{"city":"Salem","cumulative avtopa z-score":-41.85,"geo_score":0.732,"zip code":"01970","hospital referral region":"MA - Boston","drg #":93,"total discharges":6313,"street":"81 Highland Avenue","cumulative avcoch z-score":112.44,"provider name":"North Shore Medical Center","id":"afhng1ubwr9m","total payments":0,"geo_precision":"range"},"type":"Feature","geometry":{"type":"Point","coordinates":[-70.94209,42.479821]}},{"properties":{"city":"Norwood","cumulative avtopa z-score":-86.86,"geo_score":0.712,"zip code":"02062","hospital referral region":"MA - Boston","drg #":80,"total discharges":3672,"street":"800 Washington Street","cumulative avcoch z-score":-72.79,"provider name":"Norwood Hospital","id":"afhng1tld1up","total payments":0,"geo_precision":"street"},"type":"Feature","geometry":{"type":"Point","coordinates":[-71.2026,42.19157]}},{"properties":{"city":"Quincy","cumulative avtopa z-score":-44.94,"geo_score":0.902,"zip code":"02169","hospital referral region":"MA - Boston","drg #":56,"total discharges":1789,"street":"114 Whitwell Street","cumulative avcoch z-score":-38.45,"provider name":"Quincy Medical Center","id":"afhng1uus1m9","total payments":0,"geo_precision":"range"},"type":"Feature","geometry":{"type":"Point","coordinates":[-71.012961,42.249958]}},{"properties":{"city":"Fall River","cumulative avtopa z-score":-30.47,"geo_score":0.902,"zip code":"02721","hospital referral region":"MA - Boston","drg #":60,"total discharges":1877,"street":"795 Middle Street","cumulative avcoch z-score":-25.91,"provider name":"Saint Anne's Hospital","id":"afhng1lec684","total payments":0,"geo_precision":"range"},"type":"Feature","geometry":{"type":"Point","coordinates":[-71.16344,41.693236]}},{"properties":{"city":"Lowell","cumulative avtopa z-score":-51.53,"geo_score":0.902,"zip code":"01852","hospital referral region":"MA - Boston","drg #":69,"total discharges":2293,"street":"1 Hospital Drive","cumulative avcoch z-score":-56.05,"provider name":"Saints  Medical Center Inc","id":"afhng1thos8y","total payments":0,"geo_precision":"range"},"type":"Feature","geometry":{"type":"Point","coordinates":[-71.300028,42.645945]}},{"properties":{"city":"Brockton","cumulative avtopa z-score":-5.31,"geo_score":0.772,"zip code":"02302","hospital referral region":"MA - Boston","drg #":75,"total discharges":2810,"street":"680 Center Street","cumulative avcoch z-score":-36.91,"provider name":"Signature Healthcare Brockton Hospital","id":"afhng1yuph0t","total payments":0,"geo_precision":"street"},"type":"Feature","geometry":{"type":"Point","coordinates":[-70.990571,42.086269]}},{"properties":{"city":"South Weymouth","cumulative avtopa z-score":-104.64,"geo_score":0.902,"zip code":"02190","hospital referral region":"MA - Boston","drg #":96,"total discharges":7170,"street":"55 Fogg Road","cumulative avcoch z-score":-46.6,"provider name":"South Shore Hospital","id":"afhng1zk3x2d","total payments":0,"geo_precision":"range"},"type":"Feature","geometry":{"type":"Point","coordinates":[-70.953622,42.174798]}},{"properties":{"city":"Fall River","cumulative avtopa z-score":-50.59,"geo_score":0.488,"zip code":"02720","hospital referral region":"MA - Boston","drg #":100,"total discharges":14202,"street":"363 Highland Avenue","cumulative avcoch z-score":-20.59,"provider name":"Southcoast Hospital Group, Inc","id":"afhng1xhsuny","total payments":0,"geo_precision":"zip"},"type":"Feature","geometry":{"type":"Point","coordinates":[-71.165971,41.819766]}},{"properties":{"city":"Brighton","cumulative avtopa z-score":102.24,"geo_score":0.805,"zip code":"02135","hospital referral region":"MA - Boston","drg #":77,"total discharges":2657,"street":"736 Cambridge Street","cumulative avcoch z-score":-44.64,"provider name":"St Elizabeth's Medical Center","id":"afhng1tw93yd","total payments":0,"geo_precision":"range"},"type":"Feature","geometry":{"type":"Point","coordinates":[-71.147078,42.350165]}},{"properties":{"city":"Worcester","cumulative avtopa z-score":-18.78,"geo_score":0.902,"zip code":"01608","hospital referral region":"MA - Worcester","drg #":78,"total discharges":3020,"street":"123 Summer Street","cumulative avcoch z-score":-64.97,"provider name":"St Vincent Hospital","id":"afhng1x6bya7","total payments":0,"geo_precision":"range"},"type":"Feature","geometry":{"type":"Point","coordinates":[-71.795807,42.267668]}},{"properties":{"city":"Attleboro","cumulative avtopa z-score":-57.43,"geo_score":0.902,"zip code":"02703","hospital referral region":"RI - Providence","drg #":69,"total discharges":2448,"street":"211 Park Street","cumulative avcoch z-score":-40.69,"provider name":"Sturdy Memorial Hospital","id":"afhng1jztuce","total payments":0,"geo_precision":"range"},"type":"Feature","geometry":{"type":"Point","coordinates":[-71.274039,41.942461]}},{"properties":{"city":"Boston","cumulative avtopa z-score":158.99,"geo_score":0.902,"zip code":"02111","hospital referral region":"MA - Boston","drg #":86,"total discharges":3173,"street":"800 Washington Street","cumulative avcoch z-score":32.48,"provider name":"Tufts Medical Center","id":"afhng1n1tr7h","total payments":0,"geo_precision":"range"},"type":"Feature","geometry":{"type":"Point","coordinates":[-71.063637,42.349784]}},{"properties":{"city":"Worcester","cumulative avtopa z-score":141.27,"geo_score":0.746,"zip code":"01655","hospital referral region":"MA - Worcester","drg #":100,"total discharges":8731,"street":"55 Lake Avenue North","cumulative avcoch z-score":125.95,"provider name":"Umass Memorial Medical Center Inc","id":"afhng1w2uug4","total payments":0,"geo_precision":"range"},"type":"Feature","geometry":{"type":"Point","coordinates":[-71.757615,42.270489]}},{"properties":{"city":"Winchester","cumulative avtopa z-score":-83.06,"geo_score":0.659,"zip code":"01890","hospital referral region":"MA - Boston","drg #":76,"total discharges":3693,"street":"41 Highland Avenue","cumulative avcoch z-score":-90.04,"provider name":"Winchester Hospital","id":"afhng1l7hr54","total payments":0,"geo_precision":"range"},"type":"Feature","geometry":{"type":"Point","coordinates":[-71.103325,42.773339]}},{"properties":{"city":"Palmer","cumulative avtopa z-score":-47.19,"geo_score":0.488,"zip code":"01069","hospital referral region":"MA - Springfield","drg #":38,"total discharges":1216,"street":"40 Wright Street","cumulative avcoch z-score":-4.13,"provider name":"Wing Memorial Hospital And Medical Center","id":"afhng1tv7eja","total payments":0,"geo_precision":"zip"},"type":"Feature","geometry":{"type":"Point","coordinates":[-72.260635,42.175649]}}],"is_temporal":false,"author":{"url":"","metadata":"","contact_name":"Ray Campbell","contact_address":"","source":"","contact_phone":""},"source":"","pagination":{"sort":null,"start":0,"total":60,"limit":1000000},"state":"complete","tags":"charges,cms,hospital,payments","published":"2013-07-03T16:00:00Z","id":374532}