{"type":"FeatureCollection","data_type":"Dataset","url_type":null,"permissions":[{"permissions":{"download":true,"view":true},"group_id":"everyone"}],"classification":null,"title":"Hep_Heat_Map","count":56,"stream_id":374739,"contributor":{"url":"http://geocommons.com/users/76867","name":"Stevocheng"},"data_attributes":null,"calculation_params":null,"icon_link":null,"link":"http://geocommons.com/overlays/374739.json","extent":[-122.691,40.6994,-112.089,47.6062],"geometry_types":["point"],"unique_name":null,"name":"Hep_Heat_Map","feature_count":56,"description":"","next_feature":null,"is_raster":false,"short_classification":"Y","stats":{},"features":[{"properties":{"city":"Seattle","geo_score":0.857,"zip code":"98174","id":"afhw3cyl29zr","geo_precision":"zip","state":"WA","gi/hepatologist":"Zia"},"type":"Feature","geometry":{"type":"Point","coordinates":[-121.803388,47.432251]}},{"properties":{"city":"Seattle","geo_score":0.857,"zip code":"98175","id":"afhw3cxwgpsb","geo_precision":"zip","state":"WA","gi/hepatologist":"Surawicz"},"type":"Feature","geometry":{"type":"Point","coordinates":[-122.332071,47.60621]}},{"properties":{"city":"Seattle","geo_score":0.857,"zip code":"98176","id":"afhw3dca8yby","geo_precision":"zip","state":"WA","gi/hepatologist":"Scott"},"type":"Feature","geometry":{"type":"Point","coordinates":[-122.332071,47.60621]}},{"properties":{"city":"Seattle","geo_score":0.857,"zip code":"98177","id":"afhw3d0o0koe","geo_precision":"zip","state":"WA","gi/hepatologist":"Paski"},"type":"Feature","geometry":{"type":"Point","coordinates":[-121.803388,47.432251]}},{"properties":{"city":"Seattle","geo_score":0.857,"zip code":"98178","id":"afhw3d1jiyo9","geo_precision":"zip","state":"WA","gi/hepatologist":"Dominitz"},"type":"Feature","geometry":{"type":"Point","coordinates":[-122.235856,47.492385]}},{"properties":{"city":"Seattle","geo_score":0.857,"zip code":"98179","id":"afhw3d42spnv","geo_precision":"zip","state":"WA","gi/hepatologist":"Hwang"},"type":"Feature","geometry":{"type":"Point","coordinates":[-122.332071,47.60621]}},{"properties":{"city":"Seattle","geo_score":0.857,"zip code":"98180","id":"afhw3d8s83e7","geo_precision":"zip","state":"WA","gi/hepatologist":"Lai"},"type":"Feature","geometry":{"type":"Point","coordinates":[-122.332071,47.60621]}},{"properties":{"city":"Seattle","geo_score":0.857,"zip code":"98181","id":"afhw3cyeakt7","geo_precision":"zip","state":"WA","gi/hepatologist":"Wohlman"},"type":"Feature","geometry":{"type":"Point","coordinates":[-121.803388,47.432251]}},{"properties":{"city":"Seattle","geo_score":0.857,"zip code":"98182","id":"afhw3daezjcj","geo_precision":"zip","state":"WA","gi/hepatologist":"Kozarek"},"type":"Feature","geometry":{"type":"Point","coordinates":[-122.332071,47.60621]}},{"properties":{"city":"Seattle","geo_score":0.857,"zip code":"98183","id":"afhw3d66g868","geo_precision":"zip","state":"WA","gi/hepatologist":"Murakami"},"type":"Feature","geometry":{"type":"Point","coordinates":[-122.332071,47.60621]}},{"properties":{"city":"Seattle","geo_score":0.857,"zip code":"98184","id":"afhw3d1nj38c","geo_precision":"zip","state":"WA","gi/hepatologist":"Ness"},"type":"Feature","geometry":{"type":"Point","coordinates":[-121.803388,47.432251]}},{"properties":{"city":"Seattle","geo_score":0.857,"zip code":"98185","id":"afhw3cx1vre0","geo_precision":"zip","state":"WA","gi/hepatologist":"Procaccinni"},"type":"Feature","geometry":{"type":"Point","coordinates":[-121.803388,47.432251]}},{"properties":{"city":"Seattle","geo_score":0.857,"zip code":"98186","id":"afhw3d8ees6z","geo_precision":"zip","state":"WA","gi/hepatologist":"Chiorean"},"type":"Feature","geometry":{"type":"Point","coordinates":[-122.332071,47.60621]}},{"properties":{"city":"Seattle","geo_score":0.857,"zip code":"98187","id":"afhw3daejkkp","geo_precision":"zip","state":"WA","gi/hepatologist":"Saunders"},"type":"Feature","geometry":{"type":"Point","coordinates":[-122.332071,47.60621]}},{"properties":{"city":"Seattle","geo_score":0.857,"zip code":"98188","id":"afhw3d4dw262","geo_precision":"zip","state":"WA","gi/hepatologist":"Zisman"},"type":"Feature","geometry":{"type":"Point","coordinates":[-121.803388,47.432251]}},{"properties":{"city":"Seattle","geo_score":0.857,"zip code":"98189","id":"afhw3dbgghoz","geo_precision":"zip","state":"WA","gi/hepatologist":"Lee"},"type":"Feature","geometry":{"type":"Point","coordinates":[-122.332071,47.60621]}},{"properties":{"city":"Seattle","geo_score":0.857,"zip code":"98190","id":"afhw3d9867rl","geo_precision":"zip","state":"WA","gi/hepatologist":"Heitkemper"},"type":"Feature","geometry":{"type":"Point","coordinates":[-121.803388,47.432251]}},{"properties":{"city":"Seattle","geo_score":0.857,"zip code":"98191","id":"afhw3dd7e061","geo_precision":"zip","state":"WA","gi/hepatologist":"Cox North"},"type":"Feature","geometry":{"type":"Point","coordinates":[-121.803388,47.432251]}},{"properties":{"city":"Seattle","geo_score":0.857,"zip code":"98192","id":"afhw3da2berq","geo_precision":"zip","state":"WA","gi/hepatologist":"Shuhart"},"type":"Feature","geometry":{"type":"Point","coordinates":[-122.332071,47.60621]}},{"properties":{"city":"Seattle","geo_score":0.857,"zip code":"98193","id":"afhw3cxrb0cw","geo_precision":"zip","state":"WA","gi/hepatologist":"Landis"},"type":"Feature","geometry":{"type":"Point","coordinates":[-122.332071,47.60621]}},{"properties":{"city":"Seattle","geo_score":0.857,"zip code":"98194","id":"afhw3d5z5z9w","geo_precision":"zip","state":"WA","gi/hepatologist":"Inadomi"},"type":"Feature","geometry":{"type":"Point","coordinates":[-122.332071,47.60621]}},{"properties":{"city":"Seattle","geo_score":0.857,"zip code":"98195","id":"afhw3dc46qu4","geo_precision":"zip","state":"WA","gi/hepatologist":"Bhattacharya"},"type":"Feature","geometry":{"type":"Point","coordinates":[-121.803388,47.432251]}},{"properties":{"city":"Seattle","geo_score":0.857,"zip code":"98195","id":"afhw3d1rptcr","geo_precision":"zip","state":"WA","gi/hepatologist":"Yu"},"type":"Feature","geometry":{"type":"Point","coordinates":[-121.803388,47.432251]}},{"properties":{"city":"Seattle","geo_score":0.857,"zip code":"98195","id":"afhw3d8wtqgp","geo_precision":"zip","state":"WA","gi/hepatologist":"Kowdley"},"type":"Feature","geometry":{"type":"Point","coordinates":[-121.803388,47.432251]}},{"properties":{"city":"Seattle","geo_score":0.857,"zip code":"98195","id":"afhw3d2ux327","geo_precision":"zip","state":"WA","gi/hepatologist":"Shah"},"type":"Feature","geometry":{"type":"Point","coordinates":[-121.803388,47.432251]}},{"properties":{"city":"Seattle","geo_score":0.857,"zip code":"98195","id":"afhw3czhekti","geo_precision":"zip","state":"WA","gi/hepatologist":"Kanwar"},"type":"Feature","geometry":{"type":"Point","coordinates":[-121.803388,47.432251]}},{"properties":{"city":"Seattle","geo_score":0.857,"zip code":"98195","id":"afhw3d6q8rbn","geo_precision":"zip","state":"WA","gi/hepatologist":"Carithers"},"type":"Feature","geometry":{"type":"Point","coordinates":[-121.803388,47.432251]}},{"properties":{"city":"Seattle","geo_score":0.857,"zip code":"98195","id":"afhw3d2hohao","geo_precision":"zip","state":"WA","gi/hepatologist":"Liao"},"type":"Feature","geometry":{"type":"Point","coordinates":[-121.803388,47.432251]}},{"properties":{"city":"Seattle","geo_score":0.857,"zip code":"98195","id":"afhw3cxxacim","geo_precision":"zip","state":"WA","gi/hepatologist":"Alexander"},"type":"Feature","geometry":{"type":"Point","coordinates":[-121.803388,47.432251]}},{"properties":{"city":"Seattle","geo_score":0.857,"zip code":"98195","id":"afhw3d29aa0v","geo_precision":"zip","state":"WA","gi/hepatologist":"Morrison"},"type":"Feature","geometry":{"type":"Point","coordinates":[-121.803388,47.432251]}},{"properties":{"city":"Seattle","geo_score":0.857,"zip code":"98195","id":"afhw3d9y3r52","geo_precision":"zip","state":"WA","gi/hepatologist":"Ioannou"},"type":"Feature","geometry":{"type":"Point","coordinates":[-121.803388,47.432251]}},{"properties":{"city":"Seattle","geo_score":0.857,"zip code":"98195","id":"afhw3czw6t0y","geo_precision":"zip","state":"WA","gi/hepatologist":"Larson"},"type":"Feature","geometry":{"type":"Point","coordinates":[-121.803388,47.432251]}},{"properties":{"city":"Seattle","geo_score":0.857,"zip code":"98195","id":"afhw3d7dnbxd","geo_precision":"zip","state":"WA","gi/hepatologist":"Aranda Michel"},"type":"Feature","geometry":{"type":"Point","coordinates":[-121.803388,47.432251]}},{"properties":{"city":"Seattle","geo_score":0.857,"zip code":"98195","id":"afhw3dczjlrh","geo_precision":"zip","state":"WA","gi/hepatologist":"M.Morrison"},"type":"Feature","geometry":{"type":"Point","coordinates":[-121.803388,47.432251]}},{"properties":{"city":"Seattle","geo_score":0.857,"zip code":"98195","id":"afhw3d6dr9wt","geo_precision":"zip","state":"WA","gi/hepatologist":"Patel"},"type":"Feature","geometry":{"type":"Point","coordinates":[-121.803388,47.432251]}},{"properties":{"city":"Portland","geo_score":0.857,"zip code":"97239","id":"afhw3d3a3xj3","geo_precision":"zip","state":"OR","gi/hepatologist":"Zaman"},"type":"Feature","geometry":{"type":"Point","coordinates":[-122.691267,45.488178]}},{"properties":{"city":"Portland","geo_score":0.857,"zip code":"97239","id":"afhw3d8v1rs1","geo_precision":"zip","state":"OR","gi/hepatologist":"Ahn"},"type":"Feature","geometry":{"type":"Point","coordinates":[-122.691267,45.488178]}},{"properties":{"city":"Portland","geo_score":0.857,"zip code":"97239","id":"afhw3d51uaqh","geo_precision":"zip","state":"OR","gi/hepatologist":"Jou"},"type":"Feature","geometry":{"type":"Point","coordinates":[-122.691267,45.488178]}},{"properties":{"city":"Portland","geo_score":0.857,"zip code":"97239","id":"afhw3dbfzm6h","geo_precision":"zip","state":"OR","gi/hepatologist":"Chang"},"type":"Feature","geometry":{"type":"Point","coordinates":[-122.691267,45.488178]}},{"properties":{"city":"Portland","geo_score":0.857,"zip code":"97239","id":"afhw3dape3gw","geo_precision":"zip","state":"OR","gi/hepatologist":"Sasaki"},"type":"Feature","geometry":{"type":"Point","coordinates":[-122.691267,45.488178]}},{"properties":{"city":"Portland","geo_score":0.857,"zip code":"97239","id":"afhw3d97alra","geo_precision":"zip","state":"OR","gi/hepatologist":"Naugler"},"type":"Feature","geometry":{"type":"Point","coordinates":[-122.691267,45.488178]}},{"properties":{"city":"Portland","geo_score":0.857,"zip code":"97239","id":"afhw3czdjmj8","geo_precision":"zip","state":"OR","gi/hepatologist":"Ingram"},"type":"Feature","geometry":{"type":"Point","coordinates":[-122.691267,45.488178]}},{"properties":{"city":"Portland","geo_score":0.857,"zip code":"97239","id":"afhw3da6v1eo","geo_precision":"zip","state":"OR","gi/hepatologist":"Voukidis"},"type":"Feature","geometry":{"type":"Point","coordinates":[-122.691267,45.488178]}},{"properties":{"city":"Portland","geo_score":0.857,"zip code":"97239","id":"afhw3dbtvzs0","geo_precision":"zip","state":"OR","gi/hepatologist":"Vallejos"},"type":"Feature","geometry":{"type":"Point","coordinates":[-122.691267,45.488178]}},{"properties":{"city":"Portland","geo_score":0.857,"zip code":"97239","id":"afhw3dboyopw","geo_precision":"zip","state":"OR","gi/hepatologist":"Holden"},"type":"Feature","geometry":{"type":"Point","coordinates":[-122.691267,45.488178]}},{"properties":{"city":"Portland","geo_score":0.857,"zip code":"97239","id":"afhw3d037t3w","geo_precision":"zip","state":"OR","gi/hepatologist":"Benner"},"type":"Feature","geometry":{"type":"Point","coordinates":[-122.691267,45.488178]}},{"properties":{"city":"Portland","geo_score":0.857,"zip code":"97239","id":"afhw3d8mavrv","geo_precision":"zip","state":"OR","gi/hepatologist":"Flora"},"type":"Feature","geometry":{"type":"Point","coordinates":[-122.691267,45.488178]}},{"properties":{"city":"Portland","geo_score":0.857,"zip code":"97239","id":"afhw3dav1phe","geo_precision":"zip","state":"OR","gi/hepatologist":"Maciolek"},"type":"Feature","geometry":{"type":"Point","coordinates":[-122.691267,45.488178]}},{"properties":{"city":"Salt Lake City","geo_score":0.857,"zip code":"84044","id":"afhw3czmmq9v","geo_precision":"zip","state":"UT","gi/hepatologist":"Thomason"},"type":"Feature","geometry":{"type":"Point","coordinates":[-112.088875,40.699401]}},{"properties":{"city":"Salt Lake City","geo_score":0.857,"zip code":"84044","id":"afhw3dat3k7a","geo_precision":"zip","state":"UT","gi/hepatologist":"Box"},"type":"Feature","geometry":{"type":"Point","coordinates":[-112.088875,40.699401]}},{"properties":{"city":"Salt Lake City","geo_score":0.857,"zip code":"84044","id":"afhw3d66b914","geo_precision":"zip","state":"UT","gi/hepatologist":"Gallegos"},"type":"Feature","geometry":{"type":"Point","coordinates":[-112.088875,40.699401]}},{"properties":{"city":"Salt Lake City","geo_score":0.857,"zip code":"84044","id":"afhw3d1yn7yv","geo_precision":"zip","state":"UT","gi/hepatologist":"Harmston"},"type":"Feature","geometry":{"type":"Point","coordinates":[-112.088875,40.699401]}},{"properties":{"city":"Salt Lake City","geo_score":0.857,"zip code":"84044","id":"afhw3d289cjl","geo_precision":"zip","state":"UT","gi/hepatologist":"Jones"},"type":"Feature","geometry":{"type":"Point","coordinates":[-112.088875,40.699401]}},{"properties":{"city":"Salt Lake City","geo_score":0.857,"zip code":"84044","id":"afhw3d4b9lm4","geo_precision":"zip","state":"UT","gi/hepatologist":"Boschert"},"type":"Feature","geometry":{"type":"Point","coordinates":[-112.088875,40.699401]}},{"properties":{"city":"Salt Lake City","geo_score":0.857,"zip code":"84044","id":"afhw3d8zw8r4","geo_precision":"zip","state":"UT","gi/hepatologist":"Lynch"},"type":"Feature","geometry":{"type":"Point","coordinates":[-112.088875,40.699401]}},{"properties":{"city":"Salt Lake City","geo_score":0.857,"zip code":"84044","id":"afhw3cz2wm84","geo_precision":"zip","state":"UT","gi/hepatologist":"Stevens"},"type":"Feature","geometry":{"type":"Point","coordinates":[-112.088875,40.699401]}}],"is_temporal":false,"author":{"url":"","metadata":null,"contact_name":null,"contact_address":null,"source":null,"contact_phone":null},"source":"","pagination":{"sort":null,"start":0,"total":56,"limit":1000000},"state":"complete","tags":"","published":"2014-08-16T19:55:06-04:00","id":374739}