{"type":"FeatureCollection","data_type":"Dataset","url_type":null,"permissions":[{"permissions":{"download":true,"view":true},"group_id":"everyone"}],"classification":null,"title":"ITF_map","count":84,"stream_id":374743,"contributor":{"url":"http://geocommons.com/users/76869","name":"rglas"},"data_attributes":null,"calculation_params":null,"icon_link":null,"link":"http://geocommons.com/overlays/374743.json","extent":[-90.5269,-54.4667,123.95,54.6341],"geometry_types":["point"],"unique_name":null,"name":"ITF_map","feature_count":84,"description":"","next_feature":null,"is_raster":false,"short_classification":"Y","stats":{},"features":[{"properties":{"city":"Lima","country":"Peru","geo_score":0.857,"id":"afhwa7kul7qo","geo_precision":"zip"},"type":"Feature","geometry":{"type":"Point","coordinates":[-75.8166667,-13.2333333]}},{"properties":{"city":"Montevideo","country":"Uruguay","geo_score":0.857,"id":"afhwa7i4ias6","geo_precision":"zip"},"type":"Feature","geometry":{"type":"Point","coordinates":[-56.1959105730057,-34.8888527484512]}},{"properties":{"city":"Santiago","country":"Chile","geo_score":0.857,"id":"afhwa77p99p7","geo_precision":"zip"},"type":"Feature","geometry":{"type":"Point","coordinates":[-71.1,-54.4666667]}},{"properties":{"city":"Buenos Aires","country":"Argentina","geo_score":0.857,"id":"afhwa7fbcxb2","geo_precision":"zip"},"type":"Feature","geometry":{"type":"Point","coordinates":[-58.4088134765625,-34.5761256318848]}},{"properties":{"city":"La Paz","country":"Bolivia","geo_score":0.857,"id":"afhwa777ulr2","geo_precision":"zip"},"type":"Feature","geometry":{"type":"Point","coordinates":[-64.8833333,-19.2166667]}},{"properties":{"city":"Asuncion","country":"Paraguay","geo_score":0.857,"id":"afhwa7dq0u2j","geo_precision":"zip"},"type":"Feature","geometry":{"type":"Point","coordinates":[-57.6666667,-25.2666667]}},{"properties":{"city":"Quito","country":"Ecuador","geo_score":0.857,"id":"afhwa7d0yexh","geo_precision":"zip"},"type":"Feature","geometry":{"type":"Point","coordinates":[-78.5,-0.2166667]}},{"properties":{"city":"Ho","country":"Ghana","geo_score":0.857,"id":"afhwa797h29o","geo_precision":"zip"},"type":"Feature","geometry":{"type":"Point","coordinates":[-1.7666667,6.2166667]}},{"properties":{"city":"Tamale","country":"Ghana","geo_score":0.857,"id":"afhwa7dvzxq5","geo_precision":"zip"},"type":"Feature","geometry":{"type":"Point","coordinates":[-0.9,9.45]}},{"properties":{"city":"Accra","country":"Ghana","geo_score":0.0,"id":"afhwa7fuhwek","geo_precision":"unmatched"},"type":"Feature","geometry":null},{"properties":{"city":"Nairobi","country":"Kenya","geo_score":0.857,"id":"afhwa7isy1an","geo_precision":"zip"},"type":"Feature","geometry":{"type":"Point","coordinates":[37.0166667,-0.4]}},{"properties":{"city":"Kisumu","country":"Kenya","geo_score":0.857,"id":"afhwa75x72rt","geo_precision":"zip"},"type":"Feature","geometry":{"type":"Point","coordinates":[36.7333333,-0.9833333]}},{"properties":{"city":"Freetown","country":"Sierra Leone","geo_score":0.857,"id":"afhwa7c2dk24","geo_precision":"zip"},"type":"Feature","geometry":{"type":"Point","coordinates":[-13.2897222,8.4319444]}},{"properties":{"city":"Kigali","country":"Rwanda","geo_score":0.857,"id":"afhwa7de6txn","geo_precision":"zip"},"type":"Feature","geometry":{"type":"Point","coordinates":[30.4097222,-1.0977778]}},{"properties":{"city":"Arusha","country":"Tanzania","geo_score":0.857,"id":"afhwa7fgf1ud","geo_precision":"zip"},"type":"Feature","geometry":{"type":"Point","coordinates":[36.633333,-3.367794]}},{"properties":{"city":"Johannesburg","country":"South Africa","geo_score":0.857,"id":"afhwa7brbysr","geo_precision":"zip"},"type":"Feature","geometry":{"type":"Point","coordinates":[28.05,-26.1833333]}},{"properties":{"city":"Cape Town","country":"South Africa","geo_score":0.857,"id":"afhwa7b2adlb","geo_precision":"zip"},"type":"Feature","geometry":{"type":"Point","coordinates":[23.2166667,-30.0666667]}},{"properties":{"city":"Monrovia","country":"Liberia","geo_score":0.857,"id":"afhwa75t25jk","geo_precision":"zip"},"type":"Feature","geometry":{"type":"Point","coordinates":[-9.6666667,6.6666667]}},{"properties":{"city":"Cape Town","country":"South Africa","geo_score":0.857,"id":"afhwa77bhp43","geo_precision":"zip"},"type":"Feature","geometry":{"type":"Point","coordinates":[23.2166667,-30.0666667]}},{"properties":{"city":"Johannesburg","country":"South Africa","geo_score":0.857,"id":"afhwa7a1zt5z","geo_precision":"zip"},"type":"Feature","geometry":{"type":"Point","coordinates":[28.05,-26.1833333]}},{"properties":{"city":"Ouagadougou","country":"Burkino Faso","geo_score":0.714,"id":"afhwa75xt9r2","geo_precision":"zip"},"type":"Feature","geometry":{"type":"Point","coordinates":[104.6833333,13.5833333]}},{"properties":{"city":"Bamako","country":"Mali","geo_score":0.857,"id":"afhwa7itbgx0","geo_precision":"zip"},"type":"Feature","geometry":{"type":"Point","coordinates":[-9.996,14.8713]}},{"properties":{"city":"Lome","country":"Togo","geo_score":0.857,"id":"afhwa7ii3miq","geo_precision":"zip"},"type":"Feature","geometry":{"type":"Point","coordinates":[0.9166667,7.2]}},{"properties":{"city":"Lima","country":"Peru","geo_score":0.857,"id":"afhwa7l9y9g9","geo_precision":"zip"},"type":"Feature","geometry":{"type":"Point","coordinates":[-75.8166667,-13.2333333]}},{"properties":{"city":"Cusco","country":"Peru","geo_score":0.857,"id":"afhwa7k084qt","geo_precision":"zip"},"type":"Feature","geometry":{"type":"Point","coordinates":[-79.45,-7.3333333]}},{"properties":{"city":"Santiago","country":"Chile","geo_score":0.857,"id":"afhwa7aq12v1","geo_precision":"zip"},"type":"Feature","geometry":{"type":"Point","coordinates":[-71.1,-54.4666667]}},{"properties":{"city":"La Paz","country":"Bolivia","geo_score":0.857,"id":"afhwa7dzpxcr","geo_precision":"zip"},"type":"Feature","geometry":{"type":"Point","coordinates":[-64.8833333,-19.2166667]}},{"properties":{"city":"Santa Cruz","country":"Bolivia","geo_score":0.857,"id":"afhwa7gb9hwh","geo_precision":"zip"},"type":"Feature","geometry":{"type":"Point","coordinates":[-67.85,-16.9833333]}},{"properties":{"city":"Bogota","country":"Colombia","geo_score":0.714,"id":"afhwa7dczm4n","geo_precision":"zip"},"type":"Feature","geometry":{"type":"Point","coordinates":[26.25,2.9666667]}},{"properties":{"city":"Medellin","country":"Colombia","geo_score":0.714,"id":"afhwa7gpk1qf","geo_precision":"zip"},"type":"Feature","geometry":{"type":"Point","coordinates":[44.47,42.3405556]}},{"properties":{"city":"Oaxaca","country":"Mexico","geo_score":0.0,"id":"afhwa7j50lzv","geo_precision":"unmatched"},"type":"Feature","geometry":null},{"properties":{"city":"Mexico City","country":"Mexico","geo_score":0.857,"id":"afhwa7dv4pgy","geo_precision":"zip"},"type":"Feature","geometry":{"type":"Point","coordinates":[-88.625,20.625]}},{"properties":{"city":"Delhi","country":"India","geo_score":0.857,"id":"afhwa7f6dx60","geo_precision":"zip"},"type":"Feature","geometry":{"type":"Point","coordinates":[77.0941667,31.2208333]}},{"properties":{"city":"Guatemala City","country":"Guatemala","geo_score":0.857,"id":"afhwa7h72wj4","geo_precision":"zip"},"type":"Feature","geometry":{"type":"Point","coordinates":[-90.52694,14.62111]}},{"properties":{"city":"Tegucigalpa","country":"Honduras","geo_score":0.857,"id":"afhwa7ezcx7x","geo_precision":"zip"},"type":"Feature","geometry":{"type":"Point","coordinates":[-87.217197,14.060883]}},{"properties":{"city":"Belize City","country":"Belize","geo_score":0.857,"id":"afhwa7cmzwq5","geo_precision":"zip"},"type":"Feature","geometry":{"type":"Point","coordinates":[-88.1975555419922,17.4995177315198]}},{"properties":{"city":"Managua","country":"Nicaragua","geo_score":0.857,"id":"afhwa7hpl1vp","geo_precision":"zip"},"type":"Feature","geometry":{"type":"Point","coordinates":[-86.2683333,12.1508333]}},{"properties":{"city":"Sao Paulo","country":"Brazil","geo_score":0.857,"id":"afhwa7f2l9lk","geo_precision":"zip"},"type":"Feature","geometry":{"type":"Point","coordinates":[-53.6425,-26.2011111]}},{"properties":{"city":"Londrina","country":"Brazil","geo_score":0.857,"id":"afhwa7avmu55","geo_precision":"zip"},"type":"Feature","geometry":{"type":"Point","coordinates":[-51.0873905961199,-23.5864337865961]}},{"properties":{"city":"Salvador","country":"Brazil","geo_score":0.857,"id":"afhwa75vffxg","geo_precision":"zip"},"type":"Feature","geometry":{"type":"Point","coordinates":[-43.4038889,-21.8394444]}},{"properties":{"city":"Rio de Janeiro","country":"Brazil","geo_score":0.857,"id":"afhwa7cnwd43","geo_precision":"zip"},"type":"Feature","geometry":{"type":"Point","coordinates":[-52.3666667,2.9]}},{"properties":{"city":"Bellohorizonte","country":"Brazil","geo_score":0.857,"id":"afhwa7jtcu2n","geo_precision":"zip"},"type":"Feature","geometry":{"type":"Point","coordinates":[-43.968856,-19.63375]}},{"properties":{"city":"Istanbul","country":"Turkey","geo_score":0.857,"id":"afhwa7ivf90i","geo_precision":"zip"},"type":"Feature","geometry":{"type":"Point","coordinates":[28.9496612548828,41.0138429552247]}},{"properties":{"city":"Izmir","country":"Turkey","geo_score":0.857,"id":"afhwa77aegyj","geo_precision":"zip"},"type":"Feature","geometry":{"type":"Point","coordinates":[27.1502778,38.4072222]}},{"properties":{"city":"Dyarbakir","country":"Turkey","geo_score":0.857,"id":"afhwa7f964ty","geo_precision":"zip"},"type":"Feature","geometry":{"type":"Point","coordinates":[40.9422222,37.8702778]}},{"properties":{"city":"Yerevan","country":"Armenia","geo_score":0.857,"id":"afhwa7k1cpmz","geo_precision":"zip"},"type":"Feature","geometry":{"type":"Point","coordinates":[44.4666666666667,40.1333333333333]}},{"properties":{"city":"Bamenda","country":"Cameroon","geo_score":0.857,"id":"afhwa775bevz","geo_precision":"zip"},"type":"Feature","geometry":{"type":"Point","coordinates":[10.2,5.45]}},{"properties":{"city":"Buea","country":"Cameroon","geo_score":0.857,"id":"afhwa7hbm2f0","geo_precision":"zip"},"type":"Feature","geometry":{"type":"Point","coordinates":[13.8833333,10.75]}},{"properties":{"city":"Douala","country":"Cameroon","geo_score":0.857,"id":"afhwa7ckwtgw","geo_precision":"zip"},"type":"Feature","geometry":{"type":"Point","coordinates":[14.628003,12.6526565]}},{"properties":{"city":"Kumbo","country":"Cameroon","geo_score":0.857,"id":"afhwa7e7hhu1","geo_precision":"zip"},"type":"Feature","geometry":{"type":"Point","coordinates":[11.49169921875,5.78884738499836]}},{"properties":{"city":"Maroua","country":"Cameroon","geo_score":0.857,"id":"afhwa7khgsxo","geo_precision":"zip"},"type":"Feature","geometry":{"type":"Point","coordinates":[14.712216,12.39587]}},{"properties":{"city":"Yaounde","country":"Cameroon","geo_score":0.857,"id":"afhwa7bbp0ht","geo_precision":"zip"},"type":"Feature","geometry":{"type":"Point","coordinates":[11.523461,3.836039]}},{"properties":{"city":"Butare","country":"Rwanda","geo_score":0.857,"id":"afhwa79gfy2c","geo_precision":"zip"},"type":"Feature","geometry":{"type":"Point","coordinates":[29.8333333,-1.4]}},{"properties":{"city":"Kigali","country":"Rwanda","geo_score":0.857,"id":"afhwa76pmdjh","geo_precision":"zip"},"type":"Feature","geometry":{"type":"Point","coordinates":[30.4097222,-1.0977778]}},{"properties":{"city":"Abuja","country":"Nigeria","geo_score":0.857,"id":"afhwa7j9t2q6","geo_precision":"zip"},"type":"Feature","geometry":{"type":"Point","coordinates":[6.9333333,9.25]}},{"properties":{"city":"Lagos","country":"Nigeria","geo_score":0.857,"id":"afhwa77nohg4","geo_precision":"zip"},"type":"Feature","geometry":{"type":"Point","coordinates":[3.3958333,6.4530556]}},{"properties":{"city":"Vilnius","country":"Lithuania","geo_score":0.857,"id":"afhwa7hfjslm","geo_precision":"zip"},"type":"Feature","geometry":{"type":"Point","coordinates":[25.285767,54.634133]}},{"properties":{"city":"Kiev","country":"Ukraine","geo_score":0.857,"id":"afhwa7it2ae5","geo_precision":"zip"},"type":"Feature","geometry":{"type":"Point","coordinates":[34.1666667,44.5]}},{"properties":{"city":"Ahmedabad","country":"India","geo_score":0.857,"id":"afhwa7a2cr5m","geo_precision":"zip"},"type":"Feature","geometry":{"type":"Point","coordinates":[72.6333333,23.0166667]}},{"properties":{"city":"Bangalore","country":"India","geo_score":0.857,"id":"afhwa7h8q6up","geo_precision":"zip"},"type":"Feature","geometry":{"type":"Point","coordinates":[77.6032912731171,12.9762266976805]}},{"properties":{"city":"Mumbai","country":"India","geo_score":0.857,"id":"afhwa7jmgeh3","geo_precision":"zip"},"type":"Feature","geometry":{"type":"Point","coordinates":[93.9333333,24.1]}},{"properties":{"city":"New Delhi","country":"India","geo_score":0.857,"id":"afhwa78l41ht","geo_precision":"zip"},"type":"Feature","geometry":{"type":"Point","coordinates":[74.3444444,33.0027778]}},{"properties":{"city":"Pune","country":"India","geo_score":0.857,"id":"afhwa7lh8ri8","geo_precision":"zip"},"type":"Feature","geometry":{"type":"Point","coordinates":[82.6833333,21.6666667]}},{"properties":{"city":"Hanoi","country":"Vietnam","geo_score":0.857,"id":"afhwa7cznx53","geo_precision":"zip"},"type":"Feature","geometry":{"type":"Point","coordinates":[106.0666667,9.8833333]}},{"properties":{"city":"Ho Chi Minh City","country":"Vietnam","geo_score":0.857,"id":"afhwa7aanm73","geo_precision":"zip"},"type":"Feature","geometry":{"type":"Point","coordinates":[105.5030556,20.4475]}},{"properties":{"city":"Phnom Penh","country":"Cambodia","geo_score":0.857,"id":"afhwa7aibkix","geo_precision":"zip"},"type":"Feature","geometry":{"type":"Point","coordinates":[104.9166667,11.55]}},{"properties":{"city":"Siem Reap","country":"Cambodia","geo_score":0.857,"id":"afhwa76823n4","geo_precision":"zip"},"type":"Feature","geometry":{"type":"Point","coordinates":[103.81284,13.410666]}},{"properties":{"city":"Kuala Lumpur","country":"Malaysia","geo_score":0.857,"id":"afhwa7hjk0oi","geo_precision":"zip"},"type":"Feature","geometry":{"type":"Point","coordinates":[100.4666667,4.95]}},{"properties":{"city":"Vientiane","country":"Laos","geo_score":0.857,"id":"afhwa7jexnvt","geo_precision":"zip"},"type":"Feature","geometry":{"type":"Point","coordinates":[105.05,17.6333333]}},{"properties":{"city":"Bangkok","country":"Thailand","geo_score":0.857,"id":"afhwa7ka9x9m","geo_precision":"zip"},"type":"Feature","geometry":{"type":"Point","coordinates":[98.8333333,18.5833333]}},{"properties":{"city":"Chiang Mai","country":"Thailand","geo_score":0.857,"id":"afhwa7krvbni","geo_precision":"zip"},"type":"Feature","geometry":{"type":"Point","coordinates":[98.7286376953125,18.7893175494793]}},{"properties":{"city":"Singapore","country":"Singapore","geo_score":0.857,"id":"afhwa7izjhwa","geo_precision":"zip"},"type":"Feature","geometry":{"type":"Point","coordinates":[103.8558333,1.2930556]}},{"properties":{"city":"Jakarta","country":"Indonesia","geo_score":0.857,"id":"afhwa7lnskk6","geo_precision":"zip"},"type":"Feature","geometry":{"type":"Point","coordinates":[111.0379,-6.8808]}},{"properties":{"city":"Manila","country":"Philippines","geo_score":0.857,"id":"afhwa794lrd8","geo_precision":"zip"},"type":"Feature","geometry":{"type":"Point","coordinates":[123.95,13.2333333]}},{"properties":{"city":"Lusaka","country":"Zambia","geo_score":0.857,"id":"afhwa7hro4bs","geo_precision":"zip"},"type":"Feature","geometry":{"type":"Point","coordinates":[27.2666667,-13.8833333]}},{"properties":{"city":"Kampala","country":"Uganda","geo_score":0.857,"id":"afhwa7dy3arf","geo_precision":"zip"},"type":"Feature","geometry":{"type":"Point","coordinates":[32.5655556,0.3155556]}},{"properties":{"city":"Beijing","country":"China","geo_score":0.857,"id":"afhwa76smv30","geo_precision":"zip"},"type":"Feature","geometry":{"type":"Point","coordinates":[108.55,23.8]}},{"properties":{"city":"Casablanca","country":"Morocco","geo_score":0.857,"id":"afhwa7h0x1xf","geo_precision":"zip"},"type":"Feature","geometry":{"type":"Point","coordinates":[-7.61,33.6]}},{"properties":{"city":"Marrakech","country":"Morocco","geo_score":0.857,"id":"afhwa7ivycy4","geo_precision":"zip"},"type":"Feature","geometry":{"type":"Point","coordinates":[-8.0,31.63]}},{"properties":{"city":"Rabat","country":"Morocco","geo_score":0.857,"id":"afhwa789s17d","geo_precision":"zip"},"type":"Feature","geometry":{"type":"Point","coordinates":[-6.45,30.75]}},{"properties":{"city":"Chenai","country":"India","geo_score":0.857,"id":"afhwa7fc06jo","geo_precision":"zip"},"type":"Feature","geometry":{"type":"Point","coordinates":[75.2666667,31.9]}},{"properties":{"city":"Hyderabad","country":"India","geo_score":0.857,"id":"afhwa7dcsg5v","geo_precision":"zip"},"type":"Feature","geometry":{"type":"Point","coordinates":[80.4166667,28.05]}},{"properties":{"city":"Grenada","country":"Spain","geo_score":0.857,"id":"afhwa788lwk1","geo_precision":"zip"},"type":"Feature","geometry":{"type":"Point","coordinates":[-5.27180671691895,43.4616413717705]}},{"properties":{"city":"Provence","country":"France","geo_score":0.857,"id":"afhwa7bxe7z3","geo_precision":"zip"},"type":"Feature","geometry":{"type":"Point","coordinates":[6.0,44.0]}}],"is_temporal":false,"author":{"url":"","metadata":null,"contact_name":null,"contact_address":null,"source":null,"contact_phone":null},"source":"","pagination":{"sort":null,"start":0,"total":84,"limit":1000000},"state":"complete","tags":"","published":"2014-08-16T19:55:10-04:00","id":374743}