{"type":"FeatureCollection","data_type":"Dataset","url_type":null,"permissions":[{"permissions":{"download":true,"view":true},"group_id":"everyone"}],"classification":null,"title":"Village_count","count":61,"stream_id":374794,"contributor":{"url":"http://geocommons.com/users/76882","name":"rkalter"},"data_attributes":null,"calculation_params":null,"icon_link":null,"link":"http://geocommons.com/overlays/374794.json","extent":[43.4641,2.02867,46.2399,3.7753],"geometry_types":["point"],"unique_name":null,"name":"Village_count","feature_count":61,"description":"","next_feature":null,"is_raster":false,"short_classification":"Y","stats":{"latitude":{"max":3.7753,"variance":0.0511352982339279,"mean":2.79044414754098,"stdev":0.226131152727633,"median":2.783889,"min":2.02867},"visitors":{"max":131,"variance":544.600673400673,"mean":8.65454545454545,"stdev":23.3366808565544,"median":3,"min":1},"longitude":{"max":46.23986,"variance":0.0899877096207962,"mean":45.4748353442623,"stdev":0.299979515335291,"median":45.502222,"min":43.464062}},"features":[{"properties":{"city":"Aadan Yabaal","latitude":3.7753,"visitors":2,"longitude":46.23986,"id":"afi0y25cxxc4"},"type":"Feature","geometry":{"type":"Point","coordinates":[46.23986,3.7753]}},{"properties":{"city":"Aqab Duco","latitude":2.8879,"visitors":5,"longitude":45.74205,"id":"afi0y22nntij"},"type":"Feature","geometry":{"type":"Point","coordinates":[45.74205,2.8879]}},{"properties":{"city":"Baarow Weyne","latitude":2.8675,"visitors":5,"longitude":45.5226,"id":"afi0y2da6kr4"},"type":"Feature","geometry":{"type":"Point","coordinates":[45.5226,2.8675]}},{"properties":{"city":"Bacaadley","latitude":2.658056,"visitors":3,"longitude":45.496667,"id":"afi0y22xmt5i"},"type":"Feature","geometry":{"type":"Point","coordinates":[45.496667,2.658056]}},{"properties":{"city":"Bada Cas","latitude":2.783889,"visitors":1,"longitude":45.486944,"id":"afi0y231mqri"},"type":"Feature","geometry":{"type":"Point","coordinates":[45.486944,2.783889]}},{"properties":{"city":"Balcad","latitude":2.658056,"visitors":2,"longitude":45.496667,"id":"afi0y235l5f5"},"type":"Feature","geometry":{"type":"Point","coordinates":[45.496667,2.658056]}},{"properties":{"city":"Banaaney","latitude":2.79783,"visitors":14,"longitude":45.51299,"id":"afi0y29b2g4m"},"type":"Feature","geometry":{"type":"Point","coordinates":[45.51299,2.79783]}},{"properties":{"city":"Baqdaad","latitude":2.610833,"visitors":1,"longitude":45.504444,"id":"afi0y2bl8gk2"},"type":"Feature","geometry":{"type":"Point","coordinates":[45.504444,2.610833]}},{"properties":{"city":"Barey","latitude":2.81887,"visitors":6,"longitude":45.53447,"id":"afi0y279r16h"},"type":"Feature","geometry":{"type":"Point","coordinates":[45.53447,2.81887]}},{"properties":{"city":"Bayaxow","latitude":2.758056,"visitors":7,"longitude":45.498056,"id":"afi0y227nnzx"},"type":"Feature","geometry":{"type":"Point","coordinates":[45.498056,2.758056]}},{"properties":{"city":"Boodaale","latitude":2.643611,"visitors":2,"longitude":45.5,"id":"afi0y2b3lhw0"},"type":"Feature","geometry":{"type":"Point","coordinates":[45.5,2.643611]}},{"properties":{"city":"Buulo-Bishaaro","latitude":2.837222,"visitors":null,"longitude":45.535556,"id":"afi0y20yvzzm"},"type":"Feature","geometry":{"type":"Point","coordinates":[45.535556,2.837222]}},{"properties":{"city":"Buur Fuule","latitude":3.16856,"visitors":11,"longitude":43.464062,"id":"afi0y28jlc3i"},"type":"Feature","geometry":{"type":"Point","coordinates":[43.464062,3.16856]}},{"properties":{"city":"Ceel cad","latitude":2.81923,"visitors":2,"longitude":45.45341,"id":"afi0y2dghea2"},"type":"Feature","geometry":{"type":"Point","coordinates":[45.45341,2.81923]}},{"properties":{"city":"Dabeyley","latitude":2.9034,"visitors":1,"longitude":45.43677,"id":"afi0y218il70"},"type":"Feature","geometry":{"type":"Point","coordinates":[45.43677,2.9034]}},{"properties":{"city":"Deymosame","latitude":2.674444,"visitors":4,"longitude":45.504444,"id":"afi0y2coz0kf"},"type":"Feature","geometry":{"type":"Point","coordinates":[45.504444,2.674444]}},{"properties":{"city":"Dhaa'ifo","latitude":2.85798,"visitors":6,"longitude":45.47563,"id":"afi0y2dppomm"},"type":"Feature","geometry":{"type":"Point","coordinates":[45.47563,2.85798]}},{"properties":{"city":"Dhaxlow","latitude":2.5275,"visitors":1,"longitude":45.485,"id":"afi0y261cbq4"},"type":"Feature","geometry":{"type":"Point","coordinates":[45.485,2.5275]}},{"properties":{"city":"Dhay-gawaan","latitude":2.81772,"visitors":10,"longitude":45.41667,"id":"afi0y2ge7354"},"type":"Feature","geometry":{"type":"Point","coordinates":[45.41667,2.81772]}},{"properties":{"city":"Diinlaawe","latitude":3.04123,"visitors":2,"longitude":45.5098,"id":"afi0y246wlmd"},"type":"Feature","geometry":{"type":"Point","coordinates":[45.5098,3.04123]}},{"properties":{"city":"Duduble","latitude":3.14273,"visitors":2,"longitude":45.53342,"id":"afi0y2gcasv2"},"type":"Feature","geometry":{"type":"Point","coordinates":[45.53342,3.14273]}},{"properties":{"city":"EJI","latitude":3.18344,"visitors":2,"longitude":45.54156,"id":"afi0y24eoi6c"},"type":"Feature","geometry":{"type":"Point","coordinates":[45.54156,3.18344]}},{"properties":{"city":"Farbaraaki","latitude":2.512778,"visitors":null,"longitude":45.491667,"id":"afi0y2cgmnqq"},"type":"Feature","geometry":{"type":"Point","coordinates":[45.491667,2.512778]}},{"properties":{"city":"Gaafaay","latitude":2.844167,"visitors":7,"longitude":45.531389,"id":"afi0y27ab897"},"type":"Feature","geometry":{"type":"Point","coordinates":[45.531389,2.844167]}},{"properties":{"city":"Gaaleef","latitude":2.7332,"visitors":1,"longitude":45.68908,"id":"afi0y21lcexb"},"type":"Feature","geometry":{"type":"Point","coordinates":[45.68908,2.7332]}},{"properties":{"city":"Gaashaanle","latitude":2.674722,"visitors":5,"longitude":45.508056,"id":"afi0y25cnqub"},"type":"Feature","geometry":{"type":"Point","coordinates":[45.508056,2.674722]}},{"properties":{"city":"Garaash","latitude":2.74619,"visitors":5,"longitude":45.48053,"id":"afi0y25ggzyv"},"type":"Feature","geometry":{"type":"Point","coordinates":[45.48053,2.74619]}},{"properties":{"city":"Garsaale","latitude":2.86849,"visitors":6,"longitude":45.40752,"id":"afi0y2ect5kk"},"type":"Feature","geometry":{"type":"Point","coordinates":[45.40752,2.86849]}},{"properties":{"city":"Geedo Barkaan","latitude":2.820556,"visitors":7,"longitude":45.538056,"id":"afi0y2e0tov4"},"type":"Feature","geometry":{"type":"Point","coordinates":[45.538056,2.820556]}},{"properties":{"city":"Gumareey","latitude":2.88875,"visitors":1,"longitude":45.52415,"id":"afi0y2bfdhp4"},"type":"Feature","geometry":{"type":"Point","coordinates":[45.52415,2.88875]}},{"properties":{"city":"Gumbe","latitude":2.840833,"visitors":4,"longitude":45.530833,"id":"afi0y23wluf3"},"type":"Feature","geometry":{"type":"Point","coordinates":[45.530833,2.840833]}},{"properties":{"city":"Guumeys","latitude":2.79324,"visitors":1,"longitude":45.37513,"id":"afi0y2ca2onu"},"type":"Feature","geometry":{"type":"Point","coordinates":[45.37513,2.79324]}},{"properties":{"city":"Halgan","latitude":2.731111,"visitors":1,"longitude":45.495833,"id":"afi0y25gjf00"},"type":"Feature","geometry":{"type":"Point","coordinates":[45.495833,2.731111]}},{"properties":{"city":"Hawadley","latitude":2.583333,"visitors":3,"longitude":45.489722,"id":"afi0y218nciw"},"type":"Feature","geometry":{"type":"Point","coordinates":[45.489722,2.583333]}},{"properties":{"city":"Isnai IPD","latitude":2.774167,"visitors":null,"longitude":45.500556,"id":"afi0y2do5tr3"},"type":"Feature","geometry":{"type":"Point","coordinates":[45.500556,2.774167]}},{"properties":{"city":"Jameeco","latitude":3.05,"visitors":6,"longitude":45.48056,"id":"afi0y2dqk4ae"},"type":"Feature","geometry":{"type":"Point","coordinates":[45.48056,3.05]}},{"properties":{"city":"Jameeco Misro","latitude":2.573333,"visitors":1,"longitude":45.495,"id":"afi0y28mfgdl"},"type":"Feature","geometry":{"type":"Point","coordinates":[45.495,2.573333]}},{"properties":{"city":"Jariiroow","latitude":2.90358,"visitors":4,"longitude":45.37447,"id":"afi0y21df0ex"},"type":"Feature","geometry":{"type":"Point","coordinates":[45.37447,2.90358]}},{"properties":{"city":"Jiliyaale","latitude":2.653056,"visitors":3,"longitude":45.498056,"id":"afi0y2gpdmh5"},"type":"Feature","geometry":{"type":"Point","coordinates":[45.498056,2.653056]}},{"properties":{"city":"Jowhar Somalia","latitude":2.7825,"visitors":3,"longitude":45.517222,"id":"afi0y27q77yx"},"type":"Feature","geometry":{"type":"Point","coordinates":[45.517222,2.7825]}},{"properties":{"city":"Jowhar","latitude":2.7733,"visitors":121,"longitude":45.4961,"id":"afi0y26grapg"},"type":"Feature","geometry":{"type":"Point","coordinates":[45.4961,2.7733]}},{"properties":{"city":"Kalundi","latitude":2.794722,"visitors":1,"longitude":45.521944,"id":"afi0y20prm10"},"type":"Feature","geometry":{"type":"Point","coordinates":[45.521944,2.794722]}},{"properties":{"city":"Keliga Shiinaha","latitude":3.1174,"visitors":3,"longitude":45.4582,"id":"afi0y2fy6aat"},"type":"Feature","geometry":{"type":"Point","coordinates":[45.4582,3.1174]}},{"properties":{"city":"Kulmis Yarow","latitude":2.614444,"visitors":131,"longitude":45.510833,"id":"afi0y25do1ld"},"type":"Feature","geometry":{"type":"Point","coordinates":[45.510833,2.614444]}},{"properties":{"city":"Maangaay","latitude":2.632778,"visitors":2,"longitude":45.511667,"id":"afi0y24nmnnm"},"type":"Feature","geometry":{"type":"Point","coordinates":[45.511667,2.632778]}},{"properties":{"city":"Macey Turey","latitude":2.95,"visitors":1,"longitude":45.309719,"id":"afi0y284paru"},"type":"Feature","geometry":{"type":"Point","coordinates":[45.309719,2.95]}},{"properties":{"city":"Mandheere","latitude":2.691944,"visitors":4,"longitude":45.510278,"id":"afi0y2cjss1v"},"type":"Feature","geometry":{"type":"Point","coordinates":[45.510278,2.691944]}},{"properties":{"city":"Maqdas","latitude":2.58567,"visitors":null,"longitude":45.50518,"id":"afi0y2bjzuty"},"type":"Feature","geometry":{"type":"Point","coordinates":[45.50518,2.58567]}},{"properties":{"city":"Mareerey","latitude":2.885359,"visitors":5,"longitude":45.536576,"id":"afi0y2bm7j2t"},"type":"Feature","geometry":{"type":"Point","coordinates":[45.536576,2.885359]}},{"properties":{"city":"Moyko","latitude":2.758056,"visitors":22,"longitude":45.498056,"id":"afi0y2erqy3e"},"type":"Feature","geometry":{"type":"Point","coordinates":[45.498056,2.758056]}},{"properties":{"city":"Nuukaay","latitude":2.725556,"visitors":8,"longitude":45.503333,"id":"afi0y27bp4ky"},"type":"Feature","geometry":{"type":"Point","coordinates":[45.503333,2.725556]}},{"properties":{"city":"Oobaale","latitude":3.0906,"visitors":1,"longitude":45.54248,"id":"afi0y2f8q1pn"},"type":"Feature","geometry":{"type":"Point","coordinates":[45.54248,3.0906]}},{"properties":{"city":"Qalimow","latitude":2.58778,"visitors":6,"longitude":45.36949,"id":"afi0y27atdeo"},"type":"Feature","geometry":{"type":"Point","coordinates":[45.36949,2.58778]}},{"properties":{"city":"Raqaylow Baardheere","latitude":2.604167,"visitors":null,"longitude":45.502222,"id":"afi0y22wxcn3"},"type":"Feature","geometry":{"type":"Point","coordinates":[45.502222,2.604167]}},{"properties":{"city":"Raqeyle","latitude":2.705556,"visitors":10,"longitude":45.514722,"id":"afi0y2cwt7ht"},"type":"Feature","geometry":{"type":"Point","coordinates":[45.514722,2.705556]}},{"properties":{"city":"Shanloow","latitude":2.533889,"visitors":3,"longitude":45.484444,"id":"afi0y22ymm0y"},"type":"Feature","geometry":{"type":"Point","coordinates":[45.484444,2.533889]}},{"properties":{"city":"Timire","latitude":2.80575,"visitors":6,"longitude":45.53512,"id":"afi0y297b129"},"type":"Feature","geometry":{"type":"Point","coordinates":[45.53512,2.80575]}},{"properties":{"city":"Tuugaarey","latitude":2.666389,"visitors":1,"longitude":45.499722,"id":"afi0y22879vh"},"type":"Feature","geometry":{"type":"Point","coordinates":[45.499722,2.666389]}},{"properties":{"city":"Warciise","latitude":2.80762,"visitors":3,"longitude":45.7197,"id":"afi0y283spoo"},"type":"Feature","geometry":{"type":"Point","coordinates":[45.7197,2.80762]}},{"properties":{"city":"War-Dhagax","latitude":2.85008,"visitors":1,"longitude":45.75705,"id":"afi0y20m0gbb"},"type":"Feature","geometry":{"type":"Point","coordinates":[45.75705,2.85008]}},{"properties":{"city":"Yaaqle","latitude":2.02867,"visitors":null,"longitude":44.85922,"id":"afi0y2bgfdqa"},"type":"Feature","geometry":{"type":"Point","coordinates":[44.85922,2.02867]}}],"is_temporal":false,"author":{"url":"","metadata":null,"contact_name":null,"contact_address":null,"source":null,"contact_phone":null},"source":"","pagination":{"sort":null,"start":0,"total":61,"limit":1000000},"state":"complete","tags":"","published":"2014-08-16T20:04:57-04:00","id":374794}