{"type":"FeatureCollection","data_type":"Dataset","url_type":null,"permissions":[{"permissions":{"download":true,"view":true},"group_id":"everyone"}],"classification":null,"title":"Hep_Heat_Map","count":57,"stream_id":374740,"contributor":{"url":"http://geocommons.com/users/76867","name":"Stevocheng"},"data_attributes":null,"calculation_params":null,"icon_link":null,"link":"http://geocommons.com/overlays/374740.json","extent":[-122.691,40.6994,-112.089,47.6062],"geometry_types":["point"],"unique_name":null,"name":"Hep_Heat_Map","feature_count":57,"description":"","next_feature":null,"is_raster":false,"short_classification":"Y","stats":{},"features":[{"properties":{"city":"Seattle","geo_score":0.857,"zip code":"98174","id":"afhw4udtzw3v","geo_precision":"zip","state":"WA","gi/hepatologist":"Zia"},"type":"Feature","geometry":{"type":"Point","coordinates":[-121.803388,47.432251]}},{"properties":{"city":"Seattle","geo_score":0.857,"zip code":"98175","id":"afhw4ucpb9u2","geo_precision":"zip","state":"WA","gi/hepatologist":"Surawicz"},"type":"Feature","geometry":{"type":"Point","coordinates":[-122.332071,47.60621]}},{"properties":{"city":"Seattle","geo_score":0.857,"zip code":"98176","id":"afhw4udrkh4k","geo_precision":"zip","state":"WA","gi/hepatologist":"Scott"},"type":"Feature","geometry":{"type":"Point","coordinates":[-122.332071,47.60621]}},{"properties":{"city":"Seattle","geo_score":0.857,"zip code":"98177","id":"afhw4uhk2n6e","geo_precision":"zip","state":"WA","gi/hepatologist":"Paski"},"type":"Feature","geometry":{"type":"Point","coordinates":[-121.803388,47.432251]}},{"properties":{"city":"Seattle","geo_score":0.857,"zip code":"98178","id":"afhw4uamhwtv","geo_precision":"zip","state":"WA","gi/hepatologist":"Dominitz"},"type":"Feature","geometry":{"type":"Point","coordinates":[-122.235856,47.492385]}},{"properties":{"city":"Seattle","geo_score":0.857,"zip code":"98179","id":"afhw4ugcq3dc","geo_precision":"zip","state":"WA","gi/hepatologist":"Hwang"},"type":"Feature","geometry":{"type":"Point","coordinates":[-122.332071,47.60621]}},{"properties":{"city":"Seattle","geo_score":0.857,"zip code":"98180","id":"afhw4uanmnzm","geo_precision":"zip","state":"WA","gi/hepatologist":"Lai"},"type":"Feature","geometry":{"type":"Point","coordinates":[-122.332071,47.60621]}},{"properties":{"city":"Seattle","geo_score":0.857,"zip code":"98181","id":"afhw4ufi5b7o","geo_precision":"zip","state":"WA","gi/hepatologist":"Wohlman"},"type":"Feature","geometry":{"type":"Point","coordinates":[-121.803388,47.432251]}},{"properties":{"city":"Seattle","geo_score":0.857,"zip code":"98182","id":"afhw4ua020vt","geo_precision":"zip","state":"WA","gi/hepatologist":"Kozarek"},"type":"Feature","geometry":{"type":"Point","coordinates":[-122.332071,47.60621]}},{"properties":{"city":"Seattle","geo_score":0.857,"zip code":"98183","id":"afhw4uir0vua","geo_precision":"zip","state":"WA","gi/hepatologist":"Murakami"},"type":"Feature","geometry":{"type":"Point","coordinates":[-122.332071,47.60621]}},{"properties":{"city":"Seattle","geo_score":0.857,"zip code":"98184","id":"afhw4uiapvsh","geo_precision":"zip","state":"WA","gi/hepatologist":"Ness"},"type":"Feature","geometry":{"type":"Point","coordinates":[-121.803388,47.432251]}},{"properties":{"city":"Seattle","geo_score":0.857,"zip code":"98185","id":"afhw4uhvsmxn","geo_precision":"zip","state":"WA","gi/hepatologist":"Procaccinni"},"type":"Feature","geometry":{"type":"Point","coordinates":[-121.803388,47.432251]}},{"properties":{"city":"Seattle","geo_score":0.857,"zip code":"98186","id":"afhw4uh6ohjh","geo_precision":"zip","state":"WA","gi/hepatologist":"Chiorean"},"type":"Feature","geometry":{"type":"Point","coordinates":[-122.332071,47.60621]}},{"properties":{"city":"Seattle","geo_score":0.857,"zip code":"98187","id":"afhw4ueshy64","geo_precision":"zip","state":"WA","gi/hepatologist":"Saunders"},"type":"Feature","geometry":{"type":"Point","coordinates":[-122.332071,47.60621]}},{"properties":{"city":"Seattle","geo_score":0.857,"zip code":"98188","id":"afhw4ubnu5zh","geo_precision":"zip","state":"WA","gi/hepatologist":"Zisman"},"type":"Feature","geometry":{"type":"Point","coordinates":[-121.803388,47.432251]}},{"properties":{"city":"Seattle","geo_score":0.857,"zip code":"98189","id":"afhw4u7ef236","geo_precision":"zip","state":"WA","gi/hepatologist":"Lee"},"type":"Feature","geometry":{"type":"Point","coordinates":[-122.332071,47.60621]}},{"properties":{"city":"Seattle","geo_score":0.857,"zip code":"98190","id":"afhw4ukx7cp1","geo_precision":"zip","state":"WA","gi/hepatologist":"Heitkemper"},"type":"Feature","geometry":{"type":"Point","coordinates":[-121.803388,47.432251]}},{"properties":{"city":"Seattle","geo_score":0.857,"zip code":"98191","id":"afhw4un8tope","geo_precision":"zip","state":"WA","gi/hepatologist":"Cox North"},"type":"Feature","geometry":{"type":"Point","coordinates":[-121.803388,47.432251]}},{"properties":{"city":"Seattle","geo_score":0.857,"zip code":"98192","id":"afhw4umwqwan","geo_precision":"zip","state":"WA","gi/hepatologist":"Shuhart"},"type":"Feature","geometry":{"type":"Point","coordinates":[-122.332071,47.60621]}},{"properties":{"city":"Seattle","geo_score":0.857,"zip code":"98193","id":"afhw4umaq2tp","geo_precision":"zip","state":"WA","gi/hepatologist":"Landis"},"type":"Feature","geometry":{"type":"Point","coordinates":[-122.332071,47.60621]}},{"properties":{"city":"Seattle","geo_score":0.857,"zip code":"98194","id":"afhw4udp9fo5","geo_precision":"zip","state":"WA","gi/hepatologist":"Inadomi"},"type":"Feature","geometry":{"type":"Point","coordinates":[-122.332071,47.60621]}},{"properties":{"city":"Seattle","geo_score":0.857,"zip code":"98195","id":"afhw4udg9rb2","geo_precision":"zip","state":"WA","gi/hepatologist":"Bhattacharya"},"type":"Feature","geometry":{"type":"Point","coordinates":[-121.803388,47.432251]}},{"properties":{"city":"Seattle","geo_score":0.857,"zip code":"98195","id":"afhw4ukwp2sm","geo_precision":"zip","state":"WA","gi/hepatologist":"Yu"},"type":"Feature","geometry":{"type":"Point","coordinates":[-121.803388,47.432251]}},{"properties":{"city":"Seattle","geo_score":0.857,"zip code":"98195","id":"afhw4u7hjs1q","geo_precision":"zip","state":"WA","gi/hepatologist":"Kowdley"},"type":"Feature","geometry":{"type":"Point","coordinates":[-121.803388,47.432251]}},{"properties":{"city":"Seattle","geo_score":0.857,"zip code":"98195","id":"afhw4u8witag","geo_precision":"zip","state":"WA","gi/hepatologist":"Shah"},"type":"Feature","geometry":{"type":"Point","coordinates":[-121.803388,47.432251]}},{"properties":{"city":"Seattle","geo_score":0.857,"zip code":"98195","id":"afhw4ui57qku","geo_precision":"zip","state":"WA","gi/hepatologist":"Kanwar"},"type":"Feature","geometry":{"type":"Point","coordinates":[-121.803388,47.432251]}},{"properties":{"city":"Seattle","geo_score":0.857,"zip code":"98195","id":"afhw4ufw7m23","geo_precision":"zip","state":"WA","gi/hepatologist":"Carithers"},"type":"Feature","geometry":{"type":"Point","coordinates":[-121.803388,47.432251]}},{"properties":{"city":"Seattle","geo_score":0.857,"zip code":"98195","id":"afhw4uhv97l5","geo_precision":"zip","state":"WA","gi/hepatologist":"Liao"},"type":"Feature","geometry":{"type":"Point","coordinates":[-121.803388,47.432251]}},{"properties":{"city":"Seattle","geo_score":0.857,"zip code":"98195","id":"afhw4ubcj4gz","geo_precision":"zip","state":"WA","gi/hepatologist":"Alexander"},"type":"Feature","geometry":{"type":"Point","coordinates":[-121.803388,47.432251]}},{"properties":{"city":"Seattle","geo_score":0.857,"zip code":"98195","id":"afhw4uj9mbpx","geo_precision":"zip","state":"WA","gi/hepatologist":"Morrison"},"type":"Feature","geometry":{"type":"Point","coordinates":[-121.803388,47.432251]}},{"properties":{"city":"Seattle","geo_score":0.857,"zip code":"98195","id":"afhw4ui2ppr3","geo_precision":"zip","state":"WA","gi/hepatologist":"Ioannou"},"type":"Feature","geometry":{"type":"Point","coordinates":[-121.803388,47.432251]}},{"properties":{"city":"Seattle","geo_score":0.857,"zip code":"98195","id":"afhw4uhfdbcm","geo_precision":"zip","state":"WA","gi/hepatologist":"Larson"},"type":"Feature","geometry":{"type":"Point","coordinates":[-121.803388,47.432251]}},{"properties":{"city":"Seattle","geo_score":0.857,"zip code":"98195","id":"afhw4u7roitg","geo_precision":"zip","state":"WA","gi/hepatologist":"Aranda Michel"},"type":"Feature","geometry":{"type":"Point","coordinates":[-121.803388,47.432251]}},{"properties":{"city":"Seattle","geo_score":0.857,"zip code":"98195","id":"afhw4ugrkitn","geo_precision":"zip","state":"WA","gi/hepatologist":"M.Morrison"},"type":"Feature","geometry":{"type":"Point","coordinates":[-121.803388,47.432251]}},{"properties":{"city":"Seattle","geo_score":0.857,"zip code":"98195","id":"afhw4ujnsqzo","geo_precision":"zip","state":"WA","gi/hepatologist":"Patel"},"type":"Feature","geometry":{"type":"Point","coordinates":[-121.803388,47.432251]}},{"properties":{"city":"Portland","geo_score":0.857,"zip code":"97239","id":"afhw4ujgj461","geo_precision":"zip","state":"OR","gi/hepatologist":"Zaman"},"type":"Feature","geometry":{"type":"Point","coordinates":[-122.691267,45.488178]}},{"properties":{"city":"Portland","geo_score":0.857,"zip code":"97239","id":"afhw4u99rswz","geo_precision":"zip","state":"OR","gi/hepatologist":"Ahn"},"type":"Feature","geometry":{"type":"Point","coordinates":[-122.691267,45.488178]}},{"properties":{"city":"Portland","geo_score":0.857,"zip code":"97239","id":"afhw4uh7vu5n","geo_precision":"zip","state":"OR","gi/hepatologist":"Jou"},"type":"Feature","geometry":{"type":"Point","coordinates":[-122.691267,45.488178]}},{"properties":{"city":"Portland","geo_score":0.857,"zip code":"97239","id":"afhw4ud5b91e","geo_precision":"zip","state":"OR","gi/hepatologist":"Chang"},"type":"Feature","geometry":{"type":"Point","coordinates":[-122.691267,45.488178]}},{"properties":{"city":"Portland","geo_score":0.857,"zip code":"97239","id":"afhw4ua2fup8","geo_precision":"zip","state":"OR","gi/hepatologist":"Sasaki"},"type":"Feature","geometry":{"type":"Point","coordinates":[-122.691267,45.488178]}},{"properties":{"city":"Portland","geo_score":0.857,"zip code":"97239","id":"afhw4uf788kd","geo_precision":"zip","state":"OR","gi/hepatologist":"Naugler"},"type":"Feature","geometry":{"type":"Point","coordinates":[-122.691267,45.488178]}},{"properties":{"city":"Portland","geo_score":0.857,"zip code":"97239","id":"afhw4ulswkdn","geo_precision":"zip","state":"OR","gi/hepatologist":"Ingram"},"type":"Feature","geometry":{"type":"Point","coordinates":[-122.691267,45.488178]}},{"properties":{"city":"Portland","geo_score":0.857,"zip code":"97239","id":"afhw4un2e86o","geo_precision":"zip","state":"OR","gi/hepatologist":"Voukidis"},"type":"Feature","geometry":{"type":"Point","coordinates":[-122.691267,45.488178]}},{"properties":{"city":"Portland","geo_score":0.857,"zip code":"97239","id":"afhw4ueiv5fq","geo_precision":"zip","state":"OR","gi/hepatologist":"Vallejos"},"type":"Feature","geometry":{"type":"Point","coordinates":[-122.691267,45.488178]}},{"properties":{"city":"Portland","geo_score":0.857,"zip code":"97239","id":"afhw4uluthfi","geo_precision":"zip","state":"OR","gi/hepatologist":"Holden"},"type":"Feature","geometry":{"type":"Point","coordinates":[-122.691267,45.488178]}},{"properties":{"city":"Portland","geo_score":0.857,"zip code":"97239","id":"afhw4uh3ejs6","geo_precision":"zip","state":"OR","gi/hepatologist":"Benner"},"type":"Feature","geometry":{"type":"Point","coordinates":[-122.691267,45.488178]}},{"properties":{"city":"Portland","geo_score":0.857,"zip code":"97239","id":"afhw4ucs4i1i","geo_precision":"zip","state":"OR","gi/hepatologist":"Flora"},"type":"Feature","geometry":{"type":"Point","coordinates":[-122.691267,45.488178]}},{"properties":{"city":"Portland","geo_score":0.857,"zip code":"97239","id":"afhw4u9omszh","geo_precision":"zip","state":"OR","gi/hepatologist":"Maciolek"},"type":"Feature","geometry":{"type":"Point","coordinates":[-122.691267,45.488178]}},{"properties":{"city":"Salt Lake City","geo_score":0.857,"zip code":"84044","id":"afhw4ulx4jq7","geo_precision":"zip","state":"UT","gi/hepatologist":"Thomason"},"type":"Feature","geometry":{"type":"Point","coordinates":[-112.088875,40.699401]}},{"properties":{"city":"Salt Lake City","geo_score":0.857,"zip code":"84044","id":"afhw4un2h9b3","geo_precision":"zip","state":"UT","gi/hepatologist":"Box"},"type":"Feature","geometry":{"type":"Point","coordinates":[-112.088875,40.699401]}},{"properties":{"city":"Salt Lake City","geo_score":0.857,"zip code":"84044","id":"afhw4ugn85x2","geo_precision":"zip","state":"UT","gi/hepatologist":"Gallegos"},"type":"Feature","geometry":{"type":"Point","coordinates":[-112.088875,40.699401]}},{"properties":{"city":"Salt Lake City","geo_score":0.857,"zip code":"84044","id":"afhw4ul2vgg9","geo_precision":"zip","state":"UT","gi/hepatologist":"Harmston"},"type":"Feature","geometry":{"type":"Point","coordinates":[-112.088875,40.699401]}},{"properties":{"city":"Salt Lake City","geo_score":0.857,"zip code":"84044","id":"afhw4u9c4icm","geo_precision":"zip","state":"UT","gi/hepatologist":"Jones"},"type":"Feature","geometry":{"type":"Point","coordinates":[-112.088875,40.699401]}},{"properties":{"city":"Salt Lake City","geo_score":0.857,"zip code":"84044","id":"afhw4ulruiht","geo_precision":"zip","state":"UT","gi/hepatologist":"Boschert"},"type":"Feature","geometry":{"type":"Point","coordinates":[-112.088875,40.699401]}},{"properties":{"city":"Salt Lake City","geo_score":0.857,"zip code":"84044","id":"afhw4udsrgyl","geo_precision":"zip","state":"UT","gi/hepatologist":"Lynch"},"type":"Feature","geometry":{"type":"Point","coordinates":[-112.088875,40.699401]}},{"properties":{"city":"Salt Lake City","geo_score":0.857,"zip code":"84044","id":"afhw4ub18fso","geo_precision":"zip","state":"UT","gi/hepatologist":"Stevens"},"type":"Feature","geometry":{"type":"Point","coordinates":[-112.088875,40.699401]}},{"properties":{"city":"Twin falls","geo_score":0.857,"zip code":"83301","id":"afhw4ugksp8l","geo_precision":"zip","state":"ID","gi/hepatologist":"Berk"},"type":"Feature","geometry":{"type":"Point","coordinates":[-114.575039,42.353244]}}],"is_temporal":false,"author":{"url":"","metadata":null,"contact_name":null,"contact_address":null,"source":null,"contact_phone":null},"source":"","pagination":{"sort":null,"start":0,"total":57,"limit":1000000},"state":"complete","tags":"","published":"2014-08-16T19:55:07-04:00","id":374740}