{"type":"FeatureCollection","data_type":"Dataset","url_type":null,"permissions":[{"permissions":{"download":true,"view":true},"group_id":"everyone"}],"classification":null,"title":"Kaley Top 25 Suppliers","count":25,"stream_id":374801,"contributor":{"url":"http://geocommons.com/users/67244","name":"pletchc"},"data_attributes":null,"calculation_params":null,"icon_link":null,"link":"http://geocommons.com/overlays/374801.json","extent":[-81.8703,25.86,-80.3819,28.8653],"geometry_types":["point"],"unique_name":null,"name":"Kaley Top 25 Suppliers","feature_count":25,"description":"","next_feature":null,"is_raster":false,"short_classification":"Y","stats":{"total":{"max":385,"variance":6480.76,"mean":64.52,"stdev":80.5031676395407,"min":16,"median":30}},"features":[{"properties":{"address1":"176 W HIGHBANKS RD","city":"DEBARY","total":385,"geo_score":0.857,"zip code":"32713-2882","id":"afi266ayczqh","supplier name":"PROGRESS ENERGY","geo_precision":"zip","state":"FL"},"type":"Feature","geometry":{"type":"Point","coordinates":[-81.32951,28.865268]}},{"properties":{"address1":"3510 RIO VISTA AVE","city":"Orlando","total":210,"geo_score":0.857,"zip code":"32805-6605","id":"afi266ae4r6m","supplier name":"WASTE MANAGEMENT OF ORLANDO","geo_precision":"zip","state":"FL"},"type":"Feature","geometry":{"type":"Point","coordinates":[-81.477294,28.483893]}},{"properties":{"address1":"PO BOX 555996","city":"Orlando","total":139,"geo_score":0.857,"zip code":"32805","id":"afi266jc2e6k","supplier name":"SCRAP SYSTEMS","geo_precision":"zip","state":"FL"},"type":"Feature","geometry":{"type":"Point","coordinates":[-81.477294,28.483893]}},{"properties":{"address1":"530 GRAND ST","city":"Orlando","total":94,"geo_score":0.857,"zip code":"32805","id":"afi2668vdb5w","supplier name":"FERRAN SERVICES&amp;CONTRACTING","geo_precision":"zip","state":"FL"},"type":"Feature","geometry":{"type":"Point","coordinates":[-81.477294,28.483893]}},{"properties":{"address1":"9390 NW 109TH ST","city":"MEDLEY","total":89,"geo_score":0.857,"zip code":"33178-1225","id":"afi266ab2e9t","supplier name":"GONZALEZ AND SONS EQUIPMENT","geo_precision":"zip","state":"FL"},"type":"Feature","geometry":{"type":"Point","coordinates":[-80.381857,25.859963]}},{"properties":{"address1":"4978 L B MCLEOD RD","city":"Orlando","total":84,"geo_score":0.857,"zip code":"32811-6400","id":"afi266eook94","supplier name":"WASTE MANAGEMENT OTS","geo_precision":"zip","state":"FL"},"type":"Feature","geometry":{"type":"Point","coordinates":[-81.451559,28.51633]}},{"properties":{"address1":"1000 UNIV. STUDIO PLZ","city":"Orlando","total":68,"geo_score":0.857,"zip code":"32819","id":"afi266eohet0","supplier name":"UNIVERSAL STUDIO","geo_precision":"zip","state":"FL"},"type":"Feature","geometry":{"type":"Point","coordinates":[-81.46784,28.452157]}},{"properties":{"address1":"2540 JEWETT LN","city":"SANFORD","total":62,"geo_score":0.857,"zip code":"32771-1687","id":"afi266f330n7","supplier name":"BENADA ALUMINUM PRODUCTS","geo_precision":"zip","state":"FL"},"type":"Feature","geometry":{"type":"Point","coordinates":[-81.254509,28.794993]}},{"properties":{"address1":"PO BOX 568678","city":"Orlando","total":55,"geo_score":0.857,"zip code":"32856","id":"afi26664gjz6","supplier name":"MODERN WELDING","geo_precision":"zip","state":"FL"},"type":"Feature","geometry":{"type":"Point","coordinates":[-81.420092,28.548379]}},{"properties":{"address1":"6895 HANGING MOSS RD","city":"Orlando","total":47,"geo_score":0.857,"zip code":"32807","id":"afi266jc85xp","supplier name":"888 RECYCLING INC","geo_precision":"zip","state":"FL"},"type":"Feature","geometry":{"type":"Point","coordinates":[-81.30514,28.551479]}},{"properties":{"address1":"1411 S ORANGE BLOSSOM TRL","city":"Orlando","total":44,"geo_score":0.857,"zip code":"32805-4557","id":"afi26694xiae","supplier name":"WESTBROOK SERVICES CORPORATION","geo_precision":"zip","state":"FL"},"type":"Feature","geometry":{"type":"Point","coordinates":[-81.477294,28.483893]}},{"properties":{"address1":"2490 COUNTRY CLUB RD","city":"SANFORD","total":36,"geo_score":0.857,"zip code":"32771-4057","id":"afi2665uac4y","supplier name":"ARCHER WESTERN SUNRAIL","geo_precision":"zip","state":"FL"},"type":"Feature","geometry":{"type":"Point","coordinates":[-81.254509,28.794993]}},{"properties":{"address1":"2850 N JOHN YOUNG PKWY","city":"KISSIMMEE","total":30,"geo_score":0.857,"zip code":"34741-1280","id":"afi266l9i37i","supplier name":"KISSIMMEE UTILITY AUTHORITY","geo_precision":"zip","state":"FL"},"type":"Feature","geometry":{"type":"Point","coordinates":[-81.461385,28.307138]}},{"properties":{"address1":"4104 OLD WINTER GARDEN RD","city":"Orlando","total":30,"geo_score":0.857,"zip code":"32805-1035","id":"afi266f9rnku","supplier name":"TRACK 1 AUTO SALES","geo_precision":"zip","state":"FL"},"type":"Feature","geometry":{"type":"Point","coordinates":[-81.477294,28.483893]}},{"properties":{"address1":"3505 PUG MILL RD","city":"KISSIMMEE","total":29,"geo_score":0.857,"zip code":"34741-6462","id":"afi266jdz2zc","supplier name":"KISSIMMEE METAL RECYCLERS","geo_precision":"zip","state":"FL"},"type":"Feature","geometry":{"type":"Point","coordinates":[-81.461385,28.307138]}},{"properties":{"address1":"5600 W SAND LAKE RD","city":"Orlando","total":28,"geo_score":0.857,"zip code":"32819-8907","id":"afi2667mx3wk","supplier name":"LOCKHEED MARTIN ORLANDO","geo_precision":"zip","state":"FL"},"type":"Feature","geometry":{"type":"Point","coordinates":[-81.46784,28.452157]}},{"properties":{"address1":"2722 APOPKA BLVD","city":"APOPKA","total":26,"geo_score":0.857,"zip code":"32703-9345","id":"afi266bgp8xw","supplier name":"CENTRAL ENVIRONMENTAL","geo_precision":"zip","state":"FL"},"type":"Feature","geometry":{"type":"Point","coordinates":[-81.559795,28.756661]}},{"properties":{"address1":"3307 CLARCONA RD","city":"APOPKA","total":22,"geo_score":0.857,"zip code":"32703-8778","id":"afi266bb9pj3","supplier name":"RANDALL MECHANICAL","geo_precision":"zip","state":"FL"},"type":"Feature","geometry":{"type":"Point","coordinates":[-81.559795,28.756661]}},{"properties":{"address1":"7518 NARCOOSSEE RD","city":"Orlando","total":22,"geo_score":0.857,"zip code":"32822-5502","id":"afi26682ag8n","supplier name":"MEGA MAN METALS","geo_precision":"zip","state":"FL"},"type":"Feature","geometry":{"type":"Point","coordinates":[-81.29024,28.494385]}},{"properties":{"address1":"9820 SATELLITE BLVD","city":"Orlando","total":21,"geo_score":0.857,"zip code":"32837-8447","id":"afi266e6olyw","supplier name":"MECHANICAL SERVICES INC","geo_precision":"zip","state":"FL"},"type":"Feature","geometry":{"type":"Point","coordinates":[-81.433155,28.390234]}},{"properties":{"address1":"105 CHANNEL DR","city":"LAKE MARY","total":21,"geo_score":0.714,"zip code":"1","id":"afi266kprlst","supplier name":"JOYNER CABLE TELECOMMUNICATION","geo_precision":"city","state":"FL"},"type":"Feature","geometry":{"type":"Point","coordinates":[-81.350772,28.7577]}},{"properties":{"address1":"2501 MICHIGAN AVE","city":"KISSIMMEE","total":19,"geo_score":0.857,"zip code":"34744-1912","id":"afi266ioolpo","supplier name":"PRESTONS AUTO PARTS&amp;SALVAGE","geo_precision":"zip","state":"FL"},"type":"Feature","geometry":{"type":"Point","coordinates":[-81.32402,28.297638]}},{"properties":{"address1":"5011 BATTEN PL","city":"Orlando","total":18,"geo_score":0.857,"zip code":"32809-3037","id":"afi266654buo","supplier name":"ENTHALPY ENGINEERING CORP","geo_precision":"zip","state":"FL"},"type":"Feature","geometry":{"type":"Point","coordinates":[-81.372292,28.486115]}},{"properties":{"address1":"19914 INDEPENDENCE BLVD","city":"GROVELAND","total":18,"geo_score":0.857,"zip code":"34736","id":"afi2668820kj","supplier name":"PERI FORMWORK SYSTEM","geo_precision":"zip","state":"FL"},"type":"Feature","geometry":{"type":"Point","coordinates":[-81.870269,28.587996]}},{"properties":{"address1":"986 N SEMORAN BLVD","city":"Orlando","total":16,"geo_score":0.857,"zip code":"32807-3529","id":"afi266hpakll","supplier name":"DISCOUNT TIRE","geo_precision":"zip","state":"FL"},"type":"Feature","geometry":{"type":"Point","coordinates":[-81.30514,28.551479]}}],"is_temporal":false,"author":{"url":"","metadata":"","contact_name":"","contact_address":"","source":"","contact_phone":""},"source":"","pagination":{"sort":null,"start":0,"total":25,"limit":1000000},"state":"complete","tags":"","published":"2014-08-16T20:06:17-04:00","id":374801}