{"type":"FeatureCollection","data_type":"Dataset","url_type":null,"permissions":[{"permissions":{"download":true,"view":true},"group_id":"everyone"}],"classification":null,"title":"California_Service_Coverage_Map","count":16,"stream_id":376427,"contributor":{"url":"http://geocommons.com/users/76737","name":"Pynchros"},"data_attributes":null,"calculation_params":null,"icon_link":null,"link":"http://geocommons.com/overlays/376427.json","extent":[-124.161,32.7643,-115.572,40.6002],"geometry_types":["point"],"unique_name":null,"name":"California_Service_Coverage_Map","feature_count":16,"description":"","next_feature":null,"is_raster":false,"short_classification":"Y","stats":{},"features":[{"properties":{"name":"Debra Dupree, CEES","city":"San Diego","zip":"92108","geo_score":0.604,"id":"afnzkodef8xi","address":"1011 Camino Del Rio, South, Suite 530","geo_precision":"street","state":"CA"},"type":"Feature","geometry":{"type":"Point","coordinates":[-117.154735,32.764251]}},{"properties":{"name":"Clyde Blackwelder, DC","city":"San Juan Capistrano","zip":"92675","geo_score":1.0,"id":"afnzkob8g7dz","address":"25762 Via Del Rey","geo_precision":"range","state":"CA"},"type":"Feature","geometry":{"type":"Point","coordinates":[-117.679975,33.483875]}},{"properties":{"name":"Fehr Ted, OT, CEAS I","city":"El Centro","zip":"92243","geo_score":1.0,"id":"afnzkok2db4b","address":"1611 West Main Street","geo_precision":"range","state":"CA"},"type":"Feature","geometry":{"type":"Point","coordinates":[-115.571646,32.792764]}},{"properties":{"name":"Suzanne Cresswell, CEA","city":"Redding","zip":"96001","geo_score":0.89,"id":"afnzkolug7xa","address":"2449 Court Street","geo_precision":"range","state":"CA"},"type":"Feature","geometry":{"type":"Point","coordinates":[-122.392155,40.5738]}},{"properties":{"name":"Jeff Symons, MS, ATP","city":"El Dorado Hills","zip":"95762","geo_score":1.0,"id":"afnzkom39ztq","address":"4641 Adelaide Pl","geo_precision":"range","state":"CA"},"type":"Feature","geometry":{"type":"Point","coordinates":[-121.073159,38.690434]}},{"properties":{"name":"Nathalie Delsaer, CPE, CHT, OTR/L","city":"San Francisco","zip":"94123","geo_score":0.512,"id":"afnzkon2a4q6","address":"3701 Divisadero Street, #303","geo_precision":"street","state":"CA"},"type":"Feature","geometry":{"type":"Point","coordinates":[-122.441713,37.794385]}},{"properties":{"name":"Maria Junge, CPE, M.S. Ind. Eng.","city":"Saratoga","zip":"95070","geo_score":0.857,"id":"afnzkoe3935g","address":"19600 Saratoga Los Gatos Rd., Saratoga","geo_precision":"street","state":"CA"},"type":"Feature","geometry":{"type":"Point","coordinates":[-121.994986,37.289041]}},{"properties":{"name":"Judy Goucher, OT, CHT","city":"Trinidad","zip":"95570","geo_score":0.371,"id":"afnzkobfvw2a","address":"PO Box 863","geo_precision":"street","state":"CA"},"type":"Feature","geometry":{"type":"Point","coordinates":[-124.161447,40.6002]}},{"properties":{"name":"Rick Esposito, CPE","city":"San Jose","zip":"95136","geo_score":0.381,"id":"afnzkoq9ds3p","address":"445 Buckingham Pk. Ct","geo_precision":"street","state":"CA"},"type":"Feature","geometry":{"type":"Point","coordinates":[-121.78993,37.228826]}},{"properties":{"name":"Kim  Granata-Clark , CAE, MS HF&amp;E","city":"Campbell","zip":"95008","geo_score":1.0,"id":"afnzkod242if","address":"69 Alice Avenue","geo_precision":"range","state":"CA"},"type":"Feature","geometry":{"type":"Point","coordinates":[-121.94907,37.283942]}},{"properties":{"name":"Cheryl R Chandler, M.A. CRC, ABVE/D","city":"Fresno","zip":"93721-2528","geo_score":0.714,"id":"afnzkok3mxxs","address":"1713 Tulare Street, Suite 102","geo_precision":"street","state":"CA"},"type":"Feature","geometry":{"type":"Point","coordinates":[-119.807723,36.721374]}},{"properties":{"name":"Kelly Cook, CEAS I","city":"Windsor","zip":"95492","geo_score":0.878,"id":"afnzkoio7ouu","address":"1649 Reiman Lane","geo_precision":"range","state":"CA"},"type":"Feature","geometry":{"type":"Point","coordinates":[-122.82387,38.536249]}},{"properties":{"name":"Laura Molnar, MPT","city":"Bishop","zip":"93514","geo_score":1.0,"id":"afnzkoo0s2td","address":"395 Sierra Street, Apartment M","geo_precision":"street","state":"CA"},"type":"Feature","geometry":{"type":"Point","coordinates":[-118.397399,37.370416]}},{"properties":{"name":"Janice Serafine-Lilien, MS, HFES","city":"Alameda","zip":"94501","geo_score":0.585,"id":"afnzkop3ywfx","address":"2510 Central, #104","geo_precision":"range","state":"CA"},"type":"Feature","geometry":{"type":"Point","coordinates":[-122.291072,37.775274]}},{"properties":{"name":"Rene Michel, CEAS I; CEAS III","city":"San Diego","zip":"92119","geo_score":0.619,"id":"afnzkodkehkc","address":"6276 E. Lake Dr.","geo_precision":"street","state":"CA"},"type":"Feature","geometry":{"type":"Point","coordinates":[-117.006568,32.797666]}},{"properties":{"name":"Marci Silverberg, MPT,CEAS","city":"San Rafael","zip":"94903","geo_score":1.0,"id":"afnzkooyk733","address":"78 Esmeyer Drive","geo_precision":"range","state":"CA"},"type":"Feature","geometry":{"type":"Point","coordinates":[-122.557356,38.002074]}}],"is_temporal":false,"author":{"url":"","metadata":null,"contact_name":null,"contact_address":null,"source":null,"contact_phone":null},"source":"","pagination":{"sort":null,"start":0,"total":16,"limit":1000000},"state":"complete","tags":"","published":"2014-08-16T22:23:55-04:00","id":376427}