{"type":"FeatureCollection","data_type":"Dataset","url_type":null,"permissions":[{"permissions":{"download":true,"view":true},"group_id":"everyone"}],"classification":null,"title":"Silicon Valley Hotels and Motels","count":32,"stream_id":376897,"contributor":{"url":"http://geocommons.com/users/2968","name":"alexismadrigal"},"data_attributes":null,"calculation_params":null,"icon_link":null,"link":"http://geocommons.com/overlays/376897.json","extent":[-122.163,37.2698,-121.893,37.4404],"geometry_types":["point"],"unique_name":null,"name":"Silicon Valley Hotels and Motels","feature_count":32,"description":"","next_feature":null,"is_raster":false,"short_classification":"Y","stats":{"latitude":{"max":37.440356,"variance":0.00115113674169256,"mean":37.38005271875,"stdev":0.0339284061177733,"min":37.269771,"median":37.382917},"longitude":{"max":-121.893341,"variance":0.00551234619124101,"mean":-121.99805328125,"stdev":0.0742451762153004,"min":-122.163419,"median":-121.992476}},"features":[{"properties":{"company":"Holiday Inn","zip":"94301","latitude":37.440356,"longitude":-122.163419,"id":"afpf1h2ek7cj","address":"625 El Camino Real"},"type":"Feature","geometry":{"type":"Point","coordinates":[-122.163419,37.440356]}},{"properties":{"company":"Country Inn","zip":"94043","latitude":37.404615,"longitude":-122.118046,"id":"afpf1h8zth7u","address":"4345 El Camino Real"},"type":"Feature","geometry":{"type":"Point","coordinates":[-122.118046,37.404615]}},{"properties":{"company":"El Camino Real Motor Inn","zip":"94043","latitude":37.423454,"longitude":-122.142982,"id":"afpf1h88webu","address":"2700 El Camino Real"},"type":"Feature","geometry":{"type":"Point","coordinates":[-122.142982,37.423454]}},{"properties":{"company":"Mountain View Inn","zip":"94043","latitude":37.425459,"longitude":-122.146745,"id":"afpf1h4v2zjs","address":"2300 El Camino Real"},"type":"Feature","geometry":{"type":"Point","coordinates":[-122.146745,37.425459]}},{"properties":{"company":"E-Z 8 Motel","zip":"94043","latitude":37.40646,"longitude":-122.075957,"id":"afpf1hgo7nin","address":"1984 El Camino Real"},"type":"Feature","geometry":{"type":"Point","coordinates":[-122.075957,37.40646]}},{"properties":{"company":"County Inn","zip":"94043","latitude":37.405836,"longitude":-122.06559,"id":"afpf1h73oxxj","address":"850 Leong Dr."},"type":"Feature","geometry":{"type":"Point","coordinates":[-122.06559,37.405836]}},{"properties":{"company":"Sheraton Sunnyvale Inn","zip":"94086","latitude":37.404153,"longitude":-122.026329,"id":"afpf1h5hhxwi","address":"1100 N. Mathilda Ave."},"type":"Feature","geometry":{"type":"Point","coordinates":[-122.026329,37.404153]}},{"properties":{"company":"SUNDOWNER INN","zip":"94086","latitude":37.402393,"longitude":-122.027594,"id":"afpf1h8rg4mt","address":"504 ROSS DR."},"type":"Feature","geometry":{"type":"Point","coordinates":[-122.027594,37.402393]}},{"properties":{"company":"SUNNYVILLE INN","zip":"94086","latitude":37.371042,"longitude":-122.023851,"id":"afpf1hf8l713","address":"940 WEDDELL"},"type":"Feature","geometry":{"type":"Point","coordinates":[-122.023851,37.371042]}},{"properties":{"company":"VAGABOND MOTOR HOTEL","zip":"94086","latitude":37.396288,"longitude":-122.028094,"id":"afpf1heikjuv","address":"816 AHWANEE AVE."},"type":"Feature","geometry":{"type":"Point","coordinates":[-122.028094,37.396288]}},{"properties":{"company":"MOTEL 6","zip":"94086","latitude":37.395957,"longitude":-122.028062,"id":"afpf1h3mpkjm","address":"806 AHWANEE AVE."},"type":"Feature","geometry":{"type":"Point","coordinates":[-122.028062,37.395957]}},{"properties":{"company":"GRANADA INN","zip":"94086","latitude":37.393512,"longitude":-122.029369,"id":"afpf1h8b8evt","address":"690 N. MATHILDA AVE."},"type":"Feature","geometry":{"type":"Point","coordinates":[-122.029369,37.393512]}},{"properties":{"company":"CAPTAINS COVE MOTEL","zip":"94086","latitude":37.392173,"longitude":-122.029823,"id":"afpf1h3jdagi","address":"600 N. MATHILDA AVE."},"type":"Feature","geometry":{"type":"Point","coordinates":[-122.029823,37.392173]}},{"properties":{"company":"HOLIDAY INN","zip":"94086","latitude":37.390481,"longitude":-121.992476,"id":"afpf1h9yu341","address":"1217 WILDWOOD WAY"},"type":"Feature","geometry":{"type":"Point","coordinates":[-121.992476,37.390481]}},{"properties":{"company":"HILTON INN","zip":"94086","latitude":37.389223,"longitude":-121.99055,"id":"afpf1hb5fx4c","address":"1250 LAKESIDE DR."},"type":"Feature","geometry":{"type":"Point","coordinates":[-121.99055,37.389223]}},{"properties":{"company":"MARRIOTT","zip":"95050","latitude":37.345991,"longitude":-121.94882,"id":"afpf1h5oazj4","address":"GREAT AMERICA PARKWAY"},"type":"Feature","geometry":{"type":"Point","coordinates":[-121.94882,37.345991]}},{"properties":{"company":"RAMADA INN","zip":"95050","latitude":37.382917,"longitude":-121.962475,"id":"afpf1h8nlibj","address":"2151 LAURELWOOD RD."},"type":"Feature","geometry":{"type":"Point","coordinates":[-121.962475,37.382917]}},{"properties":{"company":"SANDMAN MOTEL","zip":"95050","latitude":37.345983,"longitude":-121.948812,"id":"afpf1h8lueqh","address":"2585 SEABOARD AVE."},"type":"Feature","geometry":{"type":"Point","coordinates":[-121.948812,37.345983]}},{"properties":{"company":"RAMADA INN","zip":"95050","latitude":37.382917,"longitude":-121.962475,"id":"afpf1h1soyjh","address":"2151 LAURELWOOD RD."},"type":"Feature","geometry":{"type":"Point","coordinates":[-121.962475,37.382917]}},{"properties":{"company":"HOWARD JOHNSON'S MOTOR LODGE","zip":"95051","latitude":37.323008,"longitude":-122.002393,"id":"afpf1h5tlafi","address":"5405 STEVENS CREEK BLVD."},"type":"Feature","geometry":{"type":"Point","coordinates":[-122.002393,37.323008]}},{"properties":{"company":"SANTA CLARA HOLIDAY LODGE","zip":"95051","latitude":37.352349,"longitude":-122.00127,"id":"afpf1hedwtvc","address":"4341 EL CAMINO REAL"},"type":"Feature","geometry":{"type":"Point","coordinates":[-122.00127,37.352349]}},{"properties":{"company":"VAGABOND MOTOR HOTEL","zip":"95051","latitude":37.352272,"longitude":-121.994739,"id":"afpf1hao1rtt","address":"3580 EL CAMINO REAL"},"type":"Feature","geometry":{"type":"Point","coordinates":[-121.994739,37.352272]}},{"properties":{"company":"EDGEWATER LODGE","zip":"95051","latitude":37.352312,"longitude":-121.979691,"id":"afpf1h5umtgc","address":"2930 EL CAMINO REAL"},"type":"Feature","geometry":{"type":"Point","coordinates":[-121.979691,37.352312]}},{"properties":{"company":"CALIFORNIA 6 MOTEL","zip":"95008","latitude":37.269771,"longitude":-121.945663,"id":"afpf1h80nmhy","address":"1240 CAMDEN AVE."},"type":"Feature","geometry":{"type":"Point","coordinates":[-121.945663,37.269771]}},{"properties":{"company":"TRAVELODGE","zip":"95035","latitude":37.433588,"longitude":-121.893341,"id":"afpf1h3im4if","address":"160 ALVISO-MILPITAS RD."},"type":"Feature","geometry":{"type":"Point","coordinates":[-121.893341,37.433588]}},{"properties":{"company":"HOWARD JOHNSON'S","zip":"95112","latitude":37.370302,"longitude":-121.916185,"id":"afpf1ha8j11l","address":"1755 N. 1ST ST."},"type":"Feature","geometry":{"type":"Point","coordinates":[-121.916185,37.370302]}},{"properties":{"company":"HYATT SAN JOSE","zip":"95112","latitude":37.370173,"longitude":-121.915802,"id":"afpf1hdobvf4","address":"1740 N. 1ST ST."},"type":"Feature","geometry":{"type":"Point","coordinates":[-121.915802,37.370173]}},{"properties":{"company":"RED LION MOTOR INN","zip":"95110","latitude":37.371195,"longitude":-121.923547,"id":"afpf1hfdaawx","address":"2050 GATEWAY PLACE"},"type":"Feature","geometry":{"type":"Point","coordinates":[-121.923547,37.371195]}},{"properties":{"company":"HOWARD JOHNSON'S","zip":"95110","latitude":37.370302,"longitude":-121.916185,"id":"afpf1h3fd4e8","address":"1755 N. 1ST ST."},"type":"Feature","geometry":{"type":"Point","coordinates":[-121.916185,37.370302]}},{"properties":{"company":"HYATT SAN JOSE","zip":"95110","latitude":37.370173,"longitude":-121.915802,"id":"afpf1h6cyje4","address":"1740 N. 1ST ST."},"type":"Feature","geometry":{"type":"Point","coordinates":[-121.915802,37.370173]}},{"properties":{"company":"E- Z 8","zip":"95110","latitude":37.363894,"longitude":-121.911094,"id":"afpf1h6gyian","address":"1550 N. 1ST ST."},"type":"Feature","geometry":{"type":"Point","coordinates":[-121.911094,37.363894]}},{"properties":{"company":"VAGABOND MOTOR HOTEL","zip":"95110","latitude":37.363138,"longitude":-121.910524,"id":"afpf1hgqn9mb","address":"1488 N. 1ST ST."},"type":"Feature","geometry":{"type":"Point","coordinates":[-121.910524,37.363138]}}],"is_temporal":false,"author":{"url":"","metadata":"","contact_name":"","contact_address":"","source":"","contact_phone":""},"source":"","pagination":{"sort":null,"start":0,"total":32,"limit":1000000},"state":"complete","tags":"","published":"2014-08-16T23:08:18-04:00","id":376897}