{"type":"FeatureCollection","data_type":"Dataset","url_type":null,"permissions":[{"permissions":{"download":true,"view":true},"group_id":"everyone"}],"classification":null,"title":"Branch Offices","count":296,"stream_id":376912,"contributor":{"url":"http://geocommons.com/users/2968","name":"alexismadrigal"},"data_attributes":null,"calculation_params":null,"icon_link":null,"link":"http://geocommons.com/overlays/376912.json","extent":[-122.153,37.2292,15.0552,37.5057],"geometry_types":["point"],"unique_name":null,"name":"Branch Offices","feature_count":296,"description":"","next_feature":null,"is_raster":false,"short_classification":"Y","stats":{"latitude":{"max":37.442744,"variance":0.00143926610699505,"mean":37.3781691587838,"stdev":0.0379376608002529,"min":37.229188,"median":37.383925},"longitude":{"max":-121.773443,"variance":0.00534474296929782,"mean":-121.998249118243,"stdev":0.0731077490372793,"min":-122.152583,"median":-121.997474}},"features":[{"properties":{"company":"Sony Technology Center Inc","latitude":37.431571,"zip":"94303","longitude":-122.104051,"id":"afpfwrojjip8","address":"1003 Elwell Court"},"type":"Feature","geometry":{"type":"Point","coordinates":[-122.104051,37.431571]}},{"properties":{"company":"McDonnell Douglas Elect. Corp.","latitude":37.431188,"zip":"94303","longitude":-122.109471,"id":"afpfwrtxlyh1","address":"1057 E. Meadow Circle"},"type":"Feature","geometry":{"type":"Point","coordinates":[-122.109471,37.431188]}},{"properties":{"company":"Corning A.C.I.","latitude":37.413212,"zip":"94303","longitude":-122.104899,"id":"afpfwrobzcdq","address":"490 San Antonio Road"},"type":"Feature","geometry":{"type":"Point","coordinates":[-122.104899,37.413212]}},{"properties":{"company":"Coherent Inc.","latitude":37.438142,"zip":"94303","longitude":-122.112178,"id":"afpfwrlna8rl","address":"3270 W. Bayshore Road"},"type":"Feature","geometry":{"type":"Point","coordinates":[-122.112178,37.438142]}},{"properties":{"company":"Eastman Kodak Co.","latitude":37.419496,"zip":"94304","longitude":-122.144927,"id":"afpfwrmhvyt1","address":"925 Page Mill Rd."},"type":"Feature","geometry":{"type":"Point","coordinates":[-122.144927,37.419496]}},{"properties":{"company":"Beckman Instruments Inc.","latitude":37.419734,"zip":"94304","longitude":-122.144941,"id":"afpfwro1aq36","address":"950 Page Mill Rd."},"type":"Feature","geometry":{"type":"Point","coordinates":[-122.144941,37.419734]}},{"properties":{"company":"Preformed Line Products Co.","latitude":37.420489,"zip":"94306","longitude":-122.138372,"id":"afpfwrm2svo3","address":"600 Hansen Way"},"type":"Feature","geometry":{"type":"Point","coordinates":[-122.138372,37.420489]}},{"properties":{"company":"Varian Associates","latitude":37.424066,"zip":"94304","longitude":-122.146674,"id":"afpfwro6sdok","address":"601 California Ave."},"type":"Feature","geometry":{"type":"Point","coordinates":[-122.146674,37.424066]}},{"properties":{"company":"Hewlett Packard","latitude":37.425661,"zip":"94304","longitude":-122.13973,"id":"afpfwrl6961x","address":"395 Page Mill Rd."},"type":"Feature","geometry":{"type":"Point","coordinates":[-122.13973,37.425661]}},{"properties":{"company":"Hewlett Packard","latitude":37.421408,"zip":"94304","longitude":-122.143546,"id":"afpfwrkjrs2y","address":"640 Page Mill Rd."},"type":"Feature","geometry":{"type":"Point","coordinates":[-122.143546,37.421408]}},{"properties":{"company":"Hewlett Packard","latitude":37.442744,"zip":"94301","longitude":-122.131391,"id":"afpfwric0cuo","address":"901 California Ave."},"type":"Feature","geometry":{"type":"Point","coordinates":[-122.131391,37.442744]}},{"properties":{"company":"Syva Co.","latitude":37.418192,"zip":"94306","longitude":-122.140259,"id":"afpfwrtmpvjk","address":"900 Hansen Way"},"type":"Feature","geometry":{"type":"Point","coordinates":[-122.140259,37.418192]}},{"properties":{"company":"Aydin Energy Division","latitude":37.415343,"zip":"94304","longitude":-122.143352,"id":"afpfwruxj6op","address":"3180 Hanover St."},"type":"Feature","geometry":{"type":"Point","coordinates":[-122.143352,37.415343]}},{"properties":{"company":"Hewlett Packard","latitude":37.413842,"zip":"94304","longitude":-122.149615,"id":"afpfwriegkoc","address":"1501 Page Mill Rd."},"type":"Feature","geometry":{"type":"Point","coordinates":[-122.149615,37.413842]}},{"properties":{"company":"Hewlett Packard","latitude":37.416111,"zip":"94304","longitude":-122.144814,"id":"afpfwrmrrony","address":"3000 Hanover St."},"type":"Feature","geometry":{"type":"Point","coordinates":[-122.144814,37.416111]}},{"properties":{"company":"Hewlett Packard","latitude":37.416988,"zip":"94306","longitude":-122.152583,"id":"afpfwrjjmt4y","address":"1601 California Ave."},"type":"Feature","geometry":{"type":"Point","coordinates":[-122.152583,37.416988]}},{"properties":{"company":"TAB Products","latitude":37.418106,"zip":"94306","longitude":-122.151616,"id":"afpfwrth3op0","address":"1451 California Ave."},"type":"Feature","geometry":{"type":"Point","coordinates":[-122.151616,37.418106]}},{"properties":{"company":"Xerox P.A.R.C.","latitude":37.418602,"zip":"94304","longitude":-122.14963,"id":"afpfwrnmummt","address":"2500 Hanover St."},"type":"Feature","geometry":{"type":"Point","coordinates":[-122.14963,37.418602]}},{"properties":{"company":"IBM Corp.","latitude":37.414567,"zip":"94304","longitude":-122.14921,"id":"afpfwrsxhmb7","address":"1550 Page Mill Rd."},"type":"Feature","geometry":{"type":"Point","coordinates":[-122.14921,37.414567]}},{"properties":{"company":"IBM Corp.","latitude":37.417686,"zip":"94306","longitude":-122.151977,"id":"afpfwrppl1k4","address":"1501 California Ave."},"type":"Feature","geometry":{"type":"Point","coordinates":[-122.151977,37.417686]}},{"properties":{"company":"Lockheed-Laboratory","latitude":37.411911,"zip":"94304","longitude":-122.14481,"id":"afpfwrp6o7h4","address":"3251 Hanover St."},"type":"Feature","geometry":{"type":"Point","coordinates":[-122.14481,37.411911]}},{"properties":{"company":"Power Designs Pacifics Inc.","latitude":37.404744,"zip":"94304","longitude":-122.146485,"id":"afpfwru6qniv","address":"3381 Miranda Ave."},"type":"Feature","geometry":{"type":"Point","coordinates":[-122.146485,37.404744]}},{"properties":{"company":"General Instrument Corp","latitude":37.403466,"zip":"94304","longitude":-122.146002,"id":"afpfwru3jma8","address":"3400 Hillview Ave."},"type":"Feature","geometry":{"type":"Point","coordinates":[-122.146002,37.403466]}},{"properties":{"company":"Fairchild","latitude":37.397349,"zip":"94304","longitude":-122.143956,"id":"afpfwrvz4ekg","address":"3440 Hillview Ave."},"type":"Feature","geometry":{"type":"Point","coordinates":[-122.143956,37.397349]}},{"properties":{"company":"Fairchild","latitude":37.401638,"zip":"94304","longitude":-122.139755,"id":"afpfwrqy7fzi","address":"4001 Miranda Ave."},"type":"Feature","geometry":{"type":"Point","coordinates":[-122.139755,37.401638]}},{"properties":{"company":"Hewlett Packard","latitude":37.396082,"zip":"94304","longitude":-122.151332,"id":"afpfwrsa0ge2","address":"3495 Deer Creek Rd."},"type":"Feature","geometry":{"type":"Point","coordinates":[-122.151332,37.396082]}},{"properties":{"company":"Hewlett Packard","latitude":37.39617,"zip":"94304","longitude":-122.151621,"id":"afpfwrvuddsa","address":"3500 Deer Creek Rd."},"type":"Feature","geometry":{"type":"Point","coordinates":[-122.151621,37.39617]}},{"properties":{"company":"Xerox P.A.R.C.","latitude":37.40226,"zip":"94304","longitude":-122.150382,"id":"afpfwrryy2b0","address":"3333 Coyote Hill Rd."},"type":"Feature","geometry":{"type":"Point","coordinates":[-122.150382,37.40226]}},{"properties":{"company":"Perkin-Elmer","latitude":37.421481,"zip":"94043","longitude":-122.095233,"id":"afpfwrnwh11v","address":"2288 Charleston Rd."},"type":"Feature","geometry":{"type":"Point","coordinates":[-122.095233,37.421481]}},{"properties":{"company":"Bell Industries/Precision Metalcraft","latitude":37.428882,"zip":"94043","longitude":-122.098136,"id":"afpfwrjz3621","address":"2637 Marine Way"},"type":"Feature","geometry":{"type":"Point","coordinates":[-122.098136,37.428882]}},{"properties":{"company":"Bell Industries","latitude":37.426447,"zip":"94043","longitude":-122.094604,"id":"afpfwrggocc6","address":"2599 Garcia Ave."},"type":"Feature","geometry":{"type":"Point","coordinates":[-122.094604,37.426447]}},{"properties":{"company":"Syntex Corp.","latitude":37.421556,"zip":"94043","longitude":-122.096541,"id":"afpfwrvdj4mw","address":"2375 Charleston Rd."},"type":"Feature","geometry":{"type":"Point","coordinates":[-122.096541,37.421556]}},{"properties":{"company":"G.T.E. Fibre Optics","latitude":37.420443,"zip":"94043","longitude":-122.077096,"id":"afpfwrn0yv7j","address":"1395 Charleston Rd."},"type":"Feature","geometry":{"type":"Point","coordinates":[-122.077096,37.420443]}},{"properties":{"company":"Syva","latitude":37.418518,"zip":"94043","longitude":-122.076944,"id":"afpfwri1uksi","address":"1390 Shorebird Way"},"type":"Feature","geometry":{"type":"Point","coordinates":[-122.076944,37.418518]}},{"properties":{"company":"Shigma Inc.","latitude":37.40955,"zip":"94043","longitude":-122.078119,"id":"afpfwrl50ztz","address":"1400 Stierlin Rd."},"type":"Feature","geometry":{"type":"Point","coordinates":[-122.078119,37.40955]}},{"properties":{"company":"T.R.W./Vidar Corp.","latitude":37.403712,"zip":"94040","longitude":-122.102613,"id":"afpfwrrqpfz6","address":"77 Ortega Ave."},"type":"Feature","geometry":{"type":"Point","coordinates":[-122.102613,37.403712]}},{"properties":{"company":"Ask Computer Systems Inc.","latitude":37.394985,"zip":"94022","longitude":-122.104203,"id":"afpfwriu7nlk","address":"730 Distel Dr."},"type":"Feature","geometry":{"type":"Point","coordinates":[-122.104203,37.394985]}},{"properties":{"company":"Spectra Physics Inc","latitude":37.406946,"zip":"94043","longitude":-122.079298,"id":"afpfwrolr1av","address":"1250 W. Middlefield Rd."},"type":"Feature","geometry":{"type":"Point","coordinates":[-122.079298,37.406946]}},{"properties":{"company":"Teledyne Semiconductor","latitude":37.409456,"zip":"94043","longitude":-122.080064,"id":"afpfwrwjyr65","address":"1300 Terra Bella Ave"},"type":"Feature","geometry":{"type":"Point","coordinates":[-122.080064,37.409456]}},{"properties":{"company":"Abbott Labs","latitude":37.408556,"zip":"94043","longitude":-122.07898,"id":"afpfwrpygr9r","address":"1212 Terra Bella Ave"},"type":"Feature","geometry":{"type":"Point","coordinates":[-122.07898,37.408556]}},{"properties":{"company":"Fairchild Camera &amp; Instru.","latitude":37.401324,"zip":"94043","longitude":-122.053348,"id":"afpfwrpmp5fz","address":"465 National Ave."},"type":"Feature","geometry":{"type":"Point","coordinates":[-122.053348,37.401324]}},{"properties":{"company":"Siltec Corp.","latitude":37.40109,"zip":"94043","longitude":-122.052194,"id":"afpfwrk118ms","address":"405 National Ave."},"type":"Feature","geometry":{"type":"Point","coordinates":[-122.052194,37.40109]}},{"properties":{"company":"Aydin Systems Div. Mfg.","latitude":37.400633,"zip":"94043","longitude":-122.049289,"id":"afpfwrw5wmfc","address":"640 Clyde Ct."},"type":"Feature","geometry":{"type":"Point","coordinates":[-122.049289,37.400633]}},{"properties":{"company":"Antekna Inc.","latitude":37.400697,"zip":"94043","longitude":-122.047279,"id":"afpfwroy8jx8","address":"625 Clyde Ct."},"type":"Feature","geometry":{"type":"Point","coordinates":[-122.047279,37.400697]}},{"properties":{"company":"Raytheon","latitude":37.38802,"zip":"94042","longitude":-122.07431,"id":"afpfwrisycy3","address":"350 Ellis St."},"type":"Feature","geometry":{"type":"Point","coordinates":[-122.07431,37.38802]}},{"properties":{"company":"Raytheon","latitude":37.396411,"zip":"94043","longitude":-122.056092,"id":"afpfwrr5nyfg","address":"415 E. Middlefield Rd."},"type":"Feature","geometry":{"type":"Point","coordinates":[-122.056092,37.396411]}},{"properties":{"company":"Electronic Arrays Inc.","latitude":37.401636,"zip":"94043","longitude":-122.05161,"id":"afpfwrht3663","address":"555 Ellis St."},"type":"Feature","geometry":{"type":"Point","coordinates":[-122.05161,37.401636]}},{"properties":{"company":"G.T.E. Sylvania","latitude":37.394029,"zip":"94043","longitude":-122.051413,"id":"afpfwrpxmls0","address":"685 E. Middlefield Rd."},"type":"Feature","geometry":{"type":"Point","coordinates":[-122.051413,37.394029]}},{"properties":{"company":"G.T.E. Sylvania","latitude":37.388228,"zip":"94043","longitude":-122.057415,"id":"afpfwromimyt","address":"100 Ferguson Dr."},"type":"Feature","geometry":{"type":"Point","coordinates":[-122.057415,37.388228]}},{"properties":{"company":"B.N.R. Inc.","latitude":37.38802,"zip":"94042","longitude":-122.07431,"id":"afpfwrn9jqj5","address":"685 E. Middlefield Rd."},"type":"Feature","geometry":{"type":"Point","coordinates":[-122.07431,37.38802]}},{"properties":{"company":"Hewlett Packard Parts","latitude":37.38802,"zip":"94042","longitude":-122.07431,"id":"afpfwrvhxcv1","address":"333 Logue Ave"},"type":"Feature","geometry":{"type":"Point","coordinates":[-122.07431,37.38802]}},{"properties":{"company":"Becton Dickinson Elect. Labs","latitude":37.398432,"zip":"94043","longitude":-122.046995,"id":"afpfwrqom1kc","address":"506 Clyde Ave"},"type":"Feature","geometry":{"type":"Point","coordinates":[-122.046995,37.398432]}},{"properties":{"company":"Seiko Circuits Inc.","latitude":37.39645,"zip":"94043","longitude":-122.047132,"id":"afpfwribtq3m","address":"415 Clyde Ave"},"type":"Feature","geometry":{"type":"Point","coordinates":[-122.047132,37.39645]}},{"properties":{"company":"Wavetek","latitude":37.39597,"zip":"94043","longitude":-122.048206,"id":"afpfwrgk8lm1","address":"875 Maude Ave"},"type":"Feature","geometry":{"type":"Point","coordinates":[-122.048206,37.39597]}},{"properties":{"company":"Consolidated Micrographics","latitude":37.388996,"zip":"94043","longitude":-122.054595,"id":"afpfwrkwog6t","address":"303 Ravendale Dr."},"type":"Feature","geometry":{"type":"Point","coordinates":[-122.054595,37.388996]}},{"properties":{"company":"Varian Associates","latitude":37.388785,"zip":"94043","longitude":-122.050654,"id":"afpfwrtdauew","address":"380 Bernardo Ave"},"type":"Feature","geometry":{"type":"Point","coordinates":[-122.050654,37.388785]}},{"properties":{"company":"Perkin-Elmer","latitude":37.396365,"zip":"94043","longitude":-122.047161,"id":"afpfwrmodr4a","address":"411 Clyde Ave"},"type":"Feature","geometry":{"type":"Point","coordinates":[-122.047161,37.396365]}},{"properties":{"company":"Spectra Physics Inc","latitude":37.394789,"zip":"94043","longitude":-122.052164,"id":"afpfwrnax8yy","address":"575 E. Middlefield Rd."},"type":"Feature","geometry":{"type":"Point","coordinates":[-122.052164,37.394789]}},{"properties":{"company":"Intel Corp.","latitude":37.414585,"zip":"94086","longitude":-122.025061,"id":"afpfwrhc1hal","address":"1302 N. Mathilda Ave."},"type":"Feature","geometry":{"type":"Point","coordinates":[-122.025061,37.414585]}},{"properties":{"company":"Intel Corp.","latitude":37.415849,"zip":"94086","longitude":-122.009773,"id":"afpfwrv51dwf","address":"376 Caribbean Dr."},"type":"Feature","geometry":{"type":"Point","coordinates":[-122.009773,37.415849]}},{"properties":{"company":"Intel Corp.","latitude":37.41534,"zip":"94086","longitude":-122.02164,"id":"afpfwrrox5qo","address":"1350 Bordeaux Dr."},"type":"Feature","geometry":{"type":"Point","coordinates":[-122.02164,37.41534]}},{"properties":{"company":"Apple Computer","latitude":37.414713,"zip":"94086","longitude":-122.021526,"id":"afpfwrrvanb4","address":"1335 Bordeaux Dr."},"type":"Feature","geometry":{"type":"Point","coordinates":[-122.021526,37.414713]}},{"properties":{"company":"Apple Computer","latitude":37.411236,"zip":"94086","longitude":-122.016605,"id":"afpfwrhz9zkz","address":"232 Java Dr."},"type":"Feature","geometry":{"type":"Point","coordinates":[-122.016605,37.411236]}},{"properties":{"company":"Diasonics","latitude":37.410801,"zip":"94086","longitude":-122.022819,"id":"afpfwrgur6v1","address":"1235 Bordeaux Dr."},"type":"Feature","geometry":{"type":"Point","coordinates":[-122.022819,37.410801]}},{"properties":{"company":"Control Data Corp.","latitude":37.411006,"zip":"94086","longitude":-122.006847,"id":"afpfwruf0knw","address":"1330 Orleans Dr."},"type":"Feature","geometry":{"type":"Point","coordinates":[-122.006847,37.411006]}},{"properties":{"company":"Atari Inc.","latitude":37.410451,"zip":"94086","longitude":-122.018385,"id":"afpfwrlr0p6w","address":"1272 Borregas Ave"},"type":"Feature","geometry":{"type":"Point","coordinates":[-122.018385,37.410451]}},{"properties":{"company":"Atari Inc.","latitude":37.404068,"zip":"94086","longitude":-122.023328,"id":"afpfwrnvyaz8","address":"155 Moffett Park Dr."},"type":"Feature","geometry":{"type":"Point","coordinates":[-122.023328,37.404068]}},{"properties":{"company":"Atari Inc.","latitude":37.408356,"zip":"94086","longitude":-122.0236,"id":"afpfwrsobdsr","address":"1183 Bordeaux Dr."},"type":"Feature","geometry":{"type":"Point","coordinates":[-122.0236,37.408356]}},{"properties":{"company":"Atari Inc.","latitude":37.414143,"zip":"94086","longitude":-122.021686,"id":"afpfwrm2tjtq","address":"1320 Bordeaux Dr."},"type":"Feature","geometry":{"type":"Point","coordinates":[-122.021686,37.414143]}},{"properties":{"company":"Atari Inc.","latitude":37.41576,"zip":"94086","longitude":-122.009314,"id":"afpfwrntsj6k","address":"390 Caribbean Dr."},"type":"Feature","geometry":{"type":"Point","coordinates":[-122.009314,37.41576]}},{"properties":{"company":"Atari Inc.","latitude":37.414956,"zip":"94086","longitude":-122.021492,"id":"afpfwrkf4zez","address":"1340 Bordeaux Dr."},"type":"Feature","geometry":{"type":"Point","coordinates":[-122.021492,37.414956]}},{"properties":{"company":"Atari Inc.","latitude":37.416064,"zip":"94086","longitude":-122.016557,"id":"afpfwrnkagc3","address":"1383 Borregas Ave."},"type":"Feature","geometry":{"type":"Point","coordinates":[-122.016557,37.416064]}},{"properties":{"company":"Atari Inc.","latitude":37.409773,"zip":"94086","longitude":-122.016363,"id":"afpfwrk7dyv8","address":"275 Gibraltar Dr."},"type":"Feature","geometry":{"type":"Point","coordinates":[-122.016363,37.409773]}},{"properties":{"company":"Atari Inc.","latitude":37.41183,"zip":"94086","longitude":-122.00064,"id":"afpfwrpg4g1n","address":"1399 Moffett Park Dr."},"type":"Feature","geometry":{"type":"Point","coordinates":[-122.00064,37.41183]}},{"properties":{"company":"Varian Associates","latitude":37.408159,"zip":"94086","longitude":-122.018385,"id":"afpfwrswxckt","address":"220 Humboldt Ct."},"type":"Feature","geometry":{"type":"Point","coordinates":[-122.018385,37.408159]}},{"properties":{"company":"Calma Company","latitude":37.408155,"zip":"94086","longitude":-122.01828,"id":"afpfwrgvmfmy","address":"225 Humboldt Ct."},"type":"Feature","geometry":{"type":"Point","coordinates":[-122.01828,37.408155]}},{"properties":{"company":"Calma Company","latitude":37.41013,"zip":"94086","longitude":-122.018021,"id":"afpfwrsqicjh","address":"213 Gibraltar"},"type":"Feature","geometry":{"type":"Point","coordinates":[-122.018021,37.41013]}},{"properties":{"company":"RGM Sys.","latitude":37.40903,"zip":"94086","longitude":-122.018874,"id":"afpfwrtyif01","address":"1250 Borregas Ave."},"type":"Feature","geometry":{"type":"Point","coordinates":[-122.018874,37.40903]}},{"properties":{"company":"National Advanced Systems","latitude":37.417186,"zip":"94086","longitude":-122.017877,"id":"afpfwru9kpvx","address":"140 Caribbean Dr."},"type":"Feature","geometry":{"type":"Point","coordinates":[-122.017877,37.417186]}},{"properties":{"company":"Ford Aerospace &amp; Comm. Corp.","latitude":37.410339,"zip":"94086","longitude":-122.010381,"id":"afpfwrhjlo36","address":"1260 Crossman Ave."},"type":"Feature","geometry":{"type":"Point","coordinates":[-122.010381,37.410339]}},{"properties":{"company":"IBM Corp.","latitude":37.371042,"zip":"94086","longitude":-122.023851,"id":"afpfwrrz5znw","address":"1299 Orleans Ave."},"type":"Feature","geometry":{"type":"Point","coordinates":[-122.023851,37.371042]}},{"properties":{"company":"General Elec. Co./Space Div.","latitude":37.409789,"zip":"94086","longitude":-122.00728,"id":"afpfwrn8e8cp","address":"1277 Orleans Dr."},"type":"Feature","geometry":{"type":"Point","coordinates":[-122.00728,37.409789]}},{"properties":{"company":"Honeywell Comm. Div.","latitude":37.371042,"zip":"94086","longitude":-122.023851,"id":"afpfwrhqa21k","address":"1130 Mt. View-Alviso Rd."},"type":"Feature","geometry":{"type":"Point","coordinates":[-122.023851,37.371042]}},{"properties":{"company":"Gould -- S.E.L. Computer Sys.","latitude":37.408698,"zip":"94086","longitude":-121.993788,"id":"afpfwrw3lxwk","address":"1289 Anvilwood Ave."},"type":"Feature","geometry":{"type":"Point","coordinates":[-121.993788,37.408698]}},{"properties":{"company":"Interdesign Inc./Ferranti","latitude":37.405668,"zip":"94086","longitude":-121.988545,"id":"afpfwrt4oubk","address":"1255 Reamwood Ave."},"type":"Feature","geometry":{"type":"Point","coordinates":[-121.988545,37.405668]}},{"properties":{"company":"Intersil Inc.","latitude":37.407927,"zip":"94086","longitude":-121.990412,"id":"afpfwrvbqi23","address":"1273 Hammerwood Ave."},"type":"Feature","geometry":{"type":"Point","coordinates":[-121.990412,37.407927]}},{"properties":{"company":"Solectron Corp.","latitude":37.367105,"zip":"94086","longitude":-121.996054,"id":"afpfwrkt1m7f","address":"1286 Lawrence Stat. Rd."},"type":"Feature","geometry":{"type":"Point","coordinates":[-121.996054,37.367105]}},{"properties":{"company":"Atari Inc.","latitude":37.409528,"zip":"94086","longitude":-121.992,"id":"afpfwrnqcpbz","address":"1285 Forgewood Ave."},"type":"Feature","geometry":{"type":"Point","coordinates":[-121.992,37.409528]}},{"properties":{"company":"ACUREX CORP .","latitude":37.397956,"zip":"94086","longitude":-122.046995,"id":"afpfwrssse0t","address":"485 CLYDE AVE."},"type":"Feature","geometry":{"type":"Point","coordinates":[-122.046995,37.397956]}},{"properties":{"company":"APPLIED TECH/ITEK","latitude":37.396377,"zip":"94086","longitude":-122.028853,"id":"afpfwruv23zu","address":"525 ALMANOR AVE."},"type":"Feature","geometry":{"type":"Point","coordinates":[-122.028853,37.396377]}},{"properties":{"company":"GENERAL TECHNOLOGY CORP.","latitude":37.393885,"zip":"94086","longitude":-122.043315,"id":"afpfwrscj1ye","address":"1028 W. MAUDE AVE."},"type":"Feature","geometry":{"type":"Point","coordinates":[-122.043315,37.393885]}},{"properties":{"company":"SYSTEM DEVELOPMENT CORP .","latitude":37.393589,"zip":"94086","longitude":-122.04183,"id":"afpfwrthn08o","address":"500 MACARA AVE."},"type":"Feature","geometry":{"type":"Point","coordinates":[-122.04183,37.393589]}},{"properties":{"company":"CANDELA ELECTRONICS","latitude":37.371042,"zip":"94086","longitude":-122.023851,"id":"afpfwrvzw8iv","address":"550 DEL REY"},"type":"Feature","geometry":{"type":"Point","coordinates":[-122.023851,37.371042]}},{"properties":{"company":"CALIF. MICROWAVE INC.","latitude":37.396597,"zip":"94086","longitude":-122.035797,"id":"afpfwrqlv92y","address":"760 N. MARY AVE."},"type":"Feature","geometry":{"type":"Point","coordinates":[-122.035797,37.396597]}},{"properties":{"company":"ADDINGTON PROCESSING LAB","latitude":37.390654,"zip":"94086","longitude":-122.033495,"id":"afpfwrr5ir5v","address":"680 W. MAUDE AVE."},"type":"Feature","geometry":{"type":"Point","coordinates":[-122.033495,37.390654]}},{"properties":{"company":"NATIONAL SEMICONDCUTOR","latitude":37.397703,"zip":"94086","longitude":-122.032891,"id":"afpfwrob7vdn","address":"675 ALMANOR AVE ."},"type":"Feature","geometry":{"type":"Point","coordinates":[-122.032891,37.397703]}},{"properties":{"company":"FERIX","latitude":37.39326,"zip":"94086","longitude":-122.032129,"id":"afpfwrnnsqdw","address":"611 VAQUEROS AVE."},"type":"Feature","geometry":{"type":"Point","coordinates":[-122.032129,37.39326]}},{"properties":{"company":"DATAPOINT PERIPHERAL PRODUCT INC.","latitude":37.391009,"zip":"94086","longitude":-122.034615,"id":"afpfwrjrtnvq","address":"810 W. MAUDE AVE ."},"type":"Feature","geometry":{"type":"Point","coordinates":[-122.034615,37.391009]}},{"properties":{"company":"AMPEX CORP.","latitude":37.396359,"zip":"94086","longitude":-122.026872,"id":"afpfwrn31k54","address":"728 SAN ALESO AVE ."},"type":"Feature","geometry":{"type":"Point","coordinates":[-122.026872,37.396359]}},{"properties":{"company":"AMPEX CORP.","latitude":37.389991,"zip":"94086","longitude":-122.031446,"id":"afpfwrpuyg1b","address":"465 W. MAUDE AVE."},"type":"Feature","geometry":{"type":"Point","coordinates":[-122.031446,37.389991]}},{"properties":{"company":"AMPEX CORP .","latitude":37.371042,"zip":"94086","longitude":-122.023851,"id":"afpfwrsf2p9a","address":"814 SAN ALESO DR."},"type":"Feature","geometry":{"type":"Point","coordinates":[-122.023851,37.371042]}},{"properties":{"company":"VEECO/MACRONETICS INC.","latitude":37.393009,"zip":"94086","longitude":-122.03705,"id":"afpfwrr3i5mi","address":"585 N. MARY AVE."},"type":"Feature","geometry":{"type":"Point","coordinates":[-122.03705,37.393009]}},{"properties":{"company":"SEIKO CIRCUITS INC.","latitude":37.39645,"zip":"94086","longitude":-122.047132,"id":"afpfwrwozbmo","address":"415 CLYDE AVE ."},"type":"Feature","geometry":{"type":"Point","coordinates":[-122.047132,37.39645]}},{"properties":{"company":"LYNCH CIRCUITS INC.","latitude":37.38557,"zip":"94086","longitude":-122.052359,"id":"afpfwrs2y4vz","address":"41588 W. EVELYN AVE."},"type":"Feature","geometry":{"type":"Point","coordinates":[-122.052359,37.38557]}},{"properties":{"company":"VERBATIM CORP.","latitude":37.395045,"zip":"94086","longitude":-122.034531,"id":"afpfwrwl4ho0","address":"675 PALOMAR AVE."},"type":"Feature","geometry":{"type":"Point","coordinates":[-122.034531,37.395045]}},{"properties":{"company":"RACAL-VADIC INC.","latitude":37.397359,"zip":"94086","longitude":-122.035577,"id":"afpfwrmy2q9h","address":"785 N. MARY AVE ."},"type":"Feature","geometry":{"type":"Point","coordinates":[-122.035577,37.397359]}},{"properties":{"company":"SIGNETICS CORP.","latitude":37.385089,"zip":"94086","longitude":-122.031798,"id":"afpfwricshvi","address":"305 N. MATHILDA AVE."},"type":"Feature","geometry":{"type":"Point","coordinates":[-122.031798,37.385089]}},{"properties":{"company":"GCA IC SYSTEMS","latitude":37.395885,"zip":"94086","longitude":-122.034233,"id":"afpfwrnd7i28","address":"720 PALOMAR AVE ."},"type":"Feature","geometry":{"type":"Point","coordinates":[-122.034233,37.395885]}},{"properties":{"company":"SIGNETICS CORP.","latitude":37.383525,"zip":"94086","longitude":-122.013567,"id":"afpfwrkufo9s","address":"450 N. WOLFE RD."},"type":"Feature","geometry":{"type":"Point","coordinates":[-122.013567,37.383525]}},{"properties":{"company":"SIGNETICS CORP.","latitude":37.374593,"zip":"94086","longitude":-122.010624,"id":"afpfwrq7u2pl","address":"860 KIFER RD."},"type":"Feature","geometry":{"type":"Point","coordinates":[-122.010624,37.374593]}},{"properties":{"company":"SIGNETICS CORP.","latitude":37.383979,"zip":"94086","longitude":-122.010732,"id":"afpfwrlae9t5","address":"830 STEWART DR."},"type":"Feature","geometry":{"type":"Point","coordinates":[-122.010732,37.383979]}},{"properties":{"company":"SIGNETICS CORP.","latitude":37.385487,"zip":"94086","longitude":-122.007161,"id":"afpfwrtlgbh5","address":"897 DE GUIGNE DR."},"type":"Feature","geometry":{"type":"Point","coordinates":[-122.007161,37.385487]}},{"properties":{"company":"SIGNETICS CORP.","latitude":37.383951,"zip":"94086","longitude":-122.006398,"id":"afpfwriz1b80","address":"897 STEWART DR."},"type":"Feature","geometry":{"type":"Point","coordinates":[-122.006398,37.383951]}},{"properties":{"company":"SIGNETICS CORP.","latitude":37.371681,"zip":"94086","longitude":-122.016596,"id":"afpfwrt7pnj0","address":"730 E. EVELYN AVE."},"type":"Feature","geometry":{"type":"Point","coordinates":[-122.016596,37.371681]}},{"properties":{"company":"TANDEM COMPUTERS INC.","latitude":37.371042,"zip":"94086","longitude":-122.023851,"id":"afpfwrl33k0g","address":"1366 SANTA ANA CT."},"type":"Feature","geometry":{"type":"Point","coordinates":[-122.023851,37.371042]}},{"properties":{"company":"TANDEM COMPUTERS INC.","latitude":37.379708,"zip":"94086","longitude":-122.010541,"id":"afpfwrif8dfs","address":"245 SANTA ANA CT."},"type":"Feature","geometry":{"type":"Point","coordinates":[-122.010541,37.379708]}},{"properties":{"company":"INMAC","latitude":37.370447,"zip":"94086","longitude":-122.012022,"id":"afpfwrur4lcw","address":"130 S. WOLFE RD."},"type":"Feature","geometry":{"type":"Point","coordinates":[-122.012022,37.370447]}},{"properties":{"company":"CPS INC.","latitude":37.375565,"zip":"94086","longitude":-122.013809,"id":"afpfwrt2isbv","address":"110 WOLFE RD ."},"type":"Feature","geometry":{"type":"Point","coordinates":[-122.013809,37.375565]}},{"properties":{"company":"POLY MOLD TOOL &amp; ENGR.","latitude":37.376027,"zip":"94086","longitude":-122.008472,"id":"afpfwrnnjoud","address":"193 COMMERCIAL ST."},"type":"Feature","geometry":{"type":"Point","coordinates":[-122.008472,37.376027]}},{"properties":{"company":"GENERAL ELECTRIC CO.","latitude":37.381184,"zip":"94086","longitude":-122.007233,"id":"afpfwriudoix","address":"310 DE GUIGNE DR."},"type":"Feature","geometry":{"type":"Point","coordinates":[-122.007233,37.381184]}},{"properties":{"company":"HEWLETT PACKARD-DTD","latitude":37.380738,"zip":"94086","longitude":-122.004718,"id":"afpfwrlh8ffc","address":"974 E. ARQUES AVE."},"type":"Feature","geometry":{"type":"Point","coordinates":[-122.004718,37.380738]}},{"properties":{"company":"ADVANCED MICRO DEVICES INC.","latitude":37.383935,"zip":"94086","longitude":-122.006408,"id":"afpfwrguzn51","address":"898 STEWART DR."},"type":"Feature","geometry":{"type":"Point","coordinates":[-122.006408,37.383935]}},{"properties":{"company":"ADVANCED MICRO DEVICES INC.","latitude":37.371042,"zip":"94086","longitude":-122.023851,"id":"afpfwrp2250c","address":"9 15 DE GUIGNE DR ."},"type":"Feature","geometry":{"type":"Point","coordinates":[-122.023851,37.371042]}},{"properties":{"company":"AERTECH INDUSTRIES","latitude":37.383925,"zip":"94086","longitude":-122.002998,"id":"afpfwriinl13","address":"970 STEWART DR ."},"type":"Feature","geometry":{"type":"Point","coordinates":[-122.002998,37.383925]}},{"properties":{"company":"AERTECH INDUSTRIES","latitude":37.383245,"zip":"94086","longitude":-122.007206,"id":"afpfwrp5m2cn","address":"455 DE GUIGNE DR."},"type":"Feature","geometry":{"type":"Point","coordinates":[-122.007206,37.383245]}},{"properties":{"company":"GTE PRODUCTS","latitude":37.382579,"zip":"94086","longitude":-121.997474,"id":"afpfwruwdriv","address":"1180 KERN AVE."},"type":"Feature","geometry":{"type":"Point","coordinates":[-121.997474,37.382579]}},{"properties":{"company":"SINGER CO. / LINK DIV.","latitude":37.380513,"zip":"94086","longitude":-122.002266,"id":"afpfwrup4pfc","address":"1077 E . ARQUES AVE."},"type":"Feature","geometry":{"type":"Point","coordinates":[-122.002266,37.380513]}},{"properties":{"company":"T.R.W. SYSTEMS","latitude":37.371042,"zip":"94086","longitude":-122.023851,"id":"afpfwrujhez8","address":"11-1 5 E. ARQUES AVE."},"type":"Feature","geometry":{"type":"Point","coordinates":[-122.023851,37.371042]}},{"properties":{"company":"MONOLITHIC MEMORIES","latitude":37.380498,"zip":"94086","longitude":-121.997864,"id":"afpfwrl6o5xc","address":"1165 ARQUES AVE."},"type":"Feature","geometry":{"type":"Point","coordinates":[-121.997864,37.380498]}},{"properties":{"company":"CHEMICAL SYS.","latitude":37.380482,"zip":"94086","longitude":-122.000417,"id":"afpfwrq2lj3f","address":"1050 E. ARQUES AVE."},"type":"Feature","geometry":{"type":"Point","coordinates":[-122.000417,37.380482]}},{"properties":{"company":"NATIONAL SEMICONDCUTOR","latitude":37.373904,"zip":"94086","longitude":-121.999847,"id":"afpfwrwclm92","address":"1125 KIFER RD ."},"type":"Feature","geometry":{"type":"Point","coordinates":[-121.999847,37.373904]}},{"properties":{"company":"NATIONAL SEMICONDCUTOR","latitude":37.382591,"zip":"94086","longitude":-121.997594,"id":"afpfwrkgz02s","address":"1177 KERN AVE ."},"type":"Feature","geometry":{"type":"Point","coordinates":[-121.997594,37.382591]}},{"properties":{"company":"GCA IC SYSTEMS","latitude":37.373871,"zip":"94086","longitude":-122.002629,"id":"afpfwrm7n6ny","address":"1050 KIFER RD."},"type":"Feature","geometry":{"type":"Point","coordinates":[-122.002629,37.373871]}},{"properties":{"company":"NATL. SEMICONDUCTOR/TRANSDUCER","latitude":37.378557,"zip":"94086","longitude":-121.952363,"id":"afpfwrqe17dj","address":"1050 DUANE AVE."},"type":"Feature","geometry":{"type":"Point","coordinates":[-121.952363,37.378557]}},{"properties":{"company":"APPLIED TECH/ITEK","latitude":37.380978,"zip":"94086","longitude":-122.013356,"id":"afpfwrvs7q2b","address":"750 ARQUES AVE ."},"type":"Feature","geometry":{"type":"Point","coordinates":[-122.013356,37.380978]}},{"properties":{"company":"EATON CORP. / MACRODATA","latitude":37.380498,"zip":"94086","longitude":-121.999848,"id":"afpfwrpvuv9w","address":"1115 ARQUES AVE."},"type":"Feature","geometry":{"type":"Point","coordinates":[-121.999848,37.380498]}},{"properties":{"company":"TOSHIBA SEMICONDUCTOR USA INC.","latitude":37.371042,"zip":"94086","longitude":-122.023851,"id":"afpfwro6lxzb","address":"1220 MIDWAS WAY"},"type":"Feature","geometry":{"type":"Point","coordinates":[-122.023851,37.371042]}},{"properties":{"company":"BECTON DICKINSON FACS SYSTEMS","latitude":37.382649,"zip":"94086","longitude":-121.993368,"id":"afpfwrsd5xbm","address":"470 LAKESIDE DR."},"type":"Feature","geometry":{"type":"Point","coordinates":[-121.993368,37.382649]}},{"properties":{"company":"N.C.A. CORP.","latitude":37.386878,"zip":"94086","longitude":-121.991082,"id":"afpfwrhcrarv","address":"1263 OAKMEAD PARKWAY"},"type":"Feature","geometry":{"type":"Point","coordinates":[-121.991082,37.386878]}},{"properties":{"company":"CALMA COMPANY","latitude":37.385005,"zip":"94086","longitude":-121.993367,"id":"afpfwrw4wt8o","address":"527 LAKESIDE DR."},"type":"Feature","geometry":{"type":"Point","coordinates":[-121.993367,37.385005]}},{"properties":{"company":"T.R.W. SYSTEMS","latitude":37.382599,"zip":"94086","longitude":-121.988075,"id":"afpfwrmwuvd6","address":"460 OAKMEAD PARKWAY"},"type":"Feature","geometry":{"type":"Point","coordinates":[-121.988075,37.382599]}},{"properties":{"company":"TYMSHARE INC.","latitude":37.321501,"zip":"95014","longitude":-122.051182,"id":"afpfwrty9lxv","address":"10101 BUBB RD."},"type":"Feature","geometry":{"type":"Point","coordinates":[-122.051182,37.321501]}},{"properties":{"company":"APPLE COMPUTER INC.","latitude":37.318845,"zip":"95014","longitude":-122.049987,"id":"afpfwrujo27l","address":"10260 BUBB RD."},"type":"Feature","geometry":{"type":"Point","coordinates":[-122.049987,37.318845]}},{"properties":{"company":"DATA QUEST INC.","latitude":37.317594,"zip":"95014","longitude":-122.049522,"id":"afpfwrqaq0i9","address":"10340 BUBB RD."},"type":"Feature","geometry":{"type":"Point","coordinates":[-122.049522,37.317594]}},{"properties":{"company":"SANDPIPER","latitude":37.322948,"zip":"95014","longitude":-122.046197,"id":"afpfwrte06ft","address":"21255 STEVENS CREEK BLVD"},"type":"Feature","geometry":{"type":"Point","coordinates":[-122.046197,37.322948]}},{"properties":{"company":"APPLE COMPUTER INC .","latitude":37.327437,"zip":"95014","longitude":-122.03432,"id":"afpfwrwatuu4","address":"10260 BANDLEY DR."},"type":"Feature","geometry":{"type":"Point","coordinates":[-122.03432,37.327437]}},{"properties":{"company":"FOUR-PHASE SYSTEMS I NC.","latitude":37.328867,"zip":"95014","longitude":-122.032192,"id":"afpfwrwpjd5u","address":"10500 N. De ANZA BLVD."},"type":"Feature","geometry":{"type":"Point","coordinates":[-122.032192,37.328867]}},{"properties":{"company":"SYVA CO.","latitude":37.330532,"zip":"95014","longitude":-122.029122,"id":"afpfwrv8z77a","address":"20400 MARIANI AVE."},"type":"Feature","geometry":{"type":"Point","coordinates":[-122.029122,37.330532]}},{"properties":{"company":"HEWLETT PACKARD","latitude":37.335921,"zip":"95014","longitude":-122.014161,"id":"afpfwrj8blr0","address":"11000 WOLFE RD."},"type":"Feature","geometry":{"type":"Point","coordinates":[-122.014161,37.335921]}},{"properties":{"company":"HEWLETT PACKARD","latitude":37.3377,"zip":"95014","longitude":-122.011692,"id":"afpfwrrpma08","address":"19410 HOMESTEAD RD."},"type":"Feature","geometry":{"type":"Point","coordinates":[-122.011692,37.3377]}},{"properties":{"company":"HEWLETT PACKARD","latitude":37.333493,"zip":"95014","longitude":-122.012036,"id":"afpfwrn9yyc1","address":"19447 PRUNERIDGE AVE."},"type":"Feature","geometry":{"type":"Point","coordinates":[-122.012036,37.333493]}},{"properties":{"company":"HEWLETT PACKARD","latitude":37.332514,"zip":"95014","longitude":-122.010639,"id":"afpfwrteafpb","address":"19310 PRUNERIDGE AVE."},"type":"Feature","geometry":{"type":"Point","coordinates":[-122.010639,37.332514]}},{"properties":{"company":"AMI","latitude":37.332227,"zip":"95014","longitude":-122.006211,"id":"afpfwrvxe4jc","address":"19050 PRUNERIDGE AVE."},"type":"Feature","geometry":{"type":"Point","coordinates":[-122.006211,37.332227]}},{"properties":{"company":"MEMOREX CORP.","latitude":37.335852,"zip":"95014","longitude":-122.003261,"id":"afpfwrocyrv1","address":"18922 FORGE DR."},"type":"Feature","geometry":{"type":"Point","coordinates":[-122.003261,37.335852]}},{"properties":{"company":"ISS SPERRY UNIVAC","latitude":37.329832,"zip":"95014","longitude":-122.005853,"id":"afpfwrlbf95c","address":"10501 N. TANTAU AVE."},"type":"Feature","geometry":{"type":"Point","coordinates":[-122.005853,37.329832]}},{"properties":{"company":"AMPEX CORP.","latitude":37.328925,"zip":"95014","longitude":-122.005863,"id":"afpfwrlw277y","address":"10435 N. TANTAU AVE."},"type":"Feature","geometry":{"type":"Point","coordinates":[-122.005863,37.328925]}},{"properties":{"company":"TANDEM COMPUTERS INC.","latitude":37.326166,"zip":"95014","longitude":-122.006288,"id":"afpfwrl937z1","address":"10300 TANTAU AVE."},"type":"Feature","geometry":{"type":"Point","coordinates":[-122.006288,37.326166]}},{"properties":{"company":"TANDEM COMPUTERS INC.","latitude":37.331911,"zip":"95014","longitude":-122.009469,"id":"afpfwroj4hex","address":"19250 PRUNERIDGE AVE."},"type":"Feature","geometry":{"type":"Point","coordinates":[-122.009469,37.331911]}},{"properties":{"company":"MOTHER LODE","latitude":37.31422,"zip":"95014","longitude":-122.013349,"id":"afpfwruvnhsx","address":"155 MILLER AVE."},"type":"Feature","geometry":{"type":"Point","coordinates":[-122.013349,37.31422]}},{"properties":{"company":"TEXAS INSTRUMENTS","latitude":37.408225,"zip":"95014","longitude":-121.982001,"id":"afpfwrlfot57","address":"5353 BETSY ROSS DR."},"type":"Feature","geometry":{"type":"Point","coordinates":[-121.982001,37.408225]}},{"properties":{"company":"TRIAD SYSTEMS CORP.","latitude":37.408885,"zip":"95014","longitude":-121.982004,"id":"afpfwrvuqbkd","address":"5403 BETSY ROSS DR."},"type":"Feature","geometry":{"type":"Point","coordinates":[-121.982004,37.408885]}},{"properties":{"company":"TEKTRONIX INC.","latitude":37.405716,"zip":"95014","longitude":-121.982279,"id":"afpfwru8n1rl","address":"3003 BUNKER HILL LN."},"type":"Feature","geometry":{"type":"Point","coordinates":[-121.982279,37.405716]}},{"properties":{"company":"ARTELONICS","latitude":37.405685,"zip":"95014","longitude":-121.980423,"id":"afpfwrkizoms","address":"2952 BUNKER HILL LN."},"type":"Feature","geometry":{"type":"Point","coordinates":[-121.980423,37.405685]}},{"properties":{"company":"SOLECTRON CORP.","latitude":37.397887,"zip":"95014","longitude":-121.985015,"id":"afpfwrq6s46i","address":"4598 PATRICK HENRY DR ."},"type":"Feature","geometry":{"type":"Point","coordinates":[-121.985015,37.397887]}},{"properties":{"company":"VARIAN - MICROWAVE COMP. DIV.","latitude":37.395904,"zip":"95014","longitude":-121.982957,"id":"afpfwri8jju6","address":"3200 PATRICK HENRY DR."},"type":"Feature","geometry":{"type":"Point","coordinates":[-121.982957,37.395904]}},{"properties":{"company":"XIDEX CORP.","latitude":37.395928,"zip":"95014","longitude":-121.980082,"id":"afpfwrkdp0hy","address":"3000 PATRICK HENRY DR."},"type":"Feature","geometry":{"type":"Point","coordinates":[-121.980082,37.395928]}},{"properties":{"company":"GOULD INC/BIOMATION DIV.","latitude":37.396334,"zip":"95014","longitude":-121.979537,"id":"afpfwrq7ewvv","address":"4600 OLD IRONSIDES DR ."},"type":"Feature","geometry":{"type":"Point","coordinates":[-121.979537,37.396334]}},{"properties":{"company":"RAYTHEON","latitude":37.34357,"zip":"95050","longitude":-121.935679,"id":"afpfwrjd8nxz","address":"2540 MISSION COLLEGE BLV."},"type":"Feature","geometry":{"type":"Point","coordinates":[-121.935679,37.34357]}},{"properties":{"company":"APPLICON INC.","latitude":37.34357,"zip":"95050","longitude":-121.935679,"id":"afpfwriu4n8y","address":"2540 MISSION COLLEGE BLV."},"type":"Feature","geometry":{"type":"Point","coordinates":[-121.935679,37.34357]}},{"properties":{"company":"EXXON OFFICE SYSTEMS","latitude":37.386085,"zip":"95054","longitude":-121.972124,"id":"afpfwrr2fnhd","address":"3960 FREEDOM CIRCLE"},"type":"Feature","geometry":{"type":"Point","coordinates":[-121.972124,37.386085]}},{"properties":{"company":"NORTHERN TELECOM INC.","latitude":37.34357,"zip":"95050","longitude":-121.935679,"id":"afpfwrku6gac","address":"2305 MISSION COLLEGE BLV."},"type":"Feature","geometry":{"type":"Point","coordinates":[-121.935679,37.34357]}},{"properties":{"company":"NORTHERN TELECOM INC.","latitude":37.391322,"zip":"95050","longitude":-121.961979,"id":"afpfwrlmwgz0","address":"4101 BURTON DR."},"type":"Feature","geometry":{"type":"Point","coordinates":[-121.961979,37.391322]}},{"properties":{"company":"MEMORY DISC MFG.","latitude":37.389867,"zip":"95050","longitude":-121.96275,"id":"afpfwrpi1i4u","address":"4255 BURTON DR."},"type":"Feature","geometry":{"type":"Point","coordinates":[-121.96275,37.389867]}},{"properties":{"company":"MEGATEST INC.","latitude":37.38597,"zip":"95054","longitude":-121.97068,"id":"afpfwrl5fbm6","address":"3940 FREEDOM CIRCLE"},"type":"Feature","geometry":{"type":"Point","coordinates":[-121.97068,37.38597]}},{"properties":{"company":"INTEL CORP .","latitude":37.384467,"zip":"95050","longitude":-121.964529,"id":"afpfwrp5k5ft","address":"3601 JULIETTE LN."},"type":"Feature","geometry":{"type":"Point","coordinates":[-121.964529,37.384467]}},{"properties":{"company":"FISHER SWITCHES INC.","latitude":37.385874,"zip":"95050","longitude":-121.941609,"id":"afpfwrql9q39","address":"3381 EDWARD AVE."},"type":"Feature","geometry":{"type":"Point","coordinates":[-121.941609,37.385874]}},{"properties":{"company":"DIETZGEN","latitude":37.381489,"zip":"95050","longitude":-121.940942,"id":"afpfwruxdreu","address":"3185 DE LaCRUZ BLVD."},"type":"Feature","geometry":{"type":"Point","coordinates":[-121.940942,37.381489]}},{"properties":{"company":"GCA CORP.","latitude":37.376342,"zip":"95051","longitude":-121.994859,"id":"afpfwrgt2hp4","address":"3570 RYDER ST."},"type":"Feature","geometry":{"type":"Point","coordinates":[-121.994859,37.376342]}},{"properties":{"company":"ZYCON CORP .","latitude":37.374004,"zip":"95051","longitude":-121.99106,"id":"afpfwrm0fmid","address":"3445 KIFER RD."},"type":"Feature","geometry":{"type":"Point","coordinates":[-121.99106,37.374004]}},{"properties":{"company":"FAIRCHILD-MICROPROCESSOR DIV.","latitude":37.377572,"zip":"95051","longitude":-121.991825,"id":"afpfwro73nc8","address":"3420 CENTRAL EXP."},"type":"Feature","geometry":{"type":"Point","coordinates":[-121.991825,37.377572]}},{"properties":{"company":"HEWLETT PACKARD-SMC","latitude":37.377572,"zip":"95051","longitude":-121.991543,"id":"afpfwrmy0zx4","address":"3410 CENTRAL EXP."},"type":"Feature","geometry":{"type":"Point","coordinates":[-121.991543,37.377572]}},{"properties":{"company":"HEWLETT PACKARD","latitude":37.37412,"zip":"95051","longitude":-121.977829,"id":"afpfwrokwe4x","address":"1330 KIFER RD."},"type":"Feature","geometry":{"type":"Point","coordinates":[-121.977829,37.37412]}},{"properties":{"company":"STC-COMPUTER RESEARCH","latitude":37.377572,"zip":"95051","longitude":-121.992671,"id":"afpfwro4fxwu","address":"3450 CENTRAL EXP."},"type":"Feature","geometry":{"type":"Point","coordinates":[-121.992671,37.377572]}},{"properties":{"company":"STORM PRODUCTS","latitude":37.376258,"zip":"95051","longitude":-121.987857,"id":"afpfwrn4c038","address":"3031 CORVIN DR."},"type":"Feature","geometry":{"type":"Point","coordinates":[-121.987857,37.376258]}},{"properties":{"company":"APPLIED MATERIALS INC.","latitude":37.375959,"zip":"95051","longitude":-121.980423,"id":"afpfwrttspzk","address":"3001 OAKMEAD VILLAGE DR."},"type":"Feature","geometry":{"type":"Point","coordinates":[-121.980423,37.375959]}},{"properties":{"company":"APPLIED MATERIALS INC .","latitude":37.377572,"zip":"95051","longitude":-121.991261,"id":"afpfwrskkpvw","address":"3400 CENTRAL EXP."},"type":"Feature","geometry":{"type":"Point","coordinates":[-121.991261,37.377572]}},{"properties":{"company":"APPLIED MATERIALS INC.","latitude":37.374089,"zip":"95051","longitude":-121.981225,"id":"afpfwrujgi5h","address":"2940 KIFER RD."},"type":"Feature","geometry":{"type":"Point","coordinates":[-121.981225,37.374089]}},{"properties":{"company":"COMMODORE BUSINESS MACHINES","latitude":37.380471,"zip":"95051","longitude":-121.980889,"id":"afpfwrqzzcam","address":"3330 SCOTT BLVD."},"type":"Feature","geometry":{"type":"Point","coordinates":[-121.980889,37.380471]}},{"properties":{"company":"ADVANCED MICRO DEVICES","latitude":37.380387,"zip":"95051","longitude":-121.981914,"id":"afpfwrupfc69","address":"3340 SCOTT BLVD."},"type":"Feature","geometry":{"type":"Point","coordinates":[-121.981914,37.380387]}},{"properties":{"company":"MACHINE TECHNOLOGY WEST INC.","latitude":37.380462,"zip":"95051","longitude":-121.983924,"id":"afpfwrsgbhl9","address":"3350 SCOTT BLVD . #1503"},"type":"Feature","geometry":{"type":"Point","coordinates":[-121.983924,37.380462]}},{"properties":{"company":"BERG ELECTRONICS","latitude":37.380594,"zip":"95051","longitude":-121.984714,"id":"afpfwrh9lk3t","address":"3375 SCOTT BLVD. #208"},"type":"Feature","geometry":{"type":"Point","coordinates":[-121.984714,37.380594]}},{"properties":{"company":"EATON SEMICONDUCTOR","latitude":37.38221,"zip":"95051","longitude":-121.985342,"id":"afpfwrr3v8hk","address":"3500 GARRETT DR."},"type":"Feature","geometry":{"type":"Point","coordinates":[-121.985342,37.38221]}},{"properties":{"company":"INTEL CORP.","latitude":37.387412,"zip":"95051","longitude":-121.984329,"id":"afpfwrwe1e24","address":"3200 LAKESIDE DR."},"type":"Feature","geometry":{"type":"Point","coordinates":[-121.984329,37.387412]}},{"properties":{"company":"INTEL CORP .","latitude":37.375961,"zip":"95051","longitude":-121.980068,"id":"afpfwrrhuklj","address":"3000 OAKMEAD VILLAGE CT."},"type":"Feature","geometry":{"type":"Point","coordinates":[-121.980068,37.375961]}},{"properties":{"company":"INTEL CORP.","latitude":37.377607,"zip":"95051","longitude":-121.985442,"id":"afpfwrwrygzk","address":"3150 CENTRAL EXP."},"type":"Feature","geometry":{"type":"Point","coordinates":[-121.985442,37.377607]}},{"properties":{"company":"SIGNETICS CORP.","latitude":37.37412,"zip":"95051","longitude":-121.977829,"id":"afpfwrlqlksg","address":"1380 KIFER RD."},"type":"Feature","geometry":{"type":"Point","coordinates":[-121.977829,37.37412]}},{"properties":{"company":"SIGNETICS CORP.","latitude":37.38575,"zip":"95051","longitude":-121.98415,"id":"afpfwrqde39l","address":"3600 PETERSON WY."},"type":"Feature","geometry":{"type":"Point","coordinates":[-121.98415,37.38575]}},{"properties":{"company":"MEMOREX CORP.","latitude":37.372108,"zip":"95051","longitude":-121.977402,"id":"afpfwrugq1c6","address":"2800 BOWERS AVE."},"type":"Feature","geometry":{"type":"Point","coordinates":[-121.977402,37.372108]}},{"properties":{"company":"DIGITAL EQUIPMENT CORP.","latitude":37.382366,"zip":"95051","longitude":-121.973496,"id":"afpfwrr7x1yp","address":"2525 AUGUSTINE DR."},"type":"Feature","geometry":{"type":"Point","coordinates":[-121.973496,37.382366]}},{"properties":{"company":"ISD","latitude":37.378558,"zip":"95051","longitude":-121.974475,"id":"afpfwrnu3agz","address":"3205 CORONADO DR."},"type":"Feature","geometry":{"type":"Point","coordinates":[-121.974475,37.378558]}},{"properties":{"company":"WANG LABORATORIES","latitude":37.346518,"zip":"95051","longitude":-121.983478,"id":"afpfwrjjxf2o","address":"3255-3D SCOTT BLVD."},"type":"Feature","geometry":{"type":"Point","coordinates":[-121.983478,37.346518]}},{"properties":{"company":"INTERSIL INC.","latitude":37.379667,"zip":"95051","longitude":-121.971968,"id":"afpfwriacil6","address":"3250 SCOTT BLVD."},"type":"Feature","geometry":{"type":"Point","coordinates":[-121.971968,37.379667]}},{"properties":{"company":"DOHRMANN-ENVIROTECH","latitude":37.379431,"zip":"95051","longitude":-121.970644,"id":"afpfwruyjgbj","address":"3240 SCOTT BLVD."},"type":"Feature","geometry":{"type":"Point","coordinates":[-121.970644,37.379431]}},{"properties":{"company":"ULTRATECH CORP./PHOTOMASK","latitude":37.37622,"zip":"95051","longitude":-121.972561,"id":"afpfwrk5qozf","address":"2970 CORONADO DR."},"type":"Feature","geometry":{"type":"Point","coordinates":[-121.972561,37.37622]}},{"properties":{"company":"RICOH OF AMERICA","latitude":37.376405,"zip":"95051","longitude":-121.97018,"id":"afpfwrkw6cbu","address":"2972 STENDER WY."},"type":"Feature","geometry":{"type":"Point","coordinates":[-121.97018,37.376405]}},{"properties":{"company":"RAPICOM INC.","latitude":37.346526,"zip":"95051","longitude":-121.983486,"id":"afpfwrkqcnvr","address":"2972 STENDER SY."},"type":"Feature","geometry":{"type":"Point","coordinates":[-121.983486,37.346526]}},{"properties":{"company":"GENRAD INC.","latitude":37.373101,"zip":"95051","longitude":-121.977604,"id":"afpfwrilimlv","address":"2855 BOWERS AVE."},"type":"Feature","geometry":{"type":"Point","coordinates":[-121.977604,37.373101]}},{"properties":{"company":"TANDEM COMPUTERS INC.","latitude":37.37008,"zip":"95051","longitude":-121.971037,"id":"afpfwrq74er4","address":"2450 WALSH AVE."},"type":"Feature","geometry":{"type":"Point","coordinates":[-121.971037,37.37008]}},{"properties":{"company":"TANDEM COMPUTERS INC.","latitude":37.380314,"zip":"95051","longitude":-121.966952,"id":"afpfwriyxz6h","address":"3301 OLCOTT ST."},"type":"Feature","geometry":{"type":"Point","coordinates":[-121.966952,37.380314]}},{"properties":{"company":"PRINTEX CORP.","latitude":37.371288,"zip":"95051","longitude":-121.973723,"id":"afpfwrnugqm5","address":"2501 WALSH AVE."},"type":"Feature","geometry":{"type":"Point","coordinates":[-121.973723,37.371288]}},{"properties":{"company":"D.M.C.","latitude":37.376075,"zip":"95051","longitude":-121.966473,"id":"afpfwrmpcuok","address":"2300 OWEN ST."},"type":"Feature","geometry":{"type":"Point","coordinates":[-121.966473,37.376075]}},{"properties":{"company":"SIERRACIN","latitude":37.376503,"zip":"95051","longitude":-121.96733,"id":"afpfwrwhni66","address":"3010 OLCOTT ST."},"type":"Feature","geometry":{"type":"Point","coordinates":[-121.96733,37.376503]}},{"properties":{"company":"APPLIED MATERIALS INC.","latitude":37.382354,"zip":"95051","longitude":-121.976213,"id":"afpfwru1bplo","address":"2727 AUGUSTINE DR."},"type":"Feature","geometry":{"type":"Point","coordinates":[-121.976213,37.382354]}},{"properties":{"company":"INTEL CORP.","latitude":37.373432,"zip":"95051","longitude":-121.972041,"id":"afpfwrv3pqc6","address":"2880 NORTHWESTERN PKW."},"type":"Feature","geometry":{"type":"Point","coordinates":[-121.972041,37.373432]}},{"properties":{"company":"VARIAN ASSOCIATES","latitude":37.379651,"zip":"95051","longitude":-121.967275,"id":"afpfwro988qr","address":"3251 OLCOTT ST."},"type":"Feature","geometry":{"type":"Point","coordinates":[-121.967275,37.379651]}},{"properties":{"company":"GOULD INC.","latitude":37.346518,"zip":"95051","longitude":-121.983478,"id":"afpfwrlo9ofz","address":"3211-7A SCOTT BLVD."},"type":"Feature","geometry":{"type":"Point","coordinates":[-121.983478,37.346518]}},{"properties":{"company":"AMDAHL","latitude":37.375198,"zip":"95050","longitude":-121.963261,"id":"afpfwrw49bbt","address":"2200 LAWSON LN."},"type":"Feature","geometry":{"type":"Point","coordinates":[-121.963261,37.375198]}},{"properties":{"company":"SIGNETICS CORP.","latitude":37.37603,"zip":"95050","longitude":-121.963634,"id":"afpfwrwlb5ie","address":"2251 LAWSON LN."},"type":"Feature","geometry":{"type":"Point","coordinates":[-121.963634,37.37603]}},{"properties":{"company":"MICRO POWER SYSTEMS","latitude":37.378248,"zip":"95051","longitude":-121.958607,"id":"afpfwrvhbyt9","address":"3100 ALFRED ST."},"type":"Feature","geometry":{"type":"Point","coordinates":[-121.958607,37.378248]}},{"properties":{"company":"A.M. INTL. INC.","latitude":37.380483,"zip":"95051","longitude":-121.959755,"id":"afpfwrsr4j8o","address":"1900 DUANE AVE."},"type":"Feature","geometry":{"type":"Point","coordinates":[-121.959755,37.380483]}},{"properties":{"company":"FAIRCHILD-CMOS/LIC","latitude":37.378312,"zip":"95051","longitude":-121.958591,"id":"afpfwrmmmqly","address":"3105 ALFRED ST."},"type":"Feature","geometry":{"type":"Point","coordinates":[-121.958591,37.378312]}},{"properties":{"company":"MONOSIL","latitude":37.37483,"zip":"95051","longitude":-121.951259,"id":"afpfwrh12rya","address":"975 COMSTOCK ST."},"type":"Feature","geometry":{"type":"Point","coordinates":[-121.951259,37.37483]}},{"properties":{"company":"ARTRONIK CIRCUITS INC.","latitude":37.369921,"zip":"95050","longitude":-121.959533,"id":"afpfwrjei7zz","address":"2750 SCOTT BLVD ."},"type":"Feature","geometry":{"type":"Point","coordinates":[-121.959533,37.369921]}},{"properties":{"company":"MEMOREX CORP.","latitude":37.366247,"zip":"95050","longitude":-121.960833,"id":"afpfwrwma27c","address":"2054 MARTIN AVE"},"type":"Feature","geometry":{"type":"Point","coordinates":[-121.960833,37.366247]}},{"properties":{"company":"KULICKE &amp;. SOFFA IND.","latitude":37.366911,"zip":"95050","longitude":-121.963426,"id":"afpfwrw0t3l6","address":"2210 MARTIN AVE ."},"type":"Feature","geometry":{"type":"Point","coordinates":[-121.963426,37.366911]}},{"properties":{"company":"FOUR PHASE SYSTEMS INC.","latitude":37.345983,"zip":"95050","longitude":-121.948812,"id":"afpfwrqcsc7f","address":"2200 MARTH; AVE."},"type":"Feature","geometry":{"type":"Point","coordinates":[-121.948812,37.345983]}},{"properties":{"company":"INTECH INC.","latitude":37.367266,"zip":"95050","longitude":-121.963425,"id":"afpfwrvo5oh7","address":"2270 MARTIN AVE."},"type":"Feature","geometry":{"type":"Point","coordinates":[-121.963425,37.367266]}},{"properties":{"company":"VARIAN ASSOCIATES","latitude":37.377448,"zip":"95050","longitude":-121.961966,"id":"afpfwrqvfj7e","address":"3101 SCOTT BLVD ."},"type":"Feature","geometry":{"type":"Point","coordinates":[-121.961966,37.377448]}},{"properties":{"company":"GENERAL DEVICES INC.","latitude":37.364151,"zip":"95050","longitude":-121.941451,"id":"afpfwrjphevs","address":"2355 DE LaCRUZ BLVD."},"type":"Feature","geometry":{"type":"Point","coordinates":[-121.941451,37.364151]}},{"properties":{"company":"STANFORD APPLIED ENG.","latitude":37.363015,"zip":"95050","longitude":-121.937912,"id":"afpfwrqgx8g8","address":"340 MARTIN AVE."},"type":"Feature","geometry":{"type":"Point","coordinates":[-121.937912,37.363015]}},{"properties":{"company":"F.M.C. CORP.","latitude":37.35675,"zip":"95050","longitude":-121.932819,"id":"afpfwrr2v7rk","address":"1185 COLEMAN AVE."},"type":"Feature","geometry":{"type":"Point","coordinates":[-121.932819,37.35675]}},{"properties":{"company":"COMMODORE BUSINESS MACHINES","latitude":37.360933,"zip":"95050","longitude":-121.938351,"id":"afpfwrnsuy71","address":"390 REED ST."},"type":"Feature","geometry":{"type":"Point","coordinates":[-121.938351,37.360933]}},{"properties":{"company":"MEMOREX CORP.","latitude":37.345983,"zip":"95050","longitude":-121.948812,"id":"afpfwrkvmlgu","address":"1040 DI GULLO AVE."},"type":"Feature","geometry":{"type":"Point","coordinates":[-121.948812,37.345983]}},{"properties":{"company":"MEMOREX CORP.","latitude":37.362532,"zip":"95050","longitude":-121.954093,"id":"afpfwrhu7hu8","address":"1200 MEMOREX DR. (95052)"},"type":"Feature","geometry":{"type":"Point","coordinates":[-121.954093,37.362532]}},{"properties":{"company":"MEMOREX CORP.","latitude":37.362532,"zip":"95050","longitude":-121.954093,"id":"afpfwrntvl3y","address":"1200 MEMOREX DR. (95052)"},"type":"Feature","geometry":{"type":"Point","coordinates":[-121.954093,37.362532]}},{"properties":{"company":"MEMOREX CORP.","latitude":37.362532,"zip":"95050","longitude":-121.954093,"id":"afpfwrnhizhs","address":"1200 MEMOREX DR . (95052)"},"type":"Feature","geometry":{"type":"Point","coordinates":[-121.954093,37.362532]}},{"properties":{"company":"NATIONAL CSS INC.","latitude":37.349318,"zip":"95051","longitude":-121.995899,"id":"afpfwrr4v5yh","address":"1333 LAWRENCE EXP. #350"},"type":"Feature","geometry":{"type":"Point","coordinates":[-121.995899,37.349318]}},{"properties":{"company":"HEWLETT PACKARD GENERAL SYSTEMS","latitude":37.323076,"zip":"95050","longitude":-121.996871,"id":"afpfwrgxn7j0","address":"5303 STEVENS CREEK BLVD."},"type":"Feature","geometry":{"type":"Point","coordinates":[-121.996871,37.323076]}},{"properties":{"company":"S.R.D. LABS INC.","latitude":37.276481,"zip":"95008","longitude":-121.942492,"id":"afpfwrsrr8oi","address":"381 McGLINCEY LANE"},"type":"Feature","geometry":{"type":"Point","coordinates":[-121.942492,37.276481]}},{"properties":{"company":"SNOWDEN-PENSER/PARK DAVIS CO.","latitude":37.263754,"zip":"95008","longitude":-121.956695,"id":"afpfwribsfay","address":"1587 DELL AVE."},"type":"Feature","geometry":{"type":"Point","coordinates":[-121.956695,37.263754]}},{"properties":{"company":"G.S. TEMPRESS","latitude":37.264462,"zip":"95008","longitude":-121.956119,"id":"afpfwrvfoiia","address":"1510 DELL AVE."},"type":"Feature","geometry":{"type":"Point","coordinates":[-121.956119,37.264462]}},{"properties":{"company":"KENNEDY","latitude":37.2574,"zip":"95030","longitude":-121.963216,"id":"afpfwrle8pzb","address":"151 ALBRIGHT WAY"},"type":"Feature","geometry":{"type":"Point","coordinates":[-121.963216,37.2574]}},{"properties":{"company":"RAYTEK INC.","latitude":37.230053,"zip":"95030","longitude":-121.982566,"id":"afpfwrv1j7fz","address":"1201 SHAFFER RD."},"type":"Feature","geometry":{"type":"Point","coordinates":[-121.982566,37.230053]}},{"properties":{"company":"HEWLETT PACKARD","latitude":37.3833,"zip":"95134","longitude":-121.933456,"id":"afpfwrk0z1uw","address":"350 W. TRIMBLE RD."},"type":"Feature","geometry":{"type":"Point","coordinates":[-121.933456,37.3833]}},{"properties":{"company":"WATKINS-JOHNSON CO.","latitude":37.383645,"zip":"95131","longitude":-121.926143,"id":"afpfwrornx7a","address":"2525 N. 1ST ST."},"type":"Feature","geometry":{"type":"Point","coordinates":[-121.926143,37.383645]}},{"properties":{"company":"KAISER ELECTRONICS","latitude":37.38619,"zip":"95134","longitude":-121.933014,"id":"afpfwrshl1v3","address":"2701 ORCHARD PKWY."},"type":"Feature","geometry":{"type":"Point","coordinates":[-121.933014,37.38619]}},{"properties":{"company":"BENSON INC.","latitude":37.386173,"zip":"95134","longitude":-121.93286,"id":"afpfwrvw8ecj","address":"2694 ORCHARD PKWY."},"type":"Feature","geometry":{"type":"Point","coordinates":[-121.93286,37.386173]}},{"properties":{"company":"APPLE COMPUTER","latitude":37.386567,"zip":"95134","longitude":-121.933015,"id":"afpfwrixdgtr","address":"2720 ORCHARD PKWY."},"type":"Feature","geometry":{"type":"Point","coordinates":[-121.933015,37.386567]}},{"properties":{"company":"APPLE COMPUTER","latitude":37.396149,"zip":"95131","longitude":-121.935406,"id":"afpfwrmu3t2g","address":"3073 N. 1ST ST."},"type":"Feature","geometry":{"type":"Point","coordinates":[-121.935406,37.396149]}},{"properties":{"company":"RAPICOM","latitude":37.392214,"zip":"95134","longitude":-121.937463,"id":"afpfwrldb2a7","address":"3001 ORCHARD PKWY."},"type":"Feature","geometry":{"type":"Point","coordinates":[-121.937463,37.392214]}},{"properties":{"company":"LOCKHEED","latitude":37.392179,"zip":"95134","longitude":-121.92971,"id":"afpfwrlzckyz","address":"PLUMERIA DR. BLDG. 513"},"type":"Feature","geometry":{"type":"Point","coordinates":[-121.92971,37.392179]}},{"properties":{"company":"ATARI","latitude":37.389031,"zip":"95131","longitude":-121.929896,"id":"afpfwrtyrewe","address":"2710 N. 1ST ST."},"type":"Feature","geometry":{"type":"Point","coordinates":[-121.929896,37.389031]}},{"properties":{"company":"ACCUTEST","latitude":37.388396,"zip":"95131","longitude":-121.929417,"id":"afpfwrsxj0kp","address":"2680 N. 1ST ST."},"type":"Feature","geometry":{"type":"Point","coordinates":[-121.929417,37.388396]}},{"properties":{"company":"ROLM CORP.","latitude":37.401171,"zip":"95134","longitude":-121.941346,"id":"afpfwrphzphg","address":"1 RIVER OAKS PLACE"},"type":"Feature","geometry":{"type":"Point","coordinates":[-121.941346,37.401171]}},{"properties":{"company":"FAIRCHILD BIPOLAR DIV.","latitude":37.401472,"zip":"95035","longitude":-121.914706,"id":"afpfwrlc21yr","address":"1801 McCARTHY BLVD."},"type":"Feature","geometry":{"type":"Point","coordinates":[-121.914706,37.401472]}},{"properties":{"company":"HARRIS MICROWAVE","latitude":37.4077,"zip":"95035","longitude":-121.920133,"id":"afpfwrphqb2i","address":"1530 McCARTHY BLVD."},"type":"Feature","geometry":{"type":"Point","coordinates":[-121.920133,37.4077]}},{"properties":{"company":"DIASONICS","latitude":37.407716,"zip":"95035","longitude":-121.9108,"id":"afpfwrh0sbez","address":"1545 BARBER LANE"},"type":"Feature","geometry":{"type":"Point","coordinates":[-121.9108,37.407716]}},{"properties":{"company":"AVANTEK INC.","latitude":37.40535,"zip":"95035","longitude":-121.912029,"id":"afpfwrjp51hp","address":"481 COTTONWOOD DR."},"type":"Feature","geometry":{"type":"Point","coordinates":[-121.912029,37.40535]}},{"properties":{"company":"ATARI","latitude":37.40761,"zip":"95035","longitude":-121.919173,"id":"afpfwrubatsr","address":"790 SYCAMORE DR ."},"type":"Feature","geometry":{"type":"Point","coordinates":[-121.919173,37.40761]}},{"properties":{"company":"ATARI","latitude":37.408677,"zip":"95035","longitude":-121.916618,"id":"afpfwrht40x1","address":"715 SYCAMORE DR."},"type":"Feature","geometry":{"type":"Point","coordinates":[-121.916618,37.408677]}},{"properties":{"company":"DATA PRODUCTS","latitude":37.387611,"zip":"95131","longitude":-121.923462,"id":"afpfwrjk3137","address":"2550 ZANKER RD."},"type":"Feature","geometry":{"type":"Point","coordinates":[-121.923462,37.387611]}},{"properties":{"company":"THOR ELECTRONICS","latitude":37.390039,"zip":"95131","longitude":-121.922108,"id":"afpfwrw9mbxl","address":"430 TRIMBLE RD."},"type":"Feature","geometry":{"type":"Point","coordinates":[-121.922108,37.390039]}},{"properties":{"company":"TAB PRODUCTS","latitude":37.386359,"zip":"95131","longitude":-121.922028,"id":"afpfwrlxky0o","address":"2390 ZANKER RD."},"type":"Feature","geometry":{"type":"Point","coordinates":[-121.922028,37.386359]}},{"properties":{"company":"FMC CORP.","latitude":37.380458,"zip":"95131","longitude":-121.918085,"id":"afpfwrlodoaa","address":"245 CHARCOT AVE."},"type":"Feature","geometry":{"type":"Point","coordinates":[-121.918085,37.380458]}},{"properties":{"company":"INTEL CORP.","latitude":37.377319,"zip":"95112","longitude":-121.906532,"id":"afpfwrs55umm","address":"1766 JUNCTION AVE."},"type":"Feature","geometry":{"type":"Point","coordinates":[-121.906532,37.377319]}},{"properties":{"company":"FMC CORP.","latitude":37.373148,"zip":"95112","longitude":-121.911912,"id":"afpfwrguexej","address":"1830 BERING DR."},"type":"Feature","geometry":{"type":"Point","coordinates":[-121.911912,37.373148]}},{"properties":{"company":"SOLECTRON CORP.","latitude":37.401043,"zip":"95131","longitude":-121.893318,"id":"afpfwrsjm1zj","address":"2001 FORTUNE DR."},"type":"Feature","geometry":{"type":"Point","coordinates":[-121.893318,37.401043]}},{"properties":{"company":"GOULD DeA ZA IMAGING &amp; GRAPHICS","latitude":37.392046,"zip":"95131","longitude":-121.889915,"id":"afpfwrjwnaxz","address":"1870 LUNDY AVE."},"type":"Feature","geometry":{"type":"Point","coordinates":[-121.889915,37.392046]}},{"properties":{"company":"FEDERAL PACIFIC ELEC. CO.","latitude":37.411462,"zip":"95035","longitude":-121.891463,"id":"afpfwrl0vqwi","address":"1200 PIPER DR ."},"type":"Feature","geometry":{"type":"Point","coordinates":[-121.891463,37.411462]}},{"properties":{"company":"ACTIVISION","latitude":37.429291,"zip":"95035","longitude":-121.897037,"id":"afpfwrkbj86e","address":"240 MILPITAS BLVD."},"type":"Feature","geometry":{"type":"Point","coordinates":[-121.897037,37.429291]}},{"properties":{"company":"FMC CORP.","latitude":37.352274,"zip":"95110","longitude":-121.923709,"id":"afpfwrox8lz0","address":"1115 COLEMAN AVE."},"type":"Feature","geometry":{"type":"Point","coordinates":[-121.923709,37.352274]}},{"properties":{"company":"CDI CORP.","latitude":37.338251,"zip":"95110","longitude":-121.901914,"id":"afpfwrucbfn4","address":"50 W. BROKAW RD."},"type":"Feature","geometry":{"type":"Point","coordinates":[-121.901914,37.338251]}},{"properties":{"company":"THOMAS AND BETTS CO.","latitude":37.369073,"zip":"95110","longitude":-121.919839,"id":"afpfwrhtu150","address":"1762 TECHNOLOGY DR."},"type":"Feature","geometry":{"type":"Point","coordinates":[-121.919839,37.369073]}},{"properties":{"company":"MOSTEK CORP.","latitude":37.369073,"zip":"95110","longitude":-121.919839,"id":"afpfwrjeu0j0","address":"1762 TECHNOLOGY DR. #126"},"type":"Feature","geometry":{"type":"Point","coordinates":[-121.919839,37.369073]}},{"properties":{"company":"MOORE SYSTEMS INC.","latitude":37.365735,"zip":"95110","longitude":-121.917374,"id":"afpfwrpewyof","address":"1730 TECHNOLOGY DR."},"type":"Feature","geometry":{"type":"Point","coordinates":[-121.917374,37.365735]}},{"properties":{"company":"FAIRCHILD TEST SYS. GROUP","latitude":37.365079,"zip":"95110","longitude":-121.916893,"id":"afpfwrn8sjus","address":"1725 TECHNOLOGY DR."},"type":"Feature","geometry":{"type":"Point","coordinates":[-121.916893,37.365079]}},{"properties":{"company":"FAIRCHILD CAMERA AND INSTRUMENT","latitude":37.36429,"zip":"95110","longitude":-121.91579,"id":"afpfwrhc8k9b","address":"1601 TECHNOLOGY DR."},"type":"Feature","geometry":{"type":"Point","coordinates":[-121.91579,37.36429]}},{"properties":{"company":"IBM CORP.","latitude":37.338251,"zip":"95110","longitude":-121.901914,"id":"afpfwrnu3jvg","address":"50 W. BROKAW RD."},"type":"Feature","geometry":{"type":"Point","coordinates":[-121.901914,37.338251]}},{"properties":{"company":"IBM CORP.","latitude":37.338251,"zip":"95110","longitude":-121.901914,"id":"afpfwruk7rra","address":"40 W. BROKAW RD."},"type":"Feature","geometry":{"type":"Point","coordinates":[-121.901914,37.338251]}},{"properties":{"company":"CAELUS MEMORIES INC.","latitude":37.363902,"zip":"95133","longitude":-121.880721,"id":"afpfwrh0m4kk","address":"1015 TIMOTHY DR."},"type":"Feature","geometry":{"type":"Point","coordinates":[-121.880721,37.363902]}},{"properties":{"company":"SPERRY UNIVAC","latitude":37.362099,"zip":"95133","longitude":-121.88084,"id":"afpfwru5bv19","address":"967 MABORY RD."},"type":"Feature","geometry":{"type":"Point","coordinates":[-121.88084,37.362099]}},{"properties":{"company":"PURPLE HEARTS VETERANS REHAB.","latitude":37.343191,"zip":"95110","longitude":-121.91185,"id":"afpfwrhyxnr5","address":"735 COLEMAN AVE.(95110)"},"type":"Feature","geometry":{"type":"Point","coordinates":[-121.91185,37.343191]}},{"properties":{"company":"WELLS FARGO ALARM SERVICE","latitude":37.341371,"zip":"95110","longitude":-121.903391,"id":"afpfwrmnws0a","address":"466 VENDOME ST. (95110"},"type":"Feature","geometry":{"type":"Point","coordinates":[-121.903391,37.341371]}},{"properties":{"company":"HOLIDAY INN","latitude":37.329775,"zip":"95126","longitude":-121.891513,"id":"afpfwrgboiq3","address":"282 ALMADEN BLVD."},"type":"Feature","geometry":{"type":"Point","coordinates":[-121.891513,37.329775]}},{"properties":{"company":"HOTEL SAINTE CLAIRE","latitude":37.330661,"zip":"95126","longitude":-121.88807,"id":"afpfwrs8w8h6","address":"302 S. MARKET ST."},"type":"Feature","geometry":{"type":"Point","coordinates":[-121.88807,37.330661]}},{"properties":{"company":"PLATEAU 7","latitude":37.324059,"zip":"95126","longitude":-121.884247,"id":"afpfwrig7b0v","address":"777 N. 1 ST ST."},"type":"Feature","geometry":{"type":"Point","coordinates":[-121.884247,37.324059]}},{"properties":{"company":"PINEHURST INN RESTAURANT","latitude":37.334394,"zip":"95126","longitude":-121.915388,"id":"afpfwrgd4hg5","address":"1520 THE ALAMEDA"},"type":"Feature","geometry":{"type":"Point","coordinates":[-121.915388,37.334394]}},{"properties":{"company":"INMAC","latitude":37.335641,"zip":"95122","longitude":-121.856571,"id":"afpfwrwsc6kv","address":"911 McLAUGHLIN AVE."},"type":"Feature","geometry":{"type":"Point","coordinates":[-121.856571,37.335641]}},{"properties":{"company":"GENERAL ELECTRIC CO.","latitude":37.31644,"zip":"95112","longitude":-121.873859,"id":"afpfwrrzs6cf","address":"2155 S. 1ST ST."},"type":"Feature","geometry":{"type":"Point","coordinates":[-121.873859,37.31644]}},{"properties":{"company":"IBM CORP.","latitude":37.237403,"zip":"95119","longitude":-121.78142,"id":"afpfwrhit7v7","address":"6331 SAN IGNACIO AVE."},"type":"Feature","geometry":{"type":"Point","coordinates":[-121.78142,37.237403]}},{"properties":{"company":"IBM CORP.","latitude":37.229792,"zip":"95119","longitude":-121.778458,"id":"afpfwrp6gtxs","address":"151 MARTINVALE LANE"},"type":"Feature","geometry":{"type":"Point","coordinates":[-121.778458,37.229792]}},{"properties":{"company":"IBM CORP.","latitude":37.229188,"zip":"95119","longitude":-121.776471,"id":"afpfwrmbtc11","address":"7071 REALM DR."},"type":"Feature","geometry":{"type":"Point","coordinates":[-121.776471,37.229188]}},{"properties":{"company":"IBM CORP.","latitude":37.2304,"zip":"95119","longitude":-121.775542,"id":"afpfwrr4mhc8","address":"6951 VIA DEL ORO"},"type":"Feature","geometry":{"type":"Point","coordinates":[-121.775542,37.2304]}},{"properties":{"company":"EXSIL","latitude":37.236466,"zip":"95119","longitude":-121.785671,"id":"afpfwrnwqvaf","address":"6540 VIA DEL ORO"},"type":"Feature","geometry":{"type":"Point","coordinates":[-121.785671,37.236466]}},{"properties":{"company":"MAGNEX CORP.","latitude":37.236653,"zip":"95119","longitude":-121.786026,"id":"afpfwrukiz1x","address":"6541 VIA DEL ORO"},"type":"Feature","geometry":{"type":"Point","coordinates":[-121.786026,37.236653]}},{"properties":{"company":"FAIRCHILD (SEMICONDUCTOR BLDG.)","latitude":37.230657,"zip":"95119","longitude":-121.773443,"id":"afpfwrv18qd3","address":"101 BERNAL RD."},"type":"Feature","geometry":{"type":"Point","coordinates":[-121.773443,37.230657]}}],"is_temporal":false,"author":{"url":"","metadata":"","contact_name":"","contact_address":"","source":"","contact_phone":""},"source":"","pagination":{"sort":null,"start":0,"total":296,"limit":1000000},"state":"complete","tags":"1983","published":"2014-08-16T23:08:48-04:00","id":376912}