{"type":"FeatureCollection","data_type":"Dataset","url_type":null,"permissions":[{"permissions":{"download":true,"view":true},"group_id":"everyone"}],"classification":null,"title":"Company Headquarters","count":653,"stream_id":377066,"contributor":{"url":"http://geocommons.com/users/2968","name":"alexismadrigal"},"data_attributes":null,"calculation_params":null,"icon_link":null,"link":"http://geocommons.com/overlays/377066.json","extent":[-122.267,37.2514,-121.913,37.4976],"geometry_types":["point"],"unique_name":null,"name":"Company Headquarters","feature_count":653,"description":"","next_feature":null,"is_raster":false,"short_classification":"Y","stats":{"latitude":{"max":37.497558,"variance":0.00126530011847193,"mean":37.3847131255743,"stdev":0.0355710573145068,"min":37.25135,"median":37.388726},"longitude":{"max":-121.912514,"variance":0.00287051638282755,"mean":-122.013839229709,"stdev":0.0535772002145273,"min":-122.267337,"median":-122.012237}},"features":[{"properties":{"company":"DANN SERVICES","zip":"94070","latitude":37.497558,"longitude":-122.267337,"id":"afqf1448l6cn","address":"2624 FAYETTE DR."},"type":"Feature","geometry":{"type":"Point","coordinates":[-122.267337,37.497558]}},{"properties":{"company":"DESIGN AUTOMATED SYSTEMS","zip":"94301","latitude":37.444973,"longitude":-122.160502,"id":"afqf13z8xlbi","address":"285 HAMILTON AVE"},"type":"Feature","geometry":{"type":"Point","coordinates":[-122.160502,37.444973]}},{"properties":{"company":"TELEDYNE MICROWAVE ELECT.","zip":"94304","latitude":37.408359,"longitude":-122.150948,"id":"afqf13yk90pa","address":"3165 PORTER DR."},"type":"Feature","geometry":{"type":"Point","coordinates":[-122.150948,37.408359]}},{"properties":{"company":"COHERENT INC.","zip":"94304","latitude":37.407759,"longitude":-122.149805,"id":"afqf13vndzjs","address":"3210 PORTER DR."},"type":"Feature","geometry":{"type":"Point","coordinates":[-122.149805,37.407759]}},{"properties":{"company":"A.E.A.","zip":"94304","latitude":37.417893,"longitude":-122.14828,"id":"afqf13xa159o","address":"2680 HANOVER ST."},"type":"Feature","geometry":{"type":"Point","coordinates":[-122.14828,37.417893]}},{"properties":{"company":"TAB PRODUCTS","zip":"94304","latitude":37.417853,"longitude":-122.148205,"id":"afqf13tfxwoc","address":"2690 HANOVER ST."},"type":"Feature","geometry":{"type":"Point","coordinates":[-122.148205,37.417853]}},{"properties":{"company":"COMPUTER CURRICULUM CORP.","zip":"94306","latitude":37.393712,"longitude":-122.145309,"id":"afqf13wor0f9","address":"1070 ARASTRADERO RD."},"type":"Feature","geometry":{"type":"Point","coordinates":[-122.145309,37.393712]}},{"properties":{"company":"WATKINS-JOHNSON CO.","zip":"94304","latitude":37.407057,"longitude":-122.145295,"id":"afqf13qbagch","address":"3333 HILLVIEW AVE."},"type":"Feature","geometry":{"type":"Point","coordinates":[-122.145295,37.407057]}},{"properties":{"company":"TELESENSORY SYSTEMS INC.","zip":"94304","latitude":37.400412,"longitude":-122.145013,"id":"afqf144m1nnm","address":"3408 HILLVIEW AVE."},"type":"Feature","geometry":{"type":"Point","coordinates":[-122.145013,37.400412]}},{"properties":{"company":"ALZA CORP.","zip":"94304","latitude":37.419496,"longitude":-122.144927,"id":"afqf140n928f","address":"925 PAGE MILL RD."},"type":"Feature","geometry":{"type":"Point","coordinates":[-122.144927,37.419496]}},{"properties":{"company":"EPRI","zip":"94304","latitude":37.400029,"longitude":-122.14488,"id":"afqf13scfn1t","address":"3412 HILLVIEW AVE."},"type":"Feature","geometry":{"type":"Point","coordinates":[-122.14488,37.400029]}},{"properties":{"company":"HEWLETT PACKARD","zip":"94304","latitude":37.416111,"longitude":-122.144814,"id":"afqf141t4oka","address":"3000 HANOVER ST."},"type":"Feature","geometry":{"type":"Point","coordinates":[-122.144814,37.416111]}},{"properties":{"company":"AUSONE CORP.","zip":"94304","latitude":37.420056,"longitude":-122.144463,"id":"afqf140g7tg5","address":"835 PAGE MILL RD. #11"},"type":"Feature","geometry":{"type":"Point","coordinates":[-122.144463,37.420056]}},{"properties":{"company":"DIALOG INFORMATION SERVICE","zip":"94304","latitude":37.395904,"longitude":-122.143584,"id":"afqf13xiksnh","address":"3460 HILLVIEW AVE."},"type":"Feature","geometry":{"type":"Point","coordinates":[-122.143584,37.395904]}},{"properties":{"company":"SYVA CO.","zip":"94306","latitude":37.395732,"longitude":-122.140906,"id":"afqf13rbwsx2","address":"900 ARASTRADERO RD."},"type":"Feature","geometry":{"type":"Point","coordinates":[-122.140906,37.395732]}},{"properties":{"company":"JONES PHOTOCOLOR INC.","zip":"94306","latitude":37.42721,"longitude":-122.140825,"id":"afqf140bz81j","address":"2635 PARK BLVD."},"type":"Feature","geometry":{"type":"Point","coordinates":[-122.140825,37.42721]}},{"properties":{"company":"VARIAN ASSOCIATES","zip":"94301","latitude":37.420397,"longitude":-122.138419,"id":"afqf13zdxi4c","address":"611 HANSEN WAY"},"type":"Feature","geometry":{"type":"Point","coordinates":[-122.138419,37.420397]}},{"properties":{"company":"SWISS CRAFT CO.","zip":"94306","latitude":37.422962,"longitude":-122.135028,"id":"afqf13y1u2mj","address":"291 LAMBERT AVE."},"type":"Feature","geometry":{"type":"Point","coordinates":[-122.135028,37.422962]}},{"properties":{"company":"QUADRACAST SYSTEMS INC","zip":"94303","latitude":37.448261,"longitude":-122.119733,"id":"afqf143uby1l","address":"2446 WATSON COURT"},"type":"Feature","geometry":{"type":"Point","coordinates":[-122.119733,37.448261]}},{"properties":{"company":"ICO-RALLY","zip":"94303","latitude":37.44465,"longitude":-122.117683,"id":"afqf13v2gizh","address":"2575 E. BAYSHORE ROAD"},"type":"Feature","geometry":{"type":"Point","coordinates":[-122.117683,37.44465]}},{"properties":{"company":"NIELSEN DATAQUEST","zip":"94303","latitude":37.443382,"longitude":-122.117679,"id":"afqf13puela7","address":"2800 W. BAYSHORE ROAD"},"type":"Feature","geometry":{"type":"Point","coordinates":[-122.117679,37.443382]}},{"properties":{"company":"LECROY RESEARCH SYSTEMS","zip":"94303","latitude":37.451815,"longitude":-122.116196,"id":"afqf141cs2pp","address":"1806 EMBARCADERO ROAD"},"type":"Feature","geometry":{"type":"Point","coordinates":[-122.116196,37.451815]}},{"properties":{"company":"PEARSON ELECTRONICS INC.","zip":"94303","latitude":37.452517,"longitude":-122.115088,"id":"afqf13wk3lbu","address":"1860 EMBARCADERO ROAD"},"type":"Feature","geometry":{"type":"Point","coordinates":[-122.115088,37.452517]}},{"properties":{"company":"MERLIN ENGINEERING WORKS","zip":"94303","latitude":37.452777,"longitude":-122.114679,"id":"afqf13q1bdau","address":"1880 EMBARCADERO ROAD"},"type":"Feature","geometry":{"type":"Point","coordinates":[-122.114679,37.452777]}},{"properties":{"company":"GO POWER CORP.","zip":"94303","latitude":37.452907,"longitude":-122.114474,"id":"afqf145h1c71","address":"1890 EMBARCADERO ROAD"},"type":"Feature","geometry":{"type":"Point","coordinates":[-122.114474,37.452907]}},{"properties":{"company":"ELMA ENGINEERING INC.","zip":"94303","latitude":37.430673,"longitude":-122.109806,"id":"afqf13w9x3aj","address":"1066 E. MEADOW CIRCLE"},"type":"Feature","geometry":{"type":"Point","coordinates":[-122.109806,37.430673]}},{"properties":{"company":"DATACOPY CORP.","zip":"94303","latitude":37.430443,"longitude":-122.109721,"id":"afqf140c2b7j","address":"1070 E. MEADOW CIRCLE"},"type":"Feature","geometry":{"type":"Point","coordinates":[-122.109721,37.430443]}},{"properties":{"company":"DIGITAL PATHWAYS INC.","zip":"94303","latitude":37.430998,"longitude":-122.109707,"id":"afqf14556lnb","address":"1060 E. MEADOW CIRCLE"},"type":"Feature","geometry":{"type":"Point","coordinates":[-122.109707,37.430998]}},{"properties":{"company":"REMOTE COMPUTING CORP.","zip":"94303","latitude":37.430209,"longitude":-122.109419,"id":"afqf13tr8upt","address":"1076 E. MEADOW CIRCLE"},"type":"Feature","geometry":{"type":"Point","coordinates":[-122.109419,37.430209]}},{"properties":{"company":"STANGENES INDUSTRIES INC.","zip":"94303","latitude":37.431343,"longitude":-122.109339,"id":"afqf13vb0cg2","address":"1052 E. MEADOW CIRCLE"},"type":"Feature","geometry":{"type":"Point","coordinates":[-122.109339,37.431343]}},{"properties":{"company":"CRYSTAL TECHNOLOGY INC.","zip":"94303","latitude":37.431892,"longitude":-122.108286,"id":"afqf13xx2z89","address":"1035 E. MEADOW CIRCLE"},"type":"Feature","geometry":{"type":"Point","coordinates":[-122.108286,37.431892]}},{"properties":{"company":"LEXEL CORP.","zip":"94303","latitude":37.428775,"longitude":-122.107045,"id":"afqf13s1n8rt","address":"928 E. MEADOW DRIVE"},"type":"Feature","geometry":{"type":"Point","coordinates":[-122.107045,37.428775]}},{"properties":{"company":"GILTRONIX INC.","zip":"94303","latitude":37.412629,"longitude":-122.105407,"id":"afqf141rscyt","address":"450 SAN ANTONIO ROAD"},"type":"Feature","geometry":{"type":"Point","coordinates":[-122.105407,37.412629]}},{"properties":{"company":"MICROFAB SYSTEMS CORP.","zip":"94303","latitude":37.423381,"longitude":-122.104193,"id":"afqf140trncp","address":"3960 FABIAN WAY"},"type":"Feature","geometry":{"type":"Point","coordinates":[-122.104193,37.423381]}},{"properties":{"company":"ARBOR LABS","zip":"94303","latitude":37.429669,"longitude":-122.104186,"id":"afqf145yc2nt","address":"3784 FABIAN WAY"},"type":"Feature","geometry":{"type":"Point","coordinates":[-122.104186,37.429669]}},{"properties":{"company":"FORD AEROSPACE &amp; COMM.","zip":"94303","latitude":37.423144,"longitude":-122.104175,"id":"afqf144qbqyo","address":"3939 FABIAN WAY"},"type":"Feature","geometry":{"type":"Point","coordinates":[-122.104175,37.423144]}},{"properties":{"company":"PROMEDICS DATA CORP.","zip":"94303","latitude":37.431851,"longitude":-122.103733,"id":"afqf13ublbxs","address":"1032 ELWELL COURT"},"type":"Feature","geometry":{"type":"Point","coordinates":[-122.103733,37.431851]}},{"properties":{"company":"ADVALLOY","zip":"94303","latitude":37.421954,"longitude":-122.10321,"id":"afqf13qjy8qp","address":"844 E. CHARLESTON ROAD"},"type":"Feature","geometry":{"type":"Point","coordinates":[-122.10321,37.421954]}},{"properties":{"company":"VECTEL CORP.","zip":"94303","latitude":37.421188,"longitude":-122.102884,"id":"afqf13r67ujn","address":"4074 FABIAN WAY"},"type":"Feature","geometry":{"type":"Point","coordinates":[-122.102884,37.421188]}},{"properties":{"company":"IMAGE TECHNOLOGY INC.","zip":"94303","latitude":37.420984,"longitude":-122.102009,"id":"afqf145njs10","address":"821 SAN ANTONIO ROAD"},"type":"Feature","geometry":{"type":"Point","coordinates":[-122.102009,37.420984]}},{"properties":{"company":"CUSTOM CIRCUITS INTL.","zip":"94043","latitude":37.419464,"longitude":-122.101404,"id":"afqf13uoqlus","address":"2570 LEGHORN ST."},"type":"Feature","geometry":{"type":"Point","coordinates":[-122.101404,37.419464]}},{"properties":{"company":"WESTERN TELEPHONE EQUIP. CO.","zip":"94303","latitude":37.429672,"longitude":-122.101254,"id":"afqf13qxuiju","address":"3975 E. BAYSHORE ROAD"},"type":"Feature","geometry":{"type":"Point","coordinates":[-122.101254,37.429672]}},{"properties":{"company":"CLEMENT DESIGN LABS","zip":"94043","latitude":37.416947,"longitude":-122.10046,"id":"afqf13yxat0g","address":"2560 WYANDOTTE ST."},"type":"Feature","geometry":{"type":"Point","coordinates":[-122.10046,37.416947]}},{"properties":{"company":"INTERNATIONAL MASTING SERVICES","zip":"94043","latitude":37.431394,"longitude":-122.100375,"id":"afqf13wa29p7","address":"1157 SAN ANTONIO RD."},"type":"Feature","geometry":{"type":"Point","coordinates":[-122.100375,37.431394]}},{"properties":{"company":"DOLPHIN MULTIMEDIA INC.","zip":"94303","latitude":37.431721,"longitude":-122.100331,"id":"afqf13v72kax","address":"1135 SAN ANTONIO ROAD"},"type":"Feature","geometry":{"type":"Point","coordinates":[-122.100331,37.431721]}},{"properties":{"company":"SCIENTIFIC TECHNOLOGY INC.","zip":"94043","latitude":37.432391,"longitude":-122.100193,"id":"afqf13svyx1y","address":"1201 N. SAN ANTONIO RD."},"type":"Feature","geometry":{"type":"Point","coordinates":[-122.100193,37.432391]}},{"properties":{"company":"SARONIX","zip":"94303","latitude":37.425827,"longitude":-122.100173,"id":"afqf13u60sv7","address":"4010 TRANSPORT STREET"},"type":"Feature","geometry":{"type":"Point","coordinates":[-122.100173,37.425827]}},{"properties":{"company":"K-F DEVELOPMENT CO.","zip":"94303","latitude":37.423332,"longitude":-122.100092,"id":"afqf13xcxq25","address":"883 COMMERCIAL STREET"},"type":"Feature","geometry":{"type":"Point","coordinates":[-122.100092,37.423332]}},{"properties":{"company":"TECHNE ELECTRONICS LTD.","zip":"94303","latitude":37.423802,"longitude":-122.100012,"id":"afqf13t2tlxi","address":"916 COMMERCIAL STREET"},"type":"Feature","geometry":{"type":"Point","coordinates":[-122.100012,37.423802]}},{"properties":{"company":"PERKIN-ELMER/PLASMA PROD.","zip":"94043","latitude":37.432257,"longitude":-122.099798,"id":"afqf13psrsrp","address":"2690 CASEY AVE."},"type":"Feature","geometry":{"type":"Point","coordinates":[-122.099798,37.432257]}},{"properties":{"company":"DIFFRACTION OPTICS INC.","zip":"94303","latitude":37.425497,"longitude":-122.099792,"id":"afqf13rcl5wj","address":"4035 TRANSPORT STREET"},"type":"Feature","geometry":{"type":"Point","coordinates":[-122.099792,37.425497]}},{"properties":{"company":"STORED ENERGY SYSTEMS","zip":"94043","latitude":37.416908,"longitude":-122.099759,"id":"afqf13riim41","address":"2520 WYANDOTTE ST."},"type":"Feature","geometry":{"type":"Point","coordinates":[-122.099759,37.416908]}},{"properties":{"company":"DREXLER TECH. CORP.","zip":"94043","latitude":37.421727,"longitude":-122.099484,"id":"afqf145uiusx","address":"2557 CHARLESTON RD."},"type":"Feature","geometry":{"type":"Point","coordinates":[-122.099484,37.421727]}},{"properties":{"company":"PRECISION PHOTOGLASS INC.","zip":"94043","latitude":37.421727,"longitude":-122.099484,"id":"afqf13x8iva0","address":"2557 CHARLESTON RD."},"type":"Feature","geometry":{"type":"Point","coordinates":[-122.099484,37.421727]}},{"properties":{"company":"MICRO MAGNETICS INDUSTRIES","zip":"94303","latitude":37.424621,"longitude":-122.098891,"id":"afqf13zrnbtx","address":"4083 TRANSPORT STREET"},"type":"Feature","geometry":{"type":"Point","coordinates":[-122.098891,37.424621]}},{"properties":{"company":"AEDECO CORP.","zip":"94043","latitude":37.432132,"longitude":-122.098623,"id":"afqf1414i7az","address":"2551 CASEY AVE."},"type":"Feature","geometry":{"type":"Point","coordinates":[-122.098623,37.432132]}},{"properties":{"company":"STRAUBE ASSOCIATES","zip":"94043","latitude":37.432132,"longitude":-122.098623,"id":"afqf1457pedb","address":"2551 CASEY AVE"},"type":"Feature","geometry":{"type":"Point","coordinates":[-122.098623,37.432132]}},{"properties":{"company":"MINIMATICS","zip":"94043","latitude":37.421634,"longitude":-122.097593,"id":"afqf13zodtmm","address":"2470 CHARLESTON RD."},"type":"Feature","geometry":{"type":"Point","coordinates":[-122.097593,37.421634]}},{"properties":{"company":"ACTIVISION","zip":"94043","latitude":37.424925,"longitude":-122.097273,"id":"afqf13wlcxlm","address":"2350 BAYSHORE FRONTAGE RD."},"type":"Feature","geometry":{"type":"Point","coordinates":[-122.097273,37.424925]}},{"properties":{"company":"BARRETT ELECTRONICS CORP.","zip":"94043","latitude":37.416466,"longitude":-122.097226,"id":"afqf13rxmabw","address":"849 INDEPENDENCE AVE."},"type":"Feature","geometry":{"type":"Point","coordinates":[-122.097226,37.416466]}},{"properties":{"company":"TENCOR INSTRUMENTS","zip":"94043","latitude":37.42161,"longitude":-122.097148,"id":"afqf13vl0oy6","address":"2428 CHARLESTON RD."},"type":"Feature","geometry":{"type":"Point","coordinates":[-122.097148,37.42161]}},{"properties":{"company":"STROBE INC.","zip":"94043","latitude":37.417565,"longitude":-122.097125,"id":"afqf13qp029q","address":"897 INDEPENDENCE AVE."},"type":"Feature","geometry":{"type":"Point","coordinates":[-122.097125,37.417565]}},{"properties":{"company":"RAMLOR PRINTED CIRCUITS","zip":"94043","latitude":37.417863,"longitude":-122.097115,"id":"afqf141slo0s","address":"918 INDEPENDENCE AVE."},"type":"Feature","geometry":{"type":"Point","coordinates":[-122.097115,37.417863]}},{"properties":{"company":"NORCAL TECH. INC.","zip":"94043","latitude":37.421606,"longitude":-122.097063,"id":"afqf13wilmkh","address":"2420 CHARLESTON RD."},"type":"Feature","geometry":{"type":"Point","coordinates":[-122.097063,37.421606]}},{"properties":{"company":"SYMTRON CORP.","zip":"94043","latitude":37.421587,"longitude":-122.097033,"id":"afqf13scdnjm","address":"2415 E. CHARLESTON RD."},"type":"Feature","geometry":{"type":"Point","coordinates":[-122.097033,37.421587]}},{"properties":{"company":"G.H.I. INC.","zip":"94043","latitude":37.419883,"longitude":-122.096921,"id":"afqf13trg6it","address":"1050 INDEPENDENCE AVE."},"type":"Feature","geometry":{"type":"Point","coordinates":[-122.096921,37.419883]}},{"properties":{"company":"AUTOTRON EQUIPMENT CORP.","zip":"94043","latitude":37.420122,"longitude":-122.096879,"id":"afqf13qvhuep","address":"1077 INDEPENDENCE AVE. #B"},"type":"Feature","geometry":{"type":"Point","coordinates":[-122.096879,37.420122]}},{"properties":{"company":"DAVILA INTL. CIRCUITS INC.","zip":"94043","latitude":37.421543,"longitude":-122.096381,"id":"afqf13zgg72j","address":"2349 CHARLESTON RD."},"type":"Feature","geometry":{"type":"Point","coordinates":[-122.096381,37.421543]}},{"properties":{"company":"PRECISION DATA INC.","zip":"94043","latitude":37.421542,"longitude":-122.096148,"id":"afqf1467z13l","address":"2370 CHARLESTON RD."},"type":"Feature","geometry":{"type":"Point","coordinates":[-122.096148,37.421542]}},{"properties":{"company":"KAPCO TOOL AND ENGINEERING","zip":"94043","latitude":37.426405,"longitude":-122.094568,"id":"afqf13tjp8h2","address":"2591 GARCIA AVE."},"type":"Feature","geometry":{"type":"Point","coordinates":[-122.094568,37.426405]}},{"properties":{"company":"MAROMATIC","zip":"94043","latitude":37.426405,"longitude":-122.094568,"id":"afqf13u12yi4","address":"2591 GARCIA AVE."},"type":"Feature","geometry":{"type":"Point","coordinates":[-122.094568,37.426405]}},{"properties":{"company":"SIERRA SCIENTIFIC CORP.","zip":"94043","latitude":37.418976,"longitude":-122.094532,"id":"afqf144gb4d0","address":"2189 LEGHORN ST."},"type":"Feature","geometry":{"type":"Point","coordinates":[-122.094532,37.418976]}},{"properties":{"company":"GRID SYSTEMS CORP.","zip":"94043","latitude":37.426109,"longitude":-122.094313,"id":"afqf144tdooh","address":"2535 GARCIA AVE."},"type":"Feature","geometry":{"type":"Point","coordinates":[-122.094313,37.426109]}},{"properties":{"company":"BECTON DICKINSON","zip":"94043","latitude":37.425412,"longitude":-122.093368,"id":"afqf13zizqy4","address":"2375 GARCIA AVE."},"type":"Feature","geometry":{"type":"Point","coordinates":[-122.093368,37.425412]}},{"properties":{"company":"AUTOMATED SIMULATIONS INC.","zip":"94043","latitude":37.418828,"longitude":-122.09153,"id":"afqf145u9ckx","address":"1988 LEGHORN ST."},"type":"Feature","geometry":{"type":"Point","coordinates":[-122.09153,37.418828]}},{"properties":{"company":"PRINTEX CORP.","zip":"94043","latitude":37.415765,"longitude":-122.08864,"id":"afqf13sc0c6a","address":"1950 COLONY ST."},"type":"Feature","geometry":{"type":"Point","coordinates":[-122.08864,37.415765]}},{"properties":{"company":"CUBIT","zip":"94043","latitude":37.399129,"longitude":-122.083655,"id":"afqf144bmer3","address":"240 POLARIS AVE."},"type":"Feature","geometry":{"type":"Point","coordinates":[-122.083655,37.399129]}},{"properties":{"company":"TIME LAPSE INC.","zip":"94043","latitude":37.399268,"longitude":-122.083571,"id":"afqf1435dido","address":"250 POLARIS AVE."},"type":"Feature","geometry":{"type":"Point","coordinates":[-122.083571,37.399268]}},{"properties":{"company":"BEAMCO INC.","zip":"94043","latitude":37.399683,"longitude":-122.083318,"id":"afqf13rjz5no","address":"280 POLARIS AVE."},"type":"Feature","geometry":{"type":"Point","coordinates":[-122.083318,37.399683]}},{"properties":{"company":"ATMOSPHERE CONTROL PROD.","zip":"94043","latitude":37.399861,"longitude":-122.083184,"id":"afqf13v3n8vl","address":"295 POLARIS AVE."},"type":"Feature","geometry":{"type":"Point","coordinates":[-122.083184,37.399861]}},{"properties":{"company":"ATAC-ANALYTICAL TECH.","zip":"94041","latitude":37.390751,"longitude":-122.080953,"id":"afqf13wijw4o","address":"444 CASTRO ST."},"type":"Feature","geometry":{"type":"Point","coordinates":[-122.080953,37.390751]}},{"properties":{"company":"ROTHENBERG INFO. SYSTEMS","zip":"94041","latitude":37.390751,"longitude":-122.080953,"id":"afqf13rf7zs5","address":"444 CASTRO ST"},"type":"Feature","geometry":{"type":"Point","coordinates":[-122.080953,37.390751]}},{"properties":{"company":"RUCKER AND KOLLS MFG. CORP.","zip":"94043","latitude":37.40947,"longitude":-122.080143,"id":"afqf143anfgs","address":"1305 TERRA BELLA AVE."},"type":"Feature","geometry":{"type":"Point","coordinates":[-122.080143,37.40947]}},{"properties":{"company":"PRECISION EPI CORP.","zip":"94043","latitude":37.408551,"longitude":-122.07903,"id":"afqf13w4bjho","address":"1215 TERRA BELLA AVE"},"type":"Feature","geometry":{"type":"Point","coordinates":[-122.07903,37.408551]}},{"properties":{"company":"OXIMETRIX INC.","zip":"94043","latitude":37.408556,"longitude":-122.07898,"id":"afqf144tfvgv","address":"1212 TERRA BELLA AVE"},"type":"Feature","geometry":{"type":"Point","coordinates":[-122.07898,37.408556]}},{"properties":{"company":"MICROWAVE GENERAL","zip":"94043","latitude":37.40955,"longitude":-122.078119,"id":"afqf13uzogmd","address":"1400 STIERLIN RD."},"type":"Feature","geometry":{"type":"Point","coordinates":[-122.078119,37.40955]}},{"properties":{"company":"SETCOM CORP.","zip":"94043","latitude":37.40955,"longitude":-122.078119,"id":"afqf1408qej7","address":"1400 STIERLIN RD."},"type":"Feature","geometry":{"type":"Point","coordinates":[-122.078119,37.40955]}},{"properties":{"company":"MARDIX SECURITY SYSTEMS","zip":"94043","latitude":37.407424,"longitude":-122.078091,"id":"afqf13vecsmh","address":"900 STIERLIN RD."},"type":"Feature","geometry":{"type":"Point","coordinates":[-122.078091,37.407424]}},{"properties":{"company":"L.G.M. MFG. CO.","zip":"94043","latitude":37.40479,"longitude":-122.078084,"id":"afqf13qinj8t","address":"723 STIERLIN RD."},"type":"Feature","geometry":{"type":"Point","coordinates":[-122.078084,37.40479]}},{"properties":{"company":"TRANEX INC.","zip":"94043","latitude":37.40955,"longitude":-122.077999,"id":"afqf13v34sfd","address":"1675 STIERLIN RD."},"type":"Feature","geometry":{"type":"Point","coordinates":[-122.077999,37.40955]}},{"properties":{"company":"TRIO TECH. INTL.","zip":"94043","latitude":37.40955,"longitude":-122.077999,"id":"afqf143nrbio","address":"1599 STIERLIN RD."},"type":"Feature","geometry":{"type":"Point","coordinates":[-122.077999,37.40955]}},{"properties":{"company":"TECHNOLOGY FOR COMM. INTL.","zip":"94043","latitude":37.418502,"longitude":-122.077076,"id":"afqf1448q7hf","address":"1397 SHOREBIRD WAY"},"type":"Feature","geometry":{"type":"Point","coordinates":[-122.077076,37.418502]}},{"properties":{"company":"3-COM","zip":"94043","latitude":37.418518,"longitude":-122.077032,"id":"afqf13vyhq45","address":"1394 SHOREBIRD WAY"},"type":"Feature","geometry":{"type":"Point","coordinates":[-122.077032,37.418518]}},{"properties":{"company":"APPLIED MEDICAL TECH.","zip":"94043","latitude":37.418502,"longitude":-122.076988,"id":"afqf13zkf096","address":"1393 SHOREBIRD WAY"},"type":"Feature","geometry":{"type":"Point","coordinates":[-122.076988,37.418502]}},{"properties":{"company":"WESCORP","zip":"94043","latitude":37.408457,"longitude":-122.076892,"id":"afqf13t76kaq","address":"1155 TERRA BELLA AVE."},"type":"Feature","geometry":{"type":"Point","coordinates":[-122.076892,37.408457]}},{"properties":{"company":"ACUSON","zip":"94043","latitude":37.418502,"longitude":-122.076767,"id":"afqf140no9ft","address":"1383 SHOREBIRD WAY"},"type":"Feature","geometry":{"type":"Point","coordinates":[-122.076767,37.418502]}},{"properties":{"company":"INNER CONN. TECH. INC.","zip":"94043","latitude":37.398104,"longitude":-122.076039,"id":"afqf141d1pf2","address":"327 MOFFETT BLVD"},"type":"Feature","geometry":{"type":"Point","coordinates":[-122.076039,37.398104]}},{"properties":{"company":"HY-PAC","zip":"94043","latitude":37.398266,"longitude":-122.075863,"id":"afqf13qh9o2r","address":"341 MOFFETT BLVD"},"type":"Feature","geometry":{"type":"Point","coordinates":[-122.075863,37.398266]}},{"properties":{"company":"VITALINK COMM. CORP.","zip":"94043","latitude":37.420648,"longitude":-122.074778,"id":"afqf13sj9j53","address":"1330 CHARLESTON RD."},"type":"Feature","geometry":{"type":"Point","coordinates":[-122.074778,37.420648]}},{"properties":{"company":"DAVONG SYSTEMS INC.","zip":"94043","latitude":37.408452,"longitude":-122.074432,"id":"afqf140mb9et","address":"1061 TERRA BELLA AVE."},"type":"Feature","geometry":{"type":"Point","coordinates":[-122.074432,37.408452]}},{"properties":{"company":"BACTI-LAB INC.","zip":"94042","latitude":37.38802,"longitude":-122.07431,"id":"afqf13r7hsu3","address":"300A PIONEER WAY"},"type":"Feature","geometry":{"type":"Point","coordinates":[-122.07431,37.38802]}},{"properties":{"company":"CALIF. CIRCUIT ASSEMB.","zip":"94042","latitude":37.38802,"longitude":-122.07431,"id":"afqf1405ya35","address":"320 LOGUE AVE"},"type":"Feature","geometry":{"type":"Point","coordinates":[-122.07431,37.38802]}},{"properties":{"company":"MEDSONICS INC.","zip":"94042","latitude":37.38802,"longitude":-122.07431,"id":"afqf13r24xof","address":"340 PIONEER WAY"},"type":"Feature","geometry":{"type":"Point","coordinates":[-122.07431,37.38802]}},{"properties":{"company":"INFORMATION DESIGN INC.","zip":"94043","latitude":37.420741,"longitude":-122.073683,"id":"afqf144dnve3","address":"1300 CHARLESTON RD."},"type":"Feature","geometry":{"type":"Point","coordinates":[-122.073683,37.420741]}},{"properties":{"company":"QUANTA-RAY INC.","zip":"94043","latitude":37.420741,"longitude":-122.073683,"id":"afqf13vdw25q","address":"1300 CHARLESTON RD."},"type":"Feature","geometry":{"type":"Point","coordinates":[-122.073683,37.420741]}},{"properties":{"company":"CETA CORP","zip":"94043","latitude":37.409962,"longitude":-122.07365,"id":"afqf140ptdet","address":"2224 OLD MIDDLEFIELD WY."},"type":"Feature","geometry":{"type":"Point","coordinates":[-122.07365,37.409962]}},{"properties":{"company":"RAY LARRY PHOTOGRAPHY","zip":"94043","latitude":37.409962,"longitude":-122.07365,"id":"afqf144uzsm3","address":"2239 OLD MIDDLEFIELD WY."},"type":"Feature","geometry":{"type":"Point","coordinates":[-122.07365,37.409962]}},{"properties":{"company":"TELEWARE INC.","zip":"94043","latitude":37.409962,"longitude":-122.07365,"id":"afqf13tkg1v2","address":"2166 OLD MIDDLEFIELD WY."},"type":"Feature","geometry":{"type":"Point","coordinates":[-122.07365,37.409962]}},{"properties":{"company":"TURNER DESIGNS INC.","zip":"94043","latitude":37.409962,"longitude":-122.07365,"id":"afqf13sw0kfh","address":"2247 OLD MIDDLEFIELD WY."},"type":"Feature","geometry":{"type":"Point","coordinates":[-122.07365,37.409962]}},{"properties":{"company":"ZAMBRE CO. INC.","zip":"94043","latitude":37.409962,"longitude":-122.07365,"id":"afqf142l0nda","address":"2134 OLD MIDDLEFIELD WY."},"type":"Feature","geometry":{"type":"Point","coordinates":[-122.07365,37.409962]}},{"properties":{"company":"INNOVATEX","zip":"94043","latitude":37.413233,"longitude":-122.072491,"id":"afqf13w5dr56","address":"1100 L'AVENIDA"},"type":"Feature","geometry":{"type":"Point","coordinates":[-122.072491,37.413233]}},{"properties":{"company":"ARTEC INTERNATIONAL INC.","zip":"94043","latitude":37.420397,"longitude":-122.071916,"id":"afqf13xiti3z","address":"1250 CHARLESTON RD."},"type":"Feature","geometry":{"type":"Point","coordinates":[-122.071916,37.420397]}},{"properties":{"company":"T.B.S. INC.","zip":"94043","latitude":37.413188,"longitude":-122.071575,"id":"afqf13rvn7po","address":"1080A L'AVENIDA"},"type":"Feature","geometry":{"type":"Point","coordinates":[-122.071575,37.413188]}},{"properties":{"company":"MICROVERTICS","zip":"94043","latitude":37.420068,"longitude":-122.070985,"id":"afqf13wcyb3g","address":"1220 CHARLESTON RD."},"type":"Feature","geometry":{"type":"Point","coordinates":[-122.070985,37.420068]}},{"properties":{"company":"HUNTINGTON MECHANICAL LABS","zip":"94043","latitude":37.413136,"longitude":-122.070563,"id":"afqf14153xyu","address":"1040 L'AVENIDA"},"type":"Feature","geometry":{"type":"Point","coordinates":[-122.070563,37.413136]}},{"properties":{"company":"AQUA VELOP INC.","zip":"94043","latitude":37.406754,"longitude":-122.070342,"id":"afqf13xsqo29","address":"922 SAN LEANDRO AVE."},"type":"Feature","geometry":{"type":"Point","coordinates":[-122.070342,37.406754]}},{"properties":{"company":"NICOLET TECH.","zip":"94043","latitude":37.387217,"longitude":-122.066808,"id":"afqf1443bvb6","address":"145 E. DANA ST."},"type":"Feature","geometry":{"type":"Point","coordinates":[-122.066808,37.387217]}},{"properties":{"company":"ACRO MFG.","zip":"94040","latitude":37.389687,"longitude":-122.064678,"id":"afqf143lzt67","address":"145 E. EVELYN AVE."},"type":"Feature","geometry":{"type":"Point","coordinates":[-122.064678,37.389687]}},{"properties":{"company":"FOONLY INC.","zip":"94041","latitude":37.386643,"longitude":-122.064228,"id":"afqf13xq39wa","address":"160 S. WHISMAN RD."},"type":"Feature","geometry":{"type":"Point","coordinates":[-122.064228,37.386643]}},{"properties":{"company":"CALIF. MAGNETICS CORP.","zip":"94041","latitude":37.386655,"longitude":-122.064183,"id":"afqf141ucl9q","address":"144 S. WHISMAN RD."},"type":"Feature","geometry":{"type":"Point","coordinates":[-122.064183,37.386655]}},{"properties":{"company":"MECHANIZATION ASSOC.","zip":"94040","latitude":37.389424,"longitude":-122.064018,"id":"afqf13qojsvh","address":"181 E. EVELYN AVE."},"type":"Feature","geometry":{"type":"Point","coordinates":[-122.064018,37.389424]}},{"properties":{"company":"PACIFIC WESTERN SYSTEMS INC.","zip":"94040","latitude":37.386965,"longitude":-122.056818,"id":"afqf13t3zq9x","address":"505 E. EVELYN AVE."},"type":"Feature","geometry":{"type":"Point","coordinates":[-122.056818,37.386965]}},{"properties":{"company":"NISSEI SANGYO INTRU.","zip":"94043","latitude":37.396355,"longitude":-122.055768,"id":"afqf13yzyokm","address":"460 E. MIDDLEFIELD RD."},"type":"Feature","geometry":{"type":"Point","coordinates":[-122.055768,37.396355]}},{"properties":{"company":"GASTECH INC.","zip":"94043","latitude":37.404854,"longitude":-122.055469,"id":"afqf13q2xlaw","address":"331 FAIRCHILD DR."},"type":"Feature","geometry":{"type":"Point","coordinates":[-122.055469,37.404854]}},{"properties":{"company":"TRIGON","zip":"94043","latitude":37.389048,"longitude":-122.054519,"id":"afqf13zd4n9i","address":"311 RAVENDALE DR."},"type":"Feature","geometry":{"type":"Point","coordinates":[-122.054519,37.389048]}},{"properties":{"company":"ECHO SCIENCE CORP.","zip":"94043","latitude":37.395954,"longitude":-122.054181,"id":"afqf141xfq64","address":"485 E. MIDDLEFIELD RD."},"type":"Feature","geometry":{"type":"Point","coordinates":[-122.054181,37.395954]}},{"properties":{"company":"ADVENT SYSTEMS INC.","zip":"94043","latitude":37.389333,"longitude":-122.054102,"id":"afqf13w7zjue","address":"355 RAVENDALE DR."},"type":"Feature","geometry":{"type":"Point","coordinates":[-122.054102,37.389333]}},{"properties":{"company":"DAYTRON INC.","zip":"94043","latitude":37.402556,"longitude":-122.053979,"id":"afqf145if39e","address":"634 NATIONAL AVE."},"type":"Feature","geometry":{"type":"Point","coordinates":[-122.053979,37.402556]}},{"properties":{"company":"BAUMBACH ENGINEERING CO.","zip":"94043","latitude":37.402681,"longitude":-122.053936,"id":"afqf13yemta6","address":"640 NATIONAL AVE."},"type":"Feature","geometry":{"type":"Point","coordinates":[-122.053936,37.402681]}},{"properties":{"company":"BENSON INC.","zip":"94043","latitude":37.389528,"longitude":-122.053817,"id":"afqf13yyqlo8","address":"385 RAVENDALE DR."},"type":"Feature","geometry":{"type":"Point","coordinates":[-122.053817,37.389528]}},{"properties":{"company":"XETEX INC.","zip":"94043","latitude":37.403097,"longitude":-122.053778,"id":"afqf1428z6t2","address":"660 NATIONAL AVE."},"type":"Feature","geometry":{"type":"Point","coordinates":[-122.053778,37.403097]}},{"properties":{"company":"TRI DATA CORP.","zip":"94043","latitude":37.395793,"longitude":-122.053714,"id":"afqf13wino5t","address":"505 E. MIDDLEFIELD RD."},"type":"Feature","geometry":{"type":"Point","coordinates":[-122.053714,37.395793]}},{"properties":{"company":"PERSONAL MICROCOMPUTERS","zip":"94043","latitude":37.39874,"longitude":-122.052673,"id":"afqf13uzomfb","address":"425 ELLIS ST."},"type":"Feature","geometry":{"type":"Point","coordinates":[-122.052673,37.39874]}},{"properties":{"company":"ELECTRONIC ARRAYS INC.","zip":"94043","latitude":37.395148,"longitude":-122.05255,"id":"afqf13w4icl1","address":"550 E. MIDDLEFIELD RD."},"type":"Feature","geometry":{"type":"Point","coordinates":[-122.05255,37.395148]}},{"properties":{"company":"FAIRCHILD CAMERA &amp; INSTRU.","zip":"94043","latitude":37.399681,"longitude":-122.052352,"id":"afqf144z38nm","address":"464 ELLIS ST."},"type":"Feature","geometry":{"type":"Point","coordinates":[-122.052352,37.399681]}},{"properties":{"company":"MICROSETTE CO.","zip":"94043","latitude":37.399696,"longitude":-122.052325,"id":"afqf13uwc4sb","address":"475 ELLIS ST."},"type":"Feature","geometry":{"type":"Point","coordinates":[-122.052325,37.399696]}},{"properties":{"company":"RECORTEX INC.","zip":"94043","latitude":37.399696,"longitude":-122.052325,"id":"afqf13r5t58k","address":"475 ELLIS ST."},"type":"Feature","geometry":{"type":"Point","coordinates":[-122.052325,37.399696]}},{"properties":{"company":"PROMEX","zip":"94043","latitude":37.399924,"longitude":-122.052264,"id":"afqf1410mdso","address":"476 ELLIS ST."},"type":"Feature","geometry":{"type":"Point","coordinates":[-122.052264,37.399924]}},{"properties":{"company":"SEALECTRO CORP.","zip":"94043","latitude":37.40351,"longitude":-122.051989,"id":"afqf13xhomwi","address":"465 FAIRCHILD DR. #112"},"type":"Feature","geometry":{"type":"Point","coordinates":[-122.051989,37.40351]}},{"properties":{"company":"OPTIMETRIX CORP.","zip":"94043","latitude":37.401254,"longitude":-122.051776,"id":"afqf13xqcy7y","address":"500 ELLIS ST."},"type":"Feature","geometry":{"type":"Point","coordinates":[-122.051776,37.401254]}},{"properties":{"company":"GENUS INC.","zip":"94043","latitude":37.40129,"longitude":-122.05174,"id":"afqf13r6hycv","address":"515 ELLIS ST"},"type":"Feature","geometry":{"type":"Point","coordinates":[-122.05174,37.40129]}},{"properties":{"company":"ROK INDUSTRIES INC.","zip":"94043","latitude":37.401636,"longitude":-122.05161,"id":"afqf143vgaig","address":"555 ELLIS ST."},"type":"Feature","geometry":{"type":"Point","coordinates":[-122.05161,37.401636]}},{"properties":{"company":"CROMEMCO INC.","zip":"94043","latitude":37.388277,"longitude":-122.051447,"id":"afqf1446fs28","address":"280 BERNARDO AVE"},"type":"Feature","geometry":{"type":"Point","coordinates":[-122.051447,37.388277]}},{"properties":{"company":"HANGGI MFG.","zip":"95014","latitude":37.321538,"longitude":-122.051176,"id":"afqf140aofng","address":"10100 BUBB RD."},"type":"Feature","geometry":{"type":"Point","coordinates":[-122.051176,37.321538]}},{"properties":{"company":"ACRIAN INC.","zip":"95014","latitude":37.321034,"longitude":-122.050964,"id":"afqf142zu0sy","address":"10131 BUBB RD."},"type":"Feature","geometry":{"type":"Point","coordinates":[-122.050964,37.321034]}},{"properties":{"company":"TELCO SYSTEMS","zip":"94043","latitude":37.388645,"longitude":-122.050905,"id":"afqf13x9ybwp","address":"350 BERNARDO AVE"},"type":"Feature","geometry":{"type":"Point","coordinates":[-122.050905,37.388645]}},{"properties":{"company":"CONTREL CORP .","zip":"94086","latitude":37.385085,"longitude":-122.050873,"id":"afqf13sukraw","address":"1150 W. EVELYN AVE ."},"type":"Feature","geometry":{"type":"Point","coordinates":[-122.050873,37.385085]}},{"properties":{"company":"MEASUREX CORP.","zip":"95014","latitude":37.316413,"longitude":-122.050389,"id":"afqf13rchc7q","address":"1 RESULTS WAY"},"type":"Feature","geometry":{"type":"Point","coordinates":[-122.050389,37.316413]}},{"properties":{"company":"3-M INC.","zip":"94043","latitude":37.388973,"longitude":-122.050319,"id":"afqf13pvshtp","address":"420 N. BERNARDO AVE"},"type":"Feature","geometry":{"type":"Point","coordinates":[-122.050319,37.388973]}},{"properties":{"company":"VIKING LABS INC.","zip":"94043","latitude":37.389071,"longitude":-122.050156,"id":"afqf1430avu0","address":"440 N. BERNARDO AVE."},"type":"Feature","geometry":{"type":"Point","coordinates":[-122.050156,37.389071]}},{"properties":{"company":"RELIABILITY WEST INC.","zip":"94043","latitude":37.389125,"longitude":-122.050027,"id":"afqf13y3nayq","address":"455 N. BERNARDO AVE."},"type":"Feature","geometry":{"type":"Point","coordinates":[-122.050027,37.389125]}},{"properties":{"company":"NCR CORP.","zip":"94043","latitude":37.398085,"longitude":-122.049927,"id":"afqf13vnz2bk","address":"520 LOGUE AVE"},"type":"Feature","geometry":{"type":"Point","coordinates":[-122.049927,37.398085]}},{"properties":{"company":"NITRON CORP.","zip":"95014","latitude":37.317078,"longitude":-122.049612,"id":"afqf13xsrk0a","address":"10420 BUBB RD."},"type":"Feature","geometry":{"type":"Point","coordinates":[-122.049612,37.317078]}},{"properties":{"company":"VYKRA CORP.","zip":"94043","latitude":37.400739,"longitude":-122.049249,"id":"afqf145e24jz","address":"650 CLYDE CT."},"type":"Feature","geometry":{"type":"Point","coordinates":[-122.049249,37.400739]}},{"properties":{"company":"ICOT CORP.","zip":"94043","latitude":37.396681,"longitude":-122.049137,"id":"afqf13xdofz4","address":"830 MAUDE AVE"},"type":"Feature","geometry":{"type":"Point","coordinates":[-122.049137,37.396681]}},{"properties":{"company":"SIERRA CIRCUITS INC.","zip":"94086","latitude":37.384484,"longitude":-122.049085,"id":"afqf13zgxepn","address":"1108 W. EVELYN AVE ."},"type":"Feature","geometry":{"type":"Point","coordinates":[-122.049085,37.384484]}},{"properties":{"company":"S.M.S.","zip":"94043","latitude":37.391039,"longitude":-122.048496,"id":"afqf144t2dab","address":"777 E. MIDDLEFIELD RD."},"type":"Feature","geometry":{"type":"Point","coordinates":[-122.048496,37.391039]}},{"properties":{"company":"BTL COMPUTER SYSTEMS","zip":"94086","latitude":37.395996,"longitude":-122.048201,"id":"afqf13qpszha","address":"870 MAUDE AVE."},"type":"Feature","geometry":{"type":"Point","coordinates":[-122.048201,37.395996]}},{"properties":{"company":"WILTRON COMPANY","zip":"94043","latitude":37.390253,"longitude":-122.048037,"id":"afqf1408v98k","address":"805 E. MIDDLEFIELD RD."},"type":"Feature","geometry":{"type":"Point","coordinates":[-122.048037,37.390253]}},{"properties":{"company":"MARTEX CIRCUITS INC.","zip":"94043","latitude":37.395788,"longitude":-122.048006,"id":"afqf142xxpew","address":"885 MAUDE AVE"},"type":"Feature","geometry":{"type":"Point","coordinates":[-122.048006,37.395788]}},{"properties":{"company":"COMMERCIAL ELECTRONICS INC.","zip":"94043","latitude":37.395805,"longitude":-122.047991,"id":"afqf144fvlcg","address":"880 MAUDE AVE"},"type":"Feature","geometry":{"type":"Point","coordinates":[-122.047991,37.395805]}},{"properties":{"company":"NATIONAL ADVANCED SYSTEMS","zip":"94043","latitude":37.390323,"longitude":-122.047918,"id":"afqf13qwzxu7","address":"800 E. MIDDLEFIELD RD."},"type":"Feature","geometry":{"type":"Point","coordinates":[-122.047918,37.390323]}},{"properties":{"company":"SEIKO CIRCUITS INC.","zip":"94086","latitude":37.383716,"longitude":-122.046758,"id":"afqf1402a57d","address":"1038 W. EVELYN AVE."},"type":"Feature","geometry":{"type":"Point","coordinates":[-122.046758,37.383716]}},{"properties":{"company":"ACUREX CORP.","zip":"94043","latitude":37.399437,"longitude":-122.046632,"id":"afqf13qqtuel","address":"555 CLYDE AVE."},"type":"Feature","geometry":{"type":"Point","coordinates":[-122.046632,37.399437]}},{"properties":{"company":"APPLIED TECH/ITEK","zip":"94086","latitude":37.394577,"longitude":-122.045437,"id":"afqf1450sauy","address":"1101 MAUDE AVE."},"type":"Feature","geometry":{"type":"Point","coordinates":[-122.045437,37.394577]}},{"properties":{"company":"MAUPAS S. N. CO.","zip":"94086","latitude":37.393936,"longitude":-122.043471,"id":"afqf144l7mnt","address":"1034 W. MAUDE AVE . #603"},"type":"Feature","geometry":{"type":"Point","coordinates":[-122.043471,37.393936]}},{"properties":{"company":"SCIENTIFIC SOFTWARE &amp; INSTRUMENT","zip":"94086","latitude":37.393885,"longitude":-122.043315,"id":"afqf13smdt8b","address":"1028 W. MAUDE AVE. #402"},"type":"Feature","geometry":{"type":"Point","coordinates":[-122.043315,37.393885]}},{"properties":{"company":"TRILOGY SYSTEMS CORP.","zip":"95014","latitude":37.31776,"longitude":-122.043307,"id":"afqf13ubywyk","address":"5150 GREAT AMERICA PWY"},"type":"Feature","geometry":{"type":"Point","coordinates":[-122.043307,37.31776]}},{"properties":{"company":"DELPHIAN CORP.","zip":"94086","latitude":37.390309,"longitude":-122.042434,"id":"afqf141h8wgf","address":"473 MACARA AVE. #704"},"type":"Feature","geometry":{"type":"Point","coordinates":[-122.042434,37.390309]}},{"properties":{"company":"INNOWAVE INC.","zip":"94086","latitude":37.390437,"longitude":-122.042392,"id":"afqf13pvv7em","address":"485 MACARA AVE."},"type":"Feature","geometry":{"type":"Point","coordinates":[-122.042392,37.390437]}},{"properties":{"company":"UVEXS INC.","zip":"94086","latitude":37.390437,"longitude":-122.042392,"id":"afqf140he73j","address":"485 MACARA AVE. #905"},"type":"Feature","geometry":{"type":"Point","coordinates":[-122.042392,37.390437]}},{"properties":{"company":"LITTON-MELLONICS","zip":"94086","latitude":37.393485,"longitude":-122.042034,"id":"afqf145ke2kc","address":"1001 W. MAUDE AVE."},"type":"Feature","geometry":{"type":"Point","coordinates":[-122.042034,37.393485]}},{"properties":{"company":"COMPU/THINK","zip":"94086","latitude":37.393029,"longitude":-122.040639,"id":"afqf1415doro","address":"965 W. MAUDE AVE."},"type":"Feature","geometry":{"type":"Point","coordinates":[-122.040639,37.393029]}},{"properties":{"company":"NANOMETRICS","zip":"94086","latitude":37.392743,"longitude":-122.03982,"id":"afqf13ukapcq","address":"930 W. MAUDE AVE."},"type":"Feature","geometry":{"type":"Point","coordinates":[-122.03982,37.392743]}},{"properties":{"company":"CANDELA ELECTRONICS","zip":"94086","latitude":37.392713,"longitude":-122.039726,"id":"afqf141o93em","address":"926 W. MAUDE AVE."},"type":"Feature","geometry":{"type":"Point","coordinates":[-122.039726,37.392713]}},{"properties":{"company":"ADCOTECH CORP.","zip":"94086","latitude":37.393236,"longitude":-122.039033,"id":"afqf13v08uev","address":"575 MAUDE CT ."},"type":"Feature","geometry":{"type":"Point","coordinates":[-122.039033,37.393236]}},{"properties":{"company":"ROBINTON PRODUCTS INC.","zip":"94086","latitude":37.393265,"longitude":-122.039002,"id":"afqf141ghmfa","address":"580 MAUDE CT."},"type":"Feature","geometry":{"type":"Point","coordinates":[-122.039002,37.393265]}},{"properties":{"company":"BOEING COMPANY","zip":"94086","latitude":37.386505,"longitude":-122.038451,"id":"afqf13uw0b45","address":"310 POTRERO AVE."},"type":"Feature","geometry":{"type":"Point","coordinates":[-122.038451,37.386505]}},{"properties":{"company":"MACHINE INTELLIGENCE","zip":"94086","latitude":37.386786,"longitude":-122.038358,"id":"afqf13rf1jlo","address":"330 POTRERO AVE."},"type":"Feature","geometry":{"type":"Point","coordinates":[-122.038358,37.386786]}},{"properties":{"company":"E.G.&amp; G. RETICON CORP.","zip":"94086","latitude":37.387639,"longitude":-122.038095,"id":"afqf13ypkakw","address":"345 POTRERO AVE."},"type":"Feature","geometry":{"type":"Point","coordinates":[-122.038095,37.387639]}},{"properties":{"company":"LOGISTICON INC.","zip":"94086","latitude":37.387624,"longitude":-122.038079,"id":"afqf13tgpgh7","address":"350 POTRERO AVE."},"type":"Feature","geometry":{"type":"Point","coordinates":[-122.038079,37.387624]}},{"properties":{"company":"ARGOSYSTEMS","zip":"94086","latitude":37.387012,"longitude":-122.037632,"id":"afqf143to8rq","address":"884 HERMOSA CT."},"type":"Feature","geometry":{"type":"Point","coordinates":[-122.037632,37.387012]}},{"properties":{"company":"SPECTRA MEDICAL SYSTEMS","zip":"94086","latitude":37.389988,"longitude":-122.037305,"id":"afqf1458r8h5","address":"445 POTRERO AVE."},"type":"Feature","geometry":{"type":"Point","coordinates":[-122.037305,37.389988]}},{"properties":{"company":"ECOLINE","zip":"94086","latitude":37.391815,"longitude":-122.036992,"id":"afqf13wd64t8","address":"880 W. MAUDE AVE."},"type":"Feature","geometry":{"type":"Point","coordinates":[-122.036992,37.391815]}},{"properties":{"company":"SMITH KLINE-INVITRE DIAGNOSTICS","zip":"94086","latitude":37.390928,"longitude":-122.036989,"id":"afqf140va186","address":"485 POTRERO AVE."},"type":"Feature","geometry":{"type":"Point","coordinates":[-122.036989,37.390928]}},{"properties":{"company":"H.D. E. SYSTEMS INC.","zip":"94086","latitude":37.393288,"longitude":-122.036927,"id":"afqf13zbdxkl","address":"615 N. MARY AVE."},"type":"Feature","geometry":{"type":"Point","coordinates":[-122.036927,37.393288]}},{"properties":{"company":"YIG-TEK/EATON","zip":"94086","latitude":37.393234,"longitude":-122.036925,"id":"afqf1407xmge","address":"610 N. MARY AVE ."},"type":"Feature","geometry":{"type":"Point","coordinates":[-122.036925,37.393234]}},{"properties":{"company":"VALID LOGIC SYSTEMS","zip":"94086","latitude":37.393612,"longitude":-122.036783,"id":"afqf144pk918","address":"650 N. MARY AVE ."},"type":"Feature","geometry":{"type":"Point","coordinates":[-122.036783,37.393612]}},{"properties":{"company":"EATON CORP./SEMICON. EQUIP. INC.","zip":"94086","latitude":37.39624,"longitude":-122.035931,"id":"afqf13zibed9","address":"749 N. MARY AVE ."},"type":"Feature","geometry":{"type":"Point","coordinates":[-122.035931,37.39624]}},{"properties":{"company":"INTEGRATED CIRCUITS PACKAGING","zip":"94086","latitude":37.396286,"longitude":-122.035896,"id":"afqf13q9jyn2","address":"750 N. MARY AVE."},"type":"Feature","geometry":{"type":"Point","coordinates":[-122.035896,37.396286]}},{"properties":{"company":"PACIFIC RELIABILITY CORP.","zip":"94086","latitude":37.396738,"longitude":-122.035774,"id":"afqf145vnv8z","address":"765 N. MARY AVE."},"type":"Feature","geometry":{"type":"Point","coordinates":[-122.035774,37.396738]}},{"properties":{"company":"BRAEGEN CORP.","zip":"95014","latitude":37.332322,"longitude":-122.035671,"id":"afqf13y0tbxy","address":"20740 VALLEY GREEN DR."},"type":"Feature","geometry":{"type":"Point","coordinates":[-122.035671,37.332322]}},{"properties":{"company":"DYNATEL CORP.","zip":"94086","latitude":37.387451,"longitude":-122.035109,"id":"afqf13tru6u3","address":"380 N. PASTORIA AVE."},"type":"Feature","geometry":{"type":"Point","coordinates":[-122.035109,37.387451]}},{"properties":{"company":"TYMSHARE INC.","zip":"95014","latitude":37.332338,"longitude":-122.035017,"id":"afqf13v98iyn","address":"20705 VALLEY GREEN DR."},"type":"Feature","geometry":{"type":"Point","coordinates":[-122.035017,37.332338]}},{"properties":{"company":"CALIF. MICROWAVE INC.","zip":"94086","latitude":37.398131,"longitude":-122.034974,"id":"afqf13s5qjam","address":"990 ALMANOR AVE."},"type":"Feature","geometry":{"type":"Point","coordinates":[-122.034974,37.398131]}},{"properties":{"company":"PRAGMA DATA SYS.","zip":"94086","latitude":37.393841,"longitude":-122.034916,"id":"afqf13rmvipj","address":"610 PALOMAR AVE."},"type":"Feature","geometry":{"type":"Point","coordinates":[-122.034916,37.393841]}},{"properties":{"company":"MEMORY DISC. MFG.","zip":"94086","latitude":37.393931,"longitude":-122.034906,"id":"afqf13tidy04","address":"615 PALOMAR AVE. ( EAST)"},"type":"Feature","geometry":{"type":"Point","coordinates":[-122.034906,37.393931]}},{"properties":{"company":"INTL . MEMORIES INC.","zip":"95014","latitude":37.327321,"longitude":-122.03444,"id":"afqf13vf6lo7","address":"10381 BANDLEY DR ."},"type":"Feature","geometry":{"type":"Point","coordinates":[-122.03444,37.327321]}},{"properties":{"company":"DIAGNOSTIC INFORMATION","zip":"94086","latitude":37.383652,"longitude":-122.03438,"id":"afqf13ux8k15","address":"246 SOBRANTE WAY"},"type":"Feature","geometry":{"type":"Point","coordinates":[-122.03438,37.383652]}},{"properties":{"company":"ICONIX","zip":"95014","latitude":37.328423,"longitude":-122.034372,"id":"afqf13yewvu5","address":"10441 BANDLEY DR."},"type":"Feature","geometry":{"type":"Point","coordinates":[-122.034372,37.328423]}},{"properties":{"company":"MICROSPEC CORP.","zip":"94086","latitude":37.383778,"longitude":-122.034359,"id":"afqf145lgur2","address":"265 SOBRANTE WAY"},"type":"Feature","geometry":{"type":"Point","coordinates":[-122.034359,37.383778]}},{"properties":{"company":"CALIF. MICRO DEVICES","zip":"94086","latitude":37.396125,"longitude":-122.034183,"id":"afqf143xkizr","address":"733 PALOMAR AVE ."},"type":"Feature","geometry":{"type":"Point","coordinates":[-122.034183,37.396125]}},{"properties":{"company":"SYSTRON DONNER CORP.","zip":"94086","latitude":37.396163,"longitude":-122.034172,"id":"afqf13sbn54y","address":"735 PALOMAR AVE."},"type":"Feature","geometry":{"type":"Point","coordinates":[-122.034172,37.396163]}},{"properties":{"company":"EXAR-INTEGRATED SYS. INC.","zip":"94086","latitude":37.396446,"longitude":-122.034068,"id":"afqf13rmjvga","address":"750 PALOMAR AVE."},"type":"Feature","geometry":{"type":"Point","coordinates":[-122.034068,37.396446]}},{"properties":{"company":"TIMEX CORP.","zip":"95014","latitude":37.332322,"longitude":-122.033962,"id":"afqf143ykpqe","address":"20650 VALLEY GREEN DR."},"type":"Feature","geometry":{"type":"Point","coordinates":[-122.033962,37.332322]}},{"properties":{"company":"CIRCADIAN INC.","zip":"94086","latitude":37.396949,"longitude":-122.033941,"id":"afqf13zfyuag","address":"777 PALOMAR AVE."},"type":"Feature","geometry":{"type":"Point","coordinates":[-122.033941,37.396949]}},{"properties":{"company":"ADDINGTON PROCESSING LAB","zip":"94086","latitude":37.397062,"longitude":-122.033908,"id":"afqf13y6i2d9","address":"783 PALOMAR AVE."},"type":"Feature","geometry":{"type":"Point","coordinates":[-122.033908,37.397062]}},{"properties":{"company":"CENTEX","zip":"94086","latitude":37.392268,"longitude":-122.033846,"id":"afqf13z6415z","address":"575 N. PASTORIA AVE ."},"type":"Feature","geometry":{"type":"Point","coordinates":[-122.033846,37.392268]}},{"properties":{"company":"XIDEX CORP .","zip":"94086","latitude":37.385543,"longitude":-122.03381,"id":"afqf13sqfa14","address":"305 SOQUEL WAY"},"type":"Feature","geometry":{"type":"Point","coordinates":[-122.03381,37.385543]}},{"properties":{"company":"VERBATIM CORP.","zip":"94086","latitude":37.385698,"longitude":-122.033753,"id":"afqf141e2ltx","address":"335 SOQUEL WAY"},"type":"Feature","geometry":{"type":"Point","coordinates":[-122.033753,37.385698]}},{"properties":{"company":"DATAPOINT PERIPHERAL PRODUCT INC.","zip":"94086","latitude":37.390677,"longitude":-122.033498,"id":"afqf13zggsp2","address":"683 W. MAUDE AVE ."},"type":"Feature","geometry":{"type":"Point","coordinates":[-122.033498,37.390677]}},{"properties":{"company":"ADVANCED LSI TECH. INC .","zip":"94086","latitude":37.394065,"longitude":-122.033259,"id":"afqf13pw7jo0","address":"639 N. PASTORIA AVE ."},"type":"Feature","geometry":{"type":"Point","coordinates":[-122.033259,37.394065]}},{"properties":{"company":"PROBE SYSTEMS INC.","zip":"94086","latitude":37.394365,"longitude":-122.033157,"id":"afqf13qbi20k","address":"655 N. PASTORIA AVE ."},"type":"Feature","geometry":{"type":"Point","coordinates":[-122.033157,37.394365]}},{"properties":{"company":"ATC MEDICAL TECH. INC.","zip":"94086","latitude":37.392694,"longitude":-122.032923,"id":"afqf13x2yq5d","address":"570 DEL REY AVE ."},"type":"Feature","geometry":{"type":"Point","coordinates":[-122.032923,37.392694]}},{"properties":{"company":"APPLE COMPUTER INC.","zip":"95014","latitude":37.330222,"longitude":-122.032823,"id":"afqf13zndjgz","address":"20525 MARIANI AVE."},"type":"Feature","geometry":{"type":"Point","coordinates":[-122.032823,37.330222]}},{"properties":{"company":"DICOM","zip":"94086","latitude":37.395487,"longitude":-122.032775,"id":"afqf142uy87q","address":"715 N. PASTORIA AVE."},"type":"Feature","geometry":{"type":"Point","coordinates":[-122.032775,37.395487]}},{"properties":{"company":"C.M.C. TECHNOLOGY CORP.","zip":"94086","latitude":37.395825,"longitude":-122.032665,"id":"afqf144vmqv1","address":"733 N. PASTORIA AVE ."},"type":"Feature","geometry":{"type":"Point","coordinates":[-122.032665,37.395825]}},{"properties":{"company":"APPLIED ELECTROCHEMISTRY INC .","zip":"94086","latitude":37.395863,"longitude":-122.032654,"id":"afqf1429j3h2","address":"735 N. PASTORIA AVE ."},"type":"Feature","geometry":{"type":"Point","coordinates":[-122.032654,37.395863]}},{"properties":{"company":"BEAM ENGINEERING","zip":"94086","latitude":37.395809,"longitude":-122.032649,"id":"afqf13wilntb","address":"732 N. PASTORIA AVE."},"type":"Feature","geometry":{"type":"Point","coordinates":[-122.032649,37.395809]}},{"properties":{"company":"STEP ENGINEERING INC.","zip":"94086","latitude":37.396277,"longitude":-122.032527,"id":"afqf13xp11x5","address":"757 PASTORIA AVE ."},"type":"Feature","geometry":{"type":"Point","coordinates":[-122.032527,37.396277]}},{"properties":{"company":"FOUR-PHASE SYSTEMS INC .","zip":"95014","latitude":37.331762,"longitude":-122.032162,"id":"afqf144kfwe0","address":"10700 N. DE ANZA BLVD."},"type":"Feature","geometry":{"type":"Point","coordinates":[-122.032162,37.331762]}},{"properties":{"company":"TELECOMMUNICATION TECH. INC.","zip":"94086","latitude":37.392525,"longitude":-122.03205,"id":"afqf144rn9va","address":"555 DEL REY AVE."},"type":"Feature","geometry":{"type":"Point","coordinates":[-122.03205,37.392525]}},{"properties":{"company":"CHRONOMIX","zip":"94086","latitude":37.393992,"longitude":-122.031871,"id":"afqf13zrzwkd","address":"650 VAQUEROS AVE ."},"type":"Feature","geometry":{"type":"Point","coordinates":[-122.031871,37.393992]}},{"properties":{"company":"U.T.I.","zip":"94086","latitude":37.385416,"longitude":-122.031681,"id":"afqf13xx5dc0","address":"325 N. MATHILDA AVE."},"type":"Feature","geometry":{"type":"Point","coordinates":[-122.031681,37.385416]}},{"properties":{"company":"MICRO MASK INC.","zip":"94086","latitude":37.394829,"longitude":-122.031621,"id":"afqf13rdx7gd","address":"695 VAQUEROS AVE ."},"type":"Feature","geometry":{"type":"Point","coordinates":[-122.031621,37.394829]}},{"properties":{"company":"IVC","zip":"94086","latitude":37.389959,"longitude":-122.031352,"id":"afqf142dmwdl","address":"455 W. MAUDE AVE ."},"type":"Feature","geometry":{"type":"Point","coordinates":[-122.031352,37.389959]}},{"properties":{"company":"DATA GENERAL CORP.","zip":"94086","latitude":37.387622,"longitude":-122.030952,"id":"afqf1416rwym","address":"433 N. MATHILDA AVE."},"type":"Feature","geometry":{"type":"Point","coordinates":[-122.030952,37.387622]}},{"properties":{"company":"ZYMOS CORP.","zip":"94086","latitude":37.388341,"longitude":-122.030729,"id":"afqf13tkjvg2","address":"477 N. MATHILDA AVE ."},"type":"Feature","geometry":{"type":"Point","coordinates":[-122.030729,37.388341]}},{"properties":{"company":"VIDEO LOGIC CORP .","zip":"94086","latitude":37.391703,"longitude":-122.029996,"id":"afqf1409iz0s","address":"597 N. MATHILDA AVE."},"type":"Feature","geometry":{"type":"Point","coordinates":[-122.029996,37.391703]}},{"properties":{"company":"KIRK MAYER INC.","zip":"94086","latitude":37.39174,"longitude":-122.029985,"id":"afqf13thiz2j","address":"599 N. MATHILDA AVE ."},"type":"Feature","geometry":{"type":"Point","coordinates":[-122.029985,37.39174]}},{"properties":{"company":"CIRCO INC .","zip":"94086","latitude":37.400746,"longitude":-122.029827,"id":"afqf13x351f8","address":"940 HAMLIN CT."},"type":"Feature","geometry":{"type":"Point","coordinates":[-122.029827,37.400746]}},{"properties":{"company":"GILLASPIE &amp; ASSOC .","zip":"94086","latitude":37.393597,"longitude":-122.027914,"id":"afqf13v7yl78","address":"365 SAN ALESO AVE ."},"type":"Feature","geometry":{"type":"Point","coordinates":[-122.027914,37.393597]}},{"properties":{"company":"DATA PATHING INC.","zip":"94086","latitude":37.393608,"longitude":-122.027849,"id":"afqf13vy5udm","address":"370 SAN ALESO AVE."},"type":"Feature","geometry":{"type":"Point","coordinates":[-122.027849,37.393608]}},{"properties":{"company":"VEECO INDUST. EQUIP. DIV.","zip":"94086","latitude":37.393608,"longitude":-122.027849,"id":"afqf13vbq072","address":"370 SAN ALESO AVE."},"type":"Feature","geometry":{"type":"Point","coordinates":[-122.027849,37.393608]}},{"properties":{"company":"POLYOHM CORP.","zip":"94086","latitude":37.396468,"longitude":-122.026838,"id":"afqf13xuomhe","address":"742 SAN ALESO AVE ."},"type":"Feature","geometry":{"type":"Point","coordinates":[-122.026838,37.396468]}},{"properties":{"company":"ADAC LABORATORIES","zip":"94086","latitude":37.371042,"longitude":-122.023851,"id":"afqf14586vd4","address":"255 SAN GERONILOIO WAY"},"type":"Feature","geometry":{"type":"Point","coordinates":[-122.023851,37.371042]}},{"properties":{"company":"ADVANCED ELECTRONIC DESIGN INC.","zip":"94086","latitude":37.371042,"longitude":-122.023851,"id":"afqf13qt8up7","address":"140 POTRERO AVE ."},"type":"Feature","geometry":{"type":"Point","coordinates":[-122.023851,37.371042]}},{"properties":{"company":"AERCOM","zip":"94086","latitude":37.371042,"longitude":-122.023851,"id":"afqf142uoka0","address":"955 BENICIA AVE."},"type":"Feature","geometry":{"type":"Point","coordinates":[-122.023851,37.371042]}},{"properties":{"company":"ALLIED MEDIA TECHNOLOGY","zip":"94086","latitude":37.371042,"longitude":-122.023851,"id":"afqf14060hew","address":"1262 N. LAWRENCE STAT. RD."},"type":"Feature","geometry":{"type":"Point","coordinates":[-122.023851,37.371042]}},{"properties":{"company":"AMERICAN SCIENTIFIC CORP.","zip":"94086","latitude":37.371042,"longitude":-122.023851,"id":"afqf13wz4oxm","address":"1283 MT. VIEW-ALVISO RD. #C"},"type":"Feature","geometry":{"type":"Point","coordinates":[-122.023851,37.371042]}},{"properties":{"company":"ASPECT ELECTRONICS","zip":"94086","latitude":37.371042,"longitude":-122.023851,"id":"afqf13q1j4k6","address":"725 SAN ALE SO AVE."},"type":"Feature","geometry":{"type":"Point","coordinates":[-122.023851,37.371042]}},{"properties":{"company":"EMCO HIGH VOLTAGE","zip":"94086","latitude":37.371042,"longitude":-122.023851,"id":"afqf13qe9epn","address":"445 WEDDELL DR."},"type":"Feature","geometry":{"type":"Point","coordinates":[-122.023851,37.371042]}},{"properties":{"company":"FRANKLIN ELECTRIC CO. INC.","zip":"94086","latitude":37.371042,"longitude":-122.023851,"id":"afqf13x87hev","address":"995 BENICIA AVE."},"type":"Feature","geometry":{"type":"Point","coordinates":[-122.023851,37.371042]}},{"properties":{"company":"GEO RELIABILITY SERVICES","zip":"94086","latitude":37.371042,"longitude":-122.023851,"id":"afqf13qc85pc","address":"975 BENICIA AVE ."},"type":"Feature","geometry":{"type":"Point","coordinates":[-122.023851,37.371042]}},{"properties":{"company":"HANDAR","zip":"94086","latitude":37.371042,"longitude":-122.023851,"id":"afqf145azliq","address":"1380 BORREGAS RD."},"type":"Feature","geometry":{"type":"Point","coordinates":[-122.023851,37.371042]}},{"properties":{"company":"INTERNATIONAL LEADFRAME","zip":"94086","latitude":37.371042,"longitude":-122.023851,"id":"afqf14030r1x","address":"1160 OLD MT.VIEW-ALVISO RD."},"type":"Feature","geometry":{"type":"Point","coordinates":[-122.023851,37.371042]}},{"properties":{"company":"LOCKHEED MISSILES &amp; SPACE CO.","zip":"94086","latitude":37.371042,"longitude":-122.023851,"id":"afqf142tuz5x","address":"1111 LOCKHEED WAY"},"type":"Feature","geometry":{"type":"Point","coordinates":[-122.023851,37.371042]}},{"properties":{"company":"OPTOCHROME","zip":"94086","latitude":37.371042,"longitude":-122.023851,"id":"afqf13qunsk2","address":"8 70 HERMOSA CT."},"type":"Feature","geometry":{"type":"Point","coordinates":[-122.023851,37.371042]}},{"properties":{"company":"PRAGMATIC DESIGNS INC .","zip":"94086","latitude":37.371042,"longitude":-122.023851,"id":"afqf13u7a6xp","address":"950 BENICIA AVE."},"type":"Feature","geometry":{"type":"Point","coordinates":[-122.023851,37.371042]}},{"properties":{"company":"SOLO SYSTEMS","zip":"94086","latitude":37.371042,"longitude":-122.023851,"id":"afqf140f5iad","address":"4B2 OAKMEAD PARKWAY"},"type":"Feature","geometry":{"type":"Point","coordinates":[-122.023851,37.371042]}},{"properties":{"company":"SOTCHER MEASUREMENT","zip":"94086","latitude":37.371042,"longitude":-122.023851,"id":"afqf13vy2v8o","address":"1120 STEWART DR."},"type":"Feature","geometry":{"type":"Point","coordinates":[-122.023851,37.371042]}},{"properties":{"company":"VERSATILE INTEGRATED MODULES","zip":"94086","latitude":37.371042,"longitude":-122.023851,"id":"afqf13wk8fk2","address":"1283 MT.-VIEW-ALVISO RD. #A"},"type":"Feature","geometry":{"type":"Point","coordinates":[-122.023851,37.371042]}},{"properties":{"company":"MIRCOTEST SYSTEMS INC.","zip":"94086","latitude":37.408617,"longitude":-122.023549,"id":"afqf1422r8vc","address":"1188 BORDEAUX DR."},"type":"Feature","geometry":{"type":"Point","coordinates":[-122.023549,37.408617]}},{"properties":{"company":"STANFORD TELECOMMUNICATIONS","zip":"94086","latitude":37.408902,"longitude":-122.023474,"id":"afqf1468wc8b","address":"1195 BORDEAUX DR."},"type":"Feature","geometry":{"type":"Point","coordinates":[-122.023474,37.408902]}},{"properties":{"company":"CENTRIGRAM CORP.","zip":"94086","latitude":37.404068,"longitude":-122.023328,"id":"afqf142uaxv3","address":"155 MOFFETT PARK DR."},"type":"Feature","geometry":{"type":"Point","coordinates":[-122.023328,37.404068]}},{"properties":{"company":"DESIGN OPTICS","zip":"94086","latitude":37.404068,"longitude":-122.023328,"id":"afqf13vofk3g","address":"155 MOFFETT PARK DR."},"type":"Feature","geometry":{"type":"Point","coordinates":[-122.023328,37.404068]}},{"properties":{"company":"SYTEK","zip":"94086","latitude":37.406983,"longitude":-122.023239,"id":"afqf1416uslc","address":"1153 BORDEAUX DR."},"type":"Feature","geometry":{"type":"Point","coordinates":[-122.023239,37.406983]}},{"properties":{"company":"KOLTRON CORPORATION","zip":"94086","latitude":37.41584,"longitude":-122.023002,"id":"afqf13r6dvec","address":"1380 BORDEAUX DR."},"type":"Feature","geometry":{"type":"Point","coordinates":[-122.023002,37.41584]}},{"properties":{"company":"SUPERTEX INC.","zip":"94086","latitude":37.410567,"longitude":-122.022901,"id":"afqf13z6yvec","address":"1225 BORDEAUX DR."},"type":"Feature","geometry":{"type":"Point","coordinates":[-122.022901,37.410567]}},{"properties":{"company":"COMDIAL SEMICONDUCTOR INC.","zip":"94086","latitude":37.410692,"longitude":-122.022836,"id":"afqf142o6r9m","address":"1230 BORDEAUX DR."},"type":"Feature","geometry":{"type":"Point","coordinates":[-122.022836,37.410692]}},{"properties":{"company":"TECHNITRON INC.","zip":"94086","latitude":37.415699,"longitude":-122.022305,"id":"afqf1451c1q0","address":"1366 BORDEAUX DR"},"type":"Feature","geometry":{"type":"Point","coordinates":[-122.022305,37.415699]}},{"properties":{"company":"ZYNG ENTERPRISES","zip":"94086","latitude":37.415643,"longitude":-122.022112,"id":"afqf1439wwm3","address":"1362 BORDEAUX DR."},"type":"Feature","geometry":{"type":"Point","coordinates":[-122.022112,37.415643]}},{"properties":{"company":"DIALOGIC SYSTEMS CORP.","zip":"94086","latitude":37.413354,"longitude":-122.021951,"id":"afqf141lzzsf","address":"1300 BORDEAUX DR."},"type":"Feature","geometry":{"type":"Point","coordinates":[-122.021951,37.413354]}},{"properties":{"company":"WESTINGHOUSE ELECTRIC","zip":"94086","latitude":37.375843,"longitude":-122.021538,"id":"afqf13vb861e","address":"401 HENDY AVE."},"type":"Feature","geometry":{"type":"Point","coordinates":[-122.021538,37.375843]}},{"properties":{"company":"CAS SYSTEMS","zip":"94086","latitude":37.406353,"longitude":-122.019761,"id":"afqf13wy00i1","address":"1169 BORREGAS AVE."},"type":"Feature","geometry":{"type":"Point","coordinates":[-122.019761,37.406353]}},{"properties":{"company":"CONTROL DATA CORP.","zip":"94086","latitude":37.404869,"longitude":-122.019349,"id":"afqf13t1aq7k","address":"215 MOFFETT PARK DR."},"type":"Feature","geometry":{"type":"Point","coordinates":[-122.019349,37.404869]}},{"properties":{"company":"ATARI INC.","zip":"94086","latitude":37.409574,"longitude":-122.018712,"id":"afqf13v2r1cw","address":"1265 BORREGAS AVE"},"type":"Feature","geometry":{"type":"Point","coordinates":[-122.018712,37.409574]}},{"properties":{"company":"G.C.A. CORP/IC SYS. GROUP","zip":"94086","latitude":37.408194,"longitude":-122.018457,"id":"afqf13sw4lui","address":"217 HUMBOLDT CT."},"type":"Feature","geometry":{"type":"Point","coordinates":[-122.018457,37.408194]}},{"properties":{"company":"BALL A.C. COMPANY","zip":"94086","latitude":37.414072,"longitude":-122.017977,"id":"afqf13yy2076","address":"141 CASPIAN CT."},"type":"Feature","geometry":{"type":"Point","coordinates":[-122.017977,37.414072]}},{"properties":{"company":"CAVRO SCIENTIFIC INSTRUMENT INC.","zip":"94086","latitude":37.408051,"longitude":-122.017897,"id":"afqf143te86u","address":"242 HUMBOLDT CT."},"type":"Feature","geometry":{"type":"Point","coordinates":[-122.017897,37.408051]}},{"properties":{"company":"CERMETEK MICROSYSTEMS INC.","zip":"94086","latitude":37.412265,"longitude":-122.017804,"id":"afqf13v91k84","address":"1308 BORREGAS AVE."},"type":"Feature","geometry":{"type":"Point","coordinates":[-122.017804,37.412265]}},{"properties":{"company":"RASOR ASSOCIATES INC.","zip":"94086","latitude":37.408018,"longitude":-122.01766,"id":"afqf13x1ricm","address":"253 HUMBOLDT CT."},"type":"Feature","geometry":{"type":"Point","coordinates":[-122.01766,37.408018]}},{"properties":{"company":"REXNORD GAS DETECTION PRODUCTS","zip":"94086","latitude":37.411632,"longitude":-122.01735,"id":"afqf13w1hajy","address":"207 E. JAVA DR."},"type":"Feature","geometry":{"type":"Point","coordinates":[-122.01735,37.411632]}},{"properties":{"company":"MICROWAVE ASSOCIATES INC.","zip":"94086","latitude":37.414735,"longitude":-122.016988,"id":"afqf13x2p2jm","address":"1362 BORREGAS AVE."},"type":"Feature","geometry":{"type":"Point","coordinates":[-122.016988,37.414735]}},{"properties":{"company":"POWELL ELECTRONICS","zip":"94086","latitude":37.372033,"longitude":-122.016948,"id":"afqf13zpo39v","address":"722 EVELYN AVE ."},"type":"Feature","geometry":{"type":"Point","coordinates":[-122.016948,37.372033]}},{"properties":{"company":"STRUCTURAL DYNAMICS","zip":"94086","latitude":37.409824,"longitude":-122.016687,"id":"afqf13uyh78j","address":"256 GIBRALTAR DR. #B7"},"type":"Feature","geometry":{"type":"Point","coordinates":[-122.016687,37.409824]}},{"properties":{"company":"LICONIX INC.","zip":"94086","latitude":37.416107,"longitude":-122.016521,"id":"afqf13yxo1pq","address":"1390 BORREGAS AVE."},"type":"Feature","geometry":{"type":"Point","coordinates":[-122.016521,37.416107]}},{"properties":{"company":"RACAL-VADIC INC.","zip":"94086","latitude":37.413666,"longitude":-122.016157,"id":"afqf1429jav8","address":"222 CASPIAN DR."},"type":"Feature","geometry":{"type":"Point","coordinates":[-122.016157,37.413666]}},{"properties":{"company":"DESIGN DEVELOPMENT I NC.","zip":"94086","latitude":37.383063,"longitude":-122.015991,"id":"afqf1446mp28","address":"656 E. TAYLOR AVE."},"type":"Feature","geometry":{"type":"Point","coordinates":[-122.015991,37.383063]}},{"properties":{"company":"APPLIED THERMAL SYSTEIIS","zip":"94086","latitude":37.371049,"longitude":-122.015739,"id":"afqf13qcysmp","address":"777 E. EVELYN AVE."},"type":"Feature","geometry":{"type":"Point","coordinates":[-122.015739,37.371049]}},{"properties":{"company":"JOIINSON MATTHEY INC.","zip":"94086","latitude":37.371049,"longitude":-122.015739,"id":"afqf13t6ov7o","address":"777 E. EVELYN AVE."},"type":"Feature","geometry":{"type":"Point","coordinates":[-122.015739,37.371049]}},{"properties":{"company":"TELEVIDEO SYSTEMS INC.","zip":"94086","latitude":37.402499,"longitude":-122.015714,"id":"afqf142ctcho","address":"1150 MORSE AVE."},"type":"Feature","geometry":{"type":"Point","coordinates":[-122.015714,37.402499]}},{"properties":{"company":"ARROW ELECTRONICS","zip":"94086","latitude":37.396626,"longitude":-122.015601,"id":"afqf140v7jol","address":"521 WEDDELL DR."},"type":"Feature","geometry":{"type":"Point","coordinates":[-122.015601,37.396626]}},{"properties":{"company":"CIRCUITS PROCESSING APPARATUS","zip":"94086","latitude":37.375664,"longitude":-122.015534,"id":"afqf13t9ikt3","address":"725 KIFER RD."},"type":"Feature","geometry":{"type":"Point","coordinates":[-122.015534,37.375664]}},{"properties":{"company":"NETCOM PRODUCTS INC.","zip":"94086","latitude":37.400397,"longitude":-122.015408,"id":"afqf142z2cex","address":"430 TOYAMA DR."},"type":"Feature","geometry":{"type":"Point","coordinates":[-122.015408,37.400397]}},{"properties":{"company":"ELECTRO SOUND INC.","zip":"94086","latitude":37.376778,"longitude":-122.015403,"id":"afqf13u89b3i","address":"160 SAN GABRIEL DR."},"type":"Feature","geometry":{"type":"Point","coordinates":[-122.015403,37.376778]}},{"properties":{"company":"R.O. ASSOCIATES INC.","zip":"94086","latitude":37.413507,"longitude":-122.015393,"id":"afqf13vnaztm","address":"246 CASPIAN DR."},"type":"Feature","geometry":{"type":"Point","coordinates":[-122.015393,37.413507]}},{"properties":{"company":"E.A.C.","zip":"94086","latitude":37.377145,"longitude":-122.015292,"id":"afqf142x94qs","address":"185 SAN GABRIEL DR ."},"type":"Feature","geometry":{"type":"Point","coordinates":[-122.015292,37.377145]}},{"properties":{"company":"INET CORP","zip":"94086","latitude":37.396929,"longitude":-122.015074,"id":"afqf13zvk0aw","address":"536 WEDDELL DR."},"type":"Feature","geometry":{"type":"Point","coordinates":[-122.015074,37.396929]}},{"properties":{"company":"DEVELCO INC.","zip":"94086","latitude":37.403895,"longitude":-122.015063,"id":"afqf13y5tcsd","address":"404 TASMAN DR."},"type":"Feature","geometry":{"type":"Point","coordinates":[-122.015063,37.403895]}},{"properties":{"company":"LADCOR","zip":"94086","latitude":37.416589,"longitude":-122.01501,"id":"afqf13vuudt8","address":"230 CARIBBEAN DR."},"type":"Feature","geometry":{"type":"Point","coordinates":[-122.01501,37.416589]}},{"properties":{"company":"DAISY SYSTEMS CORP.","zip":"94086","latitude":37.375123,"longitude":-122.014947,"id":"afqf13rea61r","address":"139 KIFER CT."},"type":"Feature","geometry":{"type":"Point","coordinates":[-122.014947,37.375123]}},{"properties":{"company":"C.W. RADIATION INC.","zip":"94086","latitude":37.375092,"longitude":-122.014936,"id":"afqf144n8duh","address":"140 KIFER CT."},"type":"Feature","geometry":{"type":"Point","coordinates":[-122.014936,37.375092]}},{"properties":{"company":"PLANAR MICROWAVE INTL. CORP.","zip":"94086","latitude":37.375107,"longitude":-122.014931,"id":"afqf13zdw92t","address":"138 KIFER CT."},"type":"Feature","geometry":{"type":"Point","coordinates":[-122.014931,37.375107]}},{"properties":{"company":"E.P.I.D.","zip":"94086","latitude":37.409443,"longitude":-122.014928,"id":"afqf13zynaim","address":"328 GIBRALTAR DR."},"type":"Feature","geometry":{"type":"Point","coordinates":[-122.014928,37.409443]}},{"properties":{"company":"PRECISION CIRCUIT MASTERS","zip":"94086","latitude":37.397393,"longitude":-122.014911,"id":"afqf13sqpaa8","address":"539 WEDDELL DR."},"type":"Feature","geometry":{"type":"Point","coordinates":[-122.014911,37.397393]}},{"properties":{"company":"AZTEC DESIGN AND DEVELOPMENT","zip":"94086","latitude":37.397502,"longitude":-122.014874,"id":"afqf144t2inh","address":"541 WEDDELL DR."},"type":"Feature","geometry":{"type":"Point","coordinates":[-122.014874,37.397502]}},{"properties":{"company":"AZTEC ENGINEERING INC.","zip":"94086","latitude":37.397555,"longitude":-122.014835,"id":"afqf13zt03um","address":"550 WEDDELL DR."},"type":"Feature","geometry":{"type":"Point","coordinates":[-122.014835,37.397555]}},{"properties":{"company":"CENTRONICS DATA COMPUTER CORP.","zip":"94086","latitude":37.397555,"longitude":-122.014835,"id":"afqf13ztngad","address":"550 WEDDELL DR."},"type":"Feature","geometry":{"type":"Point","coordinates":[-122.014835,37.397555]}},{"properties":{"company":"OXBRIDGE INC.","zip":"94086","latitude":37.39772,"longitude":-122.014801,"id":"afqf142uay1b","address":"545 WEDDELL DR."},"type":"Feature","geometry":{"type":"Point","coordinates":[-122.014801,37.39772]}},{"properties":{"company":"GASONICS","zip":"94086","latitude":37.416544,"longitude":-122.014783,"id":"afqf142j8kfp","address":"238 CARIBBEAN DR."},"type":"Feature","geometry":{"type":"Point","coordinates":[-122.014783,37.416544]}},{"properties":{"company":"PRENTICE CORP.","zip":"94086","latitude":37.413374,"longitude":-122.014756,"id":"afqf13r9k4it","address":"266 CASPIAN DR."},"type":"Feature","geometry":{"type":"Point","coordinates":[-122.014756,37.413374]}},{"properties":{"company":"CEDAR CIRCUITS OF CA.","zip":"94086","latitude":37.398368,"longitude":-122.014561,"id":"afqf145l16ww","address":"568 WEDDELL DR."},"type":"Feature","geometry":{"type":"Point","coordinates":[-122.014561,37.398368]}},{"properties":{"company":"CALIF. COMPUTER SYSTEMS INC","zip":"94086","latitude":37.416477,"longitude":-122.014443,"id":"afqf1460eikd","address":"250 CARIBBEAN DR."},"type":"Feature","geometry":{"type":"Point","coordinates":[-122.014443,37.416477]}},{"properties":{"company":"ILLUMINATION INDUST. INC.","zip":"94086","latitude":37.370625,"longitude":-122.014385,"id":"afqf143g9uzj","address":"825 E . EVELYN AVE."},"type":"Feature","geometry":{"type":"Point","coordinates":[-122.014385,37.370625]}},{"properties":{"company":"GRW SYSTEMS INC.","zip":"94086","latitude":37.410297,"longitude":-122.014183,"id":"afqf13skvuns","address":"1274 GENEVA DR."},"type":"Feature","geometry":{"type":"Point","coordinates":[-122.014183,37.410297]}},{"properties":{"company":"PIZZA TIME THEATER","zip":"94086","latitude":37.406654,"longitude":-122.014111,"id":"afqf1440pyjt","address":"1213 INNSBRUCK DR."},"type":"Feature","geometry":{"type":"Point","coordinates":[-122.014111,37.406654]}},{"properties":{"company":"SYNCAL CORP.","zip":"94086","latitude":37.405522,"longitude":-122.014105,"id":"afqf140msxck","address":"430 PERSIAN DR."},"type":"Feature","geometry":{"type":"Point","coordinates":[-122.014105,37.405522]}},{"properties":{"company":"VIKO TECHNOLOGY INC.","zip":"94086","latitude":37.39897,"longitude":-122.014103,"id":"afqf13vtx9iu","address":"574 WEDDELL DR."},"type":"Feature","geometry":{"type":"Point","coordinates":[-122.014103,37.39897]}},{"properties":{"company":"SPECTRA LOGIC CORP","zip":"94086","latitude":37.406998,"longitude":-122.013998,"id":"afqf1446bf9e","address":"1227 INNSBRUCK DR."},"type":"Feature","geometry":{"type":"Point","coordinates":[-122.013998,37.406998]}},{"properties":{"company":"BARRY RESEARCH CORP.","zip":"94086","latitude":37.407375,"longitude":-122.013853,"id":"afqf13s1l8wb","address":"1242 INNSBRUCK DR."},"type":"Feature","geometry":{"type":"Point","coordinates":[-122.013853,37.407375]}},{"properties":{"company":"B.R. COMMUNICATIONS","zip":"94086","latitude":37.407538,"longitude":-122.01382,"id":"afqf14165wug","address":"1249 INNSBRUCK DR."},"type":"Feature","geometry":{"type":"Point","coordinates":[-122.01382,37.407538]}},{"properties":{"company":"SAVIN","zip":"94086","latitude":37.411573,"longitude":-122.013791,"id":"afqf141m45fl","address":"1313 GENEVA DR. #B"},"type":"Feature","geometry":{"type":"Point","coordinates":[-122.013791,37.411573]}},{"properties":{"company":"PACIFIC MEASUREMENTS INC.","zip":"94086","latitude":37.403596,"longitude":-122.013663,"id":"afqf1435i2ld","address":"488 TASMAN DR."},"type":"Feature","geometry":{"type":"Point","coordinates":[-122.013663,37.403596]}},{"properties":{"company":"RADIATION DETECTION CO.","zip":"94086","latitude":37.376792,"longitude":-122.013496,"id":"afqf13symrz4","address":"162 N. WOLFE RD."},"type":"Feature","geometry":{"type":"Point","coordinates":[-122.013496,37.376792]}},{"properties":{"company":"AXLON I NC.","zip":"94086","latitude":37.377049,"longitude":-122.013404,"id":"afqf13xz4555","address":"170 N. WOLFE RD."},"type":"Feature","geometry":{"type":"Point","coordinates":[-122.013404,37.377049]}},{"properties":{"company":"MOLECTRON CORP.","zip":"94086","latitude":37.37714,"longitude":-122.013394,"id":"afqf13rrftcm","address":"177 N. WOLFE RD."},"type":"Feature","geometry":{"type":"Point","coordinates":[-122.013394,37.37714]}},{"properties":{"company":"COMPUTEVAC INC.","zip":"94086","latitude":37.398975,"longitude":-122.01336,"id":"afqf13ybgbb3","address":"586 WEDDELL DR."},"type":"Feature","geometry":{"type":"Point","coordinates":[-122.01336,37.398975]}},{"properties":{"company":"ICORE INTERNATIONAL INC.","zip":"94086","latitude":37.377525,"longitude":-122.013233,"id":"afqf1429n8pj","address":"180 N. WOLFE RD."},"type":"Feature","geometry":{"type":"Point","coordinates":[-122.013233,37.377525]}},{"properties":{"company":"DTI SECURITY INC.","zip":"94086","latitude":37.399402,"longitude":-122.013114,"id":"afqf13vmwu72","address":"1034 KIEL CT."},"type":"Feature","geometry":{"type":"Point","coordinates":[-122.013114,37.399402]}},{"properties":{"company":"THREE DELTA CORP.","zip":"94086","latitude":37.399446,"longitude":-122.013101,"id":"afqf13sqlp3x","address":"1038 KIEL CT."},"type":"Feature","geometry":{"type":"Point","coordinates":[-122.013101,37.399446]}},{"properties":{"company":"AQUA MEDIA LTD.","zip":"94086","latitude":37.399623,"longitude":-122.013069,"id":"afqf144ndtb7","address":"1049 KIEL CT."},"type":"Feature","geometry":{"type":"Point","coordinates":[-122.013069,37.399623]}},{"properties":{"company":"TERADYNE INC.","zip":"94086","latitude":37.379097,"longitude":-122.012666,"id":"afqf1419fr4p","address":"222 N. WOLFE RD."},"type":"Feature","geometry":{"type":"Point","coordinates":[-122.012666,37.379097]}},{"properties":{"company":"EXIDY INC.","zip":"94086","latitude":37.410145,"longitude":-122.012621,"id":"afqf144bewdq","address":"390 JAVA DR."},"type":"Feature","geometry":{"type":"Point","coordinates":[-122.012621,37.410145]}},{"properties":{"company":"QUANTEX CORP.","zip":"94086","latitude":37.379695,"longitude":-122.012361,"id":"afqf14625r5s","address":"252 N. WOLFE RD."},"type":"Feature","geometry":{"type":"Point","coordinates":[-122.012361,37.379695]}},{"properties":{"company":"DIVERSIFIED ELECTRONICS","zip":"94086","latitude":37.379807,"longitude":-122.012308,"id":"afqf1458cyjw","address":"260 N. WOLFE RD."},"type":"Feature","geometry":{"type":"Point","coordinates":[-122.012308,37.379807]}},{"properties":{"company":"GEOMETRICS INC.","zip":"94086","latitude":37.410139,"longitude":-122.012237,"id":"afqf13pxqhx0","address":"395 JAVA DR."},"type":"Feature","geometry":{"type":"Point","coordinates":[-122.012237,37.410139]}},{"properties":{"company":"WEST COAST MAGNETICS INC.","zip":"94086","latitude":37.375834,"longitude":-122.012226,"id":"afqf13wp71qb","address":"140 SAN LAZARO AVE."},"type":"Feature","geometry":{"type":"Point","coordinates":[-122.012226,37.375834]}},{"properties":{"company":"CODATA CORP .","zip":"94086","latitude":37.380445,"longitude":-122.012204,"id":"afqf142e5bem","address":"285 N. WOLFE RD."},"type":"Feature","geometry":{"type":"Point","coordinates":[-122.012204,37.380445]}},{"properties":{"company":"ILC TECHNOLOGY INC.","zip":"94086","latitude":37.410104,"longitude":-122.012186,"id":"afqf13qrczpo","address":"399 JAVA DR."},"type":"Feature","geometry":{"type":"Point","coordinates":[-122.012186,37.410104]}},{"properties":{"company":"WESTERN SALES ASSOCIATES","zip":"94086","latitude":37.376054,"longitude":-122.012167,"id":"afqf1415x46i","address":"154 SAN LAZARO AVE."},"type":"Feature","geometry":{"type":"Point","coordinates":[-122.012167,37.376054]}},{"properties":{"company":"SYNERTEK SYSTEMS CORP.","zip":"94086","latitude":37.370378,"longitude":-122.011683,"id":"afqf145eqoi5","address":"150 S . WOLFE RD."},"type":"Feature","geometry":{"type":"Point","coordinates":[-122.011683,37.370378]}},{"properties":{"company":"ENVIRONMENTAL MEASUREMENTS INC.","zip":"94086","latitude":37.399609,"longitude":-122.011491,"id":"afqf1467iym1","address":"1037 N. FAIR OAKS AVE."},"type":"Feature","geometry":{"type":"Point","coordinates":[-122.011491,37.399609]}},{"properties":{"company":"E.S.L. INC.","zip":"94086","latitude":37.409075,"longitude":-122.011215,"id":"afqf13z2v1oc","address":"495 JAVA DR."},"type":"Feature","geometry":{"type":"Point","coordinates":[-122.011215,37.409075]}},{"properties":{"company":"METARAMICS INC.","zip":"94086","latitude":37.401047,"longitude":-122.011011,"id":"afqf13wv1asw","address":"1107 N. FAIR OAKS AVE."},"type":"Feature","geometry":{"type":"Point","coordinates":[-122.011011,37.401047]}},{"properties":{"company":"AERTECH INDUSTRIES","zip":"94086","latitude":37.383997,"longitude":-122.010977,"id":"afqf13ws1x3t","address":"825 STEWART DR."},"type":"Feature","geometry":{"type":"Point","coordinates":[-122.010977,37.383997]}},{"properties":{"company":"SIGNETICS CORP.","zip":"94086","latitude":37.380947,"longitude":-122.010843,"id":"afqf13v3375h","address":"811 E. ARQUES AVE."},"type":"Feature","geometry":{"type":"Point","coordinates":[-122.010843,37.380947]}},{"properties":{"company":"ZIKONIX","zip":"94086","latitude":37.379328,"longitude":-122.010609,"id":"afqf13qt270i","address":"224 SANTA ANA CT."},"type":"Feature","geometry":{"type":"Point","coordinates":[-122.010609,37.379328]}},{"properties":{"company":"VERSATRONEX","zip":"94086","latitude":37.402278,"longitude":-122.010604,"id":"afqf13t585g8","address":"1131 N. FAIR OAKS AVE."},"type":"Feature","geometry":{"type":"Point","coordinates":[-122.010604,37.402278]}},{"properties":{"company":"MICRO AUTOMATION","zip":"94086","latitude":37.380255,"longitude":-122.010415,"id":"afqf13ych1hl","address":"275 SANTA ANA CT ."},"type":"Feature","geometry":{"type":"Point","coordinates":[-122.010415,37.380255]}},{"properties":{"company":"E. M. SYSTEMS INC .","zip":"94086","latitude":37.38053,"longitude":-122.010331,"id":"afqf143xx3sz","address":"290 SANTA ANA CT."},"type":"Feature","geometry":{"type":"Point","coordinates":[-122.010331,37.38053]}},{"properties":{"company":"BASIC MANUFACTURING INC.","zip":"94086","latitude":37.374503,"longitude":-122.010109,"id":"afqf13ym0wm8","address":"895 KIFER RD."},"type":"Feature","geometry":{"type":"Point","coordinates":[-122.010109,37.374503]}},{"properties":{"company":"TANDEM COMPUTERS INC.","zip":"95014","latitude":37.325278,"longitude":-122.010097,"id":"afqf143ivizp","address":"19333 VALLCO PKWY."},"type":"Feature","geometry":{"type":"Point","coordinates":[-122.010097,37.325278]}},{"properties":{"company":"T.R.W./VIDAR CORP.","zip":"94086","latitude":37.413305,"longitude":-122.009385,"id":"afqf13vxmhyz","address":"1344 CROSSMAN AVE."},"type":"Feature","geometry":{"type":"Point","coordinates":[-122.009385,37.413305]}},{"properties":{"company":"ADVANCED MICRO DEVICES INC.","zip":"94086","latitude":37.382447,"longitude":-122.00885,"id":"afqf140qe0sv","address":"901 THOMPSON PLACE"},"type":"Feature","geometry":{"type":"Point","coordinates":[-122.00885,37.382447]}},{"properties":{"company":"AIRTRONICS SHEET METAL","zip":"94086","latitude":37.37501,"longitude":-122.008702,"id":"afqf13ys6f9h","address":"133 COMMERCIAL ST."},"type":"Feature","geometry":{"type":"Point","coordinates":[-122.008702,37.37501]}},{"properties":{"company":"EXATRON CORP.","zip":"94086","latitude":37.37529,"longitude":-122.008629,"id":"afqf141lc9jc","address":"W I COMMERCIAL ST."},"type":"Feature","geometry":{"type":"Point","coordinates":[-122.008629,37.37529]}},{"properties":{"company":"BAY TECH SERVICES","zip":"94086","latitude":37.375654,"longitude":-122.008556,"id":"afqf13sjt11x","address":"171 COMMERCIAL ST."},"type":"Feature","geometry":{"type":"Point","coordinates":[-122.008556,37.375654]}},{"properties":{"company":"PROTO ENGINEERING CORP.","zip":"94086","latitude":37.375858,"longitude":-122.00851,"id":"afqf13qynran","address":"183 COMMERCIAL ST."},"type":"Feature","geometry":{"type":"Point","coordinates":[-122.00851,37.375858]}},{"properties":{"company":"TRIAD SYSTEMS CORP.","zip":"94086","latitude":37.409225,"longitude":-122.00745,"id":"afqf13vcvhaw","address":"1252 ORLEANS DR."},"type":"Feature","geometry":{"type":"Point","coordinates":[-122.00745,37.409225]}},{"properties":{"company":"PIER ELECTRONICS INC.","zip":"94086","latitude":37.377693,"longitude":-122.006786,"id":"afqf1405coll","address":"989 E. CALIFORNIA ST"},"type":"Feature","geometry":{"type":"Point","coordinates":[-122.006786,37.377693]}},{"properties":{"company":"ALPHATRON INC.","zip":"95014","latitude":37.332212,"longitude":-122.006648,"id":"afqf13sdcxou","address":"19080 PRUNERIDGE AVE."},"type":"Feature","geometry":{"type":"Point","coordinates":[-122.006648,37.332212]}},{"properties":{"company":"MILLENNIUM SYS. INC./GOULD","zip":"95014","latitude":37.332227,"longitude":-122.006211,"id":"afqf13rzia0n","address":"19050 PRUNERIDGE AVE."},"type":"Feature","geometry":{"type":"Point","coordinates":[-122.006211,37.332227]}},{"properties":{"company":"DATA QUEST INC.","zip":"95014","latitude":37.332245,"longitude":-122.006163,"id":"afqf13to4188","address":"19055 PRUNERIDGE AVE."},"type":"Feature","geometry":{"type":"Point","coordinates":[-122.006163,37.332245]}},{"properties":{"company":"AROMAT CORP.","zip":"95014","latitude":37.327592,"longitude":-122.005865,"id":"afqf13zo3h2x","address":"10400 N. TANTAU AVE."},"type":"Feature","geometry":{"type":"Point","coordinates":[-122.005865,37.327592]}},{"properties":{"company":"INTERSIL INC.","zip":"95014","latitude":37.333756,"longitude":-122.005482,"id":"afqf13xbkm9b","address":"10710 N. TANTAU AVE."},"type":"Feature","geometry":{"type":"Point","coordinates":[-122.005482,37.333756]}},{"properties":{"company":"LITRONIX INC.","zip":"95014","latitude":37.337756,"longitude":-122.004843,"id":"afqf141o3r24","address":"19000 HOMESTEAD RD."},"type":"Feature","geometry":{"type":"Point","coordinates":[-122.004843,37.337756]}},{"properties":{"company":"AMETEK-SILICON MATERAL","zip":"94086","latitude":37.380735,"longitude":-122.004563,"id":"afqf143lfmvi","address":"999 E. ARQUES AVE."},"type":"Feature","geometry":{"type":"Point","coordinates":[-122.004563,37.380735]}},{"properties":{"company":"DATA PERIPERHALS INC.","zip":"94086","latitude":37.383936,"longitude":-122.002559,"id":"afqf146b2sxy","address":"965 STEWART DR ."},"type":"Feature","geometry":{"type":"Point","coordinates":[-122.002559,37.383936]}},{"properties":{"company":"INTL . DATA SERVICE INC .","zip":"94086","latitude":37.384063,"longitude":-122.00064,"id":"afqf13qbtdvs","address":"1020 STEWART DR ."},"type":"Feature","geometry":{"type":"Point","coordinates":[-122.00064,37.384063]}},{"properties":{"company":"AMERICAN MICROSYSTEMS INC.","zip":"95050","latitude":37.337772,"longitude":-122.000097,"id":"afqf145m1i8x","address":"3800 HOMESTEAD RD."},"type":"Feature","geometry":{"type":"Point","coordinates":[-122.000097,37.337772]}},{"properties":{"company":"AMI","zip":"95014","latitude":37.337772,"longitude":-122.000097,"id":"afqf13tuhwmx","address":"3800 HOMESTEAD RD."},"type":"Feature","geometry":{"type":"Point","coordinates":[-122.000097,37.337772]}},{"properties":{"company":"BOSCHERT INC.","zip":"94086","latitude":37.383573,"longitude":-121.999956,"id":"afqf13y0p4ox","address":"384 SANTA TRINITA AVE."},"type":"Feature","geometry":{"type":"Point","coordinates":[-121.999956,37.383573]}},{"properties":{"company":"COMPUTER USAGE CO.","zip":"94086","latitude":37.38259,"longitude":-121.999754,"id":"afqf13r0k0w7","address":"1105 KERN AVE ."},"type":"Feature","geometry":{"type":"Point","coordinates":[-121.999754,37.38259]}},{"properties":{"company":"PRINTED CIRCUITS INTL.","zip":"94086","latitude":37.371542,"longitude":-121.999722,"id":"afqf13y2ceeg","address":"1145 SONORA CT."},"type":"Feature","geometry":{"type":"Point","coordinates":[-121.999722,37.371542]}},{"properties":{"company":"NATIONAL SEMICONDUCTOR","zip":"95051","latitude":37.374091,"longitude":-121.999192,"id":"afqf141afay7","address":"2900 SEMICONDUCTOR DR."},"type":"Feature","geometry":{"type":"Point","coordinates":[-121.999192,37.374091]}},{"properties":{"company":"DIGITAL OPTICS CORP.","zip":"94086","latitude":37.387623,"longitude":-121.998595,"id":"afqf13q1bd4u","address":"1030 E. DUANE AVE."},"type":"Feature","geometry":{"type":"Point","coordinates":[-121.998595,37.387623]}},{"properties":{"company":"META SYSTEMS INC .","zip":"94086","latitude":37.38771,"longitude":-121.998473,"id":"afqf13tb1d3z","address":"1031 E . DUANE AVE."},"type":"Feature","geometry":{"type":"Point","coordinates":[-121.998473,37.38771]}},{"properties":{"company":"METELICS CORP.","zip":"94086","latitude":37.38771,"longitude":-121.998473,"id":"afqf13yfotqp","address":"1031 E. DUANE AVE."},"type":"Feature","geometry":{"type":"Point","coordinates":[-121.998473,37.38771]}},{"properties":{"company":"DATAFLUX CORP.","zip":"94086","latitude":37.384278,"longitude":-121.998464,"id":"afqf13wsvyc9","address":"1050 STEWART DR ."},"type":"Feature","geometry":{"type":"Point","coordinates":[-121.998464,37.384278]}},{"properties":{"company":"SEVEN ASSOCIATES","zip":"94086","latitude":37.386533,"longitude":-121.997894,"id":"afqf1415yxre","address":"1098 STEWART DRIVE"},"type":"Feature","geometry":{"type":"Point","coordinates":[-121.997894,37.386533]}},{"properties":{"company":"VINDICATOR CORP.","zip":"94086","latitude":37.386279,"longitude":-121.997887,"id":"afqf13yfijrk","address":"1092 STEWART DR."},"type":"Feature","geometry":{"type":"Point","coordinates":[-121.997887,37.386279]}},{"properties":{"company":"LAZOR SYSTEMS INC.","zip":"94086","latitude":37.386824,"longitude":-121.997783,"id":"afqf145cnaig","address":"1050 E. DUANE AVE."},"type":"Feature","geometry":{"type":"Point","coordinates":[-121.997783,37.386824]}},{"properties":{"company":"PYCO ENTERPRISES","zip":"94086","latitude":37.386824,"longitude":-121.997783,"id":"afqf141t1cce","address":"1050 E. DUANE AVE."},"type":"Feature","geometry":{"type":"Point","coordinates":[-121.997783,37.386824]}},{"properties":{"company":"SIGNATONE CORP.","zip":"95051","latitude":37.377,"longitude":-121.997481,"id":"afqf13zptvpo","address":"3687 ENOCHS ST."},"type":"Feature","geometry":{"type":"Point","coordinates":[-121.997481,37.377]}},{"properties":{"company":"U. S. DATACORP","zip":"94086","latitude":37.378693,"longitude":-121.997444,"id":"afqf143cu1vu","address":"1190 MIRALOMA WAY"},"type":"Feature","geometry":{"type":"Point","coordinates":[-121.997444,37.378693]}},{"properties":{"company":"RELATIONAL MEMORY SYSTEMS","zip":"94086","latitude":37.378762,"longitude":-121.997387,"id":"afqf1441206z","address":"1180 MIRALOMA WAY"},"type":"Feature","geometry":{"type":"Point","coordinates":[-121.997387,37.378762]}},{"properties":{"company":"TRIMAX CONTROLS INC.","zip":"94086","latitude":37.378762,"longitude":-121.997387,"id":"afqf13qpxeyu","address":"1180 MIRALOMA WAY"},"type":"Feature","geometry":{"type":"Point","coordinates":[-121.997387,37.378762]}},{"properties":{"company":"WESTERN ELECTRIC CO.","zip":"94086","latitude":37.386838,"longitude":-121.997063,"id":"afqf140zktxf","address":"1090 E. DUANE AVE."},"type":"Feature","geometry":{"type":"Point","coordinates":[-121.997063,37.386838]}},{"properties":{"company":"PERMAG SIERRA CORP.","zip":"94086","latitude":37.37154,"longitude":-121.996959,"id":"afqf13yn0pqi","address":"1559 SONORA CT."},"type":"Feature","geometry":{"type":"Point","coordinates":[-121.996959,37.37154]}},{"properties":{"company":"NESCO","zip":"94086","latitude":37.370948,"longitude":-121.996385,"id":"afqf1402vqds","address":"107 SAN ZENO WAY"},"type":"Feature","geometry":{"type":"Point","coordinates":[-121.996385,37.370948]}},{"properties":{"company":"ALTERNATE DESIGN INC.","zip":"94086","latitude":37.367105,"longitude":-121.996054,"id":"afqf13wci7r5","address":"1270 LAWRENCE STAT. RD."},"type":"Feature","geometry":{"type":"Point","coordinates":[-121.996054,37.367105]}},{"properties":{"company":"DIRECT INC.","zip":"94086","latitude":37.367105,"longitude":-121.996054,"id":"afqf140pd56x","address":"1279 LAWRENCE STAT. RD."},"type":"Feature","geometry":{"type":"Point","coordinates":[-121.996054,37.367105]}},{"properties":{"company":"EQUATORIAL COMMUNICATIONS","zip":"94086","latitude":37.367105,"longitude":-121.996054,"id":"afqf141m82vt","address":"1294 LAWRENCE STAT RD."},"type":"Feature","geometry":{"type":"Point","coordinates":[-121.996054,37.367105]}},{"properties":{"company":"FALCO DATA PRODUCTS","zip":"94086","latitude":37.367105,"longitude":-121.996054,"id":"afqf13rx3i6f","address":"1286 LAWRENCE STAT RD."},"type":"Feature","geometry":{"type":"Point","coordinates":[-121.996054,37.367105]}},{"properties":{"company":"MERCATOR BUSINESS SYSTEMS","zip":"94086","latitude":37.367105,"longitude":-121.996054,"id":"afqf13wi8rs5","address":"1294 LAWRENCE STAT. RD."},"type":"Feature","geometry":{"type":"Point","coordinates":[-121.996054,37.367105]}},{"properties":{"company":"TIMBERTECH","zip":"94086","latitude":37.367105,"longitude":-121.996054,"id":"afqf13zpe6q4","address":"1287 LAWRENCE STAT. RD."},"type":"Feature","geometry":{"type":"Point","coordinates":[-121.996054,37.367105]}},{"properties":{"company":"DIOGENES SYSTEMS INC.","zip":"95051","latitude":37.349318,"longitude":-121.995899,"id":"afqf145uam7r","address":"1333 LAWRENCE EXP."},"type":"Feature","geometry":{"type":"Point","coordinates":[-121.995899,37.349318]}},{"properties":{"company":"PICO DESIGN INC.","zip":"95051","latitude":37.349318,"longitude":-121.995899,"id":"afqf1447odnw","address":"1333 LAWRENCE EXP. #340"},"type":"Feature","geometry":{"type":"Point","coordinates":[-121.995899,37.349318]}},{"properties":{"company":"SANDERS INSTRUMENTS INC.","zip":"95051","latitude":37.375053,"longitude":-121.994788,"id":"afqf13qbxtqn","address":"2990 GORDON AVE."},"type":"Feature","geometry":{"type":"Point","coordinates":[-121.994788,37.375053]}},{"properties":{"company":"EUROSIL INC.","zip":"94086","latitude":37.405256,"longitude":-121.994753,"id":"afqf13xkwt33","address":"1211 ALDERWOOD AVE."},"type":"Feature","geometry":{"type":"Point","coordinates":[-121.994753,37.405256]}},{"properties":{"company":"DOMAKO","zip":"94086","latitude":37.4058,"longitude":-121.994749,"id":"afqf13q0jk9e","address":"1260 ALDERWOOD AVE."},"type":"Feature","geometry":{"type":"Point","coordinates":[-121.994749,37.4058]}},{"properties":{"company":"BRANDT ELECTRONICS","zip":"94086","latitude":37.405364,"longitude":-121.994739,"id":"afqf13q3g3vn","address":"1220 ALDERWOOD AVE."},"type":"Feature","geometry":{"type":"Point","coordinates":[-121.994739,37.405364]}},{"properties":{"company":"J.H.L. INC.","zip":"94086","latitude":37.405299,"longitude":-121.994738,"id":"afqf13q0ijhh","address":"1214 ALDERWOOD AVE."},"type":"Feature","geometry":{"type":"Point","coordinates":[-121.994738,37.405299]}},{"properties":{"company":"ADVANCED RESEARCH","zip":"94086","latitude":37.380567,"longitude":-121.994301,"id":"afqf13qj14qz","address":"1223 E. ARQUES AVE."},"type":"Feature","geometry":{"type":"Point","coordinates":[-121.994301,37.380567]}},{"properties":{"company":"DIONEX CORP.","zip":"94086","latitude":37.383669,"longitude":-121.994166,"id":"afqf143xexy9","address":"1228 TITAN WAY"},"type":"Feature","geometry":{"type":"Point","coordinates":[-121.994166,37.383669]}},{"properties":{"company":"WAVETEK","zip":"95051","latitude":37.376715,"longitude":-121.993966,"id":"afqf13vxbmlw","address":"3555 RYDER ST."},"type":"Feature","geometry":{"type":"Point","coordinates":[-121.993966,37.376715]}},{"properties":{"company":"WILMAN INDUSTRIES","zip":"94086","latitude":37.403518,"longitude":-121.993934,"id":"afqf13zm55dp","address":"1155 TASMAN DR."},"type":"Feature","geometry":{"type":"Point","coordinates":[-121.993934,37.403518]}},{"properties":{"company":"AMTEL SYSTEMS CORP.","zip":"94086","latitude":37.409313,"longitude":-121.99379,"id":"afqf13r9yj7j","address":"1293 ANVILWOOD AVE."},"type":"Feature","geometry":{"type":"Point","coordinates":[-121.99379,37.409313]}},{"properties":{"company":"KRYTAR","zip":"94086","latitude":37.408972,"longitude":-121.993413,"id":"afqf13wlwtwi","address":"1260 ANVILWOOD CT."},"type":"Feature","geometry":{"type":"Point","coordinates":[-121.993413,37.408972]}},{"properties":{"company":"MICROCOMPUTER SYSTEMS CORP.","zip":"94086","latitude":37.38148,"longitude":-121.993371,"id":"afqf1421tt9z","address":"432 LAKESIDE DR."},"type":"Feature","geometry":{"type":"Point","coordinates":[-121.993371,37.38148]}},{"properties":{"company":"MASSTOR SYSTEMS CORP.","zip":"94086","latitude":37.385613,"longitude":-121.993369,"id":"afqf13spgfwl","address":"541 LAKESIDE DR."},"type":"Feature","geometry":{"type":"Point","coordinates":[-121.993369,37.385613]}},{"properties":{"company":"VERSATYME CONTROLS CORP.","zip":"94086","latitude":37.385613,"longitude":-121.993369,"id":"afqf142ovsda","address":"541 LAKESIDE DR"},"type":"Feature","geometry":{"type":"Point","coordinates":[-121.993369,37.385613]}},{"properties":{"company":"GROUP THREE","zip":"94086","latitude":37.385478,"longitude":-121.993353,"id":"afqf13wl5mok","address":"542 LAKESIDE DR ."},"type":"Feature","geometry":{"type":"Point","coordinates":[-121.993353,37.385478]}},{"properties":{"company":"J.M . MFG. CORP.","zip":"95051","latitude":37.375632,"longitude":-121.992597,"id":"afqf13u9zllh","address":"3015 COPPER WY."},"type":"Feature","geometry":{"type":"Point","coordinates":[-121.992597,37.375632]}},{"properties":{"company":"ISHER INC.","zip":"95051","latitude":37.375467,"longitude":-121.992596,"id":"afqf13zca60m","address":"3001 COPPER WY."},"type":"Feature","geometry":{"type":"Point","coordinates":[-121.992596,37.375467]}},{"properties":{"company":"MICRO-CHEM INC.","zip":"95051","latitude":37.375113,"longitude":-121.992595,"id":"afqf13ri5v0i","address":"2971 COPPER"},"type":"Feature","geometry":{"type":"Point","coordinates":[-121.992595,37.375113]}},{"properties":{"company":"ZYCON CORP .","zip":"95051","latitude":37.375231,"longitude":-121.992595,"id":"afqf13v69yn0","address":"2981 COPPER WY."},"type":"Feature","geometry":{"type":"Point","coordinates":[-121.992595,37.375231]}},{"properties":{"company":"AUTOMATED SEMICON INC .","zip":"95051","latitude":37.374523,"longitude":-121.992593,"id":"afqf13vesn1n","address":"2921 COPPER"},"type":"Feature","geometry":{"type":"Point","coordinates":[-121.992593,37.374523]}},{"properties":{"company":"MICREL INC.","zip":"94086","latitude":37.385221,"longitude":-121.992591,"id":"afqf143n7hqd","address":"1235 MIDAS WAY"},"type":"Feature","geometry":{"type":"Point","coordinates":[-121.992591,37.385221]}},{"properties":{"company":"WESTAK","zip":"94086","latitude":37.409205,"longitude":-121.991994,"id":"afqf1458psqy","address":"1274 FORGEWOOD AVE."},"type":"Feature","geometry":{"type":"Point","coordinates":[-121.991994,37.409205]}},{"properties":{"company":"IMTEC PRODUCTS INC.","zip":"94086","latitude":37.40985,"longitude":-121.991991,"id":"afqf13xymzjf","address":"1295 FORGEWOOD AVE."},"type":"Feature","geometry":{"type":"Point","coordinates":[-121.991991,37.40985]}},{"properties":{"company":"H&amp;D CORP","zip":"94086","latitude":37.409786,"longitude":-121.991977,"id":"afqf145tbsx6","address":"1292 FORGEWOOD AVE."},"type":"Feature","geometry":{"type":"Point","coordinates":[-121.991977,37.409786]}},{"properties":{"company":"DATA DESIGN ASSOCIATES","zip":"94086","latitude":37.386867,"longitude":-121.991739,"id":"afqf13qbcgpg","address":"1250 OAKMEAD PARKWAY"},"type":"Feature","geometry":{"type":"Point","coordinates":[-121.991739,37.386867]}},{"properties":{"company":"E.L.X.S.I. INTL.","zip":"95051","latitude":37.377572,"longitude":-121.991543,"id":"afqf142ewme0","address":"3410 CENTRAL EXP."},"type":"Feature","geometry":{"type":"Point","coordinates":[-121.991543,37.377572]}},{"properties":{"company":"TIME &amp; SPACE PROCESSING","zip":"95051","latitude":37.377572,"longitude":-121.991543,"id":"afqf13zj9l9q","address":"3410 CENTRAL EXP."},"type":"Feature","geometry":{"type":"Point","coordinates":[-121.991543,37.377572]}},{"properties":{"company":"I.T.P. INC.","zip":"94086","latitude":37.383817,"longitude":-121.991288,"id":"afqf13rpwj72","address":"495 MERCURY DR ."},"type":"Feature","geometry":{"type":"Point","coordinates":[-121.991288,37.383817]}},{"properties":{"company":"J.A. WAGNER ASSOCIATES","zip":"94086","latitude":37.384184,"longitude":-121.991276,"id":"afqf13rtx2zr","address":"528 MERCURY DR."},"type":"Feature","geometry":{"type":"Point","coordinates":[-121.991276,37.384184]}},{"properties":{"company":"ADVANCED MICROTECHNOLOGY","zip":"94086","latitude":37.383665,"longitude":-121.991273,"id":"afqf145zsjr3","address":"480 MERCURY DR."},"type":"Feature","geometry":{"type":"Point","coordinates":[-121.991273,37.383665]}},{"properties":{"company":"BUTLER SERVICE GROUP","zip":"94086","latitude":37.386878,"longitude":-121.990972,"id":"afqf140w6t7b","address":"1265 OAKMEAD PARKWAY"},"type":"Feature","geometry":{"type":"Point","coordinates":[-121.990972,37.386878]}},{"properties":{"company":"AMDAHL","zip":"94086","latitude":37.38035,"longitude":-121.990707,"id":"afqf142o5ul4","address":"1250 E. ARQUES AVE."},"type":"Feature","geometry":{"type":"Point","coordinates":[-121.990707,37.38035]}},{"properties":{"company":"3-H ELECTRONICS","zip":"94086","latitude":37.409464,"longitude":-121.990399,"id":"afqf145zp2hq","address":"1290 HAMMERWOOD AVE."},"type":"Feature","geometry":{"type":"Point","coordinates":[-121.990399,37.409464]}},{"properties":{"company":"LOGICAL MACHINE CORP.","zip":"94086","latitude":37.409806,"longitude":-121.990393,"id":"afqf13ui79b7","address":"1294 HAMMERWOOD AVE."},"type":"Feature","geometry":{"type":"Point","coordinates":[-121.990393,37.409806]}},{"properties":{"company":"SOLECTRON CORP.","zip":"94086","latitude":37.406404,"longitude":-121.990048,"id":"afqf140p8euh","address":"1225 ELKO DR."},"type":"Feature","geometry":{"type":"Point","coordinates":[-121.990048,37.406404]}},{"properties":{"company":"HARRIS VIDEO SYSTEMS INC.","zip":"94086","latitude":37.380583,"longitude":-121.989527,"id":"afqf143blrqy","address":"1255 E. ARQUES AVE."},"type":"Feature","geometry":{"type":"Point","coordinates":[-121.989527,37.380583]}},{"properties":{"company":"SCIENCE APPLICATIONS INC.","zip":"94086","latitude":37.40365,"longitude":-121.988873,"id":"afqf145810d7","address":"1257 TASMAN DR."},"type":"Feature","geometry":{"type":"Point","coordinates":[-121.988873,37.40365]}},{"properties":{"company":"H. SQUARE CO.","zip":"94086","latitude":37.407348,"longitude":-121.988544,"id":"afqf13wky0wj","address":"1289 REAMWOOD AVE."},"type":"Feature","geometry":{"type":"Point","coordinates":[-121.988544,37.407348]}},{"properties":{"company":"LASELCO PACIFIC COMPANY","zip":"94086","latitude":37.406927,"longitude":-121.988541,"id":"afqf13wnclsl","address":"1273 REAMWOOD AVE"},"type":"Feature","geometry":{"type":"Point","coordinates":[-121.988541,37.406927]}},{"properties":{"company":"WESTERN MICROWAVE LABS","zip":"94086","latitude":37.406874,"longitude":-121.98854,"id":"afqf143v9w3f","address":"1271 REAMWOOD AVE"},"type":"Feature","geometry":{"type":"Point","coordinates":[-121.98854,37.406874]}},{"properties":{"company":"C.C.E. INC.","zip":"94086","latitude":37.407317,"longitude":-121.988527,"id":"afqf13siu2lv","address":"1292 REAMWOOD AVE."},"type":"Feature","geometry":{"type":"Point","coordinates":[-121.988527,37.407317]}},{"properties":{"company":"CHROMATIX INC.","zip":"94086","latitude":37.384937,"longitude":-121.988356,"id":"afqf13yzq48x","address":"560 OAKMEAD PARKWAY"},"type":"Feature","geometry":{"type":"Point","coordinates":[-121.988356,37.384937]}},{"properties":{"company":"ECONICS CORP.","zip":"94086","latitude":37.384462,"longitude":-121.988352,"id":"afqf1405a6ya","address":"540 OAKMEAD PARKWAY"},"type":"Feature","geometry":{"type":"Point","coordinates":[-121.988352,37.384462]}},{"properties":{"company":"SYSTEL COMPUTERS INC.","zip":"94086","latitude":37.384414,"longitude":-121.988351,"id":"afqf1458zorw","address":"538 OAKMEAD PARKWAY"},"type":"Feature","geometry":{"type":"Point","coordinates":[-121.988351,37.384414]}},{"properties":{"company":"BOOLE &amp; BABBAGE","zip":"94086","latitude":37.383749,"longitude":-121.988345,"id":"afqf13z0vo3u","address":"510 OAKMEAD PARKWAY"},"type":"Feature","geometry":{"type":"Point","coordinates":[-121.988345,37.383749]}},{"properties":{"company":"INTL. POWER TECHNOLOGY","zip":"94086","latitude":37.383654,"longitude":-121.988344,"id":"afqf13shuer6","address":"506 OAKMEAD PARKWAY"},"type":"Feature","geometry":{"type":"Point","coordinates":[-121.988344,37.383654]}},{"properties":{"company":"VERSAMOLD","zip":"94086","latitude":37.383188,"longitude":-121.988311,"id":"afqf13wl3q6x","address":"486 OAKMEAD PARKWAY"},"type":"Feature","geometry":{"type":"Point","coordinates":[-121.988311,37.383188]}},{"properties":{"company":"TRENDCOM INC.","zip":"94086","latitude":37.383051,"longitude":-121.988263,"id":"afqf1417vno1","address":"480 OAKMEAD PARKWAY"},"type":"Feature","geometry":{"type":"Point","coordinates":[-121.988263,37.383051]}},{"properties":{"company":"SHUGART ASSOCIATES","zip":"94086","latitude":37.382899,"longitude":-121.988224,"id":"afqf13slw0mb","address":"475 OAKMEAD PARKWAY"},"type":"Feature","geometry":{"type":"Point","coordinates":[-121.988224,37.382899]}},{"properties":{"company":"TESDATA SYSTEMS CORP.","zip":"94086","latitude":37.381901,"longitude":-121.98789,"id":"afqf13x29hq4","address":"430 OAKMEAD PARKWAY"},"type":"Feature","geometry":{"type":"Point","coordinates":[-121.98789,37.381901]}},{"properties":{"company":"LCS DATA PROCESSING","zip":"94086","latitude":37.381663,"longitude":-121.987888,"id":"afqf140m5wof","address":"420 OAKMEAD PARKWAY"},"type":"Feature","geometry":{"type":"Point","coordinates":[-121.987888,37.381663]}},{"properties":{"company":"N.C.A. CORP.","zip":"94086","latitude":37.37996,"longitude":-121.987879,"id":"afqf13tulcb7","address":"388 OAKMEAD PARKWAY"},"type":"Feature","geometry":{"type":"Point","coordinates":[-121.987879,37.37996]}},{"properties":{"company":"PENINSULA CIRCUIT BOARDS INC.","zip":"95051","latitude":37.375315,"longitude":-121.987871,"id":"afqf141h9jfj","address":"2964 CORVIN DR."},"type":"Feature","geometry":{"type":"Point","coordinates":[-121.987871,37.375315]}},{"properties":{"company":"VICI / METRONICS ASSOC. I NC.","zip":"95051","latitude":37.375686,"longitude":-121.987856,"id":"afqf13xmeps9","address":"2991 CORVIN DR."},"type":"Feature","geometry":{"type":"Point","coordinates":[-121.987856,37.375686]}},{"properties":{"company":"PTE CORP.","zip":"95051","latitude":37.374044,"longitude":-121.98731,"id":"afqf142gff2j","address":"3305 KIFER RD."},"type":"Feature","geometry":{"type":"Point","coordinates":[-121.98731,37.374044]}},{"properties":{"company":"NEC-FACSIMILE DIV.","zip":"95051","latitude":37.377609,"longitude":-121.985052,"id":"afqf13rp2f4t","address":"3120 CENTRAL EXP."},"type":"Feature","geometry":{"type":"Point","coordinates":[-121.985052,37.377609]}},{"properties":{"company":"UNITED SCIENTIFIC CORP.","zip":"95014","latitude":37.400375,"longitude":-121.985024,"id":"afqf144iwdbl","address":"4800 PATRICK HENRY DR."},"type":"Feature","geometry":{"type":"Point","coordinates":[-121.985024,37.400375]}},{"properties":{"company":"BUSCOM SYSTEMS INC.","zip":"95014","latitude":37.399143,"longitude":-121.98502,"id":"afqf13zaspbg","address":"4700 PATRICK HENRY DR ."},"type":"Feature","geometry":{"type":"Point","coordinates":[-121.98502,37.399143]}},{"properties":{"company":"LARSE CORP.","zip":"95014","latitude":37.397911,"longitude":-121.985015,"id":"afqf145rk10s","address":"4600 PATRICK HENRY DR ."},"type":"Feature","geometry":{"type":"Point","coordinates":[-121.985015,37.397911]}},{"properties":{"company":"DYSAN CORP.","zip":"95014","latitude":37.40939,"longitude":-121.984797,"id":"afqf140p2skt","address":"5440 PATRICK HENRY DR."},"type":"Feature","geometry":{"type":"Point","coordinates":[-121.984797,37.40939]}},{"properties":{"company":"INTL. MICRO CIRCUITS","zip":"95051","latitude":37.380462,"longitude":-121.983924,"id":"afqf13uq2nca","address":"3350 SCOTT BLVD. #37"},"type":"Feature","geometry":{"type":"Point","coordinates":[-121.983924,37.380462]}},{"properties":{"company":"NORSK ENGINEERING","zip":"95051","latitude":37.380462,"longitude":-121.983924,"id":"afqf143nubh3","address":"3350 SCOTT BLVD. #14602"},"type":"Feature","geometry":{"type":"Point","coordinates":[-121.983924,37.380462]}},{"properties":{"company":"OMNIYIG INC .","zip":"95051","latitude":37.380462,"longitude":-121.983924,"id":"afqf13xv6fhz","address":"3350 SCOTT BLVD."},"type":"Feature","geometry":{"type":"Point","coordinates":[-121.983924,37.380462]}},{"properties":{"company":"PROBE-TRONICS INC.","zip":"95051","latitude":37.380462,"longitude":-121.983924,"id":"afqf13ydbnji","address":"3350 SCOTT BLVD."},"type":"Feature","geometry":{"type":"Point","coordinates":[-121.983924,37.380462]}},{"properties":{"company":"THERMONICS INC.","zip":"95051","latitude":37.380462,"longitude":-121.983924,"id":"afqf13sc7l0j","address":"3350 SCOTT BLVD. BLDG. 32"},"type":"Feature","geometry":{"type":"Point","coordinates":[-121.983924,37.380462]}},{"properties":{"company":"IDEC SYSTEMS &amp; CONTROLS","zip":"95014","latitude":37.403312,"longitude":-121.983577,"id":"afqf1411qviu","address":"3050 TASMAN DR ."},"type":"Feature","geometry":{"type":"Point","coordinates":[-121.983577,37.403312]}},{"properties":{"company":"WEITEK CORP.","zip":"95051","latitude":37.346526,"longitude":-121.983486,"id":"afqf1468o52k","address":"3255 SCOTT BLVD. #2 -B"},"type":"Feature","geometry":{"type":"Point","coordinates":[-121.983486,37.346526]}},{"properties":{"company":"CTT INC.","zip":"95014","latitude":37.40325,"longitude":-121.982079,"id":"afqf13t9ue8c","address":"3000 TASMAN DR ."},"type":"Feature","geometry":{"type":"Point","coordinates":[-121.982079,37.40325]}},{"properties":{"company":"LAM RESEARCH CORP.","zip":"95014","latitude":37.408885,"longitude":-121.982004,"id":"afqf13vn9kbq","address":"5403 BETSY ROSS DR ."},"type":"Feature","geometry":{"type":"Point","coordinates":[-121.982004,37.408885]}},{"properties":{"company":"THERMEX INC.","zip":"95051","latitude":37.371697,"longitude":-121.981883,"id":"afqf13skb25c","address":"2800 MEAD AVE."},"type":"Feature","geometry":{"type":"Point","coordinates":[-121.981883,37.371697]}},{"properties":{"company":"TWO PI CORP.","zip":"95014","latitude":37.395931,"longitude":-121.981577,"id":"afqf13zx2j30","address":"3105 PATRICK HENRY DR ."},"type":"Feature","geometry":{"type":"Point","coordinates":[-121.981577,37.395931]}},{"properties":{"company":"TIME &amp; FREQUENCY TECH .","zip":"95051","latitude":37.376294,"longitude":-121.980844,"id":"afqf143ecmgd","address":"3090 OAKMEAD VILLAGE DR."},"type":"Feature","geometry":{"type":"Point","coordinates":[-121.980844,37.376294]}},{"properties":{"company":"FUJITSU MICROELECTRONICS","zip":"95051","latitude":37.375121,"longitude":-121.980787,"id":"afqf144za1us","address":"2945 OAK.IEAD VILLAGE CT."},"type":"Feature","geometry":{"type":"Point","coordinates":[-121.980787,37.375121]}},{"properties":{"company":"ISS SPERRY UNIVAC","zip":"95051","latitude":37.380613,"longitude":-121.980769,"id":"afqf13yt4iu2","address":"3333 SCOTT BLVD."},"type":"Feature","geometry":{"type":"Point","coordinates":[-121.980769,37.380613]}},{"properties":{"company":"BROWN-BOVERI CONTROL SYSTEMS","zip":"95051","latitude":37.34912,"longitude":-121.980569,"id":"afqf1431m14s","address":"2920 SAN YSIDRO WY."},"type":"Feature","geometry":{"type":"Point","coordinates":[-121.980569,37.34912]}},{"properties":{"company":"DYNA-CRAFT INC.","zip":"95051","latitude":37.34912,"longitude":-121.980569,"id":"afqf13rt6qds","address":"2975 SAN YSIDRO WY."},"type":"Feature","geometry":{"type":"Point","coordinates":[-121.980569,37.34912]}},{"properties":{"company":"QUARTZ INTERNATIONAL","zip":"95051","latitude":37.34912,"longitude":-121.980569,"id":"afqf140tofbr","address":"2999 SAN YSIDRO WY."},"type":"Feature","geometry":{"type":"Point","coordinates":[-121.980569,37.34912]}},{"properties":{"company":"INTL. DIAGNOSTIC TECH.","zip":"95051","latitude":37.375902,"longitude":-121.980145,"id":"afqf13sm7rg1","address":"2986 OAKMEAD VILLAGE CT."},"type":"Feature","geometry":{"type":"Point","coordinates":[-121.980145,37.375902]}},{"properties":{"company":"CALMA CO.","zip":"95014","latitude":37.404925,"longitude":-121.980134,"id":"afqf145x2lpa","address":"5155 OLD IRONSIDES DR ."},"type":"Feature","geometry":{"type":"Point","coordinates":[-121.980134,37.404925]}},{"properties":{"company":"ROLM CORP.","zip":"95014","latitude":37.402386,"longitude":-121.980008,"id":"afqf13yecizn","address":"4900 OLD IRONSIDES DR."},"type":"Feature","geometry":{"type":"Point","coordinates":[-121.980008,37.402386]}},{"properties":{"company":"KINGTRON CORP.","zip":"95051","latitude":37.376132,"longitude":-121.979847,"id":"afqf145mll14","address":"3040 OAKMEAD VILLAGE CT."},"type":"Feature","geometry":{"type":"Point","coordinates":[-121.979847,37.376132]}},{"properties":{"company":"ORROX CORP.","zip":"95051","latitude":37.380627,"longitude":-121.97894,"id":"afqf1409ot78","address":"3303 SCOTT BLVD."},"type":"Feature","geometry":{"type":"Point","coordinates":[-121.97894,37.380627]}},{"properties":{"company":"MEGATEST INC.","zip":"95014","latitude":37.395932,"longitude":-121.97877,"id":"afqf13vbsu5m","address":"2900 PATRICK HENRY DR ."},"type":"Feature","geometry":{"type":"Point","coordinates":[-121.97877,37.395932]}},{"properties":{"company":"COMPUTER CABLE INDUSTRIES","zip":"95051","latitude":37.371744,"longitude":-121.978378,"id":"afqf141utrs7","address":"2971 MEAD AVE."},"type":"Feature","geometry":{"type":"Point","coordinates":[-121.978378,37.371744]}},{"properties":{"company":"APPLIED MATERIALS INC.","zip":"95051","latitude":37.37701,"longitude":-121.977847,"id":"afqf13xudzoi","address":"3050 BOWERS AVE."},"type":"Feature","geometry":{"type":"Point","coordinates":[-121.977847,37.37701]}},{"properties":{"company":"AVANTEK INC.","zip":"95051","latitude":37.379543,"longitude":-121.977641,"id":"afqf143fn9rw","address":"3175 BOWERS AVE."},"type":"Feature","geometry":{"type":"Point","coordinates":[-121.977641,37.379543]}},{"properties":{"company":"INTEL CORP.","zip":"95051","latitude":37.37663,"longitude":-121.977629,"id":"afqf13rdwsnq","address":"3065 BOWERS AVE."},"type":"Feature","geometry":{"type":"Point","coordinates":[-121.977629,37.37663]}},{"properties":{"company":"MARTEC INTL. ELECT. SYSTEMS","zip":"95051","latitude":37.380388,"longitude":-121.975329,"id":"afqf142j0hfq","address":"3285 SCOTT BLVD."},"type":"Feature","geometry":{"type":"Point","coordinates":[-121.975329,37.380388]}},{"properties":{"company":"VERSATEC INC.","zip":"95051","latitude":37.373793,"longitude":-121.975167,"id":"afqf13zkzu0m","address":"2710 WALSH AVE."},"type":"Feature","geometry":{"type":"Point","coordinates":[-121.975167,37.373793]}},{"properties":{"company":"MODULUS INC.","zip":"95051","latitude":37.382346,"longitude":-121.974499,"id":"afqf142wgrh3","address":"2600 AUGUSTINE DR."},"type":"Feature","geometry":{"type":"Point","coordinates":[-121.974499,37.382346]}},{"properties":{"company":"AAFCO PRECISION MFG.","zip":"95051","latitude":37.377921,"longitude":-121.974497,"id":"afqf13zio1m0","address":"3150 CORONADO DR."},"type":"Feature","geometry":{"type":"Point","coordinates":[-121.974497,37.377921]}},{"properties":{"company":"AUTEK SYSTEMS CORP.","zip":"95051","latitude":37.37851,"longitude":-121.974492,"id":"afqf13yzj25s","address":"3200 CORONADO DR."},"type":"Feature","geometry":{"type":"Point","coordinates":[-121.974492,37.37851]}},{"properties":{"company":"SIGNAL SCIENCE INC.","zip":"95051","latitude":37.377651,"longitude":-121.974098,"id":"afqf13rmfcsf","address":"3110 CORONADO DR."},"type":"Feature","geometry":{"type":"Point","coordinates":[-121.974098,37.377651]}},{"properties":{"company":"ZETA LABORATORIES INC.","zip":"95051","latitude":37.38007,"longitude":-121.973544,"id":"afqf13qha1is","address":"3265 SCOTT BLVD."},"type":"Feature","geometry":{"type":"Point","coordinates":[-121.973544,37.38007]}},{"properties":{"company":"TECHNOLOGY DEVELOPMENT","zip":"95054","latitude":37.387582,"longitude":-121.973229,"id":"afqf13z9v4e6","address":"3990 FREEDOM CIRCLE"},"type":"Feature","geometry":{"type":"Point","coordinates":[-121.973229,37.387582]}},{"properties":{"company":"TELMOS INC.","zip":"95051","latitude":37.377643,"longitude":-121.97306,"id":"afqf141q9mgs","address":"3040 CORONADO DR."},"type":"Feature","geometry":{"type":"Point","coordinates":[-121.97306,37.377643]}},{"properties":{"company":"SCHLAGE ELECTRONICS","zip":"95051","latitude":37.379819,"longitude":-121.972804,"id":"afqf13rpbtlm","address":"3260 SCOTT BLVD."},"type":"Feature","geometry":{"type":"Point","coordinates":[-121.972804,37.379819]}},{"properties":{"company":"XYNETICS INC.","zip":"95051","latitude":37.374853,"longitude":-121.972553,"id":"afqf143mc7nt","address":"2901 CORONADO DR."},"type":"Feature","geometry":{"type":"Point","coordinates":[-121.972553,37.374853]}},{"properties":{"company":"DATA SYSTEMS","zip":"95051","latitude":37.37985,"longitude":-121.972326,"id":"afqf13yuc2ar","address":"3255 SCOTT BLVD. #3A"},"type":"Feature","geometry":{"type":"Point","coordinates":[-121.972326,37.37985]}},{"properties":{"company":"EDCO ENGINEERING CORP.","zip":"95051","latitude":37.37985,"longitude":-121.972326,"id":"afqf13rmcp4w","address":"3255 SCOTT BLVD. #6A"},"type":"Feature","geometry":{"type":"Point","coordinates":[-121.972326,37.37985]}},{"properties":{"company":"TECHNICON MEDICAL INFO. SYS.","zip":"95051","latitude":37.37985,"longitude":-121.972326,"id":"afqf145k8q56","address":"3255-1 SCOTT BLVD."},"type":"Feature","geometry":{"type":"Point","coordinates":[-121.972326,37.37985]}},{"properties":{"company":"CONVERGENT TECH.","zip":"95051","latitude":37.382321,"longitude":-121.972211,"id":"afqf13wbka8s","address":"2500 AUGUSTINE DR."},"type":"Feature","geometry":{"type":"Point","coordinates":[-121.972211,37.382321]}},{"properties":{"company":"CRONUS PRECISION PRODUCTS","zip":"95051","latitude":37.373626,"longitude":-121.972027,"id":"afqf13zleook","address":"2895 NORTHWESTERN PKW."},"type":"Feature","geometry":{"type":"Point","coordinates":[-121.972027,37.373626]}},{"properties":{"company":"DATA TECHNOLOGY CORP.","zip":"95051","latitude":37.371969,"longitude":-121.972009,"id":"afqf142p0asi","address":"2775 NORTHWESTERN PKW."},"type":"Feature","geometry":{"type":"Point","coordinates":[-121.972009,37.371969]}},{"properties":{"company":"INMAC","zip":"95051","latitude":37.382275,"longitude":-121.971498,"id":"afqf13shj9j1","address":"2465 AUGUSTINE DR."},"type":"Feature","geometry":{"type":"Point","coordinates":[-121.971498,37.382275]}},{"properties":{"company":"SYNERTEK INC.","zip":"95051","latitude":37.376843,"longitude":-121.970198,"id":"afqf143dbfoq","address":"3001 STENDER WY."},"type":"Feature","geometry":{"type":"Point","coordinates":[-121.970198,37.376843]}},{"properties":{"company":"ULTRATECH CORP.","zip":"95051","latitude":37.375285,"longitude":-121.970192,"id":"afqf13w0ssb4","address":"2900 STENDER WY."},"type":"Feature","geometry":{"type":"Point","coordinates":[-121.970192,37.375285]}},{"properties":{"company":"BURNS RESEARCH CORP.","zip":"95051","latitude":37.380281,"longitude":-121.970134,"id":"afqf13yyjcdr","address":"3333 OCTAVIUS DR. #A"},"type":"Feature","geometry":{"type":"Point","coordinates":[-121.970134,37.380281]}},{"properties":{"company":"INTEGRATED DEVICE TECH.","zip":"95051","latitude":37.379324,"longitude":-121.970066,"id":"afqf13tkinze","address":"3236 SCOTT BLVD."},"type":"Feature","geometry":{"type":"Point","coordinates":[-121.970066,37.379324]}},{"properties":{"company":"ZENTEC CORP.","zip":"95051","latitude":37.36957,"longitude":-121.969611,"id":"afqf143c61fv","address":"2400 WALSH AVE."},"type":"Feature","geometry":{"type":"Point","coordinates":[-121.969611,37.36957]}},{"properties":{"company":"SIGMAFORM CORP.","zip":"95051","latitude":37.369559,"longitude":-121.969465,"id":"afqf13t39esl","address":"2401 WALSH AVE."},"type":"Feature","geometry":{"type":"Point","coordinates":[-121.969465,37.369559]}},{"properties":{"company":"WESTERN ELECTROMOTIVE","zip":"95051","latitude":37.375512,"longitude":-121.968301,"id":"afqf13w3n01h","address":"2380 OWEN ST."},"type":"Feature","geometry":{"type":"Point","coordinates":[-121.968301,37.375512]}},{"properties":{"company":"VELER INC.","zip":"95051","latitude":37.375873,"longitude":-121.968295,"id":"afqf140m5c7l","address":"2360 OWEN ST."},"type":"Feature","geometry":{"type":"Point","coordinates":[-121.968295,37.375873]}},{"properties":{"company":"INTEGRA INC.","zip":"95051","latitude":37.369462,"longitude":-121.968164,"id":"afqf13qu1vde","address":"2368 WALSH AVE."},"type":"Feature","geometry":{"type":"Point","coordinates":[-121.968164,37.369462]}},{"properties":{"company":"DEANZA MFG. SERVICES","zip":"95014","latitude":37.408525,"longitude":-121.967768,"id":"afqf13zvfo0r","address":"5191 LAFAYETTE ST."},"type":"Feature","geometry":{"type":"Point","coordinates":[-121.967768,37.408525]}},{"properties":{"company":"PRECISION ART MASTER","zip":"95051","latitude":37.369466,"longitude":-121.967757,"id":"afqf13ztx1p5","address":"2350 WALSH AVE."},"type":"Feature","geometry":{"type":"Point","coordinates":[-121.967757,37.369466]}},{"properties":{"company":"VEN-TEL INC.","zip":"95051","latitude":37.369467,"longitude":-121.967577,"id":"afqf1435v5pr","address":"2342 WALSH AVE."},"type":"Feature","geometry":{"type":"Point","coordinates":[-121.967577,37.369467]}},{"properties":{"company":"NBK CORP.","zip":"95051","latitude":37.376391,"longitude":-121.967329,"id":"afqf13q45i0u","address":"3000 OLCOTT ST."},"type":"Feature","geometry":{"type":"Point","coordinates":[-121.967329,37.376391]}},{"properties":{"company":"H.H.B.","zip":"95051","latitude":37.36947,"longitude":-121.967215,"id":"afqf141fj9hy","address":"2326 WALSH AVE."},"type":"Feature","geometry":{"type":"Point","coordinates":[-121.967215,37.36947]}},{"properties":{"company":"OMEX","zip":"95051","latitude":37.376105,"longitude":-121.967188,"id":"afqf1417runm","address":"2323 OWEN ST."},"type":"Feature","geometry":{"type":"Point","coordinates":[-121.967188,37.376105]}},{"properties":{"company":"A.D.P.","zip":"95051","latitude":37.380647,"longitude":-121.967117,"id":"afqf13xwiy9r","address":"3300 OLCOTT ST."},"type":"Feature","geometry":{"type":"Point","coordinates":[-121.967117,37.380647]}},{"properties":{"company":"ADVANCED SECURITY CO.","zip":"95051","latitude":37.369473,"longitude":-121.966945,"id":"afqf13qfnhs0","address":"2314 WALSH AVE. #A"},"type":"Feature","geometry":{"type":"Point","coordinates":[-121.966945,37.369473]}},{"properties":{"company":"TELO ELECTRONICS INC.","zip":"95014","latitude":37.409389,"longitude":-121.966919,"id":"afqf13uw7r7z","address":"2354 CALLE DEL MUNDO"},"type":"Feature","geometry":{"type":"Point","coordinates":[-121.966919,37.409389]}},{"properties":{"company":"CIRCABCO ASSOC.","zip":"95014","latitude":37.409524,"longitude":-121.966514,"id":"afqf13qfuv8t","address":"2330 CALLE DEL MUNDO"},"type":"Feature","geometry":{"type":"Point","coordinates":[-121.966514,37.409524]}},{"properties":{"company":"IMAGIC","zip":"95030","latitude":37.25135,"longitude":-121.966493,"id":"afqf145d851j","address":"981 UNIVERSITY AVE."},"type":"Feature","geometry":{"type":"Point","coordinates":[-121.966493,37.25135]}},{"properties":{"company":"EAGLE COMPUTER INC.","zip":"95030","latitude":37.25145,"longitude":-121.966486,"id":"afqf13zdj1ms","address":"983 UNIVERSITY AVE."},"type":"Feature","geometry":{"type":"Point","coordinates":[-121.966486,37.25145]}},{"properties":{"company":"G. S. TEMPRESS","zip":"95030","latitude":37.25135,"longitude":-121.966477,"id":"afqf13uj2ghw","address":"980 UNIVERSITY AVE."},"type":"Feature","geometry":{"type":"Point","coordinates":[-121.966477,37.25135]}},{"properties":{"company":"C &amp; M PRECISION","zip":"95014","latitude":37.40963,"longitude":-121.966261,"id":"afqf143jf2ik","address":"2315 CALLE DEL MUNDO"},"type":"Feature","geometry":{"type":"Point","coordinates":[-121.966261,37.40963]}},{"properties":{"company":"HYTEK MICROSYSTEMS INC.","zip":"95030","latitude":37.252731,"longitude":-121.966105,"id":"afqf13t14582","address":"16780 LARK AVE."},"type":"Feature","geometry":{"type":"Point","coordinates":[-121.966105,37.252731]}},{"properties":{"company":"MEMOREX CORP.","zip":"95050","latitude":37.37432,"longitude":-121.965949,"id":"afqf1428np56","address":"SAN TOMAS &amp; CENTRAL EXP."},"type":"Feature","geometry":{"type":"Point","coordinates":[-121.965949,37.37432]}},{"properties":{"company":"MICROCOMPUTER POWER INC.","zip":"95014","latitude":37.408911,"longitude":-121.964297,"id":"afqf13vujnvt","address":"2272 CALLE DE LUNA"},"type":"Feature","geometry":{"type":"Point","coordinates":[-121.964297,37.408911]}},{"properties":{"company":"MARK TELEPHONE PROD. INC.","zip":"95014","latitude":37.407832,"longitude":-121.964265,"id":"afqf13rx5k86","address":"5122 CALLE DEL SOL"},"type":"Feature","geometry":{"type":"Point","coordinates":[-121.964265,37.407832]}},{"properties":{"company":"CORSO-GRAY INSTRUMENTS","zip":"95030","latitude":37.256874,"longitude":-121.964027,"id":"afqf13z6zkc9","address":"120 ALBRIGHT WAY"},"type":"Feature","geometry":{"type":"Point","coordinates":[-121.964027,37.256874]}},{"properties":{"company":"DASTEK","zip":"95030","latitude":37.25748,"longitude":-121.963638,"id":"afqf13v3qrrb","address":"141 ALBRIGHT WAY"},"type":"Feature","geometry":{"type":"Point","coordinates":[-121.963638,37.25748]}},{"properties":{"company":"ADVANCED RADIATIOK CORP.","zip":"95050","latitude":37.369502,"longitude":-121.963636,"id":"afqf144dtiax","address":"2210 WALSH AVE"},"type":"Feature","geometry":{"type":"Point","coordinates":[-121.963636,37.369502]}},{"properties":{"company":"PLEXUS COMPUTERS IN C.","zip":"95050","latitude":37.36703,"longitude":-121.963425,"id":"afqf13ywgffc","address":"2230 MARTIN AVE."},"type":"Feature","geometry":{"type":"Point","coordinates":[-121.963425,37.36703]}},{"properties":{"company":"GENERAL PH~NI CS CORP.","zip":"95050","latitude":37.367172,"longitude":-121.963409,"id":"afqf142aj3km","address":"2255 MARTIN AVE."},"type":"Feature","geometry":{"type":"Point","coordinates":[-121.963409,37.367172]}},{"properties":{"company":"DEXCEL INC.","zip":"95050","latitude":37.367349,"longitude":-121.963408,"id":"afqf143dk7kt","address":"2285 MARTIN AVE ."},"type":"Feature","geometry":{"type":"Point","coordinates":[-121.963408,37.367349]}},{"properties":{"company":"SCIENTIFIC TELECOMMUN.","zip":"95050","latitude":37.367408,"longitude":-121.963408,"id":"afqf143h2k26","address":"2295 MARTIN AVE."},"type":"Feature","geometry":{"type":"Point","coordinates":[-121.963408,37.367408]}},{"properties":{"company":"FORWARD TECHNOLOGY INC.","zip":"95050","latitude":37.369184,"longitude":-121.963402,"id":"afqf13zemyi0","address":"2595 MARTIN AVE."},"type":"Feature","geometry":{"type":"Point","coordinates":[-121.963402,37.369184]}},{"properties":{"company":"SILICONIX INC.","zip":"95054","latitude":37.384324,"longitude":-121.963333,"id":"afqf13wefzwc","address":"2201 LAURELWOOD RD."},"type":"Feature","geometry":{"type":"Point","coordinates":[-121.963333,37.384324]}},{"properties":{"company":"RAMTEK CORP. - GAMES DIV.","zip":"95050","latitude":37.375322,"longitude":-121.963238,"id":"afqf141kfopk","address":"2211 LAWSO LN ."},"type":"Feature","geometry":{"type":"Point","coordinates":[-121.963238,37.375322]}},{"properties":{"company":"MICRO AIR SYSTEMS","zip":"95050","latitude":37.366283,"longitude":-121.96258,"id":"afqf13z2w8cy","address":"2163 MARTIN AVE."},"type":"Feature","geometry":{"type":"Point","coordinates":[-121.96258,37.366283]}},{"properties":{"company":"RAIR MICROCOMPUTER LTD.","zip":"95050","latitude":37.391322,"longitude":-121.961979,"id":"afqf13s12f1m","address":"4101 BURTON DR."},"type":"Feature","geometry":{"type":"Point","coordinates":[-121.961979,37.391322]}},{"properties":{"company":"GRANGER ASSOCIATES","zip":"95050","latitude":37.377448,"longitude":-121.961966,"id":"afqf13slwmiy","address":"3101 SCOTT BLVD ."},"type":"Feature","geometry":{"type":"Point","coordinates":[-121.961966,37.377448]}},{"properties":{"company":"MICRO POWER SYSTEMS","zip":"95050","latitude":37.378467,"longitude":-121.961681,"id":"afqf13r3xitg","address":"3151 JAY ST ."},"type":"Feature","geometry":{"type":"Point","coordinates":[-121.961681,37.378467]}},{"properties":{"company":"STAMPING TECH","zip":"95050","latitude":37.378751,"longitude":-121.961681,"id":"afqf141552w9","address":"3171 JAY ST ."},"type":"Feature","geometry":{"type":"Point","coordinates":[-121.961681,37.378751]}},{"properties":{"company":"T.C.L. INC.","zip":"95050","latitude":37.369496,"longitude":-121.960926,"id":"afqf13yvvdmk","address":"2064 WALSH AVE."},"type":"Feature","geometry":{"type":"Point","coordinates":[-121.960926,37.369496]}},{"properties":{"company":"ITAC CORP.","zip":"95050","latitude":37.366246,"longitude":-121.960768,"id":"afqf13toboed","address":"2050 MARTIN AVE ."},"type":"Feature","geometry":{"type":"Point","coordinates":[-121.960768,37.366246]}},{"properties":{"company":"MARK &amp;. PACK SYSTEMS","zip":"95050","latitude":37.366261,"longitude":-121.960671,"id":"afqf142k7uid","address":"2045 MARTIN AVE ."},"type":"Feature","geometry":{"type":"Point","coordinates":[-121.960671,37.366261]}},{"properties":{"company":"SILICON VALLEY GROUP INC .","zip":"95050","latitude":37.389361,"longitude":-121.96028,"id":"afqf13qldumy","address":"3901 BURTON DR."},"type":"Feature","geometry":{"type":"Point","coordinates":[-121.96028,37.389361]}},{"properties":{"company":"WESCAN INSTRUMENTS INC.","zip":"95050","latitude":37.37644,"longitude":-121.96021,"id":"afqf13ucpytz","address":"3018 SCOTT BLVD ."},"type":"Feature","geometry":{"type":"Point","coordinates":[-121.96021,37.37644]}},{"properties":{"company":"DATA TERMINALS &amp; COMM.","zip":"95008","latitude":37.26286,"longitude":-121.96012,"id":"afqf142zuf45","address":"590 DIVISION ST."},"type":"Feature","geometry":{"type":"Point","coordinates":[-121.96012,37.26286]}},{"properties":{"company":"SEMPREX CORP.","zip":"95008","latitude":37.262867,"longitude":-121.96006,"id":"afqf13thoyws","address":"587 DIVISION ST."},"type":"Feature","geometry":{"type":"Point","coordinates":[-121.96006,37.262867]}},{"properties":{"company":"MOHAWK DATA SCIENCES","zip":"95008","latitude":37.261302,"longitude":-121.959873,"id":"afqf13updmuz","address":"150 KNOWLES DR."},"type":"Feature","geometry":{"type":"Point","coordinates":[-121.959873,37.261302]}},{"properties":{"company":"ATLAS ELECTRONICS","zip":"95050","latitude":37.375822,"longitude":-121.959665,"id":"afqf1413mw59","address":"2975 SCOTT BLVD."},"type":"Feature","geometry":{"type":"Point","coordinates":[-121.959665,37.375822]}},{"properties":{"company":"ORION ALPHA CORP.","zip":"95050","latitude":37.375744,"longitude":-121.95966,"id":"afqf1438wmaf","address":"2974 SCOTT BLVD."},"type":"Feature","geometry":{"type":"Point","coordinates":[-121.95966,37.375744]}},{"properties":{"company":"COSMOS COMPUTER CORP.","zip":"95008","latitude":37.262771,"longitude":-121.959655,"id":"afqf142lqpvu","address":"548 DIVISION ST."},"type":"Feature","geometry":{"type":"Point","coordinates":[-121.959655,37.262771]}},{"properties":{"company":"OMNI TECH.","zip":"95050","latitude":37.375422,"longitude":-121.959587,"id":"afqf13yd26hg","address":"2944 SCOTT BLVD."},"type":"Feature","geometry":{"type":"Point","coordinates":[-121.959587,37.375422]}},{"properties":{"company":"CAMPBELL ENGINEERING","zip":"95008","latitude":37.262754,"longitude":-121.959566,"id":"afqf13x21c0x","address":"540 DIVISION ST."},"type":"Feature","geometry":{"type":"Point","coordinates":[-121.959566,37.262754]}},{"properties":{"company":"CIRCUIT WORKS INC.","zip":"95050","latitude":37.375132,"longitude":-121.959552,"id":"afqf143cr12h","address":"2904 SCOTT BLVD."},"type":"Feature","geometry":{"type":"Point","coordinates":[-121.959552,37.375132]}},{"properties":{"company":"NOEL J. BROWN MFG. CO.","zip":"95008","latitude":37.26277,"longitude":-121.95955,"id":"afqf13uvvu2s","address":"541 DIVISION ST."},"type":"Feature","geometry":{"type":"Point","coordinates":[-121.95955,37.26277]}},{"properties":{"company":"SANTA CLARA CIRCUITS","zip":"95050","latitude":37.367523,"longitude":-121.959527,"id":"afqf13xjutu3","address":"2539 SCOTT BLVD."},"type":"Feature","geometry":{"type":"Point","coordinates":[-121.959527,37.367523]}},{"properties":{"company":"ROJON ELECTRONICS","zip":"95008","latitude":37.262669,"longitude":-121.959123,"id":"afqf13vi8ib0","address":"500 DIVISION ST."},"type":"Feature","geometry":{"type":"Point","coordinates":[-121.959123,37.262669]}},{"properties":{"company":"OKTEL CORP.","zip":"95008","latitude":37.262648,"longitude":-121.959012,"id":"afqf13sljus5","address":"490 DIVISION ST."},"type":"Feature","geometry":{"type":"Point","coordinates":[-121.959012,37.262648]}},{"properties":{"company":"FREQUENCY SOURCES WEST","zip":"95051","latitude":37.378878,"longitude":-121.958619,"id":"afqf13wr7oy0","address":"3140 ALFRED ST."},"type":"Feature","geometry":{"type":"Point","coordinates":[-121.958619,37.378878]}},{"properties":{"company":"SEMI-PROCESSES INTL.","zip":"95050","latitude":37.384036,"longitude":-121.958553,"id":"afqf13ratxpa","address":"1885 NORMAN AVE."},"type":"Feature","geometry":{"type":"Point","coordinates":[-121.958553,37.384036]}},{"properties":{"company":"FOTOMAT LABS INC.","zip":"95051","latitude":37.374558,"longitude":-121.958467,"id":"afqf13zgr0au","address":"1725 COMSTOCK ST."},"type":"Feature","geometry":{"type":"Point","coordinates":[-121.958467,37.374558]}},{"properties":{"company":"REDLAKE CORP.","zip":"95008","latitude":37.262146,"longitude":-121.957761,"id":"afqf13pszj70","address":"1711 DELL AVE."},"type":"Feature","geometry":{"type":"Point","coordinates":[-121.957761,37.262146]}},{"properties":{"company":"QUADREX","zip":"95008","latitude":37.262055,"longitude":-121.957755,"id":"afqf13skn4yy","address":"1700 DELL AVE."},"type":"Feature","geometry":{"type":"Point","coordinates":[-121.957755,37.262055]}},{"properties":{"company":"ADDA CORP.","zip":"95008","latitude":37.262941,"longitude":-121.957323,"id":"afqf13vdbhsb","address":"1671 DELL AVE."},"type":"Feature","geometry":{"type":"Point","coordinates":[-121.957323,37.262941]}},{"properties":{"company":"PACER TECHNOLOGY RESOURCE","zip":"95008","latitude":37.263494,"longitude":-121.956867,"id":"afqf141h89i6","address":"1600 DELL AVE."},"type":"Feature","geometry":{"type":"Point","coordinates":[-121.956867,37.263494]}},{"properties":{"company":"MICRO SCAN","zip":"95008","latitude":37.263709,"longitude":-121.956701,"id":"afqf143tch4m","address":"1580 DELL AVE."},"type":"Feature","geometry":{"type":"Point","coordinates":[-121.956701,37.263709]}},{"properties":{"company":"SOLITEC INC.","zip":"95054","latitude":37.390162,"longitude":-121.956491,"id":"afqf13t7yoir","address":"1500 WYATT AVE."},"type":"Feature","geometry":{"type":"Point","coordinates":[-121.956491,37.390162]}},{"properties":{"company":"ENERGY RESEARCH ASSOC. INC.","zip":"95008","latitude":37.26514,"longitude":-121.95645,"id":"afqf13vodfr1","address":"503 VANDELL WAY #F"},"type":"Feature","geometry":{"type":"Point","coordinates":[-121.95645,37.26514]}},{"properties":{"company":"INOVONICS INC.","zip":"95008","latitude":37.26514,"longitude":-121.95645,"id":"afqf142mrrw3","address":"503 VANDELL WAY #B"},"type":"Feature","geometry":{"type":"Point","coordinates":[-121.95645,37.26514]}},{"properties":{"company":"LARTRONICS INC.","zip":"95008","latitude":37.26514,"longitude":-121.95645,"id":"afqf145a9aze","address":"503 VANDELL WAY #D"},"type":"Feature","geometry":{"type":"Point","coordinates":[-121.95645,37.26514]}},{"properties":{"company":"P.E.B.X. INC.","zip":"95008","latitude":37.265135,"longitude":-121.956441,"id":"afqf1464lrv8","address":"501 VANDELL WAY #D"},"type":"Feature","geometry":{"type":"Point","coordinates":[-121.956441,37.265135]}},{"properties":{"company":"ZIRCON INTL. INC.","zip":"95008","latitude":37.265074,"longitude":-121.956317,"id":"afqf13rofx11","address":"475 VANDELL WAY"},"type":"Feature","geometry":{"type":"Point","coordinates":[-121.956317,37.265074]}},{"properties":{"company":"TENTEL INC.","zip":"95008","latitude":37.264505,"longitude":-121.956086,"id":"afqf145gdcil","address":"1506 DELL AVE."},"type":"Feature","geometry":{"type":"Point","coordinates":[-121.956086,37.264505]}},{"properties":{"company":"K &amp; K MFG.","zip":"95008","latitude":37.264569,"longitude":-121.956036,"id":"afqf13q714r5","address":"1500 DELL AVE."},"type":"Feature","geometry":{"type":"Point","coordinates":[-121.956036,37.264569]}},{"properties":{"company":"SOUTH BAY CIRCUITS","zip":"95050","latitude":37.364969,"longitude":-121.955676,"id":"afqf13ubimxf","address":"1415 RICHARD ST."},"type":"Feature","geometry":{"type":"Point","coordinates":[-121.955676,37.364969]}},{"properties":{"company":"PRECISION MONOLITHICS I NC.","zip":"95050","latitude":37.376231,"longitude":-121.955582,"id":"afqf144dq4i1","address":"1500 SPACE PARK DR."},"type":"Feature","geometry":{"type":"Point","coordinates":[-121.955582,37.376231]}},{"properties":{"company":"TWIN INDUSTRIES","zip":"95050","latitude":37.385269,"longitude":-121.955467,"id":"afqf13ytocbq","address":"1500 NORMAN AVE. #2"},"type":"Feature","geometry":{"type":"Point","coordinates":[-121.955467,37.385269]}},{"properties":{"company":"PYRAMID CIRCUITS INC.","zip":"95054","latitude":37.379852,"longitude":-121.955384,"id":"afqf142dj2x9","address":"1419 LAURELWOOD RD."},"type":"Feature","geometry":{"type":"Point","coordinates":[-121.955384,37.379852]}},{"properties":{"company":"SOUND TECHNOLOGY","zip":"95008","latitude":37.266377,"longitude":-121.954628,"id":"afqf13x14sta","address":"1400 DELL AVE."},"type":"Feature","geometry":{"type":"Point","coordinates":[-121.954628,37.266377]}},{"properties":{"company":"E.M.S.","zip":"95050","latitude":37.38747,"longitude":-121.954107,"id":"afqf13u4cmqz","address":"3650 BASSETT ST."},"type":"Feature","geometry":{"type":"Point","coordinates":[-121.954107,37.38747]}},{"properties":{"company":"ZILOG INC.","zip":"95008","latitude":37.267421,"longitude":-121.953854,"id":"afqf1439nago","address":"1315 DELL AVE."},"type":"Feature","geometry":{"type":"Point","coordinates":[-121.953854,37.267421]}},{"properties":{"company":"PRINTED CIRCUIT BUILDERS","zip":"95050","latitude":37.386808,"longitude":-121.953665,"id":"afqf13ywuocy","address":"3610 BASSETT ST."},"type":"Feature","geometry":{"type":"Point","coordinates":[-121.953665,37.386808]}},{"properties":{"company":"MONOSIL","zip":"95051","latitude":37.377698,"longitude":-121.953261,"id":"afqf13sn73yt","address":"3060 RAYMOND ST."},"type":"Feature","geometry":{"type":"Point","coordinates":[-121.953261,37.377698]}},{"properties":{"company":"FABRICATED CIRCUITS","zip":"95050","latitude":37.386221,"longitude":-121.953229,"id":"afqf145qsd8x","address":"1196 NORMAN AVE."},"type":"Feature","geometry":{"type":"Point","coordinates":[-121.953229,37.386221]}},{"properties":{"company":"DISCOVERY TECHNOLOGY INC.","zip":"95008","latitude":37.268422,"longitude":-121.9531,"id":"afqf144m8g4s","address":"1249 DELL AVE."},"type":"Feature","geometry":{"type":"Point","coordinates":[-121.9531,37.268422]}},{"properties":{"company":"RMK MFG.","zip":"95008","latitude":37.269346,"longitude":-121.952698,"id":"afqf146at7fd","address":"1190 DELL AVE."},"type":"Feature","geometry":{"type":"Point","coordinates":[-121.952698,37.269346]}},{"properties":{"company":"MULTAPLEX","zip":"95051","latitude":37.374631,"longitude":-121.952212,"id":"afqf13ulyofy","address":"1111 COMSTOCK ST."},"type":"Feature","geometry":{"type":"Point","coordinates":[-121.952212,37.374631]}},{"properties":{"company":"HUNTER TECH. CORP.","zip":"95050","latitude":37.369803,"longitude":-121.951789,"id":"afqf13xbrllp","address":"985 WALSH AVE."},"type":"Feature","geometry":{"type":"Point","coordinates":[-121.951789,37.369803]}},{"properties":{"company":"TWOTEC CO.","zip":"95050","latitude":37.363463,"longitude":-121.950375,"id":"afqf1441wnoe","address":"973 SHULMAN AVE."},"type":"Feature","geometry":{"type":"Point","coordinates":[-121.950375,37.363463]}},{"properties":{"company":"PROBE RITE INC.","zip":"95050","latitude":37.370442,"longitude":-121.950275,"id":"afqf13rtqvcd","address":"2725 LAFAYETTE ST."},"type":"Feature","geometry":{"type":"Point","coordinates":[-121.950275,37.370442]}},{"properties":{"company":"MULLEN EQUIPMENT CO.","zip":"95050","latitude":37.374775,"longitude":-121.950257,"id":"afqf13vmt1wf","address":"2904 LAFAYETTE ST."},"type":"Feature","geometry":{"type":"Point","coordinates":[-121.950257,37.374775]}},{"properties":{"company":"BALL SCREWS &amp; ACTUATORS","zip":"95050","latitude":37.345983,"longitude":-121.948812,"id":"afqf13ugq26i","address":"3520 VICTOR CT."},"type":"Feature","geometry":{"type":"Point","coordinates":[-121.948812,37.345983]}},{"properties":{"company":"MONOLITHIC MEMORIES","zip":"95050","latitude":37.345983,"longitude":-121.948812,"id":"afqf13w7d6m6","address":"2175 BURTON DR."},"type":"Feature","geometry":{"type":"Point","coordinates":[-121.948812,37.345983]}},{"properties":{"company":"SUN CIRCUITS","zip":"95050","latitude":37.345983,"longitude":-121.948812,"id":"afqf13taofvg","address":"3510 VICTOR CT."},"type":"Feature","geometry":{"type":"Point","coordinates":[-121.948812,37.345983]}},{"properties":{"company":"EPITAXY INC.","zip":"95050","latitude":37.384829,"longitude":-121.946415,"id":"afqf13xh5943","address":"555 ALDO AVE ."},"type":"Feature","geometry":{"type":"Point","coordinates":[-121.946415,37.384829]}},{"properties":{"company":"INTRICAST CO.","zip":"95050","latitude":37.380365,"longitude":-121.945505,"id":"afqf140bolim","address":"600 LAURELWOOD RD ."},"type":"Feature","geometry":{"type":"Point","coordinates":[-121.945505,37.380365]}},{"properties":{"company":"VELONEX","zip":"95050","latitude":37.364307,"longitude":-121.945205,"id":"afqf13ut699r","address":"560 ROBERT A E."},"type":"Feature","geometry":{"type":"Point","coordinates":[-121.945205,37.364307]}},{"properties":{"company":"GIBBONS ELECTRIC","zip":"95050","latitude":37.360096,"longitude":-121.945084,"id":"afqf13shausk","address":"2005 GRANT AVE."},"type":"Feature","geometry":{"type":"Point","coordinates":[-121.945084,37.360096]}},{"properties":{"company":"STANFORD APPLIED ENGINEERING","zip":"95050","latitude":37.387308,"longitude":-121.944143,"id":"afqf13vkni2r","address":"3520-30 DE LACRUZ BLVD."},"type":"Feature","geometry":{"type":"Point","coordinates":[-121.944143,37.387308]}},{"properties":{"company":"GOLDE PACIFIC SYSTEMS.","zip":"95008","latitude":37.26791,"longitude":-121.943248,"id":"afqf13y64vtw","address":"1490 CAMDEN AVE."},"type":"Feature","geometry":{"type":"Point","coordinates":[-121.943248,37.26791]}},{"properties":{"company":"MICRO-BAUD SYSTEMS","zip":"95050","latitude":37.384963,"longitude":-121.942983,"id":"afqf13tv0c7e","address":"3393 DE LACRUZ BLVD ."},"type":"Feature","geometry":{"type":"Point","coordinates":[-121.942983,37.384963]}},{"properties":{"company":"ELECTRICAL POWER PRODUCTS INC.","zip":"95050","latitude":37.364636,"longitude":-121.942788,"id":"afqf13u7dc00","address":"436 ROBERT AVE."},"type":"Feature","geometry":{"type":"Point","coordinates":[-121.942788,37.364636]}},{"properties":{"company":"GOLDEN TECHNOLOGY INC.","zip":"95050","latitude":37.387412,"longitude":-121.942534,"id":"afqf13v64xzt","address":"3475 EDWARD AVE."},"type":"Feature","geometry":{"type":"Point","coordinates":[-121.942534,37.387412]}},{"properties":{"company":"DATA MAGNETICS CORP.","zip":"95050","latitude":37.382196,"longitude":-121.940968,"id":"afqf143ck1j0","address":"445 LAUREL WOOD RD ."},"type":"Feature","geometry":{"type":"Point","coordinates":[-121.940968,37.382196]}},{"properties":{"company":"SELANAR CORP.","zip":"95050","latitude":37.386933,"longitude":-121.940928,"id":"afqf13ym70ou","address":"437 ALDO AVE."},"type":"Feature","geometry":{"type":"Point","coordinates":[-121.940928,37.386933]}},{"properties":{"company":"OPTICAL ASSOCIATES INC.","zip":"95050","latitude":37.384615,"longitude":-121.940891,"id":"afqf13yj6lkv","address":"3300 EDWARD AVE."},"type":"Feature","geometry":{"type":"Point","coordinates":[-121.940891,37.384615]}},{"properties":{"company":"L.J. ENGINEERING","zip":"95050","latitude":37.387005,"longitude":-121.940704,"id":"afqf14123cz5","address":"440 ALDO AVE ."},"type":"Feature","geometry":{"type":"Point","coordinates":[-121.940704,37.387005]}},{"properties":{"company":"KINETIC SYSTEMS INC.","zip":"95050","latitude":37.387138,"longitude":-121.940388,"id":"afqf13xmw8h9","address":"430 ALDO AVE."},"type":"Feature","geometry":{"type":"Point","coordinates":[-121.940388,37.387138]}},{"properties":{"company":"SPECTRA PHYSICS INC.","zip":"95131","latitude":37.402259,"longitude":-121.939845,"id":"afqf143i3ghd","address":"3333 N. 1ST ST."},"type":"Feature","geometry":{"type":"Point","coordinates":[-121.939845,37.402259]}},{"properties":{"company":"SIMCO ELECTRONICS","zip":"95050","latitude":37.365053,"longitude":-121.939677,"id":"afqf142guo58","address":"382 MARTIN AVE."},"type":"Feature","geometry":{"type":"Point","coordinates":[-121.939677,37.365053]}},{"properties":{"company":"ROSS ENGINEERING CORP.","zip":"95008","latitude":37.279,"longitude":-121.939505,"id":"afqf13ye9rhg","address":"559 WESTCHESTER DR."},"type":"Feature","geometry":{"type":"Point","coordinates":[-121.939505,37.279]}},{"properties":{"company":"SIGMA CIRCUITS INC.","zip":"95050","latitude":37.362222,"longitude":-121.939369,"id":"afqf13xrsxy4","address":"393 MATHEW ST."},"type":"Feature","geometry":{"type":"Point","coordinates":[-121.939369,37.362222]}},{"properties":{"company":"ENGINEERED COMMUNICATIONS","zip":"95050","latitude":37.385863,"longitude":-121.939201,"id":"afqf13tj8l7e","address":"3350 VICTOR CT ."},"type":"Feature","geometry":{"type":"Point","coordinates":[-121.939201,37.385863]}},{"properties":{"company":"PEBCO INC.","zip":"95050","latitude":37.382903,"longitude":-121.939075,"id":"afqf142yibx5","address":"386 LAURELWOOD RD."},"type":"Feature","geometry":{"type":"Point","coordinates":[-121.939075,37.382903]}},{"properties":{"company":"FILTRONIC LABS","zip":"95050","latitude":37.361351,"longitude":-121.938916,"id":"afqf13v10rae","address":"336 MATHEW ST."},"type":"Feature","geometry":{"type":"Point","coordinates":[-121.938916,37.361351]}},{"properties":{"company":"ADVANCED CIRCUIT TECH.","zip":"95050","latitude":37.361401,"longitude":-121.938908,"id":"afqf143h3990","address":"339 MATHEW ST."},"type":"Feature","geometry":{"type":"Point","coordinates":[-121.938908,37.361401]}},{"properties":{"company":"APPLIED LASER SYSTEMS","zip":"95050","latitude":37.385975,"longitude":-121.93886,"id":"afqf144ixv5f","address":"3330 VICTOR CT."},"type":"Feature","geometry":{"type":"Point","coordinates":[-121.93886,37.385975]}},{"properties":{"company":"APPLIED PROCESS TECH.","zip":"95050","latitude":37.386109,"longitude":-121.938518,"id":"afqf144g9zuq","address":"3310 VICTOR CT."},"type":"Feature","geometry":{"type":"Point","coordinates":[-121.938518,37.386109]}},{"properties":{"company":"QUANTEL INTERNATIONAL","zip":"95050","latitude":37.360976,"longitude":-121.938251,"id":"afqf13z0brxd","address":"385 REED ST."},"type":"Feature","geometry":{"type":"Point","coordinates":[-121.938251,37.360976]}},{"properties":{"company":"TRACONEX INC.","zip":"95050","latitude":37.362834,"longitude":-121.937714,"id":"afqf13wqor8f","address":"336 MARTIN AVE."},"type":"Feature","geometry":{"type":"Point","coordinates":[-121.937714,37.362834]}},{"properties":{"company":"LOMAC CORP.","zip":"95134","latitude":37.395109,"longitude":-121.937692,"id":"afqf13zpkwz4","address":"3052 ORCHARD DR."},"type":"Feature","geometry":{"type":"Point","coordinates":[-121.937692,37.395109]}},{"properties":{"company":"PRECISION QUARTZ INC.","zip":"95050","latitude":37.383732,"longitude":-121.937197,"id":"afqf13t9c6ip","address":"305 LAURELWOOD RD."},"type":"Feature","geometry":{"type":"Point","coordinates":[-121.937197,37.383732]}},{"properties":{"company":"MAGNUSON COMPUTER SYS. CORP.","zip":"95134","latitude":37.389849,"longitude":-121.935963,"id":"afqf144f9v9s","address":"2902 ORCHARD PKWY."},"type":"Feature","geometry":{"type":"Point","coordinates":[-121.935963,37.389849]}},{"properties":{"company":"INFORMATION SYSTEMS DESIGN","zip":"95050","latitude":37.34357,"longitude":-121.935679,"id":"afqf13tr4kn9","address":"2500 MISSION COLLEGE BLV."},"type":"Feature","geometry":{"type":"Point","coordinates":[-121.935679,37.34357]}},{"properties":{"company":"K.L.A. INSTRUMENTS","zip":"95050","latitude":37.34357,"longitude":-121.935679,"id":"afqf13zycw79","address":"2051 MISSION COLLEGE BLV."},"type":"Feature","geometry":{"type":"Point","coordinates":[-121.935679,37.34357]}},{"properties":{"company":"FOXBORO/ ICT","zip":"95134","latitude":37.404512,"longitude":-121.934946,"id":"afqf13t1csth","address":"199 RIVER OAKS PKWY."},"type":"Feature","geometry":{"type":"Point","coordinates":[-121.934946,37.404512]}},{"properties":{"company":"SEQUENTIAL CIRCUITS","zip":"95131","latitude":37.395085,"longitude":-121.934628,"id":"afqf145320or","address":"3051 N. 1ST ST."},"type":"Feature","geometry":{"type":"Point","coordinates":[-121.934628,37.395085]}},{"properties":{"company":"INTECH INC .","zip":"95050","latitude":37.357771,"longitude":-121.93387,"id":"afqf13v82td0","address":"282 BROKAW ED."},"type":"Feature","geometry":{"type":"Point","coordinates":[-121.93387,37.357771]}},{"properties":{"company":"FLUKE AUTOMATED SYSTEMS","zip":"95134","latitude":37.404749,"longitude":-121.933159,"id":"afqf13xmy2yu","address":"211 RIVER OAKS PKWY."},"type":"Feature","geometry":{"type":"Point","coordinates":[-121.933159,37.404749]}},{"properties":{"company":"DURANGO SYSTEMS INC.","zip":"95131","latitude":37.392975,"longitude":-121.933094,"id":"afqf13zn07eu","address":"3003 N. 1ST ST."},"type":"Feature","geometry":{"type":"Point","coordinates":[-121.933094,37.392975]}},{"properties":{"company":"MARGAUX","zip":"95131","latitude":37.392939,"longitude":-121.932789,"id":"afqf13yxu5ou","address":"2890 N. 1ST ST."},"type":"Feature","geometry":{"type":"Point","coordinates":[-121.932789,37.392939]}},{"properties":{"company":"IMP","zip":"95131","latitude":37.392026,"longitude":-121.932129,"id":"afqf13xnjz8g","address":"2830 N. 1ST ST."},"type":"Feature","geometry":{"type":"Point","coordinates":[-121.932129,37.392026]}},{"properties":{"company":"ALPHACOM INC.","zip":"95008","latitude":37.280397,"longitude":-121.931766,"id":"afqf13vd3emk","address":"2323 S. BASCOM AVE."},"type":"Feature","geometry":{"type":"Point","coordinates":[-121.931766,37.280397]}},{"properties":{"company":"PRIAM","zip":"95134","latitude":37.399229,"longitude":-121.930883,"id":"afqf140tpss0","address":"20 W. MONTAGUE EXPWY."},"type":"Feature","geometry":{"type":"Point","coordinates":[-121.930883,37.399229]}},{"properties":{"company":"E.I.P. MICROWAVE","zip":"95131","latitude":37.389036,"longitude":-121.930176,"id":"afqf13sl7tzf","address":"2731 N. 1ST ST."},"type":"Feature","geometry":{"type":"Point","coordinates":[-121.930176,37.389036]}},{"properties":{"company":"GENERAL DISK CORP.","zip":"95131","latitude":37.388726,"longitude":-121.929942,"id":"afqf13t39d0e","address":"2719 N. 1ST ST."},"type":"Feature","geometry":{"type":"Point","coordinates":[-121.929942,37.388726]}},{"properties":{"company":"R.T. ASSEMBLERS","zip":"95131","latitude":37.388623,"longitude":-121.929864,"id":"afqf13tkpkip","address":"2715 N. 1ST ST."},"type":"Feature","geometry":{"type":"Point","coordinates":[-121.929864,37.388623]}},{"properties":{"company":"VISICORP","zip":"95134","latitude":37.395474,"longitude":-121.929821,"id":"afqf1439mdy2","address":"2895 ZANKER RD."},"type":"Feature","geometry":{"type":"Point","coordinates":[-121.929821,37.395474]}},{"properties":{"company":"MULTILAYERS INC.","zip":"95134","latitude":37.388933,"longitude":-121.928145,"id":"afqf13wsuggf","address":"62 BONAVENTURA DR."},"type":"Feature","geometry":{"type":"Point","coordinates":[-121.928145,37.388933]}},{"properties":{"company":"SAN JOSE CIRCUITS","zip":"95134","latitude":37.389183,"longitude":-121.927861,"id":"afqf13x39bg7","address":"86 BONAVENTURA DR."},"type":"Feature","geometry":{"type":"Point","coordinates":[-121.927861,37.389183]}},{"properties":{"company":"ONYX SYSTEMS","zip":"95134","latitude":37.386448,"longitude":-121.927005,"id":"afqf13ztje94","address":"25 TRIMBLE RD."},"type":"Feature","geometry":{"type":"Point","coordinates":[-121.927005,37.386448]}},{"properties":{"company":"AGILE","zip":"95134","latitude":37.386253,"longitude":-121.926988,"id":"afqf145pdf7p","address":"24 TRIMBLE RD."},"type":"Feature","geometry":{"type":"Point","coordinates":[-121.926988,37.386253]}},{"properties":{"company":"FINNIGAN CORP","zip":"95134","latitude":37.403625,"longitude":-121.925985,"id":"afqf143n9lwv","address":"355 RIVER OAKS PKWY."},"type":"Feature","geometry":{"type":"Point","coordinates":[-121.925985,37.403625]}},{"properties":{"company":"CORVUS SYSTEMS INC.","zip":"95134","latitude":37.38719,"longitude":-121.925748,"id":"afqf141oqlr8","address":"73 E. TRIMBLE RD."},"type":"Feature","geometry":{"type":"Point","coordinates":[-121.925748,37.38719]}},{"properties":{"company":"AYDIN MICROWAVE","zip":"95134","latitude":37.387201,"longitude":-121.925734,"id":"afqf142zvhjd","address":"75 E. TRIMBLE RD."},"type":"Feature","geometry":{"type":"Point","coordinates":[-121.925734,37.387201]}},{"properties":{"company":"AMTRONICS CORP.","zip":"95134","latitude":37.389124,"longitude":-121.925328,"id":"afqf13q9v8ee","address":"2681 ZANKER RD. #A"},"type":"Feature","geometry":{"type":"Point","coordinates":[-121.925328,37.389124]}},{"properties":{"company":"PANTRONIX","zip":"95134","latitude":37.397503,"longitude":-121.92367,"id":"afqf13t71t78","address":"695 RIVER OAKS PKWY."},"type":"Feature","geometry":{"type":"Point","coordinates":[-121.92367,37.397503]}},{"properties":{"company":"TOLERANT TRANSACTION SYSTEMS","zip":"95134","latitude":37.398136,"longitude":-121.922975,"id":"afqf13utx3pk","address":"681 RIVER OAKS PKWY."},"type":"Feature","geometry":{"type":"Point","coordinates":[-121.922975,37.398136]}},{"properties":{"company":"SONY BROADCAST TRAINING CTR.","zip":"95134","latitude":37.398178,"longitude":-121.922929,"id":"afqf13rni5sx","address":"677 RIVER OAKS PKWY."},"type":"Feature","geometry":{"type":"Point","coordinates":[-121.922929,37.398178]}},{"properties":{"company":"EATON SEMICONDUCTOR","zip":"95134","latitude":37.398409,"longitude":-121.922674,"id":"afqf13qobyms","address":"655 RIVER OAKS PKWY."},"type":"Feature","geometry":{"type":"Point","coordinates":[-121.922674,37.398409]}},{"properties":{"company":"STRUCTURAL MEASUREMENT SYSTEMS","zip":"95134","latitude":37.398598,"longitude":-121.922458,"id":"afqf13wpboy3","address":"645 RIVER OAKS PKWY."},"type":"Feature","geometry":{"type":"Point","coordinates":[-121.922458,37.398598]}},{"properties":{"company":"L.S.I. LOGIC CORP.","zip":"95035","latitude":37.405759,"longitude":-121.918055,"id":"afqf13tm1wdc","address":"1601 MCCARTHY BLVD."},"type":"Feature","geometry":{"type":"Point","coordinates":[-121.918055,37.405759]}},{"properties":{"company":"ADAPTEC","zip":"95035","latitude":37.405413,"longitude":-121.917561,"id":"afqf145usx9k","address":"1625 MCCARTHY BLVD."},"type":"Feature","geometry":{"type":"Point","coordinates":[-121.917561,37.405413]}},{"properties":{"company":"TRICAD INC.","zip":"95035","latitude":37.404938,"longitude":-121.916998,"id":"afqf143dwhwz","address":"1655 MCCARTHY BLVD."},"type":"Feature","geometry":{"type":"Point","coordinates":[-121.916998,37.404938]}},{"properties":{"company":"ROTATING MEMORY SYSTEMS","zip":"95035","latitude":37.403469,"longitude":-121.915761,"id":"afqf1445kkk9","address":"1701 MCCARTHY BLVD."},"type":"Feature","geometry":{"type":"Point","coordinates":[-121.915761,37.403469]}},{"properties":{"company":"QUANTUM CORP.","zip":"95035","latitude":37.401447,"longitude":-121.914518,"id":"afqf13sm3gvm","address":"1804 MCCARTHY BLVD."},"type":"Feature","geometry":{"type":"Point","coordinates":[-121.914518,37.401447]}},{"properties":{"company":"SYSTEMS INDUSTRIES","zip":"95035","latitude":37.401395,"longitude":-121.912514,"id":"afqf13xvp9q7","address":"1855 BARBER LANE"},"type":"Feature","geometry":{"type":"Point","coordinates":[-121.912514,37.401395]}}],"is_temporal":false,"author":{"url":"","metadata":"","contact_name":"","contact_address":"","source":"","contact_phone":""},"source":"","pagination":{"sort":null,"start":0,"total":653,"limit":1000000},"state":"complete","tags":"","published":"2014-08-16T23:18:24-04:00","id":377066}