{"type":"FeatureCollection","data_type":"Dataset","url_type":null,"permissions":[{"permissions":{"download":true,"view":true},"group_id":"everyone"}],"classification":null,"title":"Female Population 15-45","count":538,"stream_id":377458,"contributor":{"url":"http://geocommons.com/users/43503","name":"melissalantz"},"data_attributes":null,"calculation_params":null,"icon_link":null,"link":"http://geocommons.com/overlays/377458.json","extent":[-73.3801,41.2739,-69.9431,42.8431],"geometry_types":["point"],"unique_name":null,"name":"Female Population 15-45","feature_count":538,"description":"","next_feature":null,"is_raster":false,"short_classification":"Y","stats":{"total population 15 to 44 years old":{"max":14368,"variance":8149242.97679176,"mean":2520.09107806691,"stdev":2854.68789481298,"min":0,"median":1453}},"features":[{"properties":{"zipcode":"1001","geo_score":0.714,"total population 15 to 44 years old":2863,"id":"afs6cfvw4omj","geo_precision":"zip"},"type":"Feature","geometry":{"type":"Point","coordinates":[-72.788661,42.140549]}},{"properties":{"zipcode":"1002","geo_score":0.714,"total population 15 to 44 years old":8652,"id":"afs6cfzegphy","geo_precision":"zip"},"type":"Feature","geometry":{"type":"Point","coordinates":[-72.470364,42.377868]}},{"properties":{"zipcode":"1003","geo_score":0.714,"total population 15 to 44 years old":5042,"id":"afs6cfydu5ig","geo_precision":"zip"},"type":"Feature","geometry":{"type":"Point","coordinates":[-72.63599,42.369562]}},{"properties":{"zipcode":"1005","geo_score":0.714,"total population 15 to 44 years old":925,"id":"afs6cfvghtjv","geo_precision":"zip"},"type":"Feature","geometry":{"type":"Point","coordinates":[-72.139465,42.32916]}},{"properties":{"zipcode":"1007","geo_score":0.714,"total population 15 to 44 years old":2713,"id":"afs6cfv4489b","geo_precision":"zip"},"type":"Feature","geometry":{"type":"Point","coordinates":[-72.402056,42.280267]}},{"properties":{"zipcode":"1008","geo_score":0.714,"total population 15 to 44 years old":199,"id":"afs6cfvckkgc","geo_precision":"zip"},"type":"Feature","geometry":{"type":"Point","coordinates":[-72.981491,42.210368]}},{"properties":{"zipcode":"1009","geo_score":0.714,"total population 15 to 44 years old":148,"id":"afs6cfu3k578","geo_precision":"zip"},"type":"Feature","geometry":{"type":"Point","coordinates":[-72.340486,42.206092]}},{"properties":{"zipcode":"1010","geo_score":0.714,"total population 15 to 44 years old":611,"id":"afs6cfuho701","geo_precision":"zip"},"type":"Feature","geometry":{"type":"Point","coordinates":[-72.148411,42.111206]}},{"properties":{"zipcode":"1011","geo_score":0.714,"total population 15 to 44 years old":205,"id":"afs6cfsafe6a","geo_precision":"zip"},"type":"Feature","geometry":{"type":"Point","coordinates":[-73.063436,42.283421]}},{"properties":{"zipcode":"1012","geo_score":0.714,"total population 15 to 44 years old":97,"id":"afs6cg14kfcd","geo_precision":"zip"},"type":"Feature","geometry":{"type":"Point","coordinates":[-72.825607,42.392274]}},{"properties":{"zipcode":"1013","geo_score":0.714,"total population 15 to 44 years old":5119,"id":"afs6cfw3yix9","geo_precision":"zip"},"type":"Feature","geometry":{"type":"Point","coordinates":[-72.667341,42.161492]}},{"properties":{"zipcode":"1020","geo_score":0.714,"total population 15 to 44 years old":5542,"id":"afs6cfqr2zor","geo_precision":"zip"},"type":"Feature","geometry":{"type":"Point","coordinates":[-72.562563,42.177492]}},{"properties":{"zipcode":"1022","geo_score":0.714,"total population 15 to 44 years old":524,"id":"afs6cfqd7omk","geo_precision":"zip"},"type":"Feature","geometry":{"type":"Point","coordinates":[-72.55436,42.193392]}},{"properties":{"zipcode":"1026","geo_score":0.714,"total population 15 to 44 years old":148,"id":"afs6cfx20rdy","geo_precision":"zip"},"type":"Feature","geometry":{"type":"Point","coordinates":[-72.857873,42.447309]}},{"properties":{"zipcode":"1027","geo_score":0.714,"total population 15 to 44 years old":3400,"id":"afs6cfpak4is","geo_precision":"zip"},"type":"Feature","geometry":{"type":"Point","coordinates":[-72.737593,42.287589]}},{"properties":{"zipcode":"1028","geo_score":0.714,"total population 15 to 44 years old":2547,"id":"afs6cfv7erl2","geo_precision":"zip"},"type":"Feature","geometry":{"type":"Point","coordinates":[-72.470363,42.047318]}},{"properties":{"zipcode":"1029","geo_score":0.714,"total population 15 to 44 years old":112,"id":"afs6cfzgv0jd","geo_precision":"zip"},"type":"Feature","geometry":{"type":"Point","coordinates":[-73.051661,42.190904]}},{"properties":{"zipcode":"1030","geo_score":0.714,"total population 15 to 44 years old":2042,"id":"afs6cft7uos1","geo_precision":"zip"},"type":"Feature","geometry":{"type":"Point","coordinates":[-72.79774,42.189335]}},{"properties":{"zipcode":"1031","geo_score":0.714,"total population 15 to 44 years old":258,"id":"afs6cfxkchbq","geo_precision":"zip"},"type":"Feature","geometry":{"type":"Point","coordinates":[-72.205724,42.352554]}},{"properties":{"zipcode":"1032","geo_score":0.714,"total population 15 to 44 years old":84,"id":"afs6cg1p22qg","geo_precision":"zip"},"type":"Feature","geometry":{"type":"Point","coordinates":[-72.819446,42.443837]}},{"properties":{"zipcode":"1033","geo_score":0.714,"total population 15 to 44 years old":1133,"id":"afs6cfzra942","geo_precision":"zip"},"type":"Feature","geometry":{"type":"Point","coordinates":[-72.504086,42.262285]}},{"properties":{"zipcode":"1034","geo_score":0.714,"total population 15 to 44 years old":326,"id":"afs6cg4gj13j","geo_precision":"zip"},"type":"Feature","geometry":{"type":"Point","coordinates":[-72.87871,42.067316]}},{"properties":{"zipcode":"1035","geo_score":0.714,"total population 15 to 44 years old":872,"id":"afs6cfuxi3px","geo_precision":"zip"},"type":"Feature","geometry":{"type":"Point","coordinates":[-72.576613,42.356804]}},{"properties":{"zipcode":"1036","geo_score":0.714,"total population 15 to 44 years old":750,"id":"afs6cfs2ju4t","geo_precision":"zip"},"type":"Feature","geometry":{"type":"Point","coordinates":[-72.417507,42.067614]}},{"properties":{"zipcode":"1037","geo_score":0.714,"total population 15 to 44 years old":186,"id":"afs6cftroqvu","geo_precision":"zip"},"type":"Feature","geometry":{"type":"Point","coordinates":[-72.225251,42.347856]}},{"properties":{"zipcode":"1038","geo_score":0.714,"total population 15 to 44 years old":402,"id":"afs6cfr53uaz","geo_precision":"zip"},"type":"Feature","geometry":{"type":"Point","coordinates":[-72.591756,42.410644]}},{"properties":{"zipcode":"1039","geo_score":0.714,"total population 15 to 44 years old":208,"id":"afs6cfxc3gz3","geo_precision":"zip"},"type":"Feature","geometry":{"type":"Point","coordinates":[-72.680925,42.271757]}},{"properties":{"zipcode":"1040","geo_score":0.714,"total population 15 to 44 years old":8555,"id":"afs6cfp93v7h","geo_precision":"zip"},"type":"Feature","geometry":{"type":"Point","coordinates":[-72.620368,42.222314]}},{"properties":{"zipcode":"1050","geo_score":0.714,"total population 15 to 44 years old":460,"id":"afs6cfrv2wrt","geo_precision":"zip"},"type":"Feature","geometry":{"type":"Point","coordinates":[-72.873153,42.262589]}},{"properties":{"zipcode":"1053","geo_score":0.714,"total population 15 to 44 years old":199,"id":"afs6cfrr3wd0","geo_precision":"zip"},"type":"Feature","geometry":{"type":"Point","coordinates":[-72.704385,42.353838]}},{"properties":{"zipcode":"1054","geo_score":0.714,"total population 15 to 44 years old":270,"id":"afs6cfpp9v48","geo_precision":"zip"},"type":"Feature","geometry":{"type":"Point","coordinates":[-72.480087,42.439811]}},{"properties":{"zipcode":"1056","geo_score":0.714,"total population 15 to 44 years old":3433,"id":"afs6cg4m8e4w","geo_precision":"zip"},"type":"Feature","geometry":{"type":"Point","coordinates":[-72.627038,42.173276]}},{"properties":{"zipcode":"1057","geo_score":0.714,"total population 15 to 44 years old":1493,"id":"afs6cfq404y7","geo_precision":"zip"},"type":"Feature","geometry":{"type":"Point","coordinates":[-72.310636,42.091761]}},{"properties":{"zipcode":"1060","geo_score":0.714,"total population 15 to 44 years old":4959,"id":"afs6cg1qcmms","geo_precision":"zip"},"type":"Feature","geometry":{"type":"Point","coordinates":[-72.663424,42.322312]}},{"properties":{"zipcode":"1062","geo_score":0.714,"total population 15 to 44 years old":1888,"id":"afs6cfru4kw3","geo_precision":"zip"},"type":"Feature","geometry":{"type":"Point","coordinates":[-72.845227,42.328838]}},{"properties":{"zipcode":"1063","geo_score":0.714,"total population 15 to 44 years old":425,"id":"afs6cftnem2m","geo_precision":"zip"},"type":"Feature","geometry":{"type":"Point","coordinates":[-72.640234,42.317939]}},{"properties":{"zipcode":"1066","geo_score":0.714,"total population 15 to 44 years old":10,"id":"afs6cfrf9tms","geo_precision":"zip"},"type":"Feature","geometry":{"type":"Point","coordinates":[-72.633901,42.406697]}},{"properties":{"zipcode":"1068","geo_score":0.714,"total population 15 to 44 years old":334,"id":"afs6cg5945ue","geo_precision":"zip"},"type":"Feature","geometry":{"type":"Point","coordinates":[-72.058847,42.346144]}},{"properties":{"zipcode":"1069","geo_score":0.714,"total population 15 to 44 years old":1502,"id":"afs6cg163a69","geo_precision":"zip"},"type":"Feature","geometry":{"type":"Point","coordinates":[-72.260635,42.175649]}},{"properties":{"zipcode":"1070","geo_score":0.714,"total population 15 to 44 years old":89,"id":"afs6cfw54mk0","geo_precision":"zip"},"type":"Feature","geometry":{"type":"Point","coordinates":[-72.958397,42.448984]}},{"properties":{"zipcode":"1071","geo_score":0.714,"total population 15 to 44 years old":270,"id":"afs6cfrybugl","geo_precision":"zip"},"type":"Feature","geometry":{"type":"Point","coordinates":[-72.864558,42.177432]}},{"properties":{"zipcode":"1072","geo_score":0.714,"total population 15 to 44 years old":233,"id":"afs6cfxhxr5g","geo_precision":"zip"},"type":"Feature","geometry":{"type":"Point","coordinates":[-72.44017,42.471562]}},{"properties":{"zipcode":"1073","geo_score":0.714,"total population 15 to 44 years old":1000,"id":"afs6cg554bt2","geo_precision":"zip"},"type":"Feature","geometry":{"type":"Point","coordinates":[-72.728463,42.230008]}},{"properties":{"zipcode":"1074","geo_score":0.714,"total population 15 to 44 years old":72,"id":"afs6cfzjm9by","geo_precision":"zip"},"type":"Feature","geometry":{"type":"Point","coordinates":[-72.149388,42.375998]}},{"properties":{"zipcode":"1075","geo_score":0.714,"total population 15 to 44 years old":4794,"id":"afs6cfrw5gti","geo_precision":"zip"},"type":"Feature","geometry":{"type":"Point","coordinates":[-72.558699,42.280647]}},{"properties":{"zipcode":"1077","geo_score":0.714,"total population 15 to 44 years old":1602,"id":"afs6cfsqqch3","geo_precision":"zip"},"type":"Feature","geometry":{"type":"Point","coordinates":[-72.785651,42.025651]}},{"properties":{"zipcode":"1079","geo_score":0.714,"total population 15 to 44 years old":130,"id":"afs6cfy58opv","geo_precision":"zip"},"type":"Feature","geometry":{"type":"Point","coordinates":[-72.329574,42.192892]}},{"properties":{"zipcode":"1080","geo_score":0.714,"total population 15 to 44 years old":472,"id":"afs6cg4hyr93","geo_precision":"zip"},"type":"Feature","geometry":{"type":"Point","coordinates":[-72.517813,42.179805]}},{"properties":{"zipcode":"1081","geo_score":0.714,"total population 15 to 44 years old":282,"id":"afs6cfpn7l7m","geo_precision":"zip"},"type":"Feature","geometry":{"type":"Point","coordinates":[-72.213598,42.061948]}},{"properties":{"zipcode":"1082","geo_score":0.714,"total population 15 to 44 years old":1887,"id":"afs6cfvxufkt","geo_precision":"zip"},"type":"Feature","geometry":{"type":"Point","coordinates":[-72.548549,42.377471]}},{"properties":{"zipcode":"1083","geo_score":0.714,"total population 15 to 44 years old":554,"id":"afs6cfsjq662","geo_precision":"zip"},"type":"Feature","geometry":{"type":"Point","coordinates":[-72.199439,42.204027]}},{"properties":{"zipcode":"1084","geo_score":0.714,"total population 15 to 44 years old":22,"id":"afs6cg03bitn","geo_precision":"zip"},"type":"Feature","geometry":{"type":"Point","coordinates":[-72.870857,42.390303]}},{"properties":{"zipcode":"1085","geo_score":0.714,"total population 15 to 44 years old":8293,"id":"afs6cfvm98om","geo_precision":"zip"},"type":"Feature","geometry":{"type":"Point","coordinates":[-72.501887,42.14869]}},{"properties":{"zipcode":"1086","geo_score":0.714,"total population 15 to 44 years old":349,"id":"afs6cfsnjx1v","geo_precision":"zip"},"type":"Feature","geometry":{"type":"Point","coordinates":[-72.847964,42.173428]}},{"properties":{"zipcode":"1088","geo_score":0.714,"total population 15 to 44 years old":97,"id":"afs6cfs6c3ql","geo_precision":"zip"},"type":"Feature","geometry":{"type":"Point","coordinates":[-72.646894,42.390583]}},{"properties":{"zipcode":"1089","geo_score":0.714,"total population 15 to 44 years old":5519,"id":"afs6cfxlz9n6","geo_precision":"zip"},"type":"Feature","geometry":{"type":"Point","coordinates":[-72.624534,42.11676]}},{"properties":{"zipcode":"1092","geo_score":0.714,"total population 15 to 44 years old":295,"id":"afs6cfxlxvyu","geo_precision":"zip"},"type":"Feature","geometry":{"type":"Point","coordinates":[-72.229025,42.202887]}},{"properties":{"zipcode":"1093","geo_score":0.714,"total population 15 to 44 years old":44,"id":"afs6cg2gcjhi","geo_precision":"zip"},"type":"Feature","geometry":{"type":"Point","coordinates":[-72.652511,42.442673]}},{"properties":{"zipcode":"1094","geo_score":0.714,"total population 15 to 44 years old":60,"id":"afs6cfuwl48n","geo_precision":"zip"},"type":"Feature","geometry":{"type":"Point","coordinates":[-72.140846,42.358201]}},{"properties":{"zipcode":"1095","geo_score":0.714,"total population 15 to 44 years old":2202,"id":"afs6cg3268jm","geo_precision":"zip"},"type":"Feature","geometry":{"type":"Point","coordinates":[-72.489988,42.125974]}},{"properties":{"zipcode":"1096","geo_score":0.714,"total population 15 to 44 years old":359,"id":"afs6cg3bbxzw","geo_precision":"zip"},"type":"Feature","geometry":{"type":"Point","coordinates":[-72.74537,42.400921]}},{"properties":{"zipcode":"1097","geo_score":0.714,"total population 15 to 44 years old":29,"id":"afs6cg4fohnf","geo_precision":"zip"},"type":"Feature","geometry":{"type":"Point","coordinates":[-72.874543,42.159814]}},{"properties":{"zipcode":"1098","geo_score":0.714,"total population 15 to 44 years old":141,"id":"afs6cfscdr99","geo_precision":"zip"},"type":"Feature","geometry":{"type":"Point","coordinates":[-72.986488,42.423142]}},{"properties":{"zipcode":"1103","geo_score":0.714,"total population 15 to 44 years old":584,"id":"afs6cfucvi34","geo_precision":"zip"},"type":"Feature","geometry":{"type":"Point","coordinates":[-72.590783,42.103044]}},{"properties":{"zipcode":"1104","geo_score":0.714,"total population 15 to 44 years old":4851,"id":"afs6cg4c0pg4","geo_precision":"zip"},"type":"Feature","geometry":{"type":"Point","coordinates":[-72.567966,42.128605]}},{"properties":{"zipcode":"1105","geo_score":0.714,"total population 15 to 44 years old":2984,"id":"afs6cfqn4k1i","geo_precision":"zip"},"type":"Feature","geometry":{"type":"Point","coordinates":[-72.577732,42.099793]}},{"properties":{"zipcode":"1106","geo_score":0.714,"total population 15 to 44 years old":2547,"id":"afs6cfv4lrj5","geo_precision":"zip"},"type":"Feature","geometry":{"type":"Point","coordinates":[-72.567882,42.049194]}},{"properties":{"zipcode":"1107","geo_score":0.714,"total population 15 to 44 years old":2731,"id":"afs6cg33mup2","geo_precision":"zip"},"type":"Feature","geometry":{"type":"Point","coordinates":[-72.586733,42.126237]}},{"properties":{"zipcode":"1108","geo_score":0.714,"total population 15 to 44 years old":6205,"id":"afs6cfxlx0ga","geo_precision":"zip"},"type":"Feature","geometry":{"type":"Point","coordinates":[-72.558081,42.080594]}},{"properties":{"zipcode":"1109","geo_score":0.714,"total population 15 to 44 years old":7529,"id":"afs6cg14sakm","geo_precision":"zip"},"type":"Feature","geometry":{"type":"Point","coordinates":[-72.548981,42.119293]}},{"properties":{"zipcode":"1118","geo_score":0.714,"total population 15 to 44 years old":2847,"id":"afs6cg217okb","geo_precision":"zip"},"type":"Feature","geometry":{"type":"Point","coordinates":[-72.523227,42.093894]}},{"properties":{"zipcode":"1119","geo_score":0.714,"total population 15 to 44 years old":3290,"id":"afs6cfu8zjwk","geo_precision":"zip"},"type":"Feature","geometry":{"type":"Point","coordinates":[-72.526705,42.124943]}},{"properties":{"zipcode":"1128","geo_score":0.714,"total population 15 to 44 years old":450,"id":"afs6cfp0v3xr","geo_precision":"zip"},"type":"Feature","geometry":{"type":"Point","coordinates":[-72.487229,42.094616]}},{"properties":{"zipcode":"1129","geo_score":0.714,"total population 15 to 44 years old":1347,"id":"afs6cftmi5cj","geo_precision":"zip"},"type":"Feature","geometry":{"type":"Point","coordinates":[-72.489479,42.124485]}},{"properties":{"zipcode":"1151","geo_score":0.714,"total population 15 to 44 years old":2002,"id":"afs6cft1cp91","geo_precision":"zip"},"type":"Feature","geometry":{"type":"Point","coordinates":[-72.51278,42.150593]}},{"properties":{"zipcode":"1199","geo_score":0.714,"total population 15 to 44 years old":0,"id":"afs6cfrp87eq","geo_precision":"zip"},"type":"Feature","geometry":{"type":"Point","coordinates":[-72.604983,42.119943]}},{"properties":{"zipcode":"1201","geo_score":0.714,"total population 15 to 44 years old":8383,"id":"afs6cg2j9t2q","geo_precision":"zip"},"type":"Feature","geometry":{"type":"Point","coordinates":[-73.331219,42.39953]}},{"properties":{"zipcode":"1220","geo_score":0.714,"total population 15 to 44 years old":1523,"id":"afs6cg37k5tn","geo_precision":"zip"},"type":"Feature","geometry":{"type":"Point","coordinates":[-73.141492,42.593972]}},{"properties":{"zipcode":"1222","geo_score":0.714,"total population 15 to 44 years old":137,"id":"afs6cfy2akxw","geo_precision":"zip"},"type":"Feature","geometry":{"type":"Point","coordinates":[-73.318695,42.185969]}},{"properties":{"zipcode":"1223","geo_score":0.714,"total population 15 to 44 years old":354,"id":"afs6cg3wlq69","geo_precision":"zip"},"type":"Feature","geometry":{"type":"Point","coordinates":[-73.103468,42.3418]}},{"properties":{"zipcode":"1224","geo_score":0.714,"total population 15 to 44 years old":27,"id":"afs6cfwcpqmj","geo_precision":"zip"},"type":"Feature","geometry":{"type":"Point","coordinates":[-73.228483,42.3929]}},{"properties":{"zipcode":"1225","geo_score":0.714,"total population 15 to 44 years old":490,"id":"afs6cfub7jk8","geo_precision":"zip"},"type":"Feature","geometry":{"type":"Point","coordinates":[-73.185659,42.54175]}},{"properties":{"zipcode":"1226","geo_score":0.714,"total population 15 to 44 years old":1150,"id":"afs6cg43hpjv","geo_precision":"zip"},"type":"Feature","geometry":{"type":"Point","coordinates":[-73.187881,42.451752]}},{"properties":{"zipcode":"1229","geo_score":0.714,"total population 15 to 44 years old":7,"id":"afs6cg0eb698","geo_precision":"zip"},"type":"Feature","geometry":{"type":"Point","coordinates":[-73.343545,42.279292]}},{"properties":{"zipcode":"1230","geo_score":0.714,"total population 15 to 44 years old":1386,"id":"afs6cfp5qdvy","geo_precision":"zip"},"type":"Feature","geometry":{"type":"Point","coordinates":[-73.258443,42.159812]}},{"properties":{"zipcode":"1235","geo_score":0.714,"total population 15 to 44 years old":467,"id":"afs6cfv89120","geo_precision":"zip"},"type":"Feature","geometry":{"type":"Point","coordinates":[-73.22164,42.29237]}},{"properties":{"zipcode":"1236","geo_score":0.714,"total population 15 to 44 years old":240,"id":"afs6cftgrnd3","geo_precision":"zip"},"type":"Feature","geometry":{"type":"Point","coordinates":[-73.380111,42.265366]}},{"properties":{"zipcode":"1237","geo_score":0.714,"total population 15 to 44 years old":377,"id":"afs6cfyryyqx","geo_precision":"zip"},"type":"Feature","geometry":{"type":"Point","coordinates":[-73.22816,42.517306]}},{"properties":{"zipcode":"1238","geo_score":0.714,"total population 15 to 44 years old":1009,"id":"afs6cftf6smi","geo_precision":"zip"},"type":"Feature","geometry":{"type":"Point","coordinates":[-73.267465,42.369856]}},{"properties":{"zipcode":"1240","geo_score":0.714,"total population 15 to 44 years old":571,"id":"afs6cfxkat6e","geo_precision":"zip"},"type":"Feature","geometry":{"type":"Point","coordinates":[-73.219858,42.459202]}},{"properties":{"zipcode":"1242","geo_score":0.714,"total population 15 to 44 years old":89,"id":"afs6cg3vt6so","geo_precision":"zip"},"type":"Feature","geometry":{"type":"Point","coordinates":[-73.250891,42.338594]}},{"properties":{"zipcode":"1243","geo_score":0.714,"total population 15 to 44 years old":46,"id":"afs6cftzu1is","geo_precision":"zip"},"type":"Feature","geometry":{"type":"Point","coordinates":[-73.010448,42.356088]}},{"properties":{"zipcode":"1244","geo_score":0.714,"total population 15 to 44 years old":27,"id":"afs6cfrbmcle","geo_precision":"zip"},"type":"Feature","geometry":{"type":"Point","coordinates":[-73.253983,42.122827]}},{"properties":{"zipcode":"1245","geo_score":0.714,"total population 15 to 44 years old":124,"id":"afs6cfuf8i85","geo_precision":"zip"},"type":"Feature","geometry":{"type":"Point","coordinates":[-73.206498,42.18669]}},{"properties":{"zipcode":"1247","geo_score":0.714,"total population 15 to 44 years old":3324,"id":"afs6cftwzj82","geo_precision":"zip"},"type":"Feature","geometry":{"type":"Point","coordinates":[-73.151494,42.69647]}},{"properties":{"zipcode":"1253","geo_score":0.714,"total population 15 to 44 years old":122,"id":"afs6cfst9pix","geo_precision":"zip"},"type":"Feature","geometry":{"type":"Point","coordinates":[-73.07455,42.154257]}},{"properties":{"zipcode":"1254","geo_score":0.714,"total population 15 to 44 years old":116,"id":"afs6cg2s6ujt","geo_precision":"zip"},"type":"Feature","geometry":{"type":"Point","coordinates":[-73.238358,42.233105]}},{"properties":{"zipcode":"1255","geo_score":0.714,"total population 15 to 44 years old":123,"id":"afs6cftw3qcq","geo_precision":"zip"},"type":"Feature","geometry":{"type":"Point","coordinates":[-73.072607,42.079259]}},{"properties":{"zipcode":"1256","geo_score":0.714,"total population 15 to 44 years old":107,"id":"afs6cg1zzvw4","geo_precision":"zip"},"type":"Feature","geometry":{"type":"Point","coordinates":[-73.128528,42.367341]}},{"properties":{"zipcode":"1257","geo_score":0.714,"total population 15 to 44 years old":283,"id":"afs6cfqd1lyn","geo_precision":"zip"},"type":"Feature","geometry":{"type":"Point","coordinates":[-73.267694,42.314564]}},{"properties":{"zipcode":"1258","geo_score":0.714,"total population 15 to 44 years old":41,"id":"afs6cg0wpz9y","geo_precision":"zip"},"type":"Feature","geometry":{"type":"Point","coordinates":[-73.36089,42.128075]}},{"properties":{"zipcode":"1259","geo_score":0.714,"total population 15 to 44 years old":83,"id":"afs6cfzm8ush","geo_precision":"zip"},"type":"Feature","geometry":{"type":"Point","coordinates":[-73.278543,42.198712]}},{"properties":{"zipcode":"1260","geo_score":0.714,"total population 15 to 44 years old":33,"id":"afs6cfy3deuc","geo_precision":"zip"},"type":"Feature","geometry":{"type":"Point","coordinates":[-73.313274,42.286586]}},{"properties":{"zipcode":"1262","geo_score":0.714,"total population 15 to 44 years old":193,"id":"afs6cg3a6rxu","geo_precision":"zip"},"type":"Feature","geometry":{"type":"Point","coordinates":[-73.320386,42.325087]}},{"properties":{"zipcode":"1264","geo_score":0.714,"total population 15 to 44 years old":14,"id":"afs6cfxsnvkq","geo_precision":"zip"},"type":"Feature","geometry":{"type":"Point","coordinates":[-73.197865,42.220001]}},{"properties":{"zipcode":"1266","geo_score":0.714,"total population 15 to 44 years old":186,"id":"afs6cfpsyhnq","geo_precision":"zip"},"type":"Feature","geometry":{"type":"Point","coordinates":[-73.265354,42.360482]}},{"properties":{"zipcode":"1267","geo_score":0.714,"total population 15 to 44 years old":1831,"id":"afs6cg4f8mvc","geo_precision":"zip"},"type":"Feature","geometry":{"type":"Point","coordinates":[-73.197607,42.730914]}},{"properties":{"zipcode":"1270","geo_score":0.714,"total population 15 to 44 years old":107,"id":"afs6cfxc7atj","geo_precision":"zip"},"type":"Feature","geometry":{"type":"Point","coordinates":[-73.116127,42.443726]}},{"properties":{"zipcode":"1301","geo_score":0.714,"total population 15 to 44 years old":3295,"id":"afs6cfwxw3eq","geo_precision":"zip"},"type":"Feature","geometry":{"type":"Point","coordinates":[-72.581478,42.575086]}},{"properties":{"zipcode":"1330","geo_score":0.714,"total population 15 to 44 years old":215,"id":"afs6cfxu7vdv","geo_precision":"zip"},"type":"Feature","geometry":{"type":"Point","coordinates":[-72.776481,42.510641]}},{"properties":{"zipcode":"1331","geo_score":0.714,"total population 15 to 44 years old":2442,"id":"afs6cfu8dtev","geo_precision":"zip"},"type":"Feature","geometry":{"type":"Point","coordinates":[-72.22925,42.63342]}},{"properties":{"zipcode":"1337","geo_score":0.714,"total population 15 to 44 years old":387,"id":"afs6cfpzitv1","geo_precision":"zip"},"type":"Feature","geometry":{"type":"Point","coordinates":[-72.664814,42.701473]}},{"properties":{"zipcode":"1338","geo_score":0.714,"total population 15 to 44 years old":28,"id":"afs6cg1se9b4","geo_precision":"zip"},"type":"Feature","geometry":{"type":"Point","coordinates":[-72.769487,42.573832]}},{"properties":{"zipcode":"1339","geo_score":0.714,"total population 15 to 44 years old":223,"id":"afs6cg0683np","geo_precision":"zip"},"type":"Feature","geometry":{"type":"Point","coordinates":[-72.877873,42.564529]}},{"properties":{"zipcode":"1340","geo_score":0.714,"total population 15 to 44 years old":269,"id":"afs6cfruiunn","geo_precision":"zip"},"type":"Feature","geometry":{"type":"Point","coordinates":[-72.71537,42.672306]}},{"properties":{"zipcode":"1341","geo_score":0.714,"total population 15 to 44 years old":282,"id":"afs6cfypqh30","geo_precision":"zip"},"type":"Feature","geometry":{"type":"Point","coordinates":[-72.712035,42.506475]}},{"properties":{"zipcode":"1342","geo_score":0.714,"total population 15 to 44 years old":233,"id":"afs6cfqps7pp","geo_precision":"zip"},"type":"Feature","geometry":{"type":"Point","coordinates":[-72.607867,42.525087]}},{"properties":{"zipcode":"1343","geo_score":0.714,"total population 15 to 44 years old":12,"id":"afs6cfu6rmqd","geo_precision":"zip"},"type":"Feature","geometry":{"type":"Point","coordinates":[-72.986231,42.642666]}},{"properties":{"zipcode":"1344","geo_score":0.714,"total population 15 to 44 years old":264,"id":"afs6cg4a94nn","geo_precision":"zip"},"type":"Feature","geometry":{"type":"Point","coordinates":[-72.382864,42.59592]}},{"properties":{"zipcode":"1346","geo_score":0.714,"total population 15 to 44 years old":76,"id":"afs6cfzck2l4","geo_precision":"zip"},"type":"Feature","geometry":{"type":"Point","coordinates":[-72.788896,42.618011]}},{"properties":{"zipcode":"1347","geo_score":0.714,"total population 15 to 44 years old":29,"id":"afs6cfxxa8b5","geo_precision":"zip"},"type":"Feature","geometry":{"type":"Point","coordinates":[-72.518104,42.556558]}},{"properties":{"zipcode":"1349","geo_score":0.714,"total population 15 to 44 years old":224,"id":"afs6cfz5fikt","geo_precision":"zip"},"type":"Feature","geometry":{"type":"Point","coordinates":[-72.705633,42.621412]}},{"properties":{"zipcode":"1350","geo_score":0.714,"total population 15 to 44 years old":22,"id":"afs6cg4bocjp","geo_precision":"zip"},"type":"Feature","geometry":{"type":"Point","coordinates":[-72.976204,42.721456]}},{"properties":{"zipcode":"1351","geo_score":0.714,"total population 15 to 44 years old":404,"id":"afs6cg27f2i1","geo_precision":"zip"},"type":"Feature","geometry":{"type":"Point","coordinates":[-72.48693,42.548107]}},{"properties":{"zipcode":"1354","geo_score":0.714,"total population 15 to 44 years old":232,"id":"afs6cfpdsx3d","geo_precision":"zip"},"type":"Feature","geometry":{"type":"Point","coordinates":[-72.485366,42.66814]}},{"properties":{"zipcode":"1355","geo_score":0.714,"total population 15 to 44 years old":131,"id":"afs6cfyx58ee","geo_precision":"zip"},"type":"Feature","geometry":{"type":"Point","coordinates":[-72.372585,42.463145]}},{"properties":{"zipcode":"1360","geo_score":0.714,"total population 15 to 44 years old":483,"id":"afs6cfqwcipn","geo_precision":"zip"},"type":"Feature","geometry":{"type":"Point","coordinates":[-72.438421,42.69314]}},{"properties":{"zipcode":"1364","geo_score":0.714,"total population 15 to 44 years old":1434,"id":"afs6cg1lp44m","geo_precision":"zip"},"type":"Feature","geometry":{"type":"Point","coordinates":[-72.318973,42.545921]}},{"properties":{"zipcode":"1366","geo_score":0.714,"total population 15 to 44 years old":176,"id":"afs6cfywtxgy","geo_precision":"zip"},"type":"Feature","geometry":{"type":"Point","coordinates":[-72.182962,42.459632]}},{"properties":{"zipcode":"1367","geo_score":0.714,"total population 15 to 44 years old":68,"id":"afs6cfri9v0v","geo_precision":"zip"},"type":"Feature","geometry":{"type":"Point","coordinates":[-72.715667,42.683065]}},{"properties":{"zipcode":"1368","geo_score":0.714,"total population 15 to 44 years old":200,"id":"afs6cg4lss3y","geo_precision":"zip"},"type":"Feature","geometry":{"type":"Point","coordinates":[-72.196376,42.672182]}},{"properties":{"zipcode":"1370","geo_score":0.714,"total population 15 to 44 years old":660,"id":"afs6cfup9ad8","geo_precision":"zip"},"type":"Feature","geometry":{"type":"Point","coordinates":[-72.688424,42.589807]}},{"properties":{"zipcode":"1373","geo_score":0.714,"total population 15 to 44 years old":754,"id":"afs6cftwabei","geo_precision":"zip"},"type":"Feature","geometry":{"type":"Point","coordinates":[-72.682346,42.464522]}},{"properties":{"zipcode":"1375","geo_score":0.714,"total population 15 to 44 years old":937,"id":"afs6cfwjenc4","geo_precision":"zip"},"type":"Feature","geometry":{"type":"Point","coordinates":[-72.70094,42.565346]}},{"properties":{"zipcode":"1376","geo_score":0.714,"total population 15 to 44 years old":995,"id":"afs6cg1p9ige","geo_precision":"zip"},"type":"Feature","geometry":{"type":"Point","coordinates":[-72.546755,42.611197]}},{"properties":{"zipcode":"1378","geo_score":0.714,"total population 15 to 44 years old":116,"id":"afs6cfzhaio7","geo_precision":"zip"},"type":"Feature","geometry":{"type":"Point","coordinates":[-72.339655,42.667059]}},{"properties":{"zipcode":"1379","geo_score":0.714,"total population 15 to 44 years old":132,"id":"afs6cfvh7p66","geo_precision":"zip"},"type":"Feature","geometry":{"type":"Point","coordinates":[-72.437179,42.581007]}},{"properties":{"zipcode":"1420","geo_score":0.714,"total population 15 to 44 years old":8946,"id":"afs6cg0n249r","geo_precision":"zip"},"type":"Feature","geometry":{"type":"Point","coordinates":[-71.782851,42.564534]}},{"properties":{"zipcode":"1430","geo_score":0.714,"total population 15 to 44 years old":1111,"id":"afs6cfwf56hj","geo_precision":"zip"},"type":"Feature","geometry":{"type":"Point","coordinates":[-71.936744,42.660365]}},{"properties":{"zipcode":"1431","geo_score":0.714,"total population 15 to 44 years old":551,"id":"afs6cfr8so0i","geo_precision":"zip"},"type":"Feature","geometry":{"type":"Point","coordinates":[-71.824519,42.666755]}},{"properties":{"zipcode":"1432","geo_score":0.714,"total population 15 to 44 years old":1426,"id":"afs6cg2j9ma8","geo_precision":"zip"},"type":"Feature","geometry":{"type":"Point","coordinates":[-71.459405,42.446396]}},{"properties":{"zipcode":"1434","geo_score":0.0,"total population 15 to 44 years old":190,"id":"afs6cg0j5vlj","geo_precision":"unmatched"},"type":"Feature","geometry":null},{"properties":{"zipcode":"1436","geo_score":0.714,"total population 15 to 44 years old":611,"id":"afs6cfv4ryy4","geo_precision":"zip"},"type":"Feature","geometry":{"type":"Point","coordinates":[-72.050912,42.597866]}},{"properties":{"zipcode":"1438","geo_score":0.714,"total population 15 to 44 years old":100,"id":"afs6cfsmo9ke","geo_precision":"zip"},"type":"Feature","geometry":{"type":"Point","coordinates":[-72.029434,42.551681]}},{"properties":{"zipcode":"1440","geo_score":0.714,"total population 15 to 44 years old":3769,"id":"afs6cg1484wp","geo_precision":"zip"},"type":"Feature","geometry":{"type":"Point","coordinates":[-71.978688,42.558422]}},{"properties":{"zipcode":"1450","geo_score":0.714,"total population 15 to 44 years old":1723,"id":"afs6cfpyertf","geo_precision":"zip"},"type":"Feature","geometry":{"type":"Point","coordinates":[-71.459405,42.446396]}},{"properties":{"zipcode":"1451","geo_score":0.714,"total population 15 to 44 years old":623,"id":"afs6cg4svmfr","geo_precision":"zip"},"type":"Feature","geometry":{"type":"Point","coordinates":[-71.575864,42.500187]}},{"properties":{"zipcode":"1452","geo_score":0.714,"total population 15 to 44 years old":776,"id":"afs6cfrreogk","geo_precision":"zip"},"type":"Feature","geometry":{"type":"Point","coordinates":[-72.078967,42.47509]}},{"properties":{"zipcode":"1453","geo_score":0.714,"total population 15 to 44 years old":8075,"id":"afs6cfrpqp4g","geo_precision":"zip"},"type":"Feature","geometry":{"type":"Point","coordinates":[-71.837509,42.471316]}},{"properties":{"zipcode":"1460","geo_score":0.714,"total population 15 to 44 years old":1482,"id":"afs6cfym67h9","geo_precision":"zip"},"type":"Feature","geometry":{"type":"Point","coordinates":[-71.459405,42.446396]}},{"properties":{"zipcode":"1462","geo_score":0.714,"total population 15 to 44 years old":1702,"id":"afs6cg3t3qri","geo_precision":"zip"},"type":"Feature","geometry":{"type":"Point","coordinates":[-71.752266,42.583322]}},{"properties":{"zipcode":"1463","geo_score":0.714,"total population 15 to 44 years old":2054,"id":"afs6cftw59s4","geo_precision":"zip"},"type":"Feature","geometry":{"type":"Point","coordinates":[-71.59118,42.693145]}},{"properties":{"zipcode":"1464","geo_score":0.714,"total population 15 to 44 years old":1113,"id":"afs6cg3rayfj","geo_precision":"zip"},"type":"Feature","geometry":{"type":"Point","coordinates":[-71.650903,42.572313]}},{"properties":{"zipcode":"1467","geo_score":0.714,"total population 15 to 44 years old":40,"id":"afs6cfpa3sae","geo_precision":"zip"},"type":"Feature","geometry":{"type":"Point","coordinates":[-71.613078,42.487056]}},{"properties":{"zipcode":"1468","geo_score":0.714,"total population 15 to 44 years old":712,"id":"afs6cfxhemyp","geo_precision":"zip"},"type":"Feature","geometry":{"type":"Point","coordinates":[-72.072285,42.555059]}},{"properties":{"zipcode":"1469","geo_score":0.714,"total population 15 to 44 years old":1238,"id":"afs6cfrg1kho","geo_precision":"zip"},"type":"Feature","geometry":{"type":"Point","coordinates":[-71.459405,42.446396]}},{"properties":{"zipcode":"1473","geo_score":0.714,"total population 15 to 44 years old":1252,"id":"afs6cfybjehi","geo_precision":"zip"},"type":"Feature","geometry":{"type":"Point","coordinates":[-71.878686,42.529257]}},{"properties":{"zipcode":"1474","geo_score":0.714,"total population 15 to 44 years old":382,"id":"afs6cfz7jixx","geo_precision":"zip"},"type":"Feature","geometry":{"type":"Point","coordinates":[-71.459405,42.446396]}},{"properties":{"zipcode":"1475","geo_score":0.714,"total population 15 to 44 years old":2034,"id":"afs6cfstzdw2","geo_precision":"zip"},"type":"Feature","geometry":{"type":"Point","coordinates":[-72.06758,42.675086]}},{"properties":{"zipcode":"1501","geo_score":0.714,"total population 15 to 44 years old":2840,"id":"afs6cg2uye11","geo_precision":"zip"},"type":"Feature","geometry":{"type":"Point","coordinates":[-71.845905,42.21676]}},{"properties":{"zipcode":"1503","geo_score":0.714,"total population 15 to 44 years old":432,"id":"afs6cfwf8gbt","geo_precision":"zip"},"type":"Feature","geometry":{"type":"Point","coordinates":[-71.660624,42.388148]}},{"properties":{"zipcode":"1504","geo_score":0.714,"total population 15 to 44 years old":1818,"id":"afs6cg1ajc2h","geo_precision":"zip"},"type":"Feature","geometry":{"type":"Point","coordinates":[-71.799785,42.114078]}},{"properties":{"zipcode":"1505","geo_score":0.714,"total population 15 to 44 years old":752,"id":"afs6cg26oym1","geo_precision":"zip"},"type":"Feature","geometry":{"type":"Point","coordinates":[-71.757848,42.313982]}},{"properties":{"zipcode":"1506","geo_score":0.714,"total population 15 to 44 years old":586,"id":"afs6cfpuyspg","geo_precision":"zip"},"type":"Feature","geometry":{"type":"Point","coordinates":[-72.105011,42.19169]}},{"properties":{"zipcode":"1507","geo_score":0.714,"total population 15 to 44 years old":2469,"id":"afs6cfy3r360","geo_precision":"zip"},"type":"Feature","geometry":{"type":"Point","coordinates":[-71.932851,42.162039]}},{"properties":{"zipcode":"1510","geo_score":0.714,"total population 15 to 44 years old":2761,"id":"afs6cfqcvc0x","geo_precision":"zip"},"type":"Feature","geometry":{"type":"Point","coordinates":[-71.687523,42.413972]}},{"properties":{"zipcode":"1515","geo_score":0.714,"total population 15 to 44 years old":399,"id":"afs6cg4x41up","geo_precision":"zip"},"type":"Feature","geometry":{"type":"Point","coordinates":[-72.049907,42.205311]}},{"properties":{"zipcode":"1516","geo_score":0.714,"total population 15 to 44 years old":1685,"id":"afs6cfxiepb9","geo_precision":"zip"},"type":"Feature","geometry":{"type":"Point","coordinates":[-71.712013,42.100096]}},{"properties":{"zipcode":"1518","geo_score":0.714,"total population 15 to 44 years old":500,"id":"afs6cfro6tgb","geo_precision":"zip"},"type":"Feature","geometry":{"type":"Point","coordinates":[-72.114045,42.106405]}},{"properties":{"zipcode":"1519","geo_score":0.714,"total population 15 to 44 years old":1233,"id":"afs6cfr55oe7","geo_precision":"zip"},"type":"Feature","geometry":{"type":"Point","coordinates":[-71.682862,42.203944]}},{"properties":{"zipcode":"1520","geo_score":0.714,"total population 15 to 44 years old":2392,"id":"afs6cg068tjz","geo_precision":"zip"},"type":"Feature","geometry":{"type":"Point","coordinates":[-71.845316,42.336791]}},{"properties":{"zipcode":"1521","geo_score":0.714,"total population 15 to 44 years old":449,"id":"afs6cfrur2z7","geo_precision":"zip"},"type":"Feature","geometry":{"type":"Point","coordinates":[-72.163991,42.061063]}},{"properties":{"zipcode":"1522","geo_score":0.714,"total population 15 to 44 years old":609,"id":"afs6cg57bzw9","geo_precision":"zip"},"type":"Feature","geometry":{"type":"Point","coordinates":[-71.795442,42.264629]}},{"properties":{"zipcode":"1523","geo_score":0.714,"total population 15 to 44 years old":1121,"id":"afs6cg3g631y","geo_precision":"zip"},"type":"Feature","geometry":{"type":"Point","coordinates":[-71.91177,42.427188]}},{"properties":{"zipcode":"1524","geo_score":0.714,"total population 15 to 44 years old":1335,"id":"afs6cfptk49q","geo_precision":"zip"},"type":"Feature","geometry":{"type":"Point","coordinates":[-72.012379,42.238192]}},{"properties":{"zipcode":"1525","geo_score":0.714,"total population 15 to 44 years old":64,"id":"afs6cftz6w0j","geo_precision":"zip"},"type":"Feature","geometry":{"type":"Point","coordinates":[-71.896868,42.364807]}},{"properties":{"zipcode":"1527","geo_score":0.714,"total population 15 to 44 years old":2563,"id":"afs6cfwl59t8","geo_precision":"zip"},"type":"Feature","geometry":{"type":"Point","coordinates":[-71.762848,42.150095]}},{"properties":{"zipcode":"1529","geo_score":0.714,"total population 15 to 44 years old":684,"id":"afs6cfq7enkb","geo_precision":"zip"},"type":"Feature","geometry":{"type":"Point","coordinates":[-71.846943,42.124662]}},{"properties":{"zipcode":"1531","geo_score":0.714,"total population 15 to 44 years old":175,"id":"afs6cfzzv22i","geo_precision":"zip"},"type":"Feature","geometry":{"type":"Point","coordinates":[-72.128644,42.320938]}},{"properties":{"zipcode":"1532","geo_score":0.714,"total population 15 to 44 years old":2328,"id":"afs6cfw3zuc4","geo_precision":"zip"},"type":"Feature","geometry":{"type":"Point","coordinates":[-71.64282,42.322118]}},{"properties":{"zipcode":"1534","geo_score":0.714,"total population 15 to 44 years old":1062,"id":"afs6cfx7umsa","geo_precision":"zip"},"type":"Feature","geometry":{"type":"Point","coordinates":[-71.856807,42.207191]}},{"properties":{"zipcode":"1535","geo_score":0.714,"total population 15 to 44 years old":878,"id":"afs6cg2hdck7","geo_precision":"zip"},"type":"Feature","geometry":{"type":"Point","coordinates":[-72.089338,42.275382]}},{"properties":{"zipcode":"1536","geo_score":0.714,"total population 15 to 44 years old":1423,"id":"afs6cfwti57a","geo_precision":"zip"},"type":"Feature","geometry":{"type":"Point","coordinates":[-71.860402,42.407556]}},{"properties":{"zipcode":"1537","geo_score":0.714,"total population 15 to 44 years old":437,"id":"afs6cfzq1n7q","geo_precision":"zip"},"type":"Feature","geometry":{"type":"Point","coordinates":[-71.891052,42.166241]}},{"properties":{"zipcode":"1540","geo_score":0.714,"total population 15 to 44 years old":2176,"id":"afs6cfu0eoy3","geo_precision":"zip"},"type":"Feature","geometry":{"type":"Point","coordinates":[-71.855444,42.109223]}},{"properties":{"zipcode":"1541","geo_score":0.714,"total population 15 to 44 years old":500,"id":"afs6cfwcwf5m","geo_precision":"zip"},"type":"Feature","geometry":{"type":"Point","coordinates":[-71.880057,42.451926]}},{"properties":{"zipcode":"1542","geo_score":0.714,"total population 15 to 44 years old":439,"id":"afs6cfvienu2","geo_precision":"zip"},"type":"Feature","geometry":{"type":"Point","coordinates":[-71.916184,42.20426]}},{"properties":{"zipcode":"1543","geo_score":0.714,"total population 15 to 44 years old":1528,"id":"afs6cft9x5x3","geo_precision":"zip"},"type":"Feature","geometry":{"type":"Point","coordinates":[-71.955908,42.337591]}},{"properties":{"zipcode":"1545","geo_score":0.714,"total population 15 to 44 years old":6638,"id":"afs6cfx7gwo7","geo_precision":"zip"},"type":"Feature","geometry":{"type":"Point","coordinates":[-71.715313,42.286992]}},{"properties":{"zipcode":"1550","geo_score":0.714,"total population 15 to 44 years old":3437,"id":"afs6cg19vcq6","geo_precision":"zip"},"type":"Feature","geometry":{"type":"Point","coordinates":[-72.031155,42.129251]}},{"properties":{"zipcode":"1560","geo_score":0.714,"total population 15 to 44 years old":1033,"id":"afs6cfzteess","geo_precision":"zip"},"type":"Feature","geometry":{"type":"Point","coordinates":[-71.681912,42.176544]}},{"properties":{"zipcode":"1561","geo_score":0.714,"total population 15 to 44 years old":156,"id":"afs6cg4v94pm","geo_precision":"zip"},"type":"Feature","geometry":{"type":"Point","coordinates":[-71.686137,42.443539]}},{"properties":{"zipcode":"1562","geo_score":0.714,"total population 15 to 44 years old":2132,"id":"afs6cfrc8oa8","geo_precision":"zip"},"type":"Feature","geometry":{"type":"Point","coordinates":[-71.959519,42.256481]}},{"properties":{"zipcode":"1564","geo_score":0.714,"total population 15 to 44 years old":1250,"id":"afs6cfvqm88r","geo_precision":"zip"},"type":"Feature","geometry":{"type":"Point","coordinates":[-71.939375,42.366765]}},{"properties":{"zipcode":"1566","geo_score":0.714,"total population 15 to 44 years old":1154,"id":"afs6cg3iv85q","geo_precision":"zip"},"type":"Feature","geometry":{"type":"Point","coordinates":[-72.080996,42.10273]}},{"properties":{"zipcode":"1568","geo_score":0.714,"total population 15 to 44 years old":1307,"id":"afs6cfzr5qm2","geo_precision":"zip"},"type":"Feature","geometry":{"type":"Point","coordinates":[-71.603197,42.175591]}},{"properties":{"zipcode":"1569","geo_score":0.714,"total population 15 to 44 years old":2461,"id":"afs6cg268mti","geo_precision":"zip"},"type":"Feature","geometry":{"type":"Point","coordinates":[-71.614788,42.080653]}},{"properties":{"zipcode":"1570","geo_score":0.714,"total population 15 to 44 years old":3182,"id":"afs6cfu59x6o","geo_precision":"zip"},"type":"Feature","geometry":{"type":"Point","coordinates":[-71.83146,42.027319]}},{"properties":{"zipcode":"1571","geo_score":0.714,"total population 15 to 44 years old":2324,"id":"afs6cfx65px9","geo_precision":"zip"},"type":"Feature","geometry":{"type":"Point","coordinates":[-71.937037,42.059189]}},{"properties":{"zipcode":"1581","geo_score":0.714,"total population 15 to 44 years old":3429,"id":"afs6cfq0738d","geo_precision":"zip"},"type":"Feature","geometry":{"type":"Point","coordinates":[-71.845865,42.255222]}},{"properties":{"zipcode":"1583","geo_score":0.714,"total population 15 to 44 years old":1074,"id":"afs6cfsurksl","geo_precision":"zip"},"type":"Feature","geometry":{"type":"Point","coordinates":[-71.781215,42.362783]}},{"properties":{"zipcode":"1585","geo_score":0.714,"total population 15 to 44 years old":740,"id":"afs6cfuuq0ct","geo_precision":"zip"},"type":"Feature","geometry":{"type":"Point","coordinates":[-72.172523,42.235638]}},{"properties":{"zipcode":"1588","geo_score":0.714,"total population 15 to 44 years old":1928,"id":"afs6cg4ufxue","geo_precision":"zip"},"type":"Feature","geometry":{"type":"Point","coordinates":[-71.672568,42.134818]}},{"properties":{"zipcode":"1590","geo_score":0.714,"total population 15 to 44 years old":1580,"id":"afs6cg2axgr3","geo_precision":"zip"},"type":"Feature","geometry":{"type":"Point","coordinates":[-71.755193,42.126575]}},{"properties":{"zipcode":"1602","geo_score":0.714,"total population 15 to 44 years old":4920,"id":"afs6cg3hddth","geo_precision":"zip"},"type":"Feature","geometry":{"type":"Point","coordinates":[-71.846966,42.274595]}},{"properties":{"zipcode":"1603","geo_score":0.714,"total population 15 to 44 years old":4401,"id":"afs6cg0dpd2h","geo_precision":"zip"},"type":"Feature","geometry":{"type":"Point","coordinates":[-71.839257,42.245442]}},{"properties":{"zipcode":"1604","geo_score":0.714,"total population 15 to 44 years old":7726,"id":"afs6cfsz7vmv","geo_precision":"zip"},"type":"Feature","geometry":{"type":"Point","coordinates":[-71.76678,42.247955]}},{"properties":{"zipcode":"1605","geo_score":0.714,"total population 15 to 44 years old":6003,"id":"afs6cftraxzw","geo_precision":"zip"},"type":"Feature","geometry":{"type":"Point","coordinates":[-71.796128,42.288792]}},{"properties":{"zipcode":"1606","geo_score":0.714,"total population 15 to 44 years old":3883,"id":"afs6cfxgvr49","geo_precision":"zip"},"type":"Feature","geometry":{"type":"Point","coordinates":[-71.794465,42.311834]}},{"properties":{"zipcode":"1607","geo_score":0.714,"total population 15 to 44 years old":1949,"id":"afs6cfyeiaf5","geo_precision":"zip"},"type":"Feature","geometry":{"type":"Point","coordinates":[-71.792506,42.226452]}},{"properties":{"zipcode":"1608","geo_score":0.714,"total population 15 to 44 years old":943,"id":"afs6cfz8xr0w","geo_precision":"zip"},"type":"Feature","geometry":{"type":"Point","coordinates":[-71.925696,42.293501]}},{"properties":{"zipcode":"1609","geo_score":0.714,"total population 15 to 44 years old":5492,"id":"afs6cfsmj7uh","geo_precision":"zip"},"type":"Feature","geometry":{"type":"Point","coordinates":[-71.827685,42.282565]}},{"properties":{"zipcode":"1610","geo_score":0.714,"total population 15 to 44 years old":7263,"id":"afs6cg2oaw0s","geo_precision":"zip"},"type":"Feature","geometry":{"type":"Point","coordinates":[-71.808915,42.246483]}},{"properties":{"zipcode":"1611","geo_score":0.714,"total population 15 to 44 years old":475,"id":"afs6cg3irr3h","geo_precision":"zip"},"type":"Feature","geometry":{"type":"Point","coordinates":[-71.878716,42.239392]}},{"properties":{"zipcode":"1612","geo_score":0.714,"total population 15 to 44 years old":947,"id":"afs6cg257fvm","geo_precision":"zip"},"type":"Feature","geometry":{"type":"Point","coordinates":[-71.892875,42.304675]}},{"properties":{"zipcode":"1701","geo_score":0.714,"total population 15 to 44 years old":5444,"id":"afs6cfq1ql3i","geo_precision":"zip"},"type":"Feature","geometry":{"type":"Point","coordinates":[-71.437006,42.297318]}},{"properties":{"zipcode":"1702","geo_score":0.714,"total population 15 to 44 years old":9484,"id":"afs6cfwhj0ws","geo_precision":"zip"},"type":"Feature","geometry":{"type":"Point","coordinates":[-71.459405,42.446396]}},{"properties":{"zipcode":"1718","geo_score":0.714,"total population 15 to 44 years old":78,"id":"afs6cfxni810","geo_precision":"zip"},"type":"Feature","geometry":{"type":"Point","coordinates":[-71.459405,42.446396]}},{"properties":{"zipcode":"1719","geo_score":0.714,"total population 15 to 44 years old":782,"id":"afs6cfsqgnzo","geo_precision":"zip"},"type":"Feature","geometry":{"type":"Point","coordinates":[-71.459405,42.446396]}},{"properties":{"zipcode":"1720","geo_score":0.714,"total population 15 to 44 years old":3595,"id":"afs6cfr88vc0","geo_precision":"zip"},"type":"Feature","geometry":{"type":"Point","coordinates":[-71.409506,42.475093]}},{"properties":{"zipcode":"1721","geo_score":0.714,"total population 15 to 44 years old":3148,"id":"afs6cfymzm96","geo_precision":"zip"},"type":"Feature","geometry":{"type":"Point","coordinates":[-71.459405,42.446396]}},{"properties":{"zipcode":"1730","geo_score":0.714,"total population 15 to 44 years old":2040,"id":"afs6cg1t0jxu","geo_precision":"zip"},"type":"Feature","geometry":{"type":"Point","coordinates":[-71.280058,42.527871]}},{"properties":{"zipcode":"1731","geo_score":0.714,"total population 15 to 44 years old":371,"id":"afs6cfyastij","geo_precision":"zip"},"type":"Feature","geometry":{"type":"Point","coordinates":[-71.459405,42.446396]}},{"properties":{"zipcode":"1740","geo_score":0.714,"total population 15 to 44 years old":755,"id":"afs6cg0ijgja","geo_precision":"zip"},"type":"Feature","geometry":{"type":"Point","coordinates":[-71.605916,42.436043]}},{"properties":{"zipcode":"1741","geo_score":0.714,"total population 15 to 44 years old":648,"id":"afs6cfsw01hd","geo_precision":"zip"},"type":"Feature","geometry":{"type":"Point","coordinates":[-71.459405,42.446396]}},{"properties":{"zipcode":"1742","geo_score":0.714,"total population 15 to 44 years old":2118,"id":"afs6cfvpdbyw","geo_precision":"zip"},"type":"Feature","geometry":{"type":"Point","coordinates":[-71.459405,42.446396]}},{"properties":{"zipcode":"1745","geo_score":0.714,"total population 15 to 44 years old":74,"id":"afs6cftugn70","geo_precision":"zip"},"type":"Feature","geometry":{"type":"Point","coordinates":[-71.524509,42.30565]}},{"properties":{"zipcode":"1746","geo_score":0.714,"total population 15 to 44 years old":2134,"id":"afs6cg1t04y7","geo_precision":"zip"},"type":"Feature","geometry":{"type":"Point","coordinates":[-71.420338,42.212597]}},{"properties":{"zipcode":"1747","geo_score":0.714,"total population 15 to 44 years old":1067,"id":"afs6cg15vdsb","geo_precision":"zip"},"type":"Feature","geometry":{"type":"Point","coordinates":[-71.541175,42.120375]}},{"properties":{"zipcode":"1748","geo_score":0.714,"total population 15 to 44 years old":2566,"id":"afs6cfvn7nht","geo_precision":"zip"},"type":"Feature","geometry":{"type":"Point","coordinates":[-71.459405,42.446396]}},{"properties":{"zipcode":"1749","geo_score":0.714,"total population 15 to 44 years old":3504,"id":"afs6cfxmpsn2","geo_precision":"zip"},"type":"Feature","geometry":{"type":"Point","coordinates":[-71.459405,42.446396]}},{"properties":{"zipcode":"1752","geo_score":0.714,"total population 15 to 44 years old":7888,"id":"afs6cfwk9iul","geo_precision":"zip"},"type":"Feature","geometry":{"type":"Point","coordinates":[-71.459405,42.446396]}},{"properties":{"zipcode":"1754","geo_score":0.714,"total population 15 to 44 years old":1934,"id":"afs6cg56436r","geo_precision":"zip"},"type":"Feature","geometry":{"type":"Point","coordinates":[-71.459405,42.446396]}},{"properties":{"zipcode":"1756","geo_score":0.714,"total population 15 to 44 years old":974,"id":"afs6cfugnicr","geo_precision":"zip"},"type":"Feature","geometry":{"type":"Point","coordinates":[-71.546961,42.100352]}},{"properties":{"zipcode":"1757","geo_score":0.714,"total population 15 to 44 years old":5414,"id":"afs6cg23vteu","geo_precision":"zip"},"type":"Feature","geometry":{"type":"Point","coordinates":[-71.487284,42.152319]}},{"properties":{"zipcode":"1760","geo_score":0.714,"total population 15 to 44 years old":6085,"id":"afs6cg426z5d","geo_precision":"zip"},"type":"Feature","geometry":{"type":"Point","coordinates":[-71.324503,42.304263]}},{"properties":{"zipcode":"1770","geo_score":0.714,"total population 15 to 44 years old":541,"id":"afs6cfy6bkr0","geo_precision":"zip"},"type":"Feature","geometry":{"type":"Point","coordinates":[-71.459405,42.446396]}},{"properties":{"zipcode":"1772","geo_score":0.714,"total population 15 to 44 years old":1474,"id":"afs6cfradvkl","geo_precision":"zip"},"type":"Feature","geometry":{"type":"Point","coordinates":[-71.523953,42.268984]}},{"properties":{"zipcode":"1773","geo_score":0.714,"total population 15 to 44 years old":630,"id":"afs6cg3qx2no","geo_precision":"zip"},"type":"Feature","geometry":{"type":"Point","coordinates":[-71.325892,42.413984]}},{"properties":{"zipcode":"1775","geo_score":0.714,"total population 15 to 44 years old":1006,"id":"afs6cfq27xb2","geo_precision":"zip"},"type":"Feature","geometry":{"type":"Point","coordinates":[-71.484508,42.433427]}},{"properties":{"zipcode":"1776","geo_score":0.714,"total population 15 to 44 years old":2622,"id":"afs6cg2modlf","geo_precision":"zip"},"type":"Feature","geometry":{"type":"Point","coordinates":[-71.404506,42.409261]}},{"properties":{"zipcode":"1778","geo_score":0.714,"total population 15 to 44 years old":1887,"id":"afs6cfzw45fr","geo_precision":"zip"},"type":"Feature","geometry":{"type":"Point","coordinates":[-71.459405,42.446396]}},{"properties":{"zipcode":"1801","geo_score":0.714,"total population 15 to 44 years old":7740,"id":"afs6cfqu0pqc","geo_precision":"zip"},"type":"Feature","geometry":{"type":"Point","coordinates":[-71.157271,42.488595]}},{"properties":{"zipcode":"1803","geo_score":0.714,"total population 15 to 44 years old":4538,"id":"afs6cg38cysi","geo_precision":"zip"},"type":"Feature","geometry":{"type":"Point","coordinates":[-71.201539,42.504844]}},{"properties":{"zipcode":"1810","geo_score":0.714,"total population 15 to 44 years old":5681,"id":"afs6cfzmsysr","geo_precision":"zip"},"type":"Feature","geometry":{"type":"Point","coordinates":[-71.165685,42.647991]}},{"properties":{"zipcode":"1821","geo_score":0.714,"total population 15 to 44 years old":5944,"id":"afs6cfoy5250","geo_precision":"zip"},"type":"Feature","geometry":{"type":"Point","coordinates":[-71.237002,42.581482]}},{"properties":{"zipcode":"1824","geo_score":0.714,"total population 15 to 44 years old":4145,"id":"afs6cfw9lvkn","geo_precision":"zip"},"type":"Feature","geometry":{"type":"Point","coordinates":[-71.375895,42.570925]}},{"properties":{"zipcode":"1826","geo_score":0.714,"total population 15 to 44 years old":5782,"id":"afs6cfqv297x","geo_precision":"zip"},"type":"Feature","geometry":{"type":"Point","coordinates":[-71.352285,42.683424]}},{"properties":{"zipcode":"1827","geo_score":0.714,"total population 15 to 44 years old":508,"id":"afs6cg0rttf6","geo_precision":"zip"},"type":"Feature","geometry":{"type":"Point","coordinates":[-71.459405,42.446396]}},{"properties":{"zipcode":"1830","geo_score":0.714,"total population 15 to 44 years old":5031,"id":"afs6cfss1sze","geo_precision":"zip"},"type":"Feature","geometry":{"type":"Point","coordinates":[-71.049501,42.76398]}},{"properties":{"zipcode":"1832","geo_score":0.714,"total population 15 to 44 years old":4757,"id":"afs6cfstlqgs","geo_precision":"zip"},"type":"Feature","geometry":{"type":"Point","coordinates":[-71.126562,42.789627]}},{"properties":{"zipcode":"1833","geo_score":0.714,"total population 15 to 44 years old":1400,"id":"afs6cg06zwta","geo_precision":"zip"},"type":"Feature","geometry":{"type":"Point","coordinates":[-70.981298,42.72377]}},{"properties":{"zipcode":"1834","geo_score":0.714,"total population 15 to 44 years old":1069,"id":"afs6cg5e9heq","geo_precision":"zip"},"type":"Feature","geometry":{"type":"Point","coordinates":[-71.021437,42.751074]}},{"properties":{"zipcode":"1835","geo_score":0.714,"total population 15 to 44 years old":2911,"id":"afs6cfx9ljua","geo_precision":"zip"},"type":"Feature","geometry":{"type":"Point","coordinates":[-71.075891,42.769535]}},{"properties":{"zipcode":"1840","geo_score":0.714,"total population 15 to 44 years old":977,"id":"afs6cfs55xuc","geo_precision":"zip"},"type":"Feature","geometry":{"type":"Point","coordinates":[-71.161052,42.70734]}},{"properties":{"zipcode":"1841","geo_score":0.714,"total population 15 to 44 years old":11281,"id":"afs6cg3wz7ub","geo_precision":"zip"},"type":"Feature","geometry":{"type":"Point","coordinates":[-71.164402,42.70979]}},{"properties":{"zipcode":"1843","geo_score":0.714,"total population 15 to 44 years old":5833,"id":"afs6cg11uw6g","geo_precision":"zip"},"type":"Feature","geometry":{"type":"Point","coordinates":[-71.088303,42.71037]}},{"properties":{"zipcode":"1844","geo_score":0.714,"total population 15 to 44 years old":9452,"id":"afs6cfvjsg9o","geo_precision":"zip"},"type":"Feature","geometry":{"type":"Point","coordinates":[-71.186915,42.73184]}},{"properties":{"zipcode":"1845","geo_score":0.714,"total population 15 to 44 years old":5321,"id":"afs6cfq6w2ro","geo_precision":"zip"},"type":"Feature","geometry":{"type":"Point","coordinates":[-71.112001,42.683425]}},{"properties":{"zipcode":"1850","geo_score":0.714,"total population 15 to 44 years old":3496,"id":"afs6cfschmju","geo_precision":"zip"},"type":"Feature","geometry":{"type":"Point","coordinates":[-71.303671,42.627869]}},{"properties":{"zipcode":"1851","geo_score":0.714,"total population 15 to 44 years old":7042,"id":"afs6cg4giexz","geo_precision":"zip"},"type":"Feature","geometry":{"type":"Point","coordinates":[-71.337006,42.630647]}},{"properties":{"zipcode":"1852","geo_score":0.714,"total population 15 to 44 years old":7457,"id":"afs6cfrh14or","geo_precision":"zip"},"type":"Feature","geometry":{"type":"Point","coordinates":[-71.459405,42.446396]}},{"properties":{"zipcode":"1854","geo_score":0.714,"total population 15 to 44 years old":6425,"id":"afs6cfu5gh8h","geo_precision":"zip"},"type":"Feature","geometry":{"type":"Point","coordinates":[-71.459405,42.446396]}},{"properties":{"zipcode":"1860","geo_score":0.714,"total population 15 to 44 years old":1114,"id":"afs6cg1uyz3k","geo_precision":"zip"},"type":"Feature","geometry":{"type":"Point","coordinates":[-70.988389,42.827868]}},{"properties":{"zipcode":"1862","geo_score":0.714,"total population 15 to 44 years old":1736,"id":"afs6cfzmlz5o","geo_precision":"zip"},"type":"Feature","geometry":{"type":"Point","coordinates":[-71.305059,42.543149]}},{"properties":{"zipcode":"1863","geo_score":0.714,"total population 15 to 44 years old":1681,"id":"afs6cftct6po","geo_precision":"zip"},"type":"Feature","geometry":{"type":"Point","coordinates":[-71.399507,42.616758]}},{"properties":{"zipcode":"1864","geo_score":0.714,"total population 15 to 44 years old":2644,"id":"afs6cg4korx1","geo_precision":"zip"},"type":"Feature","geometry":{"type":"Point","coordinates":[-71.083725,42.581332]}},{"properties":{"zipcode":"1867","geo_score":0.714,"total population 15 to 44 years old":4091,"id":"afs6cfxy027u","geo_precision":"zip"},"type":"Feature","geometry":{"type":"Point","coordinates":[-71.111999,42.525095]}},{"properties":{"zipcode":"1876","geo_score":0.714,"total population 15 to 44 years old":5164,"id":"afs6cfvneby0","geo_precision":"zip"},"type":"Feature","geometry":{"type":"Point","coordinates":[-71.459405,42.446396]}},{"properties":{"zipcode":"1879","geo_score":0.714,"total population 15 to 44 years old":2190,"id":"afs6cfpr6q89","geo_precision":"zip"},"type":"Feature","geometry":{"type":"Point","coordinates":[-71.459405,42.446396]}},{"properties":{"zipcode":"1880","geo_score":0.714,"total population 15 to 44 years old":4637,"id":"afs6cfzd7c1j","geo_precision":"zip"},"type":"Feature","geometry":{"type":"Point","coordinates":[-71.07033,42.495929]}},{"properties":{"zipcode":"1886","geo_score":0.714,"total population 15 to 44 years old":3622,"id":"afs6cfum22xv","geo_precision":"zip"},"type":"Feature","geometry":{"type":"Point","coordinates":[-71.420341,42.612591]}},{"properties":{"zipcode":"1887","geo_score":0.714,"total population 15 to 44 years old":4069,"id":"afs6cfw9cvys","geo_precision":"zip"},"type":"Feature","geometry":{"type":"Point","coordinates":[-71.156445,42.569538]}},{"properties":{"zipcode":"1890","geo_score":0.714,"total population 15 to 44 years old":3342,"id":"afs6cfpgl5gh","geo_precision":"zip"},"type":"Feature","geometry":{"type":"Point","coordinates":[-71.148779,42.454545]}},{"properties":{"zipcode":"1901","geo_score":0.714,"total population 15 to 44 years old":304,"id":"afs6cfqi2ejj","geo_precision":"zip"},"type":"Feature","geometry":{"type":"Point","coordinates":[-70.946743,42.461246]}},{"properties":{"zipcode":"1902","geo_score":0.714,"total population 15 to 44 years old":10183,"id":"afs6cg2gyz7q","geo_precision":"zip"},"type":"Feature","geometry":{"type":"Point","coordinates":[-70.928593,42.473195]}},{"properties":{"zipcode":"1904","geo_score":0.714,"total population 15 to 44 years old":3472,"id":"afs6cfpdv3xv","geo_precision":"zip"},"type":"Feature","geometry":{"type":"Point","coordinates":[-70.927271,42.469541]}},{"properties":{"zipcode":"1905","geo_score":0.714,"total population 15 to 44 years old":5646,"id":"afs6cfujrpc4","geo_precision":"zip"},"type":"Feature","geometry":{"type":"Point","coordinates":[-70.981439,42.465374]}},{"properties":{"zipcode":"1906","geo_score":0.714,"total population 15 to 44 years old":4882,"id":"afs6cg22qp7c","geo_precision":"zip"},"type":"Feature","geometry":{"type":"Point","coordinates":[-71.03144,42.471763]}},{"properties":{"zipcode":"1907","geo_score":0.714,"total population 15 to 44 years old":2250,"id":"afs6cfvh6i45","geo_precision":"zip"},"type":"Feature","geometry":{"type":"Point","coordinates":[-70.905893,42.513295]}},{"properties":{"zipcode":"1908","geo_score":0.714,"total population 15 to 44 years old":463,"id":"afs6cg11taq5","geo_precision":"zip"},"type":"Feature","geometry":{"type":"Point","coordinates":[-70.922442,42.427296]}},{"properties":{"zipcode":"1913","geo_score":0.714,"total population 15 to 44 years old":3089,"id":"afs6cfytba2t","geo_precision":"zip"},"type":"Feature","geometry":{"type":"Point","coordinates":[-70.911999,42.841757]}},{"properties":{"zipcode":"1915","geo_score":0.714,"total population 15 to 44 years old":8388,"id":"afs6cfq8xigf","geo_precision":"zip"},"type":"Feature","geometry":{"type":"Point","coordinates":[-70.886994,42.58065]}},{"properties":{"zipcode":"1921","geo_score":0.714,"total population 15 to 44 years old":1165,"id":"afs6cg1tjq1q","geo_precision":"zip"},"type":"Feature","geometry":{"type":"Point","coordinates":[-70.980054,42.688981]}},{"properties":{"zipcode":"1922","geo_score":0.714,"total population 15 to 44 years old":512,"id":"afs6cg214ape","geo_precision":"zip"},"type":"Feature","geometry":{"type":"Point","coordinates":[-70.903664,42.748703]}},{"properties":{"zipcode":"1923","geo_score":0.714,"total population 15 to 44 years old":4730,"id":"afs6cg5au81r","geo_precision":"zip"},"type":"Feature","geometry":{"type":"Point","coordinates":[-70.948106,42.554262]}},{"properties":{"zipcode":"1929","geo_score":0.714,"total population 15 to 44 years old":585,"id":"afs6cfqc73ng","geo_precision":"zip"},"type":"Feature","geometry":{"type":"Point","coordinates":[-70.768936,42.629261]}},{"properties":{"zipcode":"1930","geo_score":0.714,"total population 15 to 44 years old":4671,"id":"afs6cfsftgta","geo_precision":"zip"},"type":"Feature","geometry":{"type":"Point","coordinates":[-70.710601,42.573707]}},{"properties":{"zipcode":"1937","geo_score":0.714,"total population 15 to 44 years old":17,"id":"afs6cfrplaz7","geo_precision":"zip"},"type":"Feature","geometry":{"type":"Point","coordinates":[-70.879123,42.635443]}},{"properties":{"zipcode":"1938","geo_score":0.714,"total population 15 to 44 years old":1977,"id":"afs6cfqmpvk8","geo_precision":"zip"},"type":"Feature","geometry":{"type":"Point","coordinates":[-70.902274,42.688982]}},{"properties":{"zipcode":"1940","geo_score":0.714,"total population 15 to 44 years old":1843,"id":"afs6cg085yeh","geo_precision":"zip"},"type":"Feature","geometry":{"type":"Point","coordinates":[-71.028775,42.533732]}},{"properties":{"zipcode":"1944","geo_score":0.714,"total population 15 to 44 years old":708,"id":"afs6cg2c7302","geo_precision":"zip"},"type":"Feature","geometry":{"type":"Point","coordinates":[-70.755062,42.579503]}},{"properties":{"zipcode":"1945","geo_score":0.714,"total population 15 to 44 years old":2927,"id":"afs6cfqwmeo1","geo_precision":"zip"},"type":"Feature","geometry":{"type":"Point","coordinates":[-70.770768,42.56142]}},{"properties":{"zipcode":"1949","geo_score":0.714,"total population 15 to 44 years old":1283,"id":"afs6cfqgl065","geo_precision":"zip"},"type":"Feature","geometry":{"type":"Point","coordinates":[-70.998108,42.594538]}},{"properties":{"zipcode":"1950","geo_score":0.714,"total population 15 to 44 years old":2821,"id":"afs6cfsobohp","geo_precision":"zip"},"type":"Feature","geometry":{"type":"Point","coordinates":[-70.866164,42.816758]}},{"properties":{"zipcode":"1951","geo_score":0.714,"total population 15 to 44 years old":492,"id":"afs6cfufcgx2","geo_precision":"zip"},"type":"Feature","geometry":{"type":"Point","coordinates":[-70.867246,42.777524]}},{"properties":{"zipcode":"1952","geo_score":0.714,"total population 15 to 44 years old":1453,"id":"afs6cfq2b97p","geo_precision":"zip"},"type":"Feature","geometry":{"type":"Point","coordinates":[-70.817552,42.843147]}},{"properties":{"zipcode":"1960","geo_score":0.714,"total population 15 to 44 years old":8990,"id":"afs6cg2w0m0n","geo_precision":"zip"},"type":"Feature","geometry":{"type":"Point","coordinates":[-70.949495,42.509818]}},{"properties":{"zipcode":"1966","geo_score":0.714,"total population 15 to 44 years old":964,"id":"afs6cg27hsfi","geo_precision":"zip"},"type":"Feature","geometry":{"type":"Point","coordinates":[-70.599488,42.640373]}},{"properties":{"zipcode":"1969","geo_score":0.714,"total population 15 to 44 years old":965,"id":"afs6cfsafjlv","geo_precision":"zip"},"type":"Feature","geometry":{"type":"Point","coordinates":[-70.892754,42.716155]}},{"properties":{"zipcode":"1970","geo_score":0.714,"total population 15 to 44 years old":9705,"id":"afs6cg3xfuvv","geo_precision":"zip"},"type":"Feature","geometry":{"type":"Point","coordinates":[-70.892549,42.511207]}},{"properties":{"zipcode":"1982","geo_score":0.714,"total population 15 to 44 years old":1275,"id":"afs6cfyh0uxz","geo_precision":"zip"},"type":"Feature","geometry":{"type":"Point","coordinates":[-70.851125,42.626664]}},{"properties":{"zipcode":"1983","geo_score":0.714,"total population 15 to 44 years old":853,"id":"afs6cfwtnmmn","geo_precision":"zip"},"type":"Feature","geometry":{"type":"Point","coordinates":[-70.954487,42.661793]}},{"properties":{"zipcode":"1984","geo_score":0.714,"total population 15 to 44 years old":1284,"id":"afs6cfvdavtz","geo_precision":"zip"},"type":"Feature","geometry":{"type":"Point","coordinates":[-70.8732,42.597691]}},{"properties":{"zipcode":"1985","geo_score":0.714,"total population 15 to 44 years old":591,"id":"afs6cfv79eie","geo_precision":"zip"},"type":"Feature","geometry":{"type":"Point","coordinates":[-70.971068,42.79414]}},{"properties":{"zipcode":"2019","geo_score":0.714,"total population 15 to 44 years old":3221,"id":"afs6cg30pbom","geo_precision":"zip"},"type":"Feature","geometry":{"type":"Point","coordinates":[-71.470339,42.068153]}},{"properties":{"zipcode":"2021","geo_score":0.714,"total population 15 to 44 years old":3889,"id":"afs6cfu6ij53","geo_precision":"zip"},"type":"Feature","geometry":{"type":"Point","coordinates":[-71.121185,42.179146]}},{"properties":{"zipcode":"2025","geo_score":0.714,"total population 15 to 44 years old":1085,"id":"afs6cfww9kr3","geo_precision":"zip"},"type":"Feature","geometry":{"type":"Point","coordinates":[-70.828655,42.243712]}},{"properties":{"zipcode":"2026","geo_score":0.714,"total population 15 to 44 years old":4302,"id":"afs6cg39rqeu","geo_precision":"zip"},"type":"Feature","geometry":{"type":"Point","coordinates":[-71.181141,42.244733]}},{"properties":{"zipcode":"2030","geo_score":0.714,"total population 15 to 44 years old":757,"id":"afs6cfrng6vd","geo_precision":"zip"},"type":"Feature","geometry":{"type":"Point","coordinates":[-71.321447,42.245931]}},{"properties":{"zipcode":"2032","geo_score":0.714,"total population 15 to 44 years old":707,"id":"afs6cfsxu9zo","geo_precision":"zip"},"type":"Feature","geometry":{"type":"Point","coordinates":[-71.224498,42.141765]}},{"properties":{"zipcode":"2035","geo_score":0.714,"total population 15 to 44 years old":3060,"id":"afs6cfwhmlbp","geo_precision":"zip"},"type":"Feature","geometry":{"type":"Point","coordinates":[-71.234219,42.042599]}},{"properties":{"zipcode":"2038","geo_score":0.714,"total population 15 to 44 years old":6121,"id":"afs6cfpgtanx","geo_precision":"zip"},"type":"Feature","geometry":{"type":"Point","coordinates":[-71.429226,42.102875]}},{"properties":{"zipcode":"2043","geo_score":0.714,"total population 15 to 44 years old":3231,"id":"afs6cg1evr0j","geo_precision":"zip"},"type":"Feature","geometry":{"type":"Point","coordinates":[-70.902823,42.2376]}},{"properties":{"zipcode":"2045","geo_score":0.714,"total population 15 to 44 years old":1659,"id":"afs6cg2bbuy5","geo_precision":"zip"},"type":"Feature","geometry":{"type":"Point","coordinates":[-70.901713,42.307044]}},{"properties":{"zipcode":"2047","geo_score":0.714,"total population 15 to 44 years old":28,"id":"afs6cfvo03lr","geo_precision":"zip"},"type":"Feature","geometry":{"type":"Point","coordinates":[-70.69353,42.142836]}},{"properties":{"zipcode":"2048","geo_score":0.714,"total population 15 to 44 years old":4441,"id":"afs6cg2bnh0h","geo_precision":"zip"},"type":"Feature","geometry":{"type":"Point","coordinates":[-71.24533,41.998155]}},{"properties":{"zipcode":"2050","geo_score":0.714,"total population 15 to 44 years old":4222,"id":"afs6cfuauv2l","geo_precision":"zip"},"type":"Feature","geometry":{"type":"Point","coordinates":[-70.674482,42.113991]}},{"properties":{"zipcode":"2052","geo_score":0.714,"total population 15 to 44 years old":1854,"id":"afs6cfsou2hn","geo_precision":"zip"},"type":"Feature","geometry":{"type":"Point","coordinates":[-71.309934,42.181265]}},{"properties":{"zipcode":"2053","geo_score":0.714,"total population 15 to 44 years old":2285,"id":"afs6cg3ztqw9","geo_precision":"zip"},"type":"Feature","geometry":{"type":"Point","coordinates":[-71.424504,42.141764]}},{"properties":{"zipcode":"2054","geo_score":0.714,"total population 15 to 44 years old":1366,"id":"afs6cfvpotgt","geo_precision":"zip"},"type":"Feature","geometry":{"type":"Point","coordinates":[-71.36126,42.165249]}},{"properties":{"zipcode":"2056","geo_score":0.714,"total population 15 to 44 years old":1449,"id":"afs6cfxwiswm","geo_precision":"zip"},"type":"Feature","geometry":{"type":"Point","coordinates":[-71.309778,42.126487]}},{"properties":{"zipcode":"2061","geo_score":0.714,"total population 15 to 44 years old":1529,"id":"afs6cfpy0sqv","geo_precision":"zip"},"type":"Feature","geometry":{"type":"Point","coordinates":[-70.823035,42.154145]}},{"properties":{"zipcode":"2062","geo_score":0.714,"total population 15 to 44 years old":5433,"id":"afs6cg28hzw6","geo_precision":"zip"},"type":"Feature","geometry":{"type":"Point","coordinates":[-71.196277,42.182798]}},{"properties":{"zipcode":"2066","geo_score":0.714,"total population 15 to 44 years old":2645,"id":"afs6cg02zk94","geo_precision":"zip"},"type":"Feature","geometry":{"type":"Point","coordinates":[-70.717818,42.191768]}},{"properties":{"zipcode":"2067","geo_score":0.714,"total population 15 to 44 years old":2872,"id":"afs6cfqzklc1","geo_precision":"zip"},"type":"Feature","geometry":{"type":"Point","coordinates":[-71.184785,42.105288]}},{"properties":{"zipcode":"2071","geo_score":0.714,"total population 15 to 44 years old":186,"id":"afs6cfs0ju3d","geo_precision":"zip"},"type":"Feature","geometry":{"type":"Point","coordinates":[-71.270933,42.100399]}},{"properties":{"zipcode":"2072","geo_score":0.714,"total population 15 to 44 years old":4942,"id":"afs6cg1lbreh","geo_precision":"zip"},"type":"Feature","geometry":{"type":"Point","coordinates":[-71.080048,42.115378]}},{"properties":{"zipcode":"2081","geo_score":0.714,"total population 15 to 44 years old":3107,"id":"afs6cftegv5a","geo_precision":"zip"},"type":"Feature","geometry":{"type":"Point","coordinates":[-71.255533,42.148624]}},{"properties":{"zipcode":"2090","geo_score":0.714,"total population 15 to 44 years old":2180,"id":"afs6cfwicc5n","geo_precision":"zip"},"type":"Feature","geometry":{"type":"Point","coordinates":[-71.199238,42.220548]}},{"properties":{"zipcode":"2093","geo_score":0.714,"total population 15 to 44 years old":1768,"id":"afs6cg3uxvjy","geo_precision":"zip"},"type":"Feature","geometry":{"type":"Point","coordinates":[-71.371169,42.054311]}},{"properties":{"zipcode":"2108","geo_score":0.714,"total population 15 to 44 years old":1049,"id":"afs6cfyqjlwc","geo_precision":"zip"},"type":"Feature","geometry":{"type":"Point","coordinates":[-71.102446,42.353806]}},{"properties":{"zipcode":"2109","geo_score":0.714,"total population 15 to 44 years old":998,"id":"afs6cg35u3b5","geo_precision":"zip"},"type":"Feature","geometry":{"type":"Point","coordinates":[-71.054495,42.360027]}},{"properties":{"zipcode":"2110","geo_score":0.714,"total population 15 to 44 years old":287,"id":"afs6cfx3k4ug","geo_precision":"zip"},"type":"Feature","geometry":{"type":"Point","coordinates":[-71.051466,42.352847]}},{"properties":{"zipcode":"2111","geo_score":0.714,"total population 15 to 44 years old":2044,"id":"afs6cfutbgb0","geo_precision":"zip"},"type":"Feature","geometry":{"type":"Point","coordinates":[-71.059365,42.351047]}},{"properties":{"zipcode":"2113","geo_score":0.714,"total population 15 to 44 years old":2794,"id":"afs6cg2hrj88","geo_precision":"zip"},"type":"Feature","geometry":{"type":"Point","coordinates":[-71.055001,42.365398]}},{"properties":{"zipcode":"2114","geo_score":0.714,"total population 15 to 44 years old":4153,"id":"afs6cg10d9zl","geo_precision":"zip"},"type":"Feature","geometry":{"type":"Point","coordinates":[-71.023661,42.362097]}},{"properties":{"zipcode":"2115","geo_score":0.714,"total population 15 to 44 years old":11698,"id":"afs6cftamra8","geo_precision":"zip"},"type":"Feature","geometry":{"type":"Point","coordinates":[-71.096848,42.342043]}},{"properties":{"zipcode":"2116","geo_score":0.714,"total population 15 to 44 years old":6254,"id":"afs6cfq495ou","geo_precision":"zip"},"type":"Feature","geometry":{"type":"Point","coordinates":[-71.086095,42.347207]}},{"properties":{"zipcode":"2118","geo_score":0.714,"total population 15 to 44 years old":6895,"id":"afs6cfzr18r2","geo_precision":"zip"},"type":"Feature","geometry":{"type":"Point","coordinates":[-71.072854,42.336162]}},{"properties":{"zipcode":"2119","geo_score":0.714,"total population 15 to 44 years old":5994,"id":"afs6cfqpj66u","geo_precision":"zip"},"type":"Feature","geometry":{"type":"Point","coordinates":[-71.084608,42.323077]}},{"properties":{"zipcode":"2120","geo_score":0.714,"total population 15 to 44 years old":5160,"id":"afs6cfxeqjsf","geo_precision":"zip"},"type":"Feature","geometry":{"type":"Point","coordinates":[-71.091163,42.330653]}},{"properties":{"zipcode":"2121","geo_score":0.714,"total population 15 to 44 years old":6430,"id":"afs6cfps2w4c","geo_precision":"zip"},"type":"Feature","geometry":{"type":"Point","coordinates":[-71.081645,42.307098]}},{"properties":{"zipcode":"2122","geo_score":0.714,"total population 15 to 44 years old":5537,"id":"afs6cfq5oh0w","geo_precision":"zip"},"type":"Feature","geometry":{"type":"Point","coordinates":[-71.055215,42.29658]}},{"properties":{"zipcode":"2124","geo_score":0.714,"total population 15 to 44 years old":11486,"id":"afs6cfvamd7h","geo_precision":"zip"},"type":"Feature","geometry":{"type":"Point","coordinates":[-71.071045,42.286784]}},{"properties":{"zipcode":"2125","geo_score":0.714,"total population 15 to 44 years old":8634,"id":"afs6cfz3hayn","geo_precision":"zip"},"type":"Feature","geometry":{"type":"Point","coordinates":[-71.067244,42.31476]}},{"properties":{"zipcode":"2126","geo_score":0.714,"total population 15 to 44 years old":5744,"id":"afs6cfwiz2c0","geo_precision":"zip"},"type":"Feature","geometry":{"type":"Point","coordinates":[-71.105195,42.301247]}},{"properties":{"zipcode":"2127","geo_score":0.714,"total population 15 to 44 years old":9637,"id":"afs6cfp7p72t","geo_precision":"zip"},"type":"Feature","geometry":{"type":"Point","coordinates":[-71.049495,42.333431]}},{"properties":{"zipcode":"2128","geo_score":0.714,"total population 15 to 44 years old":9589,"id":"afs6cg2akud7","geo_precision":"zip"},"type":"Feature","geometry":{"type":"Point","coordinates":[-71.025694,42.364197]}},{"properties":{"zipcode":"2129","geo_score":0.714,"total population 15 to 44 years old":4713,"id":"afs6cftzywkw","geo_precision":"zip"},"type":"Feature","geometry":{"type":"Point","coordinates":[-71.065287,42.382588]}},{"properties":{"zipcode":"2130","geo_score":0.714,"total population 15 to 44 years old":9934,"id":"afs6cfymvq1n","geo_precision":"zip"},"type":"Feature","geometry":{"type":"Point","coordinates":[-71.121097,42.309661]}},{"properties":{"zipcode":"2131","geo_score":0.714,"total population 15 to 44 years old":6746,"id":"afs6cfyqixd8","geo_precision":"zip"},"type":"Feature","geometry":{"type":"Point","coordinates":[-71.120896,42.284197]}},{"properties":{"zipcode":"2132","geo_score":0.714,"total population 15 to 44 years old":4690,"id":"afs6cfzgaygc","geo_precision":"zip"},"type":"Feature","geometry":{"type":"Point","coordinates":[-71.155833,42.277897]}},{"properties":{"zipcode":"2134","geo_score":0.714,"total population 15 to 44 years old":7614,"id":"afs6cfoy7e7y","geo_precision":"zip"},"type":"Feature","geometry":{"type":"Point","coordinates":[-71.112646,42.357169]}},{"properties":{"zipcode":"2135","geo_score":0.714,"total population 15 to 44 years old":14368,"id":"afs6cg4ewgbe","geo_precision":"zip"},"type":"Feature","geometry":{"type":"Point","coordinates":[-71.104888,42.349768]}},{"properties":{"zipcode":"2136","geo_score":0.714,"total population 15 to 44 years old":6078,"id":"afs6cg3wgjp6","geo_precision":"zip"},"type":"Feature","geometry":{"type":"Point","coordinates":[-71.129321,42.254248]}},{"properties":{"zipcode":"2138","geo_score":0.714,"total population 15 to 44 years old":12246,"id":"afs6cfpy1r4m","geo_precision":"zip"},"type":"Feature","geometry":{"type":"Point","coordinates":[-71.132947,42.380442]}},{"properties":{"zipcode":"2139","geo_score":0.714,"total population 15 to 44 years old":11710,"id":"afs6cfpk5vwy","geo_precision":"zip"},"type":"Feature","geometry":{"type":"Point","coordinates":[-71.103663,42.358431]}},{"properties":{"zipcode":"2140","geo_score":0.714,"total population 15 to 44 years old":4727,"id":"afs6cg2hvgqi","geo_precision":"zip"},"type":"Feature","geometry":{"type":"Point","coordinates":[-71.133833,42.393246]}},{"properties":{"zipcode":"2141","geo_score":0.714,"total population 15 to 44 years old":3386,"id":"afs6cfyx0com","geo_precision":"zip"},"type":"Feature","geometry":{"type":"Point","coordinates":[-71.080052,42.366764]}},{"properties":{"zipcode":"2142","geo_score":0.714,"total population 15 to 44 years old":1044,"id":"afs6cfuqvdjq","geo_precision":"zip"},"type":"Feature","geometry":{"type":"Point","coordinates":[-71.084814,42.36284]}},{"properties":{"zipcode":"2143","geo_score":0.714,"total population 15 to 44 years old":7742,"id":"afs6cfrc8mqp","geo_precision":"zip"},"type":"Feature","geometry":{"type":"Point","coordinates":[-71.085608,42.385653]}},{"properties":{"zipcode":"2144","geo_score":0.714,"total population 15 to 44 years old":8307,"id":"afs6cfzulu96","geo_precision":"zip"},"type":"Feature","geometry":{"type":"Point","coordinates":[-71.122553,42.39593]}},{"properties":{"zipcode":"2145","geo_score":0.714,"total population 15 to 44 years old":6634,"id":"afs6cg1fo44h","geo_precision":"zip"},"type":"Feature","geometry":{"type":"Point","coordinates":[-71.098941,42.39593]}},{"properties":{"zipcode":"2148","geo_score":0.714,"total population 15 to 44 years old":14014,"id":"afs6cfumycj9","geo_precision":"zip"},"type":"Feature","geometry":{"type":"Point","coordinates":[-71.074497,42.434818]}},{"properties":{"zipcode":"2149","geo_score":0.714,"total population 15 to 44 years old":9422,"id":"afs6cg21idrv","geo_precision":"zip"},"type":"Feature","geometry":{"type":"Point","coordinates":[-71.063385,42.411208]}},{"properties":{"zipcode":"2150","geo_score":0.714,"total population 15 to 44 years old":8366,"id":"afs6cfznhywy","geo_precision":"zip"},"type":"Feature","geometry":{"type":"Point","coordinates":[-71.038894,42.378197]}},{"properties":{"zipcode":"2151","geo_score":0.714,"total population 15 to 44 years old":10966,"id":"afs6cfs1wq0g","geo_precision":"zip"},"type":"Feature","geometry":{"type":"Point","coordinates":[-70.966161,42.440097]}},{"properties":{"zipcode":"2152","geo_score":0.714,"total population 15 to 44 years old":3205,"id":"afs6cfzrl7sp","geo_precision":"zip"},"type":"Feature","geometry":{"type":"Point","coordinates":[-70.994772,42.372875]}},{"properties":{"zipcode":"2155","geo_score":0.714,"total population 15 to 44 years old":13923,"id":"afs6cfpa9hc9","geo_precision":"zip"},"type":"Feature","geometry":{"type":"Point","coordinates":[-71.08283,42.411208]}},{"properties":{"zipcode":"2163","geo_score":0.714,"total population 15 to 44 years old":1259,"id":"afs6cfx7zf1i","geo_precision":"zip"},"type":"Feature","geometry":{"type":"Point","coordinates":[-71.112159,42.32532]}},{"properties":{"zipcode":"2169","geo_score":0.714,"total population 15 to 44 years old":12242,"id":"afs6cfslrvts","geo_precision":"zip"},"type":"Feature","geometry":{"type":"Point","coordinates":[-70.961992,42.262322]}},{"properties":{"zipcode":"2170","geo_score":0.714,"total population 15 to 44 years old":4394,"id":"afs6cfy36yoa","geo_precision":"zip"},"type":"Feature","geometry":{"type":"Point","coordinates":[-71.016742,42.267248]}},{"properties":{"zipcode":"2171","geo_score":0.714,"total population 15 to 44 years old":3891,"id":"afs6cfpuh9vd","geo_precision":"zip"},"type":"Feature","geometry":{"type":"Point","coordinates":[-71.020327,42.272321]}},{"properties":{"zipcode":"2176","geo_score":0.714,"total population 15 to 44 years old":5085,"id":"afs6cg35z5lw","geo_precision":"zip"},"type":"Feature","geometry":{"type":"Point","coordinates":[-71.071163,42.441763]}},{"properties":{"zipcode":"2180","geo_score":0.714,"total population 15 to 44 years old":3803,"id":"afs6cfzbqev5","geo_precision":"zip"},"type":"Feature","geometry":{"type":"Point","coordinates":[-71.098146,42.474595]}},{"properties":{"zipcode":"2184","geo_score":0.714,"total population 15 to 44 years old":6707,"id":"afs6cft0cx4a","geo_precision":"zip"},"type":"Feature","geometry":{"type":"Point","coordinates":[-70.974492,42.2251]}},{"properties":{"zipcode":"2186","geo_score":0.714,"total population 15 to 44 years old":4884,"id":"afs6cg0cbytb","geo_precision":"zip"},"type":"Feature","geometry":{"type":"Point","coordinates":[-71.080051,42.254266]}},{"properties":{"zipcode":"2188","geo_score":0.714,"total population 15 to 44 years old":2829,"id":"afs6cfv2nqn1","geo_precision":"zip"},"type":"Feature","geometry":{"type":"Point","coordinates":[-70.95514,42.20794]}},{"properties":{"zipcode":"2189","geo_score":0.714,"total population 15 to 44 years old":2985,"id":"afs6cfzr07sn","geo_precision":"zip"},"type":"Feature","geometry":{"type":"Point","coordinates":[-70.932318,42.210649]}},{"properties":{"zipcode":"2190","geo_score":0.714,"total population 15 to 44 years old":3138,"id":"afs6cfrpvpzv","geo_precision":"zip"},"type":"Feature","geometry":{"type":"Point","coordinates":[-70.95074,42.167841]}},{"properties":{"zipcode":"2191","geo_score":0.714,"total population 15 to 44 years old":1476,"id":"afs6cfwl79x6","geo_precision":"zip"},"type":"Feature","geometry":{"type":"Point","coordinates":[-70.94484,42.251499]}},{"properties":{"zipcode":"2199","geo_score":0.714,"total population 15 to 44 years old":331,"id":"afs6cfty3iuc","geo_precision":"zip"},"type":"Feature","geometry":{"type":"Point","coordinates":[-71.082395,42.347247]}},{"properties":{"zipcode":"2203","geo_score":0.714,"total population 15 to 44 years old":0,"id":"afs6cg1679qr","geo_precision":"zip"},"type":"Feature","geometry":{"type":"Point","coordinates":[-71.060364,42.361485]}},{"properties":{"zipcode":"2210","geo_score":0.714,"total population 15 to 44 years old":573,"id":"afs6cfxj55ai","geo_precision":"zip"},"type":"Feature","geometry":{"type":"Point","coordinates":[-71.040645,42.347547]}},{"properties":{"zipcode":"2215","geo_score":0.714,"total population 15 to 44 years old":13651,"id":"afs6cfy0fh6w","geo_precision":"zip"},"type":"Feature","geometry":{"type":"Point","coordinates":[-71.107653,42.345079]}},{"properties":{"zipcode":"2301","geo_score":0.714,"total population 15 to 44 years old":13069,"id":"afs6cg0br8bc","geo_precision":"zip"},"type":"Feature","geometry":{"type":"Point","coordinates":[-71.03999,42.079399]}},{"properties":{"zipcode":"2302","geo_score":0.714,"total population 15 to 44 years old":6919,"id":"afs6cfsfzjo1","geo_precision":"zip"},"type":"Feature","geometry":{"type":"Point","coordinates":[-71.000189,42.08475]}},{"properties":{"zipcode":"2322","geo_score":0.714,"total population 15 to 44 years old":751,"id":"afs6cft76ddl","geo_precision":"zip"},"type":"Feature","geometry":{"type":"Point","coordinates":[-71.048216,42.126049]}},{"properties":{"zipcode":"2324","geo_score":0.714,"total population 15 to 44 years old":6008,"id":"afs6cfv89ek3","geo_precision":"zip"},"type":"Feature","geometry":{"type":"Point","coordinates":[-70.976558,41.973741]}},{"properties":{"zipcode":"2330","geo_score":0.714,"total population 15 to 44 years old":2021,"id":"afs6cfsp1zbw","geo_precision":"zip"},"type":"Feature","geometry":{"type":"Point","coordinates":[-70.759689,41.896238]}},{"properties":{"zipcode":"2332","geo_score":0.714,"total population 15 to 44 years old":2145,"id":"afs6cg0rxlca","geo_precision":"zip"},"type":"Feature","geometry":{"type":"Point","coordinates":[-70.682815,42.023159]}},{"properties":{"zipcode":"2333","geo_score":0.714,"total population 15 to 44 years old":2601,"id":"afs6cfzghaqx","geo_precision":"zip"},"type":"Feature","geometry":{"type":"Point","coordinates":[-70.982821,42.020379]}},{"properties":{"zipcode":"2338","geo_score":0.714,"total population 15 to 44 years old":1355,"id":"afs6cfqclcyv","geo_precision":"zip"},"type":"Feature","geometry":{"type":"Point","coordinates":[-70.860578,41.988351]}},{"properties":{"zipcode":"2339","geo_score":0.714,"total population 15 to 44 years old":2318,"id":"afs6cg0rjkh9","geo_precision":"zip"},"type":"Feature","geometry":{"type":"Point","coordinates":[-70.841153,42.116768]}},{"properties":{"zipcode":"2341","geo_score":0.714,"total population 15 to 44 years old":1873,"id":"afs6cg28ba00","geo_precision":"zip"},"type":"Feature","geometry":{"type":"Point","coordinates":[-70.866153,42.065379]}},{"properties":{"zipcode":"2343","geo_score":0.714,"total population 15 to 44 years old":2029,"id":"afs6cfp4hz88","geo_precision":"zip"},"type":"Feature","geometry":{"type":"Point","coordinates":[-71.009213,42.1251]}},{"properties":{"zipcode":"2346","geo_score":0.714,"total population 15 to 44 years old":4304,"id":"afs6cfsq8v53","geo_precision":"zip"},"type":"Feature","geometry":{"type":"Point","coordinates":[-70.95643,41.798713]}},{"properties":{"zipcode":"2347","geo_score":0.714,"total population 15 to 44 years old":1850,"id":"afs6cftmyeoq","geo_precision":"zip"},"type":"Feature","geometry":{"type":"Point","coordinates":[-70.959981,41.843757]}},{"properties":{"zipcode":"2351","geo_score":0.714,"total population 15 to 44 years old":3177,"id":"afs6cfoyibl2","geo_precision":"zip"},"type":"Feature","geometry":{"type":"Point","coordinates":[-70.966155,42.091767]}},{"properties":{"zipcode":"2356","geo_score":0.714,"total population 15 to 44 years old":2465,"id":"afs6cg2l4nce","geo_precision":"zip"},"type":"Feature","geometry":{"type":"Point","coordinates":[-71.086992,42.066767]}},{"properties":{"zipcode":"2357","geo_score":0.714,"total population 15 to 44 years old":790,"id":"afs6cg0uv0fo","geo_precision":"zip"},"type":"Feature","geometry":{"type":"Point","coordinates":[-71.087091,42.064499]}},{"properties":{"zipcode":"2359","geo_score":0.714,"total population 15 to 44 years old":3260,"id":"afs6cfysr649","geo_precision":"zip"},"type":"Feature","geometry":{"type":"Point","coordinates":[-70.828652,42.066768]}},{"properties":{"zipcode":"2360","geo_score":0.714,"total population 15 to 44 years old":10110,"id":"afs6cg1c5s42","geo_precision":"zip"},"type":"Feature","geometry":{"type":"Point","coordinates":[-70.682814,41.970937]}},{"properties":{"zipcode":"2364","geo_score":0.714,"total population 15 to 44 years old":2180,"id":"afs6cg1le09z","geo_precision":"zip"},"type":"Feature","geometry":{"type":"Point","coordinates":[-70.706982,41.998714]}},{"properties":{"zipcode":"2366","geo_score":0.714,"total population 15 to 44 years old":1,"id":"afs6cg369mo4","geo_precision":"zip"},"type":"Feature","geometry":{"type":"Point","coordinates":[-70.704431,41.850087]}},{"properties":{"zipcode":"2367","geo_score":0.714,"total population 15 to 44 years old":487,"id":"afs6cg3mpyg7","geo_precision":"zip"},"type":"Feature","geometry":{"type":"Point","coordinates":[-70.812299,41.96914]}},{"properties":{"zipcode":"2368","geo_score":0.714,"total population 15 to 44 years old":6494,"id":"afs6cfs1c1xe","geo_precision":"zip"},"type":"Feature","geometry":{"type":"Point","coordinates":[-71.061993,42.197322]}},{"properties":{"zipcode":"2370","geo_score":0.714,"total population 15 to 44 years old":3453,"id":"afs6cfvld5p2","geo_precision":"zip"},"type":"Feature","geometry":{"type":"Point","coordinates":[-70.885095,41.954199]}},{"properties":{"zipcode":"2375","geo_score":0.714,"total population 15 to 44 years old":1683,"id":"afs6cg02hn8e","geo_precision":"zip"},"type":"Feature","geometry":{"type":"Point","coordinates":[-71.111091,42.023199]}},{"properties":{"zipcode":"2379","geo_score":0.714,"total population 15 to 44 years old":1155,"id":"afs6cfqzea0s","geo_precision":"zip"},"type":"Feature","geometry":{"type":"Point","coordinates":[-71.057824,42.041767]}},{"properties":{"zipcode":"2382","geo_score":0.714,"total population 15 to 44 years old":2919,"id":"afs6cfysojvg","geo_precision":"zip"},"type":"Feature","geometry":{"type":"Point","coordinates":[-70.963377,42.069545]}},{"properties":{"zipcode":"2420","geo_score":0.714,"total population 15 to 44 years old":1971,"id":"afs6cg1u5yqj","geo_precision":"zip"},"type":"Feature","geometry":{"type":"Point","coordinates":[-71.21665,42.45631]}},{"properties":{"zipcode":"2421","geo_score":0.714,"total population 15 to 44 years old":2653,"id":"afs6cfpvxppk","geo_precision":"zip"},"type":"Feature","geometry":{"type":"Point","coordinates":[-71.226453,42.442567]}},{"properties":{"zipcode":"2445","geo_score":0.714,"total population 15 to 44 years old":5226,"id":"afs6cfu6i7sh","geo_precision":"zip"},"type":"Feature","geometry":{"type":"Point","coordinates":[-71.143697,42.318097]}},{"properties":{"zipcode":"2446","geo_score":0.714,"total population 15 to 44 years old":9318,"id":"afs6cg11ob7b","geo_precision":"zip"},"type":"Feature","geometry":{"type":"Point","coordinates":[-71.123046,42.343097]}},{"properties":{"zipcode":"2451","geo_score":0.714,"total population 15 to 44 years old":3697,"id":"afs6cfs7x1u3","geo_precision":"zip"},"type":"Feature","geometry":{"type":"Point","coordinates":[-71.24505,42.398588]}},{"properties":{"zipcode":"2452","geo_score":0.714,"total population 15 to 44 years old":3581,"id":"afs6cfpondlu","geo_precision":"zip"},"type":"Feature","geometry":{"type":"Point","coordinates":[-71.218049,42.394319]}},{"properties":{"zipcode":"2453","geo_score":0.714,"total population 15 to 44 years old":7881,"id":"afs6cg1khcdv","geo_precision":"zip"},"type":"Feature","geometry":{"type":"Point","coordinates":[-71.23165,42.365396]}},{"properties":{"zipcode":"2457","geo_score":0.714,"total population 15 to 44 years old":623,"id":"afs6cfxd2pcd","geo_precision":"zip"},"type":"Feature","geometry":{"type":"Point","coordinates":[-71.08923,42.180048]}},{"properties":{"zipcode":"2458","geo_score":0.714,"total population 15 to 44 years old":2564,"id":"afs6cfsphx1y","geo_precision":"zip"},"type":"Feature","geometry":{"type":"Point","coordinates":[-71.208399,42.385096]}},{"properties":{"zipcode":"2459","geo_score":0.714,"total population 15 to 44 years old":3664,"id":"afs6cfr3kusl","geo_precision":"zip"},"type":"Feature","geometry":{"type":"Point","coordinates":[-71.183298,42.334146]}},{"properties":{"zipcode":"2460","geo_score":0.714,"total population 15 to 44 years old":1615,"id":"afs6cfz6lte8","geo_precision":"zip"},"type":"Feature","geometry":{"type":"Point","coordinates":[-71.182371,42.374296]}},{"properties":{"zipcode":"2461","geo_score":0.714,"total population 15 to 44 years old":1262,"id":"afs6cfwtph5v","geo_precision":"zip"},"type":"Feature","geometry":{"type":"Point","coordinates":[-71.205349,42.361196]}},{"properties":{"zipcode":"2462","geo_score":0.714,"total population 15 to 44 years old":225,"id":"afs6cfyu7r1a","geo_precision":"zip"},"type":"Feature","geometry":{"type":"Point","coordinates":[-71.209699,42.349496]}},{"properties":{"zipcode":"2464","geo_score":0.714,"total population 15 to 44 years old":630,"id":"afs6cfyc2uti","geo_precision":"zip"},"type":"Feature","geometry":{"type":"Point","coordinates":[-71.221849,42.36599]}},{"properties":{"zipcode":"2465","geo_score":0.714,"total population 15 to 44 years old":1971,"id":"afs6cfsnt9na","geo_precision":"zip"},"type":"Feature","geometry":{"type":"Point","coordinates":[-71.213199,42.378145]}},{"properties":{"zipcode":"2466","geo_score":0.714,"total population 15 to 44 years old":2031,"id":"afs6cg2ospr5","geo_precision":"zip"},"type":"Feature","geometry":{"type":"Point","coordinates":[-71.224957,42.346696]}},{"properties":{"zipcode":"2467","geo_score":0.714,"total population 15 to 44 years old":6649,"id":"afs6cfy6je8j","geo_precision":"zip"},"type":"Feature","geometry":{"type":"Point","coordinates":[-71.211649,42.357564]}},{"properties":{"zipcode":"2468","geo_score":0.714,"total population 15 to 44 years old":708,"id":"afs6cfrm252d","geo_precision":"zip"},"type":"Feature","geometry":{"type":"Point","coordinates":[-71.231534,42.327146]}},{"properties":{"zipcode":"2472","geo_score":0.714,"total population 15 to 44 years old":7610,"id":"afs6cfynihpl","geo_precision":"zip"},"type":"Feature","geometry":{"type":"Point","coordinates":[-71.201398,42.363096]}},{"properties":{"zipcode":"2474","geo_score":0.714,"total population 15 to 44 years old":5451,"id":"afs6cfqcjrnd","geo_precision":"zip"},"type":"Feature","geometry":{"type":"Point","coordinates":[-71.159696,42.417595]}},{"properties":{"zipcode":"2476","geo_score":0.714,"total population 15 to 44 years old":2955,"id":"afs6cfx6zcfe","geo_precision":"zip"},"type":"Feature","geometry":{"type":"Point","coordinates":[-71.184299,42.379146]}},{"properties":{"zipcode":"2478","geo_score":0.714,"total population 15 to 44 years old":4557,"id":"afs6cg4mgc1e","geo_precision":"zip"},"type":"Feature","geometry":{"type":"Point","coordinates":[-71.204399,42.412795]}},{"properties":{"zipcode":"2481","geo_score":0.714,"total population 15 to 44 years old":4073,"id":"afs6cg2cp8kb","geo_precision":"zip"},"type":"Feature","geometry":{"type":"Point","coordinates":[-71.274652,42.310597]}},{"properties":{"zipcode":"2482","geo_score":0.714,"total population 15 to 44 years old":1653,"id":"afs6cfw15z6t","geo_precision":"zip"},"type":"Feature","geometry":{"type":"Point","coordinates":[-71.299201,42.294546]}},{"properties":{"zipcode":"2492","geo_score":0.714,"total population 15 to 44 years old":2878,"id":"afs6cg463k09","geo_precision":"zip"},"type":"Feature","geometry":{"type":"Point","coordinates":[-71.25006,42.279797]}},{"properties":{"zipcode":"2493","geo_score":0.714,"total population 15 to 44 years old":1710,"id":"afs6cft0skdd","geo_precision":"zip"},"type":"Feature","geometry":{"type":"Point","coordinates":[-71.227208,42.375925]}},{"properties":{"zipcode":"2494","geo_score":0.714,"total population 15 to 44 years old":1430,"id":"afs6cg3892yb","geo_precision":"zip"},"type":"Feature","geometry":{"type":"Point","coordinates":[-71.26315,42.300147]}},{"properties":{"zipcode":"2532","geo_score":0.714,"total population 15 to 44 years old":1911,"id":"afs6cfvpo2nw","geo_precision":"zip"},"type":"Feature","geometry":{"type":"Point","coordinates":[-70.620309,41.733439]}},{"properties":{"zipcode":"2534","geo_score":0.714,"total population 15 to 44 years old":106,"id":"afs6cfxx8vxh","geo_precision":"zip"},"type":"Feature","geometry":{"type":"Point","coordinates":[-70.61892,41.659829]}},{"properties":{"zipcode":"2535","geo_score":0.714,"total population 15 to 44 years old":160,"id":"afs6cfvdmkbx","geo_precision":"zip"},"type":"Feature","geometry":{"type":"Point","coordinates":[-70.769751,41.320947]}},{"properties":{"zipcode":"2536","geo_score":0.714,"total population 15 to 44 years old":3030,"id":"afs6cg30b6rh","geo_precision":"zip"},"type":"Feature","geometry":{"type":"Point","coordinates":[-70.563362,41.551499]}},{"properties":{"zipcode":"2537","geo_score":0.714,"total population 15 to 44 years old":1001,"id":"afs6cg0p7p28","geo_precision":"zip"},"type":"Feature","geometry":{"type":"Point","coordinates":[-70.41197,41.741774]}},{"properties":{"zipcode":"2538","geo_score":0.714,"total population 15 to 44 years old":714,"id":"afs6cg0ixbni","geo_precision":"zip"},"type":"Feature","geometry":{"type":"Point","coordinates":[-70.660562,41.77544]}},{"properties":{"zipcode":"2539","geo_score":0.714,"total population 15 to 44 years old":644,"id":"afs6cft7b3x7","geo_precision":"zip"},"type":"Feature","geometry":{"type":"Point","coordinates":[-70.518915,41.38345]}},{"properties":{"zipcode":"2540","geo_score":0.714,"total population 15 to 44 years old":960,"id":"afs6cg0cjj3d","geo_precision":"zip"},"type":"Feature","geometry":{"type":"Point","coordinates":[-70.649475,41.543442]}},{"properties":{"zipcode":"2542","geo_score":0.714,"total population 15 to 44 years old":242,"id":"afs6cg52gdk2","geo_precision":"zip"},"type":"Feature","geometry":{"type":"Point","coordinates":[-70.543918,41.657052]}},{"properties":{"zipcode":"2543","geo_score":0.714,"total population 15 to 44 years old":108,"id":"afs6cfykrgnb","geo_precision":"zip"},"type":"Feature","geometry":{"type":"Point","coordinates":[-70.646442,41.593809]}},{"properties":{"zipcode":"2553","geo_score":0.714,"total population 15 to 44 years old":33,"id":"afs6cfwnari7","geo_precision":"zip"},"type":"Feature","geometry":{"type":"Point","coordinates":[-70.608047,41.67336]}},{"properties":{"zipcode":"2554","geo_score":0.714,"total population 15 to 44 years old":1902,"id":"afs6cg4006u8","geo_precision":"zip"},"type":"Feature","geometry":{"type":"Point","coordinates":[-69.980014,41.304288]}},{"properties":{"zipcode":"2556","geo_score":0.714,"total population 15 to 44 years old":352,"id":"afs6cfrk0tvp","geo_precision":"zip"},"type":"Feature","geometry":{"type":"Point","coordinates":[-70.375475,41.652967]}},{"properties":{"zipcode":"2557","geo_score":0.714,"total population 15 to 44 years old":760,"id":"afs6cfxleto9","geo_precision":"zip"},"type":"Feature","geometry":{"type":"Point","coordinates":[-70.560032,41.417376]}},{"properties":{"zipcode":"2558","geo_score":0.714,"total population 15 to 44 years old":363,"id":"afs6cfz8atii","geo_precision":"zip"},"type":"Feature","geometry":{"type":"Point","coordinates":[-70.655033,41.750105]}},{"properties":{"zipcode":"2559","geo_score":0.714,"total population 15 to 44 years old":461,"id":"afs6cg4h4gbd","geo_precision":"zip"},"type":"Feature","geometry":{"type":"Point","coordinates":[-70.622769,41.694771]}},{"properties":{"zipcode":"2561","geo_score":0.714,"total population 15 to 44 years old":81,"id":"afs6cfy1s2nh","geo_precision":"zip"},"type":"Feature","geometry":{"type":"Point","coordinates":[-70.535585,41.806772]}},{"properties":{"zipcode":"2562","geo_score":0.714,"total population 15 to 44 years old":487,"id":"afs6cg2i0c3m","geo_precision":"zip"},"type":"Feature","geometry":{"type":"Point","coordinates":[-70.519584,41.793263]}},{"properties":{"zipcode":"2563","geo_score":0.714,"total population 15 to 44 years old":1565,"id":"afs6cfrt0k4o","geo_precision":"zip"},"type":"Feature","geometry":{"type":"Point","coordinates":[-70.477482,41.711291]}},{"properties":{"zipcode":"2564","geo_score":0.714,"total population 15 to 44 years old":45,"id":"afs6cg505mt5","geo_precision":"zip"},"type":"Feature","geometry":{"type":"Point","coordinates":[-70.015545,41.273949]}},{"properties":{"zipcode":"2568","geo_score":0.714,"total population 15 to 44 years old":688,"id":"afs6cfvpf2lq","geo_precision":"zip"},"type":"Feature","geometry":{"type":"Point","coordinates":[-70.674473,41.405668]}},{"properties":{"zipcode":"2571","geo_score":0.714,"total population 15 to 44 years old":1844,"id":"afs6cg250daw","geo_precision":"zip"},"type":"Feature","geometry":{"type":"Point","coordinates":[-70.749481,41.772326]}},{"properties":{"zipcode":"2575","geo_score":0.714,"total population 15 to 44 years old":434,"id":"afs6cfwqw7f1","geo_precision":"zip"},"type":"Feature","geometry":{"type":"Point","coordinates":[-70.642806,41.42125]}},{"properties":{"zipcode":"2576","geo_score":0.714,"total population 15 to 44 years old":627,"id":"afs6cg2zphje","geo_precision":"zip"},"type":"Feature","geometry":{"type":"Point","coordinates":[-70.749688,41.769863]}},{"properties":{"zipcode":"2584","geo_score":0.714,"total population 15 to 44 years old":2,"id":"afs6cg3kpy60","geo_precision":"zip"},"type":"Feature","geometry":{"type":"Point","coordinates":[-70.046019,41.277794]}},{"properties":{"zipcode":"2601","geo_score":0.714,"total population 15 to 44 years old":2723,"id":"afs6cftkcd3j","geo_precision":"zip"},"type":"Feature","geometry":{"type":"Point","coordinates":[-70.228631,41.705666]}},{"properties":{"zipcode":"2630","geo_score":0.714,"total population 15 to 44 years old":188,"id":"afs6cfu81i9s","geo_precision":"zip"},"type":"Feature","geometry":{"type":"Point","coordinates":[-70.291133,41.708443]}},{"properties":{"zipcode":"2631","geo_score":0.714,"total population 15 to 44 years old":1188,"id":"afs6cg3d635o","geo_precision":"zip"},"type":"Feature","geometry":{"type":"Point","coordinates":[-70.05974,41.768165]}},{"properties":{"zipcode":"2632","geo_score":0.714,"total population 15 to 44 years old":1575,"id":"afs6cg30m6qv","geo_precision":"zip"},"type":"Feature","geometry":{"type":"Point","coordinates":[-70.175129,41.796311]}},{"properties":{"zipcode":"2633","geo_score":0.714,"total population 15 to 44 years old":375,"id":"afs6cfuvuuyq","geo_precision":"zip"},"type":"Feature","geometry":{"type":"Point","coordinates":[-70.0468,41.859559]}},{"properties":{"zipcode":"2635","geo_score":0.714,"total population 15 to 44 years old":395,"id":"afs6cg0lhl3n","geo_precision":"zip"},"type":"Feature","geometry":{"type":"Point","coordinates":[-70.450582,41.637609]}},{"properties":{"zipcode":"2637","geo_score":0.714,"total population 15 to 44 years old":18,"id":"afs6cftvudj6","geo_precision":"zip"},"type":"Feature","geometry":{"type":"Point","coordinates":[-70.277212,41.701438]}},{"properties":{"zipcode":"2638","geo_score":0.714,"total population 15 to 44 years old":329,"id":"afs6cfswgkfo","geo_precision":"zip"},"type":"Feature","geometry":{"type":"Point","coordinates":[-70.089142,41.725716]}},{"properties":{"zipcode":"2639","geo_score":0.714,"total population 15 to 44 years old":445,"id":"afs6cfs76nhv","geo_precision":"zip"},"type":"Feature","geometry":{"type":"Point","coordinates":[-70.071836,41.750745]}},{"properties":{"zipcode":"2641","geo_score":0.714,"total population 15 to 44 years old":32,"id":"afs6cg1x4xat","geo_precision":"zip"},"type":"Feature","geometry":{"type":"Point","coordinates":[-70.20467,41.734713]}},{"properties":{"zipcode":"2642","geo_score":0.714,"total population 15 to 44 years old":575,"id":"afs6cg33y51h","geo_precision":"zip"},"type":"Feature","geometry":{"type":"Point","coordinates":[-70.020648,41.850612]}},{"properties":{"zipcode":"2643","geo_score":0.714,"total population 15 to 44 years old":2,"id":"afs6cg1p7j75","geo_precision":"zip"},"type":"Feature","geometry":{"type":"Point","coordinates":[-69.943073,41.804276]}},{"properties":{"zipcode":"2644","geo_score":0.714,"total population 15 to 44 years old":758,"id":"afs6cg0rbsgx","geo_precision":"zip"},"type":"Feature","geometry":{"type":"Point","coordinates":[-70.268632,41.790031]}},{"properties":{"zipcode":"2645","geo_score":0.714,"total population 15 to 44 years old":1328,"id":"afs6cfz4bsv6","geo_precision":"zip"},"type":"Feature","geometry":{"type":"Point","coordinates":[-70.069384,41.692354]}},{"properties":{"zipcode":"2646","geo_score":0.714,"total population 15 to 44 years old":171,"id":"afs6cfrktqgi","geo_precision":"zip"},"type":"Feature","geometry":{"type":"Point","coordinates":[-70.053544,41.845717]}},{"properties":{"zipcode":"2647","geo_score":0.714,"total population 15 to 44 years old":16,"id":"afs6cfp8pecy","geo_precision":"zip"},"type":"Feature","geometry":{"type":"Point","coordinates":[-70.306336,41.635004]}},{"properties":{"zipcode":"2648","geo_score":0.714,"total population 15 to 44 years old":1163,"id":"afs6cfuws0e1","geo_precision":"zip"},"type":"Feature","geometry":{"type":"Point","coordinates":[-70.438637,41.671776]}},{"properties":{"zipcode":"2649","geo_score":0.714,"total population 15 to 44 years old":2213,"id":"afs6cfxpeher","geo_precision":"zip"},"type":"Feature","geometry":{"type":"Point","coordinates":[-70.476972,41.58261]}},{"properties":{"zipcode":"2650","geo_score":0.714,"total population 15 to 44 years old":75,"id":"afs6cfzv2dbq","geo_precision":"zip"},"type":"Feature","geometry":{"type":"Point","coordinates":[-69.96946,41.702889]}},{"properties":{"zipcode":"2651","geo_score":0.714,"total population 15 to 44 years old":0,"id":"afs6cfr8ysrb","geo_precision":"zip"},"type":"Feature","geometry":{"type":"Point","coordinates":[-70.00363,41.843719]}},{"properties":{"zipcode":"2652","geo_score":0.714,"total population 15 to 44 years old":139,"id":"afs6cg2502gz","geo_precision":"zip"},"type":"Feature","geometry":{"type":"Point","coordinates":[-70.131692,42.054825]}},{"properties":{"zipcode":"2653","geo_score":0.714,"total population 15 to 44 years old":559,"id":"afs6cfxcx2xc","geo_precision":"zip"},"type":"Feature","geometry":{"type":"Point","coordinates":[-69.956406,41.805664]}},{"properties":{"zipcode":"2655","geo_score":0.714,"total population 15 to 44 years old":432,"id":"afs6cg3ikpo1","geo_precision":"zip"},"type":"Feature","geometry":{"type":"Point","coordinates":[-70.191269,41.810178]}},{"properties":{"zipcode":"2657","geo_score":0.714,"total population 15 to 44 years old":321,"id":"afs6cfrijrxl","geo_precision":"zip"},"type":"Feature","geometry":{"type":"Point","coordinates":[-70.152248,42.063992]}},{"properties":{"zipcode":"2659","geo_score":0.714,"total population 15 to 44 years old":136,"id":"afs6cg558v4d","geo_precision":"zip"},"type":"Feature","geometry":{"type":"Point","coordinates":[-70.030194,41.848932]}},{"properties":{"zipcode":"2660","geo_score":0.714,"total population 15 to 44 years old":776,"id":"afs6cfqcmbm3","geo_precision":"zip"},"type":"Feature","geometry":{"type":"Point","coordinates":[-70.089244,41.80038]}},{"properties":{"zipcode":"2663","geo_score":0.714,"total population 15 to 44 years old":14,"id":"afs6cfrb42hx","geo_precision":"zip"},"type":"Feature","geometry":{"type":"Point","coordinates":[-70.076776,41.800531]}},{"properties":{"zipcode":"2664","geo_score":0.714,"total population 15 to 44 years old":1302,"id":"afs6cfuivdsl","geo_precision":"zip"},"type":"Feature","geometry":{"type":"Point","coordinates":[-70.084259,41.82412]}},{"properties":{"zipcode":"2666","geo_score":0.714,"total population 15 to 44 years old":90,"id":"afs6cfxo2816","geo_precision":"zip"},"type":"Feature","geometry":{"type":"Point","coordinates":[-70.047163,41.987377]}},{"properties":{"zipcode":"2667","geo_score":0.714,"total population 15 to 44 years old":342,"id":"afs6cfukiywl","geo_precision":"zip"},"type":"Feature","geometry":{"type":"Point","coordinates":[-69.985577,41.94455]}},{"properties":{"zipcode":"2668","geo_score":0.714,"total population 15 to 44 years old":476,"id":"afs6cfp5kypk","geo_precision":"zip"},"type":"Feature","geometry":{"type":"Point","coordinates":[-70.201719,41.79055]}},{"properties":{"zipcode":"2669","geo_score":0.714,"total population 15 to 44 years old":32,"id":"afs6cfw2ttur","geo_precision":"zip"},"type":"Feature","geometry":{"type":"Point","coordinates":[-70.004937,41.698721]}},{"properties":{"zipcode":"2670","geo_score":0.714,"total population 15 to 44 years old":159,"id":"afs6cfs3s6pr","geo_precision":"zip"},"type":"Feature","geometry":{"type":"Point","coordinates":[-70.072195,41.710855]}},{"properties":{"zipcode":"2671","geo_score":0.714,"total population 15 to 44 years old":125,"id":"afs6cg52nlma","geo_precision":"zip"},"type":"Feature","geometry":{"type":"Point","coordinates":[-70.038282,41.846719]}},{"properties":{"zipcode":"2672","geo_score":0.714,"total population 15 to 44 years old":18,"id":"afs6cfxh71vc","geo_precision":"zip"},"type":"Feature","geometry":{"type":"Point","coordinates":[-70.323307,41.635635]}},{"properties":{"zipcode":"2673","geo_score":0.714,"total population 15 to 44 years old":1409,"id":"afs6cfqa2vr7","geo_precision":"zip"},"type":"Feature","geometry":{"type":"Point","coordinates":[-70.246687,41.645945]}},{"properties":{"zipcode":"2675","geo_score":0.714,"total population 15 to 44 years old":692,"id":"afs6cfv43mnn","geo_precision":"zip"},"type":"Feature","geometry":{"type":"Point","coordinates":[-70.135884,41.716271]}},{"properties":{"zipcode":"2702","geo_score":0.714,"total population 15 to 44 years old":745,"id":"afs6cfvppxg0","geo_precision":"zip"},"type":"Feature","geometry":{"type":"Point","coordinates":[-71.017328,41.782993]}},{"properties":{"zipcode":"2703","geo_score":0.714,"total population 15 to 44 years old":8787,"id":"afs6cg4dvp9k","geo_precision":"zip"},"type":"Feature","geometry":{"type":"Point","coordinates":[-71.362,41.908433]}},{"properties":{"zipcode":"2713","geo_score":0.714,"total population 15 to 44 years old":6,"id":"afs6cfy1f7s2","geo_precision":"zip"},"type":"Feature","geometry":{"type":"Point","coordinates":[-70.931309,41.42178]}},{"properties":{"zipcode":"2715","geo_score":0.714,"total population 15 to 44 years old":591,"id":"afs6cfqzzfal","geo_precision":"zip"},"type":"Feature","geometry":{"type":"Point","coordinates":[-71.113379,41.836768]}},{"properties":{"zipcode":"2717","geo_score":0.714,"total population 15 to 44 years old":817,"id":"afs6cfz83tkj","geo_precision":"zip"},"type":"Feature","geometry":{"type":"Point","coordinates":[-70.970318,41.737603]}},{"properties":{"zipcode":"2718","geo_score":0.714,"total population 15 to 44 years old":1395,"id":"afs6cfvxtvpw","geo_precision":"zip"},"type":"Feature","geometry":{"type":"Point","coordinates":[-71.013148,41.871407]}},{"properties":{"zipcode":"2719","geo_score":0.714,"total population 15 to 44 years old":2703,"id":"afs6cg1akgx4","geo_precision":"zip"},"type":"Feature","geometry":{"type":"Point","coordinates":[-70.878648,41.632049]}},{"properties":{"zipcode":"2720","geo_score":0.714,"total population 15 to 44 years old":6354,"id":"afs6cg57jat2","geo_precision":"zip"},"type":"Feature","geometry":{"type":"Point","coordinates":[-71.165971,41.819766]}},{"properties":{"zipcode":"2721","geo_score":0.714,"total population 15 to 44 years old":5681,"id":"afs6cfrj6nmd","geo_precision":"zip"},"type":"Feature","geometry":{"type":"Point","coordinates":[-71.153648,41.678895]}},{"properties":{"zipcode":"2723","geo_score":0.714,"total population 15 to 44 years old":3284,"id":"afs6cfwnmobs","geo_precision":"zip"},"type":"Feature","geometry":{"type":"Point","coordinates":[-71.133088,41.693802]}},{"properties":{"zipcode":"2724","geo_score":0.714,"total population 15 to 44 years old":3636,"id":"afs6cg0e0d6x","geo_precision":"zip"},"type":"Feature","geometry":{"type":"Point","coordinates":[-71.175139,41.684202]}},{"properties":{"zipcode":"2725","geo_score":0.714,"total population 15 to 44 years old":442,"id":"afs6cfwk1v8g","geo_precision":"zip"},"type":"Feature","geometry":{"type":"Point","coordinates":[-71.173989,41.723851]}},{"properties":{"zipcode":"2726","geo_score":0.714,"total population 15 to 44 years old":2668,"id":"afs6cg2m8omo","geo_precision":"zip"},"type":"Feature","geometry":{"type":"Point","coordinates":[-71.153639,41.757951]}},{"properties":{"zipcode":"2738","geo_score":0.714,"total population 15 to 44 years old":722,"id":"afs6cfxy3mj2","geo_precision":"zip"},"type":"Feature","geometry":{"type":"Point","coordinates":[-70.745313,41.712604]}},{"properties":{"zipcode":"2739","geo_score":0.714,"total population 15 to 44 years old":881,"id":"afs6cfqe292j","geo_precision":"zip"},"type":"Feature","geometry":{"type":"Point","coordinates":[-70.805591,41.641494]}},{"properties":{"zipcode":"2740","geo_score":0.714,"total population 15 to 44 years old":8884,"id":"afs6cfsyiifr","geo_precision":"zip"},"type":"Feature","geometry":{"type":"Point","coordinates":[-70.951045,41.633416]}},{"properties":{"zipcode":"2743","geo_score":0.714,"total population 15 to 44 years old":1835,"id":"afs6cg1z89io","geo_precision":"zip"},"type":"Feature","geometry":{"type":"Point","coordinates":[-70.908286,41.711894]}},{"properties":{"zipcode":"2744","geo_score":0.714,"total population 15 to 44 years old":2600,"id":"afs6cg40p9bg","geo_precision":"zip"},"type":"Feature","geometry":{"type":"Point","coordinates":[-70.916181,41.609354]}},{"properties":{"zipcode":"2745","geo_score":0.714,"total population 15 to 44 years old":4907,"id":"afs6cfvs12rk","geo_precision":"zip"},"type":"Feature","geometry":{"type":"Point","coordinates":[-70.946883,41.7087]}},{"properties":{"zipcode":"2746","geo_score":0.714,"total population 15 to 44 years old":3467,"id":"afs6cfzcbc3u","geo_precision":"zip"},"type":"Feature","geometry":{"type":"Point","coordinates":[-70.943021,41.665704]}},{"properties":{"zipcode":"2747","geo_score":0.714,"total population 15 to 44 years old":5187,"id":"afs6cfsutedx","geo_precision":"zip"},"type":"Feature","geometry":{"type":"Point","coordinates":[-71.007578,41.639261]}},{"properties":{"zipcode":"2748","geo_score":0.714,"total population 15 to 44 years old":1718,"id":"afs6cg3vptav","geo_precision":"zip"},"type":"Feature","geometry":{"type":"Point","coordinates":[-70.949482,41.573716]}},{"properties":{"zipcode":"2760","geo_score":0.714,"total population 15 to 44 years old":5326,"id":"afs6cfq3m3lz","geo_precision":"zip"},"type":"Feature","geometry":{"type":"Point","coordinates":[-71.370334,41.927877]}},{"properties":{"zipcode":"2762","geo_score":0.714,"total population 15 to 44 years old":1594,"id":"afs6cfuh9mwg","geo_precision":"zip"},"type":"Feature","geometry":{"type":"Point","coordinates":[-71.308388,42.023155]}},{"properties":{"zipcode":"2763","geo_score":0.714,"total population 15 to 44 years old":386,"id":"afs6cg547e9m","geo_precision":"zip"},"type":"Feature","geometry":{"type":"Point","coordinates":[-71.308229,41.972584]}},{"properties":{"zipcode":"2764","geo_score":0.714,"total population 15 to 44 years old":717,"id":"afs6cfvi2c1q","geo_precision":"zip"},"type":"Feature","geometry":{"type":"Point","coordinates":[-71.155797,41.847791]}},{"properties":{"zipcode":"2766","geo_score":0.714,"total population 15 to 44 years old":4125,"id":"afs6cfqq7qks","geo_precision":"zip"},"type":"Feature","geometry":{"type":"Point","coordinates":[-71.170327,41.9751]}},{"properties":{"zipcode":"2767","geo_score":0.714,"total population 15 to 44 years old":2508,"id":"afs6cfzb3pag","geo_precision":"zip"},"type":"Feature","geometry":{"type":"Point","coordinates":[-71.048941,41.9367]}},{"properties":{"zipcode":"2769","geo_score":0.714,"total population 15 to 44 years old":1945,"id":"afs6cfwpoik4","geo_precision":"zip"},"type":"Feature","geometry":{"type":"Point","coordinates":[-71.257828,41.862601]}},{"properties":{"zipcode":"2770","geo_score":0.714,"total population 15 to 44 years old":833,"id":"afs6cfxpxk8m","geo_precision":"zip"},"type":"Feature","geometry":{"type":"Point","coordinates":[-70.846041,41.751812]}},{"properties":{"zipcode":"2771","geo_score":0.714,"total population 15 to 44 years old":2404,"id":"afs6cftsd7xo","geo_precision":"zip"},"type":"Feature","geometry":{"type":"Point","coordinates":[-71.330054,41.889267]}},{"properties":{"zipcode":"2777","geo_score":0.714,"total population 15 to 44 years old":2734,"id":"afs6cfvneq39","geo_precision":"zip"},"type":"Feature","geometry":{"type":"Point","coordinates":[-71.199491,41.775102]}},{"properties":{"zipcode":"2779","geo_score":0.714,"total population 15 to 44 years old":1301,"id":"afs6cg3ot3xr","geo_precision":"zip"},"type":"Feature","geometry":{"type":"Point","coordinates":[-71.064135,41.828249]}},{"properties":{"zipcode":"2780","geo_score":0.714,"total population 15 to 44 years old":10083,"id":"afs6cfoylxjp","geo_precision":"zip"},"type":"Feature","geometry":{"type":"Point","coordinates":[-71.135602,41.886212]}},{"properties":{"zipcode":"2790","geo_score":0.714,"total population 15 to 44 years old":2669,"id":"afs6cfv1ewou","geo_precision":"zip"},"type":"Feature","geometry":{"type":"Point","coordinates":[-71.049486,41.638992]}},{"properties":{"zipcode":"2791","geo_score":0.714,"total population 15 to 44 years old":21,"id":"afs6cg02vcxp","geo_precision":"zip"},"type":"Feature","geometry":{"type":"Point","coordinates":[-71.085137,41.519104]}},{"properties":{"zipcode":"2861","geo_score":0.714,"total population 15 to 44 years old":5237,"id":"afs6cg0qs665","geo_precision":"zip"},"type":"Feature","geometry":{"type":"Point","coordinates":[-71.363111,41.8851]}}],"is_temporal":false,"author":{"url":"","metadata":"","contact_name":"","contact_address":"","source":"","contact_phone":""},"source":"","pagination":{"sort":null,"start":0,"total":538,"limit":1000000},"state":"complete","tags":"","published":"2014-08-16T23:41:24-04:00","id":377458}