{"type":"FeatureCollection","data_type":"Dataset","url_type":null,"permissions":[{"permissions":{"download":true,"view":true},"group_id":"everyone"}],"classification":null,"title":"SAL_DM_DATA_CSV","count":130,"stream_id":377815,"contributor":{"url":"http://geocommons.com/users/77725","name":"ksweeney"},"data_attributes":null,"calculation_params":null,"icon_link":null,"link":"http://geocommons.com/overlays/377815.json","extent":[-98.4485,25.7743,-74.816,45.628],"geometry_types":["point"],"unique_name":null,"name":"SAL_DM_DATA_CSV","feature_count":130,"description":"","next_feature":null,"is_raster":false,"short_classification":"Y","stats":{"date":{"max":"2013/07/12 00:00:00 -0400","variance":3707276745960.65,"mean":"2013/05/23 06:49:50 -0400","stdev":1925428.97712708,"min":"2013/04/28 00:00:00 -0400","median":"2013/05/20 00:00:00 -0400"},"quantity delivered":{"max":35277,"variance":110825643.758855,"mean":15543.9076923077,"stdev":10527.3759198983,"min":4078,"median":10247}},"features":[{"properties":{"city":"Dubuque","month":"April","format":"Postcard","store name":"24204","date":{"end_time":"2013/04/29 00:00:00 -0400","original":"4.28.13","granularity":"day","time":"2013/04/28 00:00:00 -0400"},"geo_score":0.857,"zip code":"52001","column_9":null,"quantity delivered":6797,"id":"aft2klteufl4","geo_precision":"zip","state":"Iowa"},"type":"Feature","geometry":{"type":"Point","coordinates":[-90.779573,42.481114]}},{"properties":{"city":"Dubuque","month":"April","format":"Postcard","store name":"24204","date":{"end_time":"2013/04/29 00:00:00 -0400","original":"4.28.13","granularity":"day","time":"2013/04/28 00:00:00 -0400"},"geo_score":0.857,"zip code":"52003","column_9":null,"quantity delivered":6797,"id":"aft2klplyexi","geo_precision":"zip","state":"Iowa"},"type":"Feature","geometry":{"type":"Point","coordinates":[-90.716921,42.436426]}},{"properties":{"city":"Kouts","month":"April","format":"Postcard","store name":"Hinson Stores","date":{"end_time":"2013/04/29 00:00:00 -0400","original":"4.28.13","granularity":"day","time":"2013/04/28 00:00:00 -0400"},"geo_score":0.857,"zip code":"46347","column_9":null,"quantity delivered":35277,"id":"aft2klv38toz","geo_precision":"zip","state":"Indiana"},"type":"Feature","geometry":{"type":"Point","coordinates":[-87.066825,41.301319]}},{"properties":{"city":"Hebron","month":"April","format":"Postcard","store name":"Hinson Stores","date":{"end_time":"2013/04/29 00:00:00 -0400","original":"4.28.13","granularity":"day","time":"2013/04/28 00:00:00 -0400"},"geo_score":0.857,"zip code":"46341","column_9":null,"quantity delivered":35277,"id":"aft2klo8mrpd","geo_precision":"zip","state":"Indiana"},"type":"Feature","geometry":{"type":"Point","coordinates":[-87.2967,41.333092]}},{"properties":{"city":"Wheatfield","month":"April","format":"Postcard","store name":"Hinson Stores","date":{"end_time":"2013/04/29 00:00:00 -0400","original":"4.28.13","granularity":"day","time":"2013/04/28 00:00:00 -0400"},"geo_score":0.857,"zip code":"46392","column_9":null,"quantity delivered":35277,"id":"aft2klmpwluy","geo_precision":"zip","state":"Indiana"},"type":"Feature","geometry":{"type":"Point","coordinates":[-87.137527,41.144204]}},{"properties":{"city":"La Crosse","month":"April","format":"Postcard","store name":"Hinson Stores","date":{"end_time":"2013/04/29 00:00:00 -0400","original":"4.28.13","granularity":"day","time":"2013/04/28 00:00:00 -0400"},"geo_score":0.857,"zip code":"46348","column_9":null,"quantity delivered":35277,"id":"aft2kltfp7zi","geo_precision":"zip","state":"Indiana"},"type":"Feature","geometry":{"type":"Point","coordinates":[-86.806742,41.394105]}},{"properties":{"city":"Rensselaer","month":"April","format":"Postcard","store name":"Hinson Stores","date":{"end_time":"2013/04/29 00:00:00 -0400","original":"4.28.13","granularity":"day","time":"2013/04/28 00:00:00 -0400"},"geo_score":0.857,"zip code":"47978","column_9":null,"quantity delivered":35277,"id":"aft2klmt8dbi","geo_precision":"zip","state":"Indiana"},"type":"Feature","geometry":{"type":"Point","coordinates":[-86.998355,41.070872]}},{"properties":{"city":"Remington","month":"April","format":"Postcard","store name":"Hinson Stores","date":{"end_time":"2013/04/29 00:00:00 -0400","original":"4.28.13","granularity":"day","time":"2013/04/28 00:00:00 -0400"},"geo_score":0.857,"zip code":"47977","column_9":null,"quantity delivered":35277,"id":"aft2klrrlug2","geo_precision":"zip","state":"Indiana"},"type":"Feature","geometry":{"type":"Point","coordinates":[-87.161686,40.779206]}},{"properties":{"city":"Brook","month":"April","format":"Postcard","store name":"Hinson Stores","date":{"end_time":"2013/04/29 00:00:00 -0400","original":"4.28.13","granularity":"day","time":"2013/04/28 00:00:00 -0400"},"geo_score":0.857,"zip code":"47922","column_9":null,"quantity delivered":35277,"id":"aft2klvk9kqs","geo_precision":"zip","state":"Indiana"},"type":"Feature","geometry":{"type":"Point","coordinates":[-87.394076,40.883043]}},{"properties":{"city":"Fair Oaks","month":"April","format":"Postcard","store name":"Hinson Stores","date":{"end_time":"2013/04/29 00:00:00 -0400","original":"4.28.13","granularity":"day","time":"2013/04/28 00:00:00 -0400"},"geo_score":0.857,"zip code":"47943","column_9":null,"quantity delivered":35277,"id":"aft2kllrv2nz","geo_precision":"zip","state":"Indiana"},"type":"Feature","geometry":{"type":"Point","coordinates":[-87.208786,41.076883]}},{"properties":{"city":"Wolcott","month":"April","format":"Postcard","store name":"Hinson Stores","date":{"end_time":"2013/04/29 00:00:00 -0400","original":"4.28.13","granularity":"day","time":"2013/04/28 00:00:00 -0400"},"geo_score":0.857,"zip code":"47995","column_9":null,"quantity delivered":35277,"id":"aft2kllpo2q3","geo_precision":"zip","state":"Indiana"},"type":"Feature","geometry":{"type":"Point","coordinates":[-86.986683,40.756428]}},{"properties":{"city":"Goodland","month":"April","format":"Postcard","store name":"Hinson Stores","date":{"end_time":"2013/04/29 00:00:00 -0400","original":"4.28.13","granularity":"day","time":"2013/04/28 00:00:00 -0400"},"geo_score":0.857,"zip code":"47948","column_9":null,"quantity delivered":35277,"id":"aft2klqs72le","geo_precision":"zip","state":"Indiana"},"type":"Feature","geometry":{"type":"Point","coordinates":[-87.324812,40.794039]}},{"properties":{"city":"Monon","month":"April","format":"Postcard","store name":"Hinson Stores","date":{"end_time":"2013/04/29 00:00:00 -0400","original":"4.28.13","granularity":"day","time":"2013/04/28 00:00:00 -0400"},"geo_score":0.857,"zip code":"47959","column_9":null,"quantity delivered":35277,"id":"aft2klvkq5tg","geo_precision":"zip","state":"Indiana"},"type":"Feature","geometry":{"type":"Point","coordinates":[-86.93711,40.795391]}},{"properties":{"city":"Francesville","month":"April","format":"Postcard","store name":"Hinson Stores","date":{"end_time":"2013/04/29 00:00:00 -0400","original":"4.28.13","granularity":"day","time":"2013/04/28 00:00:00 -0400"},"geo_score":0.857,"zip code":"47946","column_9":null,"quantity delivered":35277,"id":"aft2klpocbw7","geo_precision":"zip","state":"Indiana"},"type":"Feature","geometry":{"type":"Point","coordinates":[-86.83465,40.984442]}},{"properties":{"city":"Morocco","month":"April","format":"Postcard","store name":"Hinson Stores","date":{"end_time":"2013/04/29 00:00:00 -0400","original":"4.28.13","granularity":"day","time":"2013/04/28 00:00:00 -0400"},"geo_score":0.857,"zip code":"47963","column_9":null,"quantity delivered":35277,"id":"aft2klqqdtho","geo_precision":"zip","state":"Indiana"},"type":"Feature","geometry":{"type":"Point","coordinates":[-87.411025,40.95469]}},{"properties":{"city":"Delphi","month":"April","format":"Postcard","store name":"Hinson Stores","date":{"end_time":"2013/04/29 00:00:00 -0400","original":"4.28.13","granularity":"day","time":"2013/04/28 00:00:00 -0400"},"geo_score":0.857,"zip code":"46923","column_9":null,"quantity delivered":35277,"id":"aft2klrnfdrd","geo_precision":"zip","state":"Indiana"},"type":"Feature","geometry":{"type":"Point","coordinates":[-86.717509,40.649205]}},{"properties":{"city":"Lafayette","month":"April","format":"Postcard","store name":"Hinson Stores","date":{"end_time":"2013/04/29 00:00:00 -0400","original":"4.28.13","granularity":"day","time":"2013/04/28 00:00:00 -0400"},"geo_score":0.857,"zip code":"47905","column_9":null,"quantity delivered":35277,"id":"aft2klmm31ft","geo_precision":"zip","state":"Indiana"},"type":"Feature","geometry":{"type":"Point","coordinates":[-86.756396,40.419758]}},{"properties":{"city":"Flora","month":"April","format":"Postcard","store name":"Hinson Stores","date":{"end_time":"2013/04/29 00:00:00 -0400","original":"4.28.13","granularity":"day","time":"2013/04/28 00:00:00 -0400"},"geo_score":0.857,"zip code":"46929","column_9":null,"quantity delivered":35277,"id":"aft2klu2dvs8","geo_precision":"zip","state":"Indiana"},"type":"Feature","geometry":{"type":"Point","coordinates":[-86.391386,40.553648]}},{"properties":{"city":"Brookston","month":"April","format":"Postcard","store name":"Hinson Stores","date":{"end_time":"2013/04/29 00:00:00 -0400","original":"4.28.13","granularity":"day","time":"2013/04/28 00:00:00 -0400"},"geo_score":0.857,"zip code":"47923","column_9":null,"quantity delivered":35277,"id":"aft2kllttkar","geo_precision":"zip","state":"Indiana"},"type":"Feature","geometry":{"type":"Point","coordinates":[-86.845433,40.661019]}},{"properties":{"city":"Battle Ground","month":"April","format":"Postcard","store name":"Hinson Stores","date":{"end_time":"2013/04/29 00:00:00 -0400","original":"4.28.13","granularity":"day","time":"2013/04/28 00:00:00 -0400"},"geo_score":0.857,"zip code":"47920","column_9":null,"quantity delivered":35277,"id":"aft2klv7ij8r","geo_precision":"zip","state":"Indiana"},"type":"Feature","geometry":{"type":"Point","coordinates":[-86.822842,40.533131]}},{"properties":{"city":"Monticello","month":"April","format":"Postcard","store name":"Hinson Stores","date":{"end_time":"2013/04/29 00:00:00 -0400","original":"4.28.13","granularity":"day","time":"2013/04/28 00:00:00 -0400"},"geo_score":0.857,"zip code":"47960","column_9":null,"quantity delivered":35277,"id":"aft2klihjvah","geo_precision":"zip","state":"Indiana"},"type":"Feature","geometry":{"type":"Point","coordinates":[-86.754456,40.698927]}},{"properties":{"city":"Bringhurst","month":"April","format":"Postcard","store name":"Hinson Stores","date":{"end_time":"2013/04/29 00:00:00 -0400","original":"4.28.13","granularity":"day","time":"2013/04/28 00:00:00 -0400"},"geo_score":0.857,"zip code":"46913","column_9":null,"quantity delivered":35277,"id":"aft2klrweuxg","geo_precision":"zip","state":"Indiana"},"type":"Feature","geometry":{"type":"Point","coordinates":[-86.507065,40.500141]}},{"properties":{"city":"Michigan City","month":"April","format":"Postcard","store name":"Hinson Stores","date":{"end_time":"2013/04/29 00:00:00 -0400","original":"4.28.13","granularity":"day","time":"2013/04/28 00:00:00 -0400"},"geo_score":0.857,"zip code":"46360","column_9":null,"quantity delivered":35277,"id":"aft2klk7ja6a","geo_precision":"zip","state":"Indiana"},"type":"Feature","geometry":{"type":"Point","coordinates":[-86.960309,41.681983]}},{"properties":{"city":"Hammond","month":"April","format":"Postcard","store name":"Hinson Stores","date":{"end_time":"2013/04/29 00:00:00 -0400","original":"4.28.13","granularity":"day","time":"2013/04/28 00:00:00 -0400"},"geo_score":0.857,"zip code":"46323","column_9":null,"quantity delivered":35277,"id":"aft2klkrearb","geo_precision":"zip","state":"Indiana"},"type":"Feature","geometry":{"type":"Point","coordinates":[-87.461707,41.595591]}},{"properties":{"city":"Camden","month":"April","format":"Postcard","store name":"Hinson Stores","date":{"end_time":"2013/04/29 00:00:00 -0400","original":"4.28.13","granularity":"day","time":"2013/04/28 00:00:00 -0400"},"geo_score":0.857,"zip code":"46917","column_9":null,"quantity delivered":35277,"id":"aft2klwfrpxy","geo_precision":"zip","state":"Indiana"},"type":"Feature","geometry":{"type":"Point","coordinates":[-86.391109,40.614205]}},{"properties":{"city":"Saint Cloud","month":"April","format":"Postcard","store name":"24903","date":{"end_time":"2013/04/29 00:00:00 -0400","original":"4.28.13","granularity":"day","time":"2013/04/28 00:00:00 -0400"},"geo_score":0.857,"zip code":"56303","column_9":null,"quantity delivered":6324,"id":"aft2klqp5x9d","geo_precision":"zip","state":"Minnesota"},"type":"Feature","geometry":{"type":"Point","coordinates":[-94.223023,45.627994]}},{"properties":{"city":"Waite Park","month":"April","format":"Postcard","store name":"24903","date":{"end_time":"2013/04/29 00:00:00 -0400","original":"4.28.13","granularity":"day","time":"2013/04/28 00:00:00 -0400"},"geo_score":0.857,"zip code":"56387","column_9":null,"quantity delivered":6324,"id":"aft2kljwa0c9","geo_precision":"zip","state":"Minnesota"},"type":"Feature","geometry":{"type":"Point","coordinates":[-94.667422,45.510622]}},{"properties":{"city":"Saint Cloud","month":"April","format":"Postcard","store name":"24903","date":{"end_time":"2013/04/29 00:00:00 -0400","original":"4.28.13","granularity":"day","time":"2013/04/28 00:00:00 -0400"},"geo_score":0.857,"zip code":"56301","column_9":null,"quantity delivered":6324,"id":"aft2klgvnebh","geo_precision":"zip","state":"Minnesota"},"type":"Feature","geometry":{"type":"Point","coordinates":[-94.24638,45.452743]}},{"properties":{"city":"Lawton","month":"April","format":"Postcard","store name":"23351","date":{"end_time":"2013/05/01 00:00:00 -0400","original":"4.30.13","granularity":"day","time":"2013/04/30 00:00:00 -0400"},"geo_score":0.857,"zip code":"73501","column_9":null,"quantity delivered":4078,"id":"aft2kluvv71x","geo_precision":"zip","state":"Oklahoma"},"type":"Feature","geometry":{"type":"Point","coordinates":[-98.448452,34.635378]}},{"properties":{"city":"Lawton","month":"April","format":"Postcard","store name":"23351","date":{"end_time":"2013/05/01 00:00:00 -0400","original":"4.30.13","granularity":"day","time":"2013/04/30 00:00:00 -0400"},"geo_score":0.857,"zip code":"73507","column_9":null,"quantity delivered":4078,"id":"aft2klxa5hld","geo_precision":"zip","state":"Oklahoma"},"type":"Feature","geometry":{"type":"Point","coordinates":[-98.387482,34.560957]}},{"properties":{"city":"Urbana","month":"May","format":"Postcard","store name":"24439","date":{"end_time":"2013/05/02 00:00:00 -0400","original":"5.1.13","granularity":"day","time":"2013/05/01 00:00:00 -0400"},"geo_score":0.857,"zip code":"61801","column_9":null,"quantity delivered":8636,"id":"aft2klmft73e","geo_precision":"zip","state":"Illinois"},"type":"Feature","geometry":{"type":"Point","coordinates":[-88.11032,40.113367]}},{"properties":{"city":"Urbana","month":"May","format":"Postcard","store name":"24439","date":{"end_time":"2013/05/02 00:00:00 -0400","original":"5.1.13","granularity":"day","time":"2013/05/01 00:00:00 -0400"},"geo_score":0.857,"zip code":"61802","column_9":null,"quantity delivered":8636,"id":"aft2klruza3g","geo_precision":"zip","state":"Illinois"},"type":"Feature","geometry":{"type":"Point","coordinates":[-88.169093,40.074573]}},{"properties":{"city":"Thompsonville","month":"May","format":"Postcard","store name":"23706","date":{"end_time":"2013/05/04 00:00:00 -0400","original":"5.3.13","granularity":"day","time":"2013/05/03 00:00:00 -0400"},"geo_score":0.857,"zip code":"49683","column_9":null,"quantity delivered":7246,"id":"aft2klv83od6","geo_precision":"zip","state":"Michigan"},"type":"Feature","geometry":{"type":"Point","coordinates":[-85.878135,44.520002]}},{"properties":{"city":"Honor","month":"May","format":"Postcard","store name":"23706","date":{"end_time":"2013/05/04 00:00:00 -0400","original":"5.3.13","granularity":"day","time":"2013/05/03 00:00:00 -0400"},"geo_score":0.857,"zip code":"49640","column_9":null,"quantity delivered":7246,"id":"aft2klk5ilai","geo_precision":"zip","state":"Michigan"},"type":"Feature","geometry":{"type":"Point","coordinates":[-86.050384,44.690037]}},{"properties":{"city":"Frankfort","month":"May","format":"Postcard","store name":"23706","date":{"end_time":"2013/05/04 00:00:00 -0400","original":"5.3.13","granularity":"day","time":"2013/05/03 00:00:00 -0400"},"geo_score":0.857,"zip code":"49635","column_9":null,"quantity delivered":7246,"id":"aft2kljlvx4l","geo_precision":"zip","state":"Michigan"},"type":"Feature","geometry":{"type":"Point","coordinates":[-86.24593,44.664998]}},{"properties":{"city":"Beulah","month":"May","format":"Postcard","store name":"23706","date":{"end_time":"2013/05/04 00:00:00 -0400","original":"5.3.13","granularity":"day","time":"2013/05/03 00:00:00 -0400"},"geo_score":0.857,"zip code":"49617","column_9":null,"quantity delivered":7246,"id":"aft2klk243tg","geo_precision":"zip","state":"Michigan"},"type":"Feature","geometry":{"type":"Point","coordinates":[-86.002509,44.630634]}},{"properties":{"city":"Benzonia","month":"May","format":"Postcard","store name":"23706","date":{"end_time":"2013/05/04 00:00:00 -0400","original":"5.3.13","granularity":"day","time":"2013/05/03 00:00:00 -0400"},"geo_score":0.857,"zip code":"49616","column_9":null,"quantity delivered":7246,"id":"aft2klikhrgs","geo_precision":"zip","state":"Michigan"},"type":"Feature","geometry":{"type":"Point","coordinates":[-86.07937,44.574478]}},{"properties":{"city":"Bear Lake","month":"May","format":"Postcard","store name":"23706","date":{"end_time":"2013/05/04 00:00:00 -0400","original":"5.3.13","granularity":"day","time":"2013/05/03 00:00:00 -0400"},"geo_score":0.857,"zip code":"49614","column_9":null,"quantity delivered":7246,"id":"aft2klqf493a","geo_precision":"zip","state":"Michigan"},"type":"Feature","geometry":{"type":"Point","coordinates":[-86.24009,44.426668]}},{"properties":{"city":"Arcadia","month":"May","format":"Postcard","store name":"23706","date":{"end_time":"2013/05/04 00:00:00 -0400","original":"5.3.13","granularity":"day","time":"2013/05/03 00:00:00 -0400"},"geo_score":0.857,"zip code":"49613","column_9":null,"quantity delivered":7246,"id":"aft2klwp89ta","geo_precision":"zip","state":"Michigan"},"type":"Feature","geometry":{"type":"Point","coordinates":[-86.209391,44.478837]}},{"properties":{"city":"Elberta","month":"May","format":"Postcard","store name":"23706","date":{"end_time":"2013/05/04 00:00:00 -0400","original":"5.3.13","granularity":"day","time":"2013/05/03 00:00:00 -0400"},"geo_score":0.857,"zip code":"49628","column_9":null,"quantity delivered":7246,"id":"aft2klug3e6w","geo_precision":"zip","state":"Michigan"},"type":"Feature","geometry":{"type":"Point","coordinates":[-86.21407,44.599526]}},{"properties":{"city":"Marianna","month":"May","format":"Bi-Fold","store name":"Boris Bros.","date":{"end_time":"2013/05/10 00:00:00 -0400","original":"5.9.13","granularity":"day","time":"2013/05/09 00:00:00 -0400"},"geo_score":0.857,"zip code":"32448","column_9":null,"quantity delivered":14844,"id":"aft2klpwb9b5","geo_precision":"zip","state":"Florida"},"type":"Feature","geometry":{"type":"Point","coordinates":[-85.392705,30.592694]}},{"properties":{"city":"Marianna","month":"May","format":"Bi-Fold","store name":"Boris Bros.","date":{"end_time":"2013/05/10 00:00:00 -0400","original":"5.9.13","granularity":"day","time":"2013/05/09 00:00:00 -0400"},"geo_score":0.857,"zip code":"32447","column_9":null,"quantity delivered":14844,"id":"aft2kln41yvj","geo_precision":"zip","state":"Florida"},"type":"Feature","geometry":{"type":"Point","coordinates":[-85.388817,30.651583]}},{"properties":{"city":"Marianna","month":"May","format":"Bi-Fold","store name":"Boris Bros.","date":{"end_time":"2013/05/10 00:00:00 -0400","original":"5.9.13","granularity":"day","time":"2013/05/09 00:00:00 -0400"},"geo_score":0.857,"zip code":"32446","column_9":null,"quantity delivered":14844,"id":"aft2klv1sy9e","geo_precision":"zip","state":"Florida"},"type":"Feature","geometry":{"type":"Point","coordinates":[-85.185205,30.710471]}},{"properties":{"city":"Old Town","month":"May","format":"Bi-Fold","store name":"Boris Bros.","date":{"end_time":"2013/05/10 00:00:00 -0400","original":"5.9.13","granularity":"day","time":"2013/05/09 00:00:00 -0400"},"geo_score":0.857,"zip code":"32680","column_9":null,"quantity delivered":14844,"id":"aft2klp9mywf","geo_precision":"zip","state":"Florida"},"type":"Feature","geometry":{"type":"Point","coordinates":[-83.004951,29.669866]}},{"properties":{"city":"Chiefland","month":"May","format":"Bi-Fold","store name":"Boris Bros.","date":{"end_time":"2013/05/10 00:00:00 -0400","original":"5.9.13","granularity":"day","time":"2013/05/09 00:00:00 -0400"},"geo_score":0.857,"zip code":"32626","column_9":null,"quantity delivered":14844,"id":"aft2kliwhg0u","geo_precision":"zip","state":"Florida"},"type":"Feature","geometry":{"type":"Point","coordinates":[-82.834776,29.389639]}},{"properties":{"city":"Gainesville","month":"May","format":"Bi-Fold","store name":"Boris Bros.","date":{"end_time":"2013/05/10 00:00:00 -0400","original":"5.9.13","granularity":"day","time":"2013/05/09 00:00:00 -0400"},"geo_score":0.857,"zip code":"32644","column_9":null,"quantity delivered":14844,"id":"aft2klqt54e7","geo_precision":"zip","state":"Florida"},"type":"Feature","geometry":{"type":"Point","coordinates":[-82.855334,29.460221]}},{"properties":{"city":"Trenton","month":"May","format":"Bi-Fold","store name":"Boris Bros.","date":{"end_time":"2013/05/10 00:00:00 -0400","original":"5.9.13","granularity":"day","time":"2013/05/09 00:00:00 -0400"},"geo_score":0.857,"zip code":"32693","column_9":null,"quantity delivered":14844,"id":"aft2kltihrpr","geo_precision":"zip","state":"Florida"},"type":"Feature","geometry":{"type":"Point","coordinates":[-82.897901,29.612181]}},{"properties":{"city":"Horseshoe Beach","month":"May","format":"Bi-Fold","store name":"Boris Bros.","date":{"end_time":"2013/05/10 00:00:00 -0400","original":"5.9.13","granularity":"day","time":"2013/05/09 00:00:00 -0400"},"geo_score":0.857,"zip code":"32648","column_9":null,"quantity delivered":14844,"id":"aft2klhq0kpr","geo_precision":"zip","state":"Florida"},"type":"Feature","geometry":{"type":"Point","coordinates":[-83.19261,29.538213]}},{"properties":{"city":"Cross City","month":"May","format":"Bi-Fold","store name":"Boris Bros.","date":{"end_time":"2013/05/10 00:00:00 -0400","original":"5.9.13","granularity":"day","time":"2013/05/09 00:00:00 -0400"},"geo_score":0.857,"zip code":"32628","column_9":null,"quantity delivered":14844,"id":"aft2klkoy8ca","geo_precision":"zip","state":"Florida"},"type":"Feature","geometry":{"type":"Point","coordinates":[-83.089669,29.680616]}},{"properties":{"city":"Archer","month":"May","format":"Bi-Fold","store name":"24747","date":{"end_time":"2013/05/10 00:00:00 -0400","original":"5.9.13","granularity":"day","time":"2013/05/09 00:00:00 -0400"},"geo_score":0.857,"zip code":"32618","column_9":null,"quantity delivered":7090,"id":"aft2kljt8w9l","geo_precision":"zip","state":"Florida"},"type":"Feature","geometry":{"type":"Point","coordinates":[-82.496219,29.550246]}},{"properties":{"city":"Williston","month":"May","format":"Bi-Fold","store name":"24747","date":{"end_time":"2013/05/10 00:00:00 -0400","original":"5.9.13","granularity":"day","time":"2013/05/09 00:00:00 -0400"},"geo_score":0.857,"zip code":"32696","column_9":null,"quantity delivered":7090,"id":"aft2klule9jz","geo_precision":"zip","state":"Florida"},"type":"Feature","geometry":{"type":"Point","coordinates":[-82.417314,29.388962]}},{"properties":{"city":"Gainesville","month":"May","format":"Bi-Fold","store name":"24747","date":{"end_time":"2013/05/10 00:00:00 -0400","original":"5.9.13","granularity":"day","time":"2013/05/09 00:00:00 -0400"},"geo_score":0.857,"zip code":"32608","column_9":null,"quantity delivered":7090,"id":"aft2klnr50d9","geo_precision":"zip","state":"Florida"},"type":"Feature","geometry":{"type":"Point","coordinates":[-82.407395,29.575246]}},{"properties":{"city":"Bronson","month":"May","format":"Bi-Fold","store name":"24747","date":{"end_time":"2013/05/10 00:00:00 -0400","original":"5.9.13","granularity":"day","time":"2013/05/09 00:00:00 -0400"},"geo_score":0.857,"zip code":"32621","column_9":null,"quantity delivered":7090,"id":"aft2klkeofx3","geo_precision":"zip","state":"Florida"},"type":"Feature","geometry":{"type":"Point","coordinates":[-82.549823,29.431045]}},{"properties":{"city":"Morgan City","month":"May","format":"Bi-Fold","store name":"24904","date":{"end_time":"2013/05/10 00:00:00 -0400","original":"5.9.13","granularity":"day","time":"2013/05/09 00:00:00 -0400"},"geo_score":0.857,"zip code":"70380","column_9":null,"quantity delivered":7129,"id":"aft2klh7vfod","geo_precision":"zip","state":"Louisiana"},"type":"Feature","geometry":{"type":"Point","coordinates":[-91.171213,29.689931]}},{"properties":{"city":"Patterson","month":"May","format":"Bi-Fold","store name":"24904","date":{"end_time":"2013/05/10 00:00:00 -0400","original":"5.9.13","granularity":"day","time":"2013/05/09 00:00:00 -0400"},"geo_score":0.857,"zip code":"70392","column_9":null,"quantity delivered":7129,"id":"aft2kljndxlp","geo_precision":"zip","state":"Louisiana"},"type":"Feature","geometry":{"type":"Point","coordinates":[-91.363441,29.699653]}},{"properties":{"city":"Berwick","month":"May","format":"Bi-Fold","store name":"24904","date":{"end_time":"2013/05/10 00:00:00 -0400","original":"5.9.13","granularity":"day","time":"2013/05/09 00:00:00 -0400"},"geo_score":0.857,"zip code":"70342","column_9":null,"quantity delivered":7129,"id":"aft2klu8vizc","geo_precision":"zip","state":"Louisiana"},"type":"Feature","geometry":{"type":"Point","coordinates":[-91.254271,29.714374]}},{"properties":{"city":"Cincinnati","month":"May","format":"Postcard","store name":"24809","date":{"end_time":"2013/05/20 00:00:00 -0400","original":"5.19.13","granularity":"day","time":"2013/05/19 00:00:00 -0400"},"geo_score":0.857,"zip code":"45224","column_9":null,"quantity delivered":6067,"id":"aft2klpeu0vw","geo_precision":"zip","state":"Ohio"},"type":"Feature","geometry":{"type":"Point","coordinates":[-84.524666,39.203669]}},{"properties":{"city":"Cincinnati","month":"May","format":"Postcard","store name":"24809","date":{"end_time":"2013/05/20 00:00:00 -0400","original":"5.19.13","granularity":"day","time":"2013/05/19 00:00:00 -0400"},"geo_score":0.857,"zip code":"45239","column_9":null,"quantity delivered":6067,"id":"aft2klx8duea","geo_precision":"zip","state":"Ohio"},"type":"Feature","geometry":{"type":"Point","coordinates":[-84.583557,39.246446]}},{"properties":{"city":"Cincinnati","month":"May","format":"Postcard","store name":"24809","date":{"end_time":"2013/05/20 00:00:00 -0400","original":"5.19.13","granularity":"day","time":"2013/05/19 00:00:00 -0400"},"geo_score":0.857,"zip code":"45231","column_9":null,"quantity delivered":6067,"id":"aft2klib8irk","geo_precision":"zip","state":"Ohio"},"type":"Feature","geometry":{"type":"Point","coordinates":[-84.494943,39.240336]}},{"properties":{"city":"Wabash","month":"May","format":"Postcard","store name":"24917","date":{"end_time":"2013/05/21 00:00:00 -0400","original":"5.20.13","granularity":"day","time":"2013/05/20 00:00:00 -0400"},"geo_score":0.857,"zip code":"46992","column_9":null,"quantity delivered":9201,"id":"aft2klnp7aoq","geo_precision":"zip","state":"Indiana"},"type":"Feature","geometry":{"type":"Point","coordinates":[-85.782483,40.724487]}},{"properties":{"city":"Lagro","month":"May","format":"Postcard","store name":"24917","date":{"end_time":"2013/05/21 00:00:00 -0400","original":"5.20.13","granularity":"day","time":"2013/05/20 00:00:00 -0400"},"geo_score":0.857,"zip code":"46941","column_9":null,"quantity delivered":9201,"id":"aft2kls0lvs8","geo_precision":"zip","state":"Indiana"},"type":"Feature","geometry":{"type":"Point","coordinates":[-85.700909,40.826475]}},{"properties":{"city":"Peru","month":"May","format":"Postcard","store name":"24917","date":{"end_time":"2013/05/21 00:00:00 -0400","original":"5.20.13","granularity":"day","time":"2013/05/20 00:00:00 -0400"},"geo_score":0.857,"zip code":"46970","column_9":null,"quantity delivered":9201,"id":"aft2klodn93d","geo_precision":"zip","state":"Indiana"},"type":"Feature","geometry":{"type":"Point","coordinates":[-86.063049,40.836987]}},{"properties":{"city":"Urbana","month":"May","format":"Postcard","store name":"24917","date":{"end_time":"2013/05/21 00:00:00 -0400","original":"5.20.13","granularity":"day","time":"2013/05/20 00:00:00 -0400"},"geo_score":0.857,"zip code":"46990","column_9":null,"quantity delivered":9201,"id":"aft2klwe79tg","geo_precision":"zip","state":"Indiana"},"type":"Feature","geometry":{"type":"Point","coordinates":[-85.736386,40.886571]}},{"properties":{"city":"Roann","month":"May","format":"Postcard","store name":"24917","date":{"end_time":"2013/05/21 00:00:00 -0400","original":"5.20.13","granularity":"day","time":"2013/05/20 00:00:00 -0400"},"geo_score":0.857,"zip code":"46974","column_9":null,"quantity delivered":9201,"id":"aft2kltgomcy","geo_precision":"zip","state":"Indiana"},"type":"Feature","geometry":{"type":"Point","coordinates":[-85.854151,40.951589]}},{"properties":{"city":"Somerset","month":"May","format":"Postcard","store name":"24917","date":{"end_time":"2013/05/21 00:00:00 -0400","original":"5.20.13","granularity":"day","time":"2013/05/20 00:00:00 -0400"},"geo_score":0.857,"zip code":"46984","column_9":null,"quantity delivered":9201,"id":"aft2klle8vwh","geo_precision":"zip","state":"Indiana"},"type":"Feature","geometry":{"type":"Point","coordinates":[-85.828846,40.671369]}},{"properties":{"city":"North Manchester","month":"May","format":"Postcard","store name":"24917","date":{"end_time":"2013/05/21 00:00:00 -0400","original":"5.20.13","granularity":"day","time":"2013/05/20 00:00:00 -0400"},"geo_score":0.857,"zip code":"46962","column_9":null,"quantity delivered":9201,"id":"aft2klwezuhw","geo_precision":"zip","state":"Indiana"},"type":"Feature","geometry":{"type":"Point","coordinates":[-85.832765,40.959766]}},{"properties":{"city":"Millville","month":"May","format":"Postcard","store name":"24905_24906","date":{"end_time":"2013/05/24 00:00:00 -0400","original":"5.23.13","granularity":"day","time":"2013/05/23 00:00:00 -0400"},"geo_score":0.857,"zip code":"08332","column_9":null,"quantity delivered":18317,"id":"aft2klto5l33","geo_precision":"zip","state":"New Jersey"},"type":"Feature","geometry":{"type":"Point","coordinates":[-75.024899,39.378171]}},{"properties":{"city":"Millville","month":"May","format":"Postcard","store name":"24905_24906","date":{"end_time":"2013/05/24 00:00:00 -0400","original":"5.23.13","granularity":"day","time":"2013/05/23 00:00:00 -0400"},"geo_score":0.857,"zip code":"08361","column_9":null,"quantity delivered":18317,"id":"aft2kllu654e","geo_precision":"zip","state":"New Jersey"},"type":"Feature","geometry":{"type":"Point","coordinates":[-74.965279,39.465465]}},{"properties":{"city":"Rio Grande","month":"May","format":"Postcard","store name":"24905_24906","date":{"end_time":"2013/05/24 00:00:00 -0400","original":"5.23.13","granularity":"day","time":"2013/05/23 00:00:00 -0400"},"geo_score":0.857,"zip code":"08242","column_9":null,"quantity delivered":18317,"id":"aft2klkui2cu","geo_precision":"zip","state":"New Jersey"},"type":"Feature","geometry":{"type":"Point","coordinates":[-74.883671,39.017283]}},{"properties":{"city":"Cape May","month":"May","format":"Postcard","store name":"24905_24906","date":{"end_time":"2013/05/24 00:00:00 -0400","original":"5.23.13","granularity":"day","time":"2013/05/23 00:00:00 -0400"},"geo_score":0.857,"zip code":"08204","column_9":null,"quantity delivered":18317,"id":"aft2klwcgyt1","geo_precision":"zip","state":"New Jersey"},"type":"Feature","geometry":{"type":"Point","coordinates":[-74.883504,39.005946]}},{"properties":{"city":"Wildwood","month":"May","format":"Postcard","store name":"24905_24906","date":{"end_time":"2013/05/24 00:00:00 -0400","original":"5.23.13","granularity":"day","time":"2013/05/23 00:00:00 -0400"},"geo_score":0.857,"zip code":"08260","column_9":null,"quantity delivered":18317,"id":"aft2klx9af30","geo_precision":"zip","state":"New Jersey"},"type":"Feature","geometry":{"type":"Point","coordinates":[-74.816001,39.013446]}},{"properties":{"city":"Villas","month":"May","format":"Postcard","store name":"24905_24906","date":{"end_time":"2013/05/24 00:00:00 -0400","original":"5.23.13","granularity":"day","time":"2013/05/23 00:00:00 -0400"},"geo_score":0.857,"zip code":"08251","column_9":null,"quantity delivered":18317,"id":"aft2klpd8hvk","geo_precision":"zip","state":"New Jersey"},"type":"Feature","geometry":{"type":"Point","coordinates":[-74.851181,39.140921]}},{"properties":{"city":"Hazel Crest","month":"May","format":"Postcard","store name":"24920","date":{"end_time":"2013/05/31 00:00:00 -0400","original":"5.30.13","granularity":"day","time":"2013/05/30 00:00:00 -0400"},"geo_score":0.857,"zip code":"60429","column_9":null,"quantity delivered":9498,"id":"aft2klmw4cx6","geo_precision":"zip","state":"Illinois"},"type":"Feature","geometry":{"type":"Point","coordinates":[-87.646435,41.573646]}},{"properties":{"city":"Hazel Crest","month":"May","format":"Postcard","store name":"24920","date":{"end_time":"2013/05/31 00:00:00 -0400","original":"5.30.13","granularity":"day","time":"2013/05/30 00:00:00 -0400"},"geo_score":0.857,"zip code":"60430","column_9":null,"quantity delivered":9498,"id":"aft2klmowjqh","geo_precision":"zip","state":"Illinois"},"type":"Feature","geometry":{"type":"Point","coordinates":[-87.68732,41.811929]}},{"properties":{"city":"Country Club Hills","month":"May","format":"Postcard","store name":"24920","date":{"end_time":"2013/05/31 00:00:00 -0400","original":"5.30.13","granularity":"day","time":"2013/05/30 00:00:00 -0400"},"geo_score":0.857,"zip code":"60478","column_9":null,"quantity delivered":9498,"id":"aft2klp20hxu","geo_precision":"zip","state":"Illinois"},"type":"Feature","geometry":{"type":"Point","coordinates":[-87.68732,41.811929]}},{"properties":{"city":"Markham","month":"May","format":"Postcard","store name":"24920","date":{"end_time":"2013/05/31 00:00:00 -0400","original":"5.30.13","granularity":"day","time":"2013/05/30 00:00:00 -0400"},"geo_score":0.714,"zip code":"60428","column_9":null,"quantity delivered":9498,"id":"aft2kltjzmiq","geo_precision":"city","state":"Illinois"},"type":"Feature","geometry":{"type":"Point","coordinates":[-87.69477,41.593645]}},{"properties":{"city":"Chicago","month":"May","format":"Postcard","store name":"24935","date":{"end_time":"2013/05/31 00:00:00 -0400","original":"5.30.13","granularity":"day","time":"2013/05/30 00:00:00 -0400"},"geo_score":0.857,"zip code":"60608","column_9":null,"quantity delivered":9970,"id":"aft2klmidt7x","geo_precision":"zip","state":"Illinois"},"type":"Feature","geometry":{"type":"Point","coordinates":[-87.68732,41.811929]}},{"properties":{"city":"Chicago","month":"May","format":"Postcard","store name":"24935","date":{"end_time":"2013/05/31 00:00:00 -0400","original":"5.30.13","granularity":"day","time":"2013/05/30 00:00:00 -0400"},"geo_score":0.857,"zip code":"60616","column_9":null,"quantity delivered":9970,"id":"aft2klodl59v","geo_precision":"zip","state":"Illinois"},"type":"Feature","geometry":{"type":"Point","coordinates":[-87.68732,41.811929]}},{"properties":{"city":"Chicago","month":"May","format":"Postcard","store name":"24935","date":{"end_time":"2013/05/31 00:00:00 -0400","original":"5.30.13","granularity":"day","time":"2013/05/30 00:00:00 -0400"},"geo_score":0.857,"zip code":"60609","column_9":null,"quantity delivered":9970,"id":"aft2klixtp32","geo_precision":"zip","state":"Illinois"},"type":"Feature","geometry":{"type":"Point","coordinates":[-87.68732,41.811929]}},{"properties":{"city":"East Moline","month":"May","format":"Postcard","store name":"24808","date":{"end_time":"2013/06/01 00:00:00 -0400","original":"5.31.13","granularity":"day","time":"2013/05/31 00:00:00 -0400"},"geo_score":0.857,"zip code":"61244","column_9":null,"quantity delivered":6641,"id":"aft2klsste3w","geo_precision":"zip","state":"Illinois"},"type":"Feature","geometry":{"type":"Point","coordinates":[-90.45652,41.457812]}},{"properties":{"city":"Silvis","month":"May","format":"Postcard","store name":"24808","date":{"end_time":"2013/06/01 00:00:00 -0400","original":"5.31.13","granularity":"day","time":"2013/05/31 00:00:00 -0400"},"geo_score":0.857,"zip code":"61282","column_9":null,"quantity delivered":6641,"id":"aft2klw8j7cj","geo_precision":"zip","state":"Illinois"},"type":"Feature","geometry":{"type":"Point","coordinates":[-90.51753,41.560381]}},{"properties":{"city":"Danville","month":"May","format":"Postcard","store name":"24747","date":{"end_time":"2013/06/01 00:00:00 -0400","original":"5.31.13","granularity":"day","time":"2013/05/31 00:00:00 -0400"},"geo_score":0.857,"zip code":"24540","column_9":null,"quantity delivered":5808,"id":"aft2klrsyjd6","geo_precision":"zip","state":"Virginia"},"type":"Feature","geometry":{"type":"Point","coordinates":[-79.376228,36.603501]}},{"properties":{"city":"Mc Donald","month":"June","format":"Postcard","store name":"24820_24830","date":{"end_time":"2013/06/04 00:00:00 -0400","original":"6.3.13","granularity":"day","time":"2013/06/03 00:00:00 -0400"},"geo_score":0.857,"zip code":"44437","column_9":null,"quantity delivered":18665,"id":"aft2klmeriu5","geo_precision":"zip","state":"Ohio"},"type":"Feature","geometry":{"type":"Point","coordinates":[-80.751899,41.151895]}},{"properties":{"city":"Girard","month":"June","format":"Postcard","store name":"24820_24830","date":{"end_time":"2013/06/04 00:00:00 -0400","original":"6.3.13","granularity":"day","time":"2013/06/03 00:00:00 -0400"},"geo_score":0.857,"zip code":"44420","column_9":null,"quantity delivered":18665,"id":"aft2klm8nol6","geo_precision":"zip","state":"Ohio"},"type":"Feature","geometry":{"type":"Point","coordinates":[-80.7223,41.143947]}},{"properties":{"city":"Niles","month":"June","format":"Postcard","store name":"24820_24830","date":{"end_time":"2013/06/04 00:00:00 -0400","original":"6.3.13","granularity":"day","time":"2013/06/03 00:00:00 -0400"},"geo_score":0.857,"zip code":"44446","column_9":null,"quantity delivered":18665,"id":"aft2klinjgfn","geo_precision":"zip","state":"Ohio"},"type":"Feature","geometry":{"type":"Point","coordinates":[-80.742459,41.186106]}},{"properties":{"city":"Mineral Ridge","month":"June","format":"Postcard","store name":"24820_24830","date":{"end_time":"2013/06/04 00:00:00 -0400","original":"6.3.13","granularity":"day","time":"2013/06/03 00:00:00 -0400"},"geo_score":0.857,"zip code":"44440","column_9":null,"quantity delivered":18665,"id":"aft2klweij52","geo_precision":"zip","state":"Ohio"},"type":"Feature","geometry":{"type":"Point","coordinates":[-80.82675,41.142558]}},{"properties":{"city":"Youngstown","month":"June","format":"Postcard","store name":"24820_24830","date":{"end_time":"2013/06/04 00:00:00 -0400","original":"6.3.13","granularity":"day","time":"2013/06/03 00:00:00 -0400"},"geo_score":0.857,"zip code":"44514","column_9":null,"quantity delivered":18665,"id":"aft2klqbd0t9","geo_precision":"zip","state":"Ohio"},"type":"Feature","geometry":{"type":"Point","coordinates":[-80.614795,41.024226]}},{"properties":{"city":"Struthers","month":"June","format":"Postcard","store name":"24820_24830","date":{"end_time":"2013/06/04 00:00:00 -0400","original":"6.3.13","granularity":"day","time":"2013/06/03 00:00:00 -0400"},"geo_score":0.857,"zip code":"44471","column_9":null,"quantity delivered":18665,"id":"aft2klwcm0mk","geo_precision":"zip","state":"Ohio"},"type":"Feature","geometry":{"type":"Point","coordinates":[-80.591298,41.050058]}},{"properties":{"city":"Saint Louis","month":"June","format":"Postcard","store name":"24540","date":{"end_time":"2013/06/04 00:00:00 -0400","original":"6.3.13","granularity":"day","time":"2013/06/03 00:00:00 -0400"},"geo_score":0.857,"zip code":"63123","column_9":null,"quantity delivered":6133,"id":"aft2klozq6cd","geo_precision":"zip","state":"Missouri"},"type":"Feature","geometry":{"type":"Point","coordinates":[-90.30956,38.553108]}},{"properties":{"city":"Milwaukee","month":"June","format":"Postcard","store name":"24087","date":{"end_time":"2013/06/04 00:00:00 -0400","original":"6.3.13","granularity":"day","time":"2013/06/03 00:00:00 -0400"},"geo_score":0.857,"zip code":"53221","column_9":null,"quantity delivered":10247,"id":"aft2klsnihmd","geo_precision":"zip","state":"Wisconsin"},"type":"Feature","geometry":{"type":"Point","coordinates":[-87.987933,42.950565]}},{"properties":{"city":"Milwaukee","month":"June","format":"Postcard","store name":"24087","date":{"end_time":"2013/06/04 00:00:00 -0400","original":"6.3.13","granularity":"day","time":"2013/06/03 00:00:00 -0400"},"geo_score":0.857,"zip code":"53215","column_9":null,"quantity delivered":10247,"id":"aft2klojx2wl","geo_precision":"zip","state":"Wisconsin"},"type":"Feature","geometry":{"type":"Point","coordinates":[-87.942935,43.006014]}},{"properties":{"city":"Haltom City","month":"June","format":"Postcard","store name":"Bill Kiker stores","date":{"end_time":"2013/06/05 00:00:00 -0400","original":"6.4.13","granularity":"day","time":"2013/06/04 00:00:00 -0400"},"geo_score":0.857,"zip code":"76117","column_9":null,"quantity delivered":24168,"id":"aft2klm4uv7l","geo_precision":"zip","state":"Texas"},"type":"Feature","geometry":{"type":"Point","coordinates":[-97.263393,32.801874]}},{"properties":{"city":"North Richland Hills","month":"June","format":"Postcard","store name":"Bill Kiker stores","date":{"end_time":"2013/06/05 00:00:00 -0400","original":"6.4.13","granularity":"day","time":"2013/06/04 00:00:00 -0400"},"geo_score":0.857,"zip code":"76180","column_9":null,"quantity delivered":24168,"id":"aft2klqi6521","geo_precision":"zip","state":"Texas"},"type":"Feature","geometry":{"type":"Point","coordinates":[-97.217416,32.868023]}},{"properties":{"city":"Fort Worth","month":"June","format":"Postcard","store name":"Bill Kiker stores","date":{"end_time":"2013/06/05 00:00:00 -0400","original":"6.4.13","granularity":"day","time":"2013/06/04 00:00:00 -0400"},"geo_score":0.857,"zip code":"76119","column_9":null,"quantity delivered":24168,"id":"aft2kljmag4f","geo_precision":"zip","state":"Texas"},"type":"Feature","geometry":{"type":"Point","coordinates":[-97.193275,32.798883]}},{"properties":{"city":"Paris","month":"June","format":"Postcard","store name":"Bill Kiker stores","date":{"end_time":"2013/06/05 00:00:00 -0400","original":"6.4.13","granularity":"day","time":"2013/06/04 00:00:00 -0400"},"geo_score":0.857,"zip code":"61944","column_9":null,"quantity delivered":24168,"id":"aft2klpeopir","geo_precision":"zip","state":"Illinois"},"type":"Feature","geometry":{"type":"Point","coordinates":[-87.793085,39.590035]}},{"properties":{"city":"Fort Worth","month":"June","format":"Postcard","store name":"Bill Kiker stores","date":{"end_time":"2013/06/05 00:00:00 -0400","original":"6.4.13","granularity":"day","time":"2013/06/04 00:00:00 -0400"},"geo_score":0.857,"zip code":"76103","column_9":null,"quantity delivered":24168,"id":"aft2kll4j7sv","geo_precision":"zip","state":"Texas"},"type":"Feature","geometry":{"type":"Point","coordinates":[-97.274093,32.756715]}},{"properties":{"city":"Fort Worth","month":"June","format":"Postcard","store name":"Bill Kiker stores","date":{"end_time":"2013/06/05 00:00:00 -0400","original":"6.4.13","granularity":"day","time":"2013/06/04 00:00:00 -0400"},"geo_score":0.857,"zip code":"76115","column_9":null,"quantity delivered":24168,"id":"aft2kls5k5hl","geo_precision":"zip","state":"Texas"},"type":"Feature","geometry":{"type":"Point","coordinates":[-97.291484,32.771419]}},{"properties":{"city":"Fort Worth","month":"June","format":"Postcard","store name":"Bill Kiker stores","date":{"end_time":"2013/06/05 00:00:00 -0400","original":"6.4.13","granularity":"day","time":"2013/06/04 00:00:00 -0400"},"geo_score":0.857,"zip code":"76134","column_9":null,"quantity delivered":24168,"id":"aft2klv1x7s4","geo_precision":"zip","state":"Texas"},"type":"Feature","geometry":{"type":"Point","coordinates":[-97.342795,32.657634]}},{"properties":{"city":"Fort Worth","month":"June","format":"Postcard","store name":"Bill Kiker stores","date":{"end_time":"2013/06/05 00:00:00 -0400","original":"6.4.13","granularity":"day","time":"2013/06/04 00:00:00 -0400"},"geo_score":0.857,"zip code":"76133","column_9":null,"quantity delivered":24168,"id":"aft2klu7q1bd","geo_precision":"zip","state":"Texas"},"type":"Feature","geometry":{"type":"Point","coordinates":[-97.291484,32.771419]}},{"properties":{"city":"Wichita","month":"June","format":"Postcard","store name":"24834","date":{"end_time":"2013/06/06 00:00:00 -0400","original":"6.5.13","granularity":"day","time":"2013/06/05 00:00:00 -0400"},"geo_score":0.857,"zip code":"67216","column_9":null,"quantity delivered":6453,"id":"aft2klw61n39","geo_precision":"zip","state":"Kansas"},"type":"Feature","geometry":{"type":"Point","coordinates":[-97.333934,37.520852]}},{"properties":{"city":"Wichita","month":"June","format":"Postcard","store name":"24834","date":{"end_time":"2013/06/06 00:00:00 -0400","original":"6.5.13","granularity":"day","time":"2013/06/05 00:00:00 -0400"},"geo_score":0.857,"zip code":"67211","column_9":null,"quantity delivered":6453,"id":"aft2klt9he5c","geo_precision":"zip","state":"Kansas"},"type":"Feature","geometry":{"type":"Point","coordinates":[-97.312573,37.661]}},{"properties":{"city":"Wichita","month":"June","format":"Postcard","store name":"24834","date":{"end_time":"2013/06/06 00:00:00 -0400","original":"6.5.13","granularity":"day","time":"2013/06/05 00:00:00 -0400"},"geo_score":0.857,"zip code":"67210","column_9":null,"quantity delivered":6453,"id":"aft2klnm5qnv","geo_precision":"zip","state":"Kansas"},"type":"Feature","geometry":{"type":"Point","coordinates":[-97.247359,37.615901]}},{"properties":{"city":"Athens","month":"June","format":"Postcard","store name":"22884","date":{"end_time":"2013/06/06 00:00:00 -0400","original":"6.5.13","granularity":"day","time":"2013/06/05 00:00:00 -0400"},"geo_score":0.857,"zip code":"37303","column_9":null,"quantity delivered":6662,"id":"aft2klowoq12","geo_precision":"zip","state":"Tennessee"},"type":"Feature","geometry":{"type":"Point","coordinates":[-84.559377,35.362851]}},{"properties":{"city":"Miami","month":"June","format":"Bi-Fold","store name":"24362","date":{"end_time":"2013/06/09 00:00:00 -0400","original":"6.8.13","granularity":"day","time":"2013/06/08 00:00:00 -0400"},"geo_score":0.857,"zip code":"33150","column_9":null,"quantity delivered":5243,"id":"aft2klruyjt3","geo_precision":"zip","state":"Florida"},"type":"Feature","geometry":{"type":"Point","coordinates":[-80.193659,25.774266]}},{"properties":{"city":"Miami","month":"June","format":"Bi-Fold","store name":"24362","date":{"end_time":"2013/06/09 00:00:00 -0400","original":"6.8.13","granularity":"day","time":"2013/06/08 00:00:00 -0400"},"geo_score":0.857,"zip code":"33147","column_9":null,"quantity delivered":5243,"id":"aft2klwyz3p6","geo_precision":"zip","state":"Florida"},"type":"Feature","geometry":{"type":"Point","coordinates":[-80.238173,25.851779]}},{"properties":{"city":"Prospect Heights","month":"June","format":"Postcard","store name":"24933","date":{"end_time":"2013/06/12 00:00:00 -0400","original":"6.11.13","granularity":"day","time":"2013/06/11 00:00:00 -0400"},"geo_score":0.857,"zip code":"60070","column_9":null,"quantity delivered":6320,"id":"aft2klpbqyvu","geo_precision":"zip","state":"Illinois"},"type":"Feature","geometry":{"type":"Point","coordinates":[-87.939519,42.105805]}},{"properties":{"city":"Northbrook","month":"June","format":"Postcard","store name":"24933","date":{"end_time":"2013/06/12 00:00:00 -0400","original":"6.11.13","granularity":"day","time":"2013/06/11 00:00:00 -0400"},"geo_score":0.857,"zip code":"60062","column_9":null,"quantity delivered":6320,"id":"aft2kllpf1wy","geo_precision":"zip","state":"Illinois"},"type":"Feature","geometry":{"type":"Point","coordinates":[-87.838815,42.120176]}},{"properties":{"city":"Mount Prospect","month":"June","format":"Postcard","store name":"24933","date":{"end_time":"2013/06/12 00:00:00 -0400","original":"6.11.13","granularity":"day","time":"2013/06/11 00:00:00 -0400"},"geo_score":0.857,"zip code":"60056","column_9":null,"quantity delivered":6320,"id":"aft2klrkfyv4","geo_precision":"zip","state":"Illinois"},"type":"Feature","geometry":{"type":"Point","coordinates":[-87.931797,42.062377]}},{"properties":{"city":"Wheeling","month":"June","format":"Postcard","store name":"24933","date":{"end_time":"2013/06/12 00:00:00 -0400","original":"6.11.13","granularity":"day","time":"2013/06/11 00:00:00 -0400"},"geo_score":0.857,"zip code":"60090","column_9":null,"quantity delivered":6320,"id":"aft2klnxldj7","geo_precision":"zip","state":"Illinois"},"type":"Feature","geometry":{"type":"Point","coordinates":[-87.933819,42.124176]}},{"properties":{"city":"Chicago","month":"June","format":"Postcard","store name":"24931","date":{"end_time":"2013/06/16 00:00:00 -0400","original":"6.15.13","granularity":"day","time":"2013/06/15 00:00:00 -0400"},"geo_score":0.857,"zip code":"60643","column_9":null,"quantity delivered":10791,"id":"aft2klqhnfid","geo_precision":"zip","state":"Illinois"},"type":"Feature","geometry":{"type":"Point","coordinates":[-87.660604,41.662812]}},{"properties":{"city":"Chicago","month":"June","format":"Postcard","store name":"24931","date":{"end_time":"2013/06/16 00:00:00 -0400","original":"6.15.13","granularity":"day","time":"2013/06/15 00:00:00 -0400"},"geo_score":0.857,"zip code":"60628","column_9":null,"quantity delivered":10791,"id":"aft2kltg5wt0","geo_precision":"zip","state":"Illinois"},"type":"Feature","geometry":{"type":"Point","coordinates":[-87.68732,41.811929]}},{"properties":{"city":"Buffalo","month":"June","format":"Postcard","store name":"24957","date":{"end_time":"2013/06/22 00:00:00 -0400","original":"6.21.13","granularity":"day","time":"2013/06/21 00:00:00 -0400"},"geo_score":0.857,"zip code":"14225","column_9":null,"quantity delivered":7363,"id":"aft2klkwqnt0","geo_precision":"zip","state":"New York"},"type":"Feature","geometry":{"type":"Point","coordinates":[-78.784199,42.94478]}},{"properties":{"city":"Cincinnati","month":"July","format":"Postcard","store name":"24883","date":{"end_time":"2013/07/02 00:00:00 -0400","original":"7.1.13","granularity":"day","time":"2013/07/01 00:00:00 -0400"},"geo_score":0.857,"zip code":"45211","column_9":null,"quantity delivered":11073,"id":"aft2klk4t2ao","geo_precision":"zip","state":"Ohio"},"type":"Feature","geometry":{"type":"Point","coordinates":[-84.553555,39.127837]}},{"properties":{"city":"Cincinnati","month":"July","format":"Postcard","store name":"24883","date":{"end_time":"2013/07/02 00:00:00 -0400","original":"7.1.13","granularity":"day","time":"2013/07/01 00:00:00 -0400"},"geo_score":0.857,"zip code":"45225","column_9":null,"quantity delivered":11073,"id":"aft2klw7au05","geo_precision":"zip","state":"Ohio"},"type":"Feature","geometry":{"type":"Point","coordinates":[-84.548944,39.144309]}},{"properties":{"city":"Cincinnati","month":"July","format":"Postcard","store name":"24883","date":{"end_time":"2013/07/02 00:00:00 -0400","original":"7.1.13","granularity":"day","time":"2013/07/01 00:00:00 -0400"},"geo_score":0.857,"zip code":"45238","column_9":null,"quantity delivered":11073,"id":"aft2kln8w170","geo_precision":"zip","state":"Ohio"},"type":"Feature","geometry":{"type":"Point","coordinates":[-84.612723,39.092837]}},{"properties":{"city":"Sioux City","month":"July","format":"Postcard","store name":"24967","date":{"end_time":"2013/07/02 00:00:00 -0400","original":"7.1.13","granularity":"day","time":"2013/07/01 00:00:00 -0400"},"geo_score":0.857,"zip code":"51105","column_9":null,"quantity delivered":8951,"id":"aft2klmenbbb","geo_precision":"zip","state":"Iowa"},"type":"Feature","geometry":{"type":"Point","coordinates":[-96.403691,42.481003]}},{"properties":{"city":"Sioux City","month":"July","format":"Postcard","store name":"24967","date":{"end_time":"2013/07/02 00:00:00 -0400","original":"7.1.13","granularity":"day","time":"2013/07/01 00:00:00 -0400"},"geo_score":0.857,"zip code":"51104","column_9":null,"quantity delivered":8951,"id":"aft2kloi07ft","geo_precision":"zip","state":"Iowa"},"type":"Feature","geometry":{"type":"Point","coordinates":[-96.106247,42.472367]}},{"properties":{"city":"Sioux City","month":"July","format":"Postcard","store name":"24967","date":{"end_time":"2013/07/02 00:00:00 -0400","original":"7.1.13","granularity":"day","time":"2013/07/01 00:00:00 -0400"},"geo_score":0.857,"zip code":"51103","column_9":null,"quantity delivered":8951,"id":"aft2klspvxoe","geo_precision":"zip","state":"Iowa"},"type":"Feature","geometry":{"type":"Point","coordinates":[-96.435508,42.523895]}},{"properties":{"city":"Sioux City","month":"July","format":"Postcard","store name":"24967","date":{"end_time":"2013/07/02 00:00:00 -0400","original":"7.1.13","granularity":"day","time":"2013/07/01 00:00:00 -0400"},"geo_score":0.857,"zip code":"51101","column_9":null,"quantity delivered":8951,"id":"aft2klojfz50","geo_precision":"zip","state":"Iowa"},"type":"Feature","geometry":{"type":"Point","coordinates":[-96.399356,42.494745]}},{"properties":{"city":"South Sioux City","month":"July","format":"Postcard","store name":"24967","date":{"end_time":"2013/07/02 00:00:00 -0400","original":"7.1.13","granularity":"day","time":"2013/07/01 00:00:00 -0400"},"geo_score":0.857,"zip code":"68776","column_9":null,"quantity delivered":8951,"id":"aft2klhsm3tp","geo_precision":"zip","state":"Nebraska"},"type":"Feature","geometry":{"type":"Point","coordinates":[-96.441697,42.44055]}},{"properties":{"city":"Bridgeton","month":"July","format":"Bi-Fold","store name":"423","date":{"end_time":"2013/07/02 00:00:00 -0400","original":"7.1.13","granularity":"day","time":"2013/07/01 00:00:00 -0400"},"geo_score":0.857,"zip code":"63044","column_9":null,"quantity delivered":19268,"id":"aft2klqeuhnx","geo_precision":"zip","state":"Missouri"},"type":"Feature","geometry":{"type":"Point","coordinates":[-90.411542,38.7514]}},{"properties":{"city":"Maryland Heights","month":"July","format":"Bi-Fold","store name":"423","date":{"end_time":"2013/07/02 00:00:00 -0400","original":"7.1.13","granularity":"day","time":"2013/07/01 00:00:00 -0400"},"geo_score":0.857,"zip code":"63043","column_9":null,"quantity delivered":19268,"id":"aft2klpjpu8s","geo_precision":"zip","state":"Missouri"},"type":"Feature","geometry":{"type":"Point","coordinates":[-90.447418,38.723951]}},{"properties":{"city":"Saint Ann","month":"July","format":"Bi-Fold","store name":"423","date":{"end_time":"2013/07/02 00:00:00 -0400","original":"7.1.13","granularity":"day","time":"2013/07/01 00:00:00 -0400"},"geo_score":0.857,"zip code":"63074","column_9":null,"quantity delivered":19268,"id":"aft2klppc2is","geo_precision":"zip","state":"Missouri"},"type":"Feature","geometry":{"type":"Point","coordinates":[-90.389516,38.724651]}},{"properties":{"city":"Saint Louis","month":"July","format":"Bi-Fold","store name":"423","date":{"end_time":"2013/07/02 00:00:00 -0400","original":"7.1.13","granularity":"day","time":"2013/07/01 00:00:00 -0400"},"geo_score":0.857,"zip code":"63146","column_9":null,"quantity delivered":19268,"id":"aft2klmhcuvq","geo_precision":"zip","state":"Missouri"},"type":"Feature","geometry":{"type":"Point","coordinates":[-90.461818,38.703251]}},{"properties":{"city":"Fort Wayne","month":"July","format":"Postcard","store name":"24615","date":{"end_time":"2013/07/04 00:00:00 -0400","original":"7.3.13","granularity":"day","time":"2013/07/03 00:00:00 -0400"},"geo_score":0.857,"zip code":"46816","column_9":null,"quantity delivered":11219,"id":"aft2klt22sjb","geo_precision":"zip","state":"Indiana"},"type":"Feature","geometry":{"type":"Point","coordinates":[-85.033817,40.988047]}},{"properties":{"city":"Fort Wayne","month":"July","format":"Postcard","store name":"24615","date":{"end_time":"2013/07/04 00:00:00 -0400","original":"7.3.13","granularity":"day","time":"2013/07/03 00:00:00 -0400"},"geo_score":0.857,"zip code":"46806","column_9":null,"quantity delivered":11219,"id":"aft2klil9egi","geo_precision":"zip","state":"Indiana"},"type":"Feature","geometry":{"type":"Point","coordinates":[-85.082319,41.049248]}},{"properties":{"city":"Fort Wayne","month":"July","format":"Postcard","store name":"24615","date":{"end_time":"2013/07/04 00:00:00 -0400","original":"7.3.13","granularity":"day","time":"2013/07/03 00:00:00 -0400"},"geo_score":0.857,"zip code":"46819","column_9":null,"quantity delivered":11219,"id":"aft2klj4qrx1","geo_precision":"zip","state":"Indiana"},"type":"Feature","geometry":{"type":"Point","coordinates":[-85.126419,40.978697]}},{"properties":{"city":"Hiawassee","month":"July","format":"Postcard","store name":"24948","date":{"end_time":"2013/07/13 00:00:00 -0400","original":"7.12.13","granularity":"day","time":"2013/07/12 00:00:00 -0400"},"geo_score":0.857,"zip code":"30546","column_9":null,"quantity delivered":6378,"id":"aft2klj2eh6g","geo_precision":"zip","state":"Georgia"},"type":"Feature","geometry":{"type":"Point","coordinates":[-83.631555,34.947037]}},{"properties":{"city":"Young Harris","month":"July","format":"Postcard","store name":"24948","date":{"end_time":"2013/07/13 00:00:00 -0400","original":"7.12.13","granularity":"day","time":"2013/07/12 00:00:00 -0400"},"geo_score":0.857,"zip code":"30582","column_9":null,"quantity delivered":6378,"id":"aft2kll4ehcb","geo_precision":"zip","state":"Georgia"},"type":"Feature","geometry":{"type":"Point","coordinates":[-83.857401,34.917867]}},{"properties":{"city":"Hayesville","month":"July","format":"Postcard","store name":"24948","date":{"end_time":"2013/07/13 00:00:00 -0400","original":"7.12.13","granularity":"day","time":"2013/07/12 00:00:00 -0400"},"geo_score":0.857,"zip code":"28904","column_9":null,"quantity delivered":6378,"id":"aft2klsy8zfw","geo_precision":"zip","state":"North Carolina"},"type":"Feature","geometry":{"type":"Point","coordinates":[-83.778309,35.071416]}}],"is_temporal":true,"author":{"url":"","metadata":null,"contact_name":null,"contact_address":null,"source":null,"contact_phone":null},"source":"","pagination":{"sort":null,"start":0,"total":130,"limit":1000000},"state":"complete","tags":"","published":"2014-08-17T00:05:55-04:00","id":377815}