{"type":"FeatureCollection","data_type":"Dataset","url_type":null,"permissions":[{"permissions":{"download":true,"view":true},"group_id":"everyone"}],"classification":null,"title":"Farmers Markets","count":10,"stream_id":37863,"contributor":{"url":"http://geocommons.com/users/11796","name":"puck_lo"},"data_attributes":null,"calculation_params":null,"icon_link":null,"link":"http://geocommons.com/overlays/37863.json","extent":[-122.293,37.7377,-122.058,37.898],"geometry_types":["point"],"unique_name":null,"name":"Farmers Markets","feature_count":10,"description":"Farmer's Markets in Oakland, CA","next_feature":null,"is_raster":false,"short_classification":"Y","stats":{"geo_score":{"max":1.0,"mean":0.854,"variance":0.02262,"stdev":0.150399468084166,"min":0.607,"median":0.915},"2000 u.s. census tract":{"max":6001409000,"mean":6001404620.2,"variance":7899502.62222222,"stdev":2810.60538358237,"min":6001400300,"median":6001404000}},"features":[{"properties":{"accepts ebt?":"No","city":"Oakland","name":"Claremont/ Temescal Farmer's Market","geo_score":1.0,"zip code":"94618","2000 u.s. census tract":6001400300,"hours of operation":"Sun 9-1pm","id":"a62isze5nuq8","geo_precision":"range","address":"5300 Claremont Ave","state":"CA"},"type":"Feature","geometry":{"type":"Point","coordinates":[-122.260486,37.839515]}},{"properties":{"accepts ebt?":"No","city":"Oakland","name":"E. Oakland Senior Center Farmer's Market","geo_score":1.0,"zip code":"94603","2000 u.s. census tract":6001409000,"hours of operation":"Wed 10:30-2:30pm","id":"a62iszluhvs9","geo_precision":"range","address":"9255 Edes Ave","state":"CA"},"type":"Feature","geometry":{"type":"Point","coordinates":[-122.18849,37.737746]}},{"properties":{"accepts ebt?":"Yes","city":"Oakland","name":"East Oakland Farmer's Market","geo_score":0.875,"zip code":"94621","2000 u.s. census tract":6001408600,"hours of operation":"Fri 10-2pm, May - November","id":"a62iszj32k6v","geo_precision":"street","address":"73RD AVE AT INTERNATIONAL BLVD","state":"CA"},"type":"Feature","geometry":{"type":"Point","coordinates":[-122.20368,37.767126]}},{"properties":{"accepts ebt?":"Yes","city":"Oakland","name":"Fruitvale Farmer's Market","geo_score":0.916,"zip code":"94601","2000 u.s. census tract":6001407200,"hours of operation":"Thurs 2-7pm, and Sunday 10-3pm","id":"a62iszi8ym4w","geo_precision":"range","address":"3411 E 12th St","state":"CA"},"type":"Feature","geometry":{"type":"Point","coordinates":[-122.223954,37.775988]}},{"properties":{"accepts ebt?":"No","city":"Oakland","name":"Grand Lake Farmer's Market","geo_score":0.714,"zip code":"94601","2000 u.s. census tract":6001403700,"hours of operation":"Sat 9-2pm","id":"a62isznniurm","geo_precision":"street","address":"Grand Ave &amp; Lake Park Ave","state":"CA"},"type":"Feature","geometry":{"type":"Point","coordinates":[-122.26738,37.811827]}},{"properties":{"accepts ebt?":"Yes","city":"Oakland","name":"Jack London Square Farmer's Market","geo_score":1.0,"zip code":"94607","2000 u.s. census tract":6001403700,"hours of operation":"Sun 10-2pm","id":"a62iszhmi4w8","geo_precision":"range","address":"1 Broadway","state":"CA"},"type":"Feature","geometry":{"type":"Point","coordinates":[-122.277779,37.794821]}},{"properties":{"accepts ebt?":"Yes","city":"Oakland","name":"Kaiser Permanente Oakland Farmer's Market","geo_score":0.915,"zip code":"94611","2000 u.s. census tract":6001404000,"hours of operation":"Fri 10-2pm","id":"a62iszhb9ura","geo_precision":"range","address":"3802 HOWE ST","state":"CA"},"type":"Feature","geometry":{"type":"Point","coordinates":[-122.256108,37.825066]}},{"properties":{"accepts ebt?":"No","city":"Oakland","name":"Mo' Betta Food/ Mandela Farmer's Market","geo_score":0.883,"zip code":"94607","2000 u.s. census tract":6001402100,"hours of operation":"Sat 10-4pm","id":"a62iszigztdu","geo_precision":"range","address":"1357 5th Street","state":"CA"},"type":"Feature","geometry":{"type":"Point","coordinates":[-122.292767,37.803502]}},{"properties":{"accepts ebt?":"Yes","city":"Oakland","name":"Montclair Farmer's Market","geo_score":0.63,"zip code":"94611","2000 u.s. census tract":6001404502,"hours of operation":"Sun 9-1pm","id":"a62iszlwehnv","geo_precision":"street","address":"LA SALLE AVE AT MORAGA AVE","state":"CA"},"type":"Feature","geometry":{"type":"Point","coordinates":[-122.238852,37.830536]}},{"properties":{"accepts ebt?":"Yes","city":"Oakland","name":"Old Oakland Farmer's Market","geo_score":0.607,"zip code":"94538","2000 u.s. census tract":6001403100,"hours of operation":"Fri 8-2pm","id":"a62iszlst36j","geo_precision":"street","address":"9TH and BROADWAY","state":"CA"},"type":"Feature","geometry":{"type":"Point","coordinates":[-122.058351,37.897971]}}],"is_temporal":false,"author":{"url":"http://www.cnngis.org/","metadata":"","contact_name":"","contact_address":"","source":"California Department of Public Health","contact_phone":""},"source":"http://www.cnngis.org/","pagination":{"sort":null,"start":0,"total":10,"limit":1000000},"state":"complete","tags":"access,food,oakland","published":"2014-08-10T18:41:05-04:00","id":37863}