{"type":"FeatureCollection","data_type":"Dataset","url_type":null,"permissions":[{"permissions":{"download":true,"view":true},"group_id":"everyone"}],"classification":null,"title":"90+","count":26,"stream_id":380151,"contributor":{"url":"http://geocommons.com/users/74787","name":"stevendosanjh"},"data_attributes":null,"calculation_params":null,"icon_link":null,"link":"http://geocommons.com/overlays/380151.json","extent":[-80.2402,43.5196,-76.5121,44.2317],"geometry_types":["point"],"unique_name":null,"name":"90+","feature_count":26,"description":"","next_feature":null,"is_raster":false,"short_classification":"Y","stats":{"latitude":{"max":44.231656,"variance":0.0191960618880064,"mean":43.7036273846154,"stdev":0.138549853439137,"min":43.519586,"median":43.715462},"title":{"max":183,"variance":2350.74615384615,"mean":97.8846153846154,"stdev":48.4844939526665,"min":37,"median":88},"longitude":{"max":-76.512096,"variance":0.418811008600166,"mean":-79.4924163846154,"stdev":0.64715609291744,"min":-80.240147,"median":-79.635034},"identifying number":{"max":11040571,"variance":2700.84461538461,"mean":11040471.2692308,"stdev":51.9696509068958,"min":11040408,"median":11040467}},"features":[{"properties":{"tenure":"90+","city":"Mississauga","latitude":43.58789,"title":37,"directions":"FALSE","zipcode":"L5A 2A5","freeform address":"Mississauga, ON, L5A 2A5, CA","country":"CA","education":"High School","identifying number":11040408,"longitude":-79.619856,"id":"afzs811r3qw6","state":"ON"},"type":"Feature","geometry":{"type":"Point","coordinates":[-79.619856,43.58789]}},{"properties":{"tenure":"90+","city":"Pickering","latitude":43.819096,"title":38,"directions":"FALSE","zipcode":"L1W 1M5","freeform address":"Pickering, ON, L1W 1M5, CA","country":"CA","education":"High School","identifying number":11040409,"longitude":-79.087983,"id":"afzs80tahn5g","state":"ON"},"type":"Feature","geometry":{"type":"Point","coordinates":[-79.087983,43.819096]}},{"properties":{"tenure":"90+","city":"Brampton","latitude":43.659312,"title":39,"directions":"FALSE","zipcode":"L6Y 2V1","freeform address":"Brampton, ON, L6Y 2V1, CA","country":"CA","education":"University","identifying number":11040410,"longitude":-79.756373,"id":"afzs80r1zdx2","state":"ON"},"type":"Feature","geometry":{"type":"Point","coordinates":[-79.756373,43.659312]}},{"properties":{"tenure":"90+","city":"Mississauga","latitude":43.574453,"title":42,"directions":"FALSE","zipcode":"L5M 5K7","freeform address":"Mississauga, ON, L5M 5K7, CA","country":"CA","education":"University","identifying number":11040412,"longitude":-79.733503,"id":"afzs813dnslf","state":"ON"},"type":"Feature","geometry":{"type":"Point","coordinates":[-79.733503,43.574453]}},{"properties":{"tenure":"90+","city":"Toronto","latitude":43.761473,"title":49,"directions":"FALSE","zipcode":"M2N 0C8","freeform address":"Toronto, ON, M2N 0C8, CA","country":"CA","education":"University","identifying number":11040419,"longitude":-79.410164,"id":"afzs80zd8v3w","state":"ON"},"type":"Feature","geometry":{"type":"Point","coordinates":[-79.410164,43.761473]}},{"properties":{"tenure":"90+","city":"Toronto","latitude":43.808501,"title":50,"directions":"FALSE","zipcode":"M1B 6G3","freeform address":"Toronto, ON, M1B 6G3, CA","country":"CA","education":"University","identifying number":11040421,"longitude":-79.183951,"id":"afzs80uec1ce","state":"ON"},"type":"Feature","geometry":{"type":"Point","coordinates":[-79.183951,43.808501]}},{"properties":{"tenure":"90+","city":"Mississauga","latitude":43.626531,"title":53,"directions":"FALSE","zipcode":"L5W 1R1","freeform address":"Mississauga, ON, L5W 1R1, CA","country":"CA","education":"University","identifying number":11040423,"longitude":-79.709838,"id":"afzs814j52u4","state":"ON"},"type":"Feature","geometry":{"type":"Point","coordinates":[-79.709838,43.626531]}},{"properties":{"tenure":"90+","city":"Brampton","latitude":43.643396,"title":58,"directions":"FALSE","zipcode":"L6Y 4Z8","freeform address":"Brampton, ON, L6Y 4Z8, CA","country":"CA","education":"PG","identifying number":11040428,"longitude":-79.735431,"id":"afzs815d4czu","state":"ON"},"type":"Feature","geometry":{"type":"Point","coordinates":[-79.735431,43.643396]}},{"properties":{"tenure":"90+","city":"Mississauga","latitude":43.536687,"title":68,"directions":"FALSE","zipcode":"L5M 8A5","freeform address":"Mississauga, ON, L5M 8A5, CA","country":"CA","education":"College","identifying number":11040447,"longitude":-79.733503,"id":"afzs814ukh9d","state":"ON"},"type":"Feature","geometry":{"type":"Point","coordinates":[-79.733503,43.536687]}},{"properties":{"tenure":"90+","city":"Toronto","latitude":43.761324,"title":74,"directions":"FALSE","zipcode":"M3J 1K6","freeform address":"Toronto, ON, M3J 1K6, CA","country":"CA","education":"College","identifying number":11040434,"longitude":-79.501672,"id":"afzs80y5yi4a","state":"ON"},"type":"Feature","geometry":{"type":"Point","coordinates":[-79.501672,43.761324]}},{"properties":{"tenure":"90+","city":"Mississauga","latitude":43.603531,"title":75,"directions":"FALSE","zipcode":"L5A 3H8","freeform address":"Mississauga, ON, L5A 3H8, CA","country":"CA","education":"College","identifying number":11040435,"longitude":-79.621961,"id":"afzs80y4gbpq","state":"ON"},"type":"Feature","geometry":{"type":"Point","coordinates":[-79.621961,43.603531]}},{"properties":{"tenure":"90+","city":"Brampton","latitude":43.763044,"title":85,"directions":"FALSE","zipcode":"L6R 2L2","freeform address":"Brampton, ON, L6R 2L2, CA","country":"CA","education":"College","identifying number":11040465,"longitude":-79.725791,"id":"afzs80wu809q","state":"ON"},"type":"Feature","geometry":{"type":"Point","coordinates":[-79.725791,43.763044]}},{"properties":{"tenure":"90+","city":"Mississauga","latitude":43.715462,"title":87,"directions":"FALSE","zipcode":"L4T 2R5","freeform address":"Mississauga, ON, L4T 2R5, CA","country":"CA","education":"University","identifying number":11040467,"longitude":-79.642316,"id":"afzs80r3xxtd","state":"ON"},"type":"Feature","geometry":{"type":"Point","coordinates":[-79.642316,43.715462]}},{"properties":{"tenure":"90+","city":"Toronto","latitude":43.691215,"title":88,"directions":"FALSE","zipcode":"M1L 2X3","freeform address":"Toronto, ON, M1L 2X3, CA","country":"CA","education":"University","identifying number":11040468,"longitude":-79.284841,"id":"afzs80qyci0m","state":"ON"},"type":"Feature","geometry":{"type":"Point","coordinates":[-79.284841,43.691215]}},{"properties":{"tenure":"90+","city":"Toronto","latitude":43.781033,"title":91,"directions":"FALSE","zipcode":"M2M 4L6","freeform address":"Toronto, ON, M2M 4L6, CA","country":"CA","education":"University","identifying number":11040452,"longitude":-79.41289,"id":"afzs80yeqyn1","state":"ON"},"type":"Feature","geometry":{"type":"Point","coordinates":[-79.41289,43.781033]}},{"properties":{"tenure":"90+","city":"Brampton","latitude":43.76127,"title":106,"directions":"FALSE","zipcode":"L6R 3C5","freeform address":"Brampton, ON, L6R 3C5, CA","country":"CA","education":"University","identifying number":11040499,"longitude":-79.753657,"id":"afzs80yj0k7a","state":"ON"},"type":"Feature","geometry":{"type":"Point","coordinates":[-79.753657,43.76127]}},{"properties":{"tenure":"90+","city":"Toronto","latitude":43.676168,"title":110,"directions":"FALSE","zipcode":"M9R 0A3","freeform address":"Toronto, ON, M9R 0A3, CA","country":"CA","education":"College","identifying number":11040485,"longitude":-79.566139,"id":"afzs80x1lu7h","state":"ON"},"type":"Feature","geometry":{"type":"Point","coordinates":[-79.566139,43.676168]}},{"properties":{"tenure":"90+","city":"Toronto","latitude":43.766649,"title":120,"directions":"FALSE","zipcode":"M3J 0A4","freeform address":"Toronto, ON, M3J 0A4, CA","country":"CA","education":"University","identifying number":11040483,"longitude":-79.504044,"id":"afzs80znxri9","state":"ON"},"type":"Feature","geometry":{"type":"Point","coordinates":[-79.504044,43.766649]}},{"properties":{"tenure":"90+","city":"Mississauga","latitude":43.590689,"title":121,"directions":"FALSE","zipcode":"L5B 3Y7","freeform address":"Mississauga, ON, L5B 3Y7, CA","country":"CA","education":"PG","identifying number":11040484,"longitude":-79.635034,"id":"afzs80upmbdj","state":"ON"},"type":"Feature","geometry":{"type":"Point","coordinates":[-79.635034,43.590689]}},{"properties":{"tenure":"90+","city":"Mississauga","latitude":43.601718,"title":144,"directions":"FALSE","zipcode":"L5E 2Y1","freeform address":"Mississauga, ON, L5E 2Y1, CA","country":"CA","education":"University","identifying number":11040525,"longitude":-79.562539,"id":"afzs80w54ccq","state":"ON"},"type":"Feature","geometry":{"type":"Point","coordinates":[-79.562539,43.601718]}},{"properties":{"tenure":"90+","city":"Mississauga","latitude":43.599511,"title":145,"directions":"FALSE","zipcode":"L5R 3S4","freeform address":"Mississauga, ON, L5R 3S4, CA","country":"CA","education":"College","identifying number":11040526,"longitude":-79.677223,"id":"afzs80tk4i62","state":"ON"},"type":"Feature","geometry":{"type":"Point","coordinates":[-79.677223,43.599511]}},{"properties":{"tenure":"90+","city":"Brampton","latitude":43.765957,"title":157,"directions":"FALSE","zipcode":"L6P 2R4","freeform address":"Brampton, ON, L6P 2R4, CA","country":"CA","education":"College","identifying number":11040540,"longitude":-79.664946,"id":"afzs80u6nj0r","state":"ON"},"type":"Feature","geometry":{"type":"Point","coordinates":[-79.664946,43.765957]}},{"properties":{"tenure":"90+","city":"Kingston","latitude":44.231656,"title":172,"directions":"FALSE","zipcode":"K7L 4S1","freeform address":"Kingston, ON, K7L 4S1, CA","country":"CA","education":"University","identifying number":11040545,"longitude":-76.512096,"id":"afzs80w8voi8","state":"ON"},"type":"Feature","geometry":{"type":"Point","coordinates":[-76.512096,44.231656]}},{"properties":{"tenure":"90+","city":"Brampton","latitude":43.715785,"title":175,"directions":"FALSE","zipcode":"L6Z 4A6","freeform address":"Brampton, ON, L6Z 4A6, CA","country":"CA","education":"University","identifying number":11040547,"longitude":-79.793075,"id":"afzs80p00l7e","state":"ON"},"type":"Feature","geometry":{"type":"Point","coordinates":[-79.793075,43.715785]}},{"properties":{"tenure":"90+","city":"Guelph","latitude":43.519586,"title":178,"directions":"FALSE","zipcode":"N1G 2W6","freeform address":"Guelph, ON, N1G 2W6, CA","country":"CA","education":"College","identifying number":11040550,"longitude":-80.240147,"id":"afzs80zvryhq","state":"ON"},"type":"Feature","geometry":{"type":"Point","coordinates":[-80.240147,43.519586]}},{"properties":{"tenure":"90+","city":"Brampton","latitude":43.732375,"title":183,"directions":"FALSE","zipcode":"L6S 3R5","freeform address":"Brampton, ON, L6S 3R5, CA","country":"CA","education":"PG","identifying number":11040571,"longitude":-79.733853,"id":"afzs80rib46m","state":"ON"},"type":"Feature","geometry":{"type":"Point","coordinates":[-79.733853,43.732375]}}],"is_temporal":false,"author":{"url":"","metadata":null,"contact_name":null,"contact_address":null,"source":null,"contact_phone":null},"source":"","pagination":{"sort":null,"start":0,"total":26,"limit":1000000},"state":"complete","tags":"","published":"2014-08-16T13:13:13-04:00","id":380151}