{"type":"FeatureCollection","data_type":"Dataset","url_type":null,"permissions":[{"permissions":{"download":true,"view":true},"group_id":"everyone"}],"classification":null,"title":"Monc","count":92,"stream_id":380191,"contributor":{"url":"http://geocommons.com/users/74787","name":"stevendosanjh"},"data_attributes":null,"calculation_params":null,"icon_link":null,"link":"http://geocommons.com/overlays/380191.json","extent":[-66.6619,45.3567,-63.2825,46.6739],"geometry_types":["point"],"unique_name":null,"name":"Monc","feature_count":92,"description":"","next_feature":null,"is_raster":false,"short_classification":"Y","stats":{"latitude":{"max":46.673918,"variance":0.0157940629454695,"mean":46.0802157391304,"stdev":0.125674432345921,"min":45.356658,"median":46.083297},"title":{"max":316,"variance":959.871476349737,"mean":264.586956521739,"stdev":30.9817926587494,"min":207,"median":265},"longitude":{"max":-63.282537,"variance":0.123477765131329,"mean":-64.7947350326087,"stdev":0.351394031154954,"min":-66.661921,"median":-64.791642}},"features":[{"properties":{"tenure":"Working","city":"Riverview","latitude":46.051568,"title":216,"zipcode":"E1B 3M2","freeform address":"Riverview, NB, E1B 3M2, CA","country":"CA","education":"High School","longitude":-64.806057,"id":"afzt5t9rbclp","state":"NB"},"type":"Feature","geometry":{"type":"Point","coordinates":[-64.806057,46.051568]}},{"properties":{"tenure":"Working","city":"Moncton","latitude":46.083194,"title":217,"zipcode":"E1E 1T7","freeform address":"Moncton, NB, E1E 1T7, CA","country":"CA","education":"University","longitude":-64.807858,"id":"afzt5th2avey","state":"NB"},"type":"Feature","geometry":{"type":"Point","coordinates":[-64.807858,46.083194]}},{"properties":{"tenure":"Working","city":"Riverview","latitude":46.041613,"title":218,"zipcode":"E1B 5P1","freeform address":"Riverview, NB, E1B 5P1, CA","country":"CA","education":"University","longitude":-64.811312,"id":"afzt5tgjs33b","state":"NB"},"type":"Feature","geometry":{"type":"Point","coordinates":[-64.811312,46.041613]}},{"properties":{"tenure":"Working","city":"Dieppe","latitude":46.079943,"title":220,"zipcode":"E1A 5N2","freeform address":"Dieppe, NB, E1A 5N2, CA","country":"CA","education":"College","longitude":-64.723211,"id":"afzt5t6gwxit","state":"NB"},"type":"Feature","geometry":{"type":"Point","coordinates":[-64.723211,46.079943]}},{"properties":{"tenure":"Working","city":"Moncton","latitude":46.117809,"title":223,"zipcode":"E1G 5E3","freeform address":"Moncton, NB, E1G 5E3, CA","country":"CA","education":"University","longitude":-64.852089,"id":"afzt5tkfnkkt","state":"NB"},"type":"Feature","geometry":{"type":"Point","coordinates":[-64.852089,46.117809]}},{"properties":{"tenure":"Working","city":"Dieppe","latitude":46.079715,"title":224,"zipcode":"E1A 5J3","freeform address":"Dieppe, NB, E1A 5J3, CA","country":"CA","education":"PG","longitude":-64.72179,"id":"afzt5tjl9oe3","state":"NB"},"type":"Feature","geometry":{"type":"Point","coordinates":[-64.72179,46.079715]}},{"properties":{"tenure":"Working","city":"Fredericton","latitude":45.944617,"title":225,"zipcode":"E3B 6K4","freeform address":"Fredericton, NB, E3B 6K4, CA","country":"CA","education":"University","longitude":-66.653667,"id":"afzt5t8ylbez","state":"NB"},"type":"Feature","geometry":{"type":"Point","coordinates":[-66.653667,45.944617]}},{"properties":{"tenure":"Working","city":"Moncton","latitude":46.092422,"title":207,"zipcode":"E1C 1Z6","freeform address":"Moncton, NB, E1C 1Z6, CA","country":"CA","education":"University","longitude":-64.780554,"id":"afzt5td82t4m","state":"NB"},"type":"Feature","geometry":{"type":"Point","coordinates":[-64.780554,46.092422]}},{"properties":{"tenure":"Working","city":"Moncton","latitude":46.090177,"title":209,"zipcode":"E1C 0H2","freeform address":"Moncton, NB, E1C 0H2, CA","country":"CA","education":"College","longitude":-64.78317,"id":"afzt5tjjv4mp","state":"NB"},"type":"Feature","geometry":{"type":"Point","coordinates":[-64.78317,46.090177]}},{"properties":{"tenure":"Working","city":"Hillsborough","latitude":45.905284,"title":210,"zipcode":"E4H 2Z2","freeform address":"Hillsborough, NB, E4H 2Z2, CA","country":"CA","education":"University","longitude":-64.635362,"id":"afzt5tm09ojw","state":"NB"},"type":"Feature","geometry":{"type":"Point","coordinates":[-64.635362,45.905284]}},{"properties":{"tenure":"Working","city":"Dieppe","latitude":46.079715,"title":211,"zipcode":"E1A 8Y9","freeform address":"Dieppe, NB, E1A 8Y9, CA","country":"CA","education":"High School","longitude":-64.72179,"id":"afzt5tflp5qk","state":"NB"},"type":"Feature","geometry":{"type":"Point","coordinates":[-64.72179,46.079715]}},{"properties":{"tenure":"Working","city":"Irishtown","latitude":46.226578,"title":212,"zipcode":"E1H 1R1","freeform address":"Irishtown, NB, E1H 1R1, CA","country":"CA","education":"University","longitude":-64.779614,"id":"afzt5t6mmy21","state":"NB"},"type":"Feature","geometry":{"type":"Point","coordinates":[-64.779614,46.226578]}},{"properties":{"tenure":"Working","city":"Moncton","latitude":46.078417,"title":213,"zipcode":"E1E 1L7","freeform address":"Moncton, NB, E1E 1L7, CA","country":"CA","education":"University","longitude":-64.802741,"id":"afzt5tbn3ees","state":"NB"},"type":"Feature","geometry":{"type":"Point","coordinates":[-64.802741,46.078417]}},{"properties":{"tenure":"Working","city":"Fredericton","latitude":45.990512,"title":226,"zipcode":"E3A 4Z3","freeform address":"Fredericton, NB, E3A 4Z3, CA","country":"CA","education":"University","longitude":-66.661921,"id":"afzt5tkkpzy6","state":"NB"},"type":"Feature","geometry":{"type":"Point","coordinates":[-66.661921,45.990512]}},{"properties":{"tenure":"Working","city":"Moncton","latitude":46.123811,"title":246,"zipcode":"E1G 2J6","freeform address":"Moncton, NB, E1G 2J6, CA","country":"CA","education":"High School","longitude":-64.878036,"id":"afzt5t9b6oea","state":"NB"},"type":"Feature","geometry":{"type":"Point","coordinates":[-64.878036,46.123811]}},{"properties":{"tenure":"Working","city":"Allison","latitude":46.062556,"title":236,"zipcode":"E1G 4K8","freeform address":"Allison, NB, E1G 4K8, CA","country":"CA","education":"College","longitude":-64.922997,"id":"afzt5tb9sh48","state":"NB"},"type":"Feature","geometry":{"type":"Point","coordinates":[-64.922997,46.062556]}},{"properties":{"tenure":"Working","city":"Riverview","latitude":46.057466,"title":237,"zipcode":"E1B 4J8","freeform address":"Riverview, NB, E1B 4J8, CA","country":"CA","education":"PG","longitude":-64.791642,"id":"afzt5t85osyn","state":"NB"},"type":"Feature","geometry":{"type":"Point","coordinates":[-64.791642,46.057466]}},{"properties":{"tenure":"Working","city":"Moncton","latitude":46.090357,"title":239,"zipcode":"E1C 1R2","freeform address":"Moncton, NB, E1C 1R2, CA","country":"CA","education":"University","longitude":-64.781064,"id":"afzt5tgngpum","state":"NB"},"type":"Feature","geometry":{"type":"Point","coordinates":[-64.781064,46.090357]}},{"properties":{"tenure":"Working","city":"Dieppe","latitude":46.079715,"title":240,"zipcode":"E1A 9A9","freeform address":"Dieppe, NB, E1A 9A9, CA","country":"CA","education":"University","longitude":-64.72179,"id":"afzt5td7xu4i","state":"NB"},"type":"Feature","geometry":{"type":"Point","coordinates":[-64.72179,46.079715]}},{"properties":{"tenure":"Working","city":"Moncton","latitude":46.108706,"title":241,"zipcode":"E1C 8S4","freeform address":"Moncton, NB, E1C 8S4, CA","country":"CA","education":"College","longitude":-64.821434,"id":"afzt5taje9qe","state":"NB"},"type":"Feature","geometry":{"type":"Point","coordinates":[-64.821434,46.108706]}},{"properties":{"tenure":"Working","city":"Moncton","latitude":46.056831,"title":242,"zipcode":"E1E 3S3","freeform address":"Moncton, NB, E1E 3S3, CA","country":"CA","education":"High School","longitude":-64.859407,"id":"afzt5tjyqu76","state":"NB"},"type":"Feature","geometry":{"type":"Point","coordinates":[-64.859407,46.056831]}},{"properties":{"tenure":"Working","city":"Moncton","latitude":46.125268,"title":244,"zipcode":"E1A 7A1","freeform address":"Moncton, NB, E1A 7A1, CA","country":"CA","education":"College","longitude":-64.719908,"id":"afzt5tagrbku","state":"NB"},"type":"Feature","geometry":{"type":"Point","coordinates":[-64.719908,46.125268]}},{"properties":{"tenure":"Working","city":"River Glade","latitude":46.032406,"title":245,"zipcode":"E4Z 3P2","freeform address":"River Glade, NB, E4Z 3P2, CA","country":"CA","education":"High School","longitude":-65.112897,"id":"afzt5tgyx66h","state":"NB"},"type":"Feature","geometry":{"type":"Point","coordinates":[-65.112897,46.032406]}},{"properties":{"tenure":"Working","city":"Moncton","latitude":46.078676,"title":228,"zipcode":"E1E 1N1","freeform address":"Moncton, NB, E1E 1N1, CA","country":"CA","education":"College","longitude":-64.811611,"id":"afzt5t9oj9ie","state":"NB"},"type":"Feature","geometry":{"type":"Point","coordinates":[-64.811611,46.078676]}},{"properties":{"tenure":"Working","city":"Moncton","latitude":46.111107,"title":231,"zipcode":"E1C 4J9","freeform address":"Moncton, NB, E1C 4J9, CA","country":"CA","education":"University","longitude":-64.81068,"id":"afzt5tlda50a","state":"NB"},"type":"Feature","geometry":{"type":"Point","coordinates":[-64.81068,46.111107]}},{"properties":{"tenure":"Working","city":"Richibucto","latitude":46.673918,"title":232,"zipcode":"E4W 3W5","freeform address":"Richibucto, NB, E4W 3W5, CA","country":"CA","education":"University","longitude":-64.864198,"id":"afzt5tkik8kv","state":"NB"},"type":"Feature","geometry":{"type":"Point","coordinates":[-64.864198,46.673918]}},{"properties":{"tenure":"Working","city":"Riverview","latitude":46.073074,"title":234,"zipcode":"E1B 0A8","freeform address":"Riverview, NB, E1B 0A8, CA","country":"CA","education":"College","longitude":-64.759445,"id":"afzt5tawhfac","state":"NB"},"type":"Feature","geometry":{"type":"Point","coordinates":[-64.759445,46.073074]}},{"properties":{"tenure":"Working","city":"Moncton","latitude":46.0938,"title":235,"zipcode":"E1C 5E4","freeform address":"Moncton, NB, E1C 5E4, CA","country":"CA","education":"College","longitude":-64.782191,"id":"afzt5ti0cpfz","state":"NB"},"type":"Feature","geometry":{"type":"Point","coordinates":[-64.782191,46.0938]}},{"properties":{"tenure":"Working","city":"Sussex","latitude":45.718566,"title":247,"zipcode":"E4E 0B8","freeform address":"Sussex, NB, E4E 0B8, CA","country":"CA","education":"College","longitude":-65.481035,"id":"afzt5tkzroaa","state":"NB"},"type":"Feature","geometry":{"type":"Point","coordinates":[-65.481035,45.718566]}},{"properties":{"tenure":"Working","city":"Moncton","latitude":46.114986,"title":248,"zipcode":"E1A 6C2","freeform address":"Moncton, NB, E1A 6C2, CA","country":"CA","education":"University","longitude":-64.789657,"id":"afzt5ti4s3wl","state":"NB"},"type":"Feature","geometry":{"type":"Point","coordinates":[-64.789657,46.114986]}},{"properties":{"tenure":"Working","city":"Middleton","latitude":45.919275,"title":249,"zipcode":"E4K 3G5","freeform address":"Middleton, NB, E4K 3G5, CA","country":"CA","education":"College","longitude":-64.502178,"id":"afzt5td1lucl","state":"NB"},"type":"Feature","geometry":{"type":"Point","coordinates":[-64.502178,45.919275]}},{"properties":{"tenure":"Working","city":"Haute-Aboujagane","latitude":46.124244,"title":259,"zipcode":"E4P 5T1","freeform address":"Haute-Aboujagane, NB, E4P 5T1, CA","country":"CA","education":"College","longitude":-64.399451,"id":"afzt5tascoku","state":"NB"},"type":"Feature","geometry":{"type":"Point","coordinates":[-64.399451,46.124244]}},{"properties":{"tenure":"Working","city":"Riverview","latitude":46.064146,"title":260,"zipcode":"E1B 2K7","freeform address":"Riverview, NB, E1B 2K7, CA","country":"CA","education":"University","longitude":-64.790341,"id":"afzt5tjx1ffh","state":"NB"},"type":"Feature","geometry":{"type":"Point","coordinates":[-64.790341,46.064146]}},{"properties":{"tenure":"Working","city":"Dieppe","latitude":46.079715,"title":261,"zipcode":"E1A 9B1","freeform address":"Dieppe, NB, E1A 9B1, CA","country":"CA","education":"High School","longitude":-64.72179,"id":"afzt5t9uu8rn","state":"NB"},"type":"Feature","geometry":{"type":"Point","coordinates":[-64.72179,46.079715]}},{"properties":{"tenure":"Working","city":"Amherst","latitude":45.825453,"title":262,"zipcode":"B4H 1M6","freeform address":"Amherst, NS, B4H 1M6, CA","country":"CA","education":"University","longitude":-64.204321,"id":"afzt5tgd44x9","state":"NS"},"type":"Feature","geometry":{"type":"Point","coordinates":[-64.204321,45.825453]}},{"properties":{"tenure":"Working","city":"Moncton","latitude":46.113948,"title":263,"zipcode":"E1G 1H5","freeform address":"Moncton, NB, E1G 1H5, CA","country":"CA","education":"High School","longitude":-64.841731,"id":"afzt5tf0vowv","state":"NB"},"type":"Feature","geometry":{"type":"Point","coordinates":[-64.841731,46.113948]}},{"properties":{"tenure":"Working","city":"Riverview","latitude":46.056629,"title":264,"zipcode":"E1B 2H6","freeform address":"Riverview, NB, E1B 2H6, CA","country":"CA","education":"University","longitude":-64.798546,"id":"afzt5thl0iw7","state":"NB"},"type":"Feature","geometry":{"type":"Point","coordinates":[-64.798546,46.056629]}},{"properties":{"tenure":"Working","city":"Truro","latitude":45.356658,"title":265,"zipcode":"B2N 3P8","freeform address":"Truro, NS, B2N 3P8, CA","country":"CA","education":"College","longitude":-63.282537,"id":"afzt5tdvy144","state":"NS"},"type":"Feature","geometry":{"type":"Point","coordinates":[-63.282537,45.356658]}},{"properties":{"tenure":"Working","city":"Moncton","latitude":46.101471,"title":266,"zipcode":"E1E 4W6","freeform address":"Moncton, NB, E1E 4W6, CA","country":"CA","education":"College","longitude":-64.849839,"id":"afzt5t8uprnz","state":"NB"},"type":"Feature","geometry":{"type":"Point","coordinates":[-64.849839,46.101471]}},{"properties":{"tenure":"Working","city":"Dieppe","latitude":46.071673,"title":250,"zipcode":"E1A 1A5","freeform address":"Dieppe, NB, E1A 1A5, CA","country":"CA","education":"High School","longitude":-64.711398,"id":"afzt5titw1fl","state":"NB"},"type":"Feature","geometry":{"type":"Point","coordinates":[-64.711398,46.071673]}},{"properties":{"tenure":"Working","city":"Moncton","latitude":46.120013,"title":251,"zipcode":"E1G 1K3","freeform address":"Moncton, NB, E1G 1K3, CA","country":"CA","education":"University","longitude":-64.837778,"id":"afzt5t7zw1wq","state":"NB"},"type":"Feature","geometry":{"type":"Point","coordinates":[-64.837778,46.120013]}},{"properties":{"tenure":"Working","city":"Irishtown","latitude":46.219497,"title":252,"zipcode":"E1H 2K8","freeform address":"Irishtown, NB, E1H 2K8, CA","country":"CA","education":"College","longitude":-64.807091,"id":"afzt5tcq2x8l","state":"NB"},"type":"Feature","geometry":{"type":"Point","coordinates":[-64.807091,46.219497]}},{"properties":{"tenure":"Working","city":"Moncton","latitude":46.101336,"title":253,"zipcode":"E1C 9B2","freeform address":"Moncton, NB, E1C 9B2, CA","country":"CA","education":"High School","longitude":-64.829803,"id":"afzt5tekjleo","state":"NB"},"type":"Feature","geometry":{"type":"Point","coordinates":[-64.829803,46.101336]}},{"properties":{"tenure":"Working","city":"Moncton","latitude":46.101824,"title":254,"zipcode":"E1C 6W8","freeform address":"Moncton, NB, E1C 6W8, CA","country":"CA","education":"College","longitude":-64.803304,"id":"afzt5t8s3hn4","state":"NB"},"type":"Feature","geometry":{"type":"Point","coordinates":[-64.803304,46.101824]}},{"properties":{"tenure":"Working","city":"SAINT-ANDRE-LEBLANC","latitude":46.191312,"title":255,"zipcode":"E4P 6C7","freeform address":"SAINT-ANDRE-LEBLANC, NB, E4P 6C7, CA","country":"CA","education":"University","longitude":-64.264267,"id":"afzt5tgksczr","state":"NB"},"type":"Feature","geometry":{"type":"Point","coordinates":[-64.264267,46.191312]}},{"properties":{"tenure":"Working","city":"Riverview","latitude":46.072554,"title":256,"zipcode":"E1B 0B1","freeform address":"Riverview, NB, E1B 0B1, CA","country":"CA","education":"College","longitude":-64.759935,"id":"afzt5thb9xwy","state":"NB"},"type":"Feature","geometry":{"type":"Point","coordinates":[-64.759935,46.072554]}},{"properties":{"tenure":"Working","city":"Moncton","latitude":46.102687,"title":257,"zipcode":"E1C 9C6","freeform address":"Moncton, NB, E1C 9C6, CA","country":"CA","education":"College","longitude":-64.832341,"id":"afzt5tdg287e","state":"NB"},"type":"Feature","geometry":{"type":"Point","coordinates":[-64.832341,46.102687]}},{"properties":{"tenure":"Working","city":"Moncton","latitude":46.107837,"title":258,"zipcode":"E1C 4G2","freeform address":"Moncton, NB, E1C 4G2, CA","country":"CA","education":"University","longitude":-64.808262,"id":"afzt5tld05yp","state":"NB"},"type":"Feature","geometry":{"type":"Point","coordinates":[-64.808262,46.107837]}},{"properties":{"tenure":"Working","city":"Riverview","latitude":46.056477,"title":269,"zipcode":"E1B 3B8","freeform address":"Riverview, NB, E1B 3B8, CA","country":"CA","education":"University","longitude":-64.822894,"id":"afzt5tdvs6ey","state":"NB"},"type":"Feature","geometry":{"type":"Point","coordinates":[-64.822894,46.056477]}},{"properties":{"tenure":"Working","city":"Riverview","latitude":46.051503,"title":272,"zipcode":"E1B 3G5","freeform address":"Riverview, NB, E1B 3G5, CA","country":"CA","education":"University","longitude":-64.811857,"id":"afzt5t79w6mi","state":"NB"},"type":"Feature","geometry":{"type":"Point","coordinates":[-64.811857,46.051503]}},{"properties":{"tenure":"Working","city":"Riverview","latitude":46.061234,"title":273,"zipcode":"E1B 3G9","freeform address":"Riverview, NB, E1B 3G9, CA","country":"CA","education":"High School","longitude":-64.822534,"id":"afzt5tjulgow","state":"NB"},"type":"Feature","geometry":{"type":"Point","coordinates":[-64.822534,46.061234]}},{"properties":{"tenure":"Working","city":"Dieppe","latitude":46.09546,"title":274,"zipcode":"E1A 7Y2","freeform address":"Dieppe, NB, E1A 7Y2, CA","country":"CA","education":"High School","longitude":-64.739813,"id":"afzt5te9ukg2","state":"NB"},"type":"Feature","geometry":{"type":"Point","coordinates":[-64.739813,46.09546]}},{"properties":{"tenure":"Working","city":"Moncton","latitude":46.118459,"title":275,"zipcode":"E1A 8G1","freeform address":"Moncton, NB, E1A 8G1, CA","country":"CA","education":"High School","longitude":-64.779757,"id":"afzt5t8u4mav","state":"NB"},"type":"Feature","geometry":{"type":"Point","coordinates":[-64.779757,46.118459]}},{"properties":{"tenure":"Working","city":"Moncton","latitude":46.10714,"title":276,"zipcode":"E1A 8E7","freeform address":"Moncton, NB, E1A 8E7, CA","country":"CA","education":"College","longitude":-64.767801,"id":"afzt5tkakmmp","state":"NB"},"type":"Feature","geometry":{"type":"Point","coordinates":[-64.767801,46.10714]}},{"properties":{"tenure":"Working","city":"Riverview","latitude":46.058002,"title":278,"zipcode":"E1B 2V5","freeform address":"Riverview, NB, E1B 2V5, CA","country":"CA","education":"High School","longitude":-64.819587,"id":"afzt5t9rgmfn","state":"NB"},"type":"Feature","geometry":{"type":"Point","coordinates":[-64.819587,46.058002]}},{"properties":{"tenure":"Working","city":"Riverview","latitude":46.053023,"title":267,"zipcode":"E1B 3E8","freeform address":"Riverview, NB, E1B 3E8, CA","country":"CA","education":"University","longitude":-64.812921,"id":"afzt5tae8yda","state":"NB"},"type":"Feature","geometry":{"type":"Point","coordinates":[-64.812921,46.053023]}},{"properties":{"tenure":"Working","city":"Riverview","latitude":46.0619,"title":268,"zipcode":"E1B 3W7","freeform address":"Riverview, NB, E1B 3W7, CA","country":"CA","education":"University","longitude":-64.747752,"id":"afzt5tkxwbu1","state":"NB"},"type":"Feature","geometry":{"type":"Point","coordinates":[-64.747752,46.0619]}},{"properties":{"tenure":"Working","city":"Riverview","latitude":46.074431,"title":279,"zipcode":"E1B 4M7","freeform address":"Riverview, NB, E1B 4M7, CA","country":"CA","education":"High School","longitude":-64.761162,"id":"afzt5tdfhogx","state":"NB"},"type":"Feature","geometry":{"type":"Point","coordinates":[-64.761162,46.074431]}},{"properties":{"tenure":"Working","city":"Dieppe","latitude":46.094508,"title":280,"zipcode":"E1A 1M1","freeform address":"Dieppe, NB, E1A 1M1, CA","country":"CA","education":"University","longitude":-64.745214,"id":"afzt5thkw6hr","state":"NB"},"type":"Feature","geometry":{"type":"Point","coordinates":[-64.745214,46.094508]}},{"properties":{"tenure":"Working","city":"Moncton","latitude":46.11689,"title":281,"zipcode":"E1G 5G3","freeform address":"Moncton, NB, E1G 5G3, CA","country":"CA","education":"University","longitude":-64.852577,"id":"afzt5t7ldmft","state":"NB"},"type":"Feature","geometry":{"type":"Point","coordinates":[-64.852577,46.11689]}},{"properties":{"tenure":"Working","city":"Riverview","latitude":46.063811,"title":282,"zipcode":"E1B 4W3","freeform address":"Riverview, NB, E1B 4W3, CA","country":"CA","education":"University","longitude":-64.814245,"id":"afzt5tikcqfy","state":"NB"},"type":"Feature","geometry":{"type":"Point","coordinates":[-64.814245,46.063811]}},{"properties":{"tenure":"Working","city":"Cocagne","latitude":46.299561,"title":283,"zipcode":"E4R 3P3","freeform address":"Cocagne, NB, E4R 3P3, CA","country":"CA","education":"College","longitude":-64.672443,"id":"afzt5t8rs4ou","state":"NB"},"type":"Feature","geometry":{"type":"Point","coordinates":[-64.672443,46.299561]}},{"properties":{"tenure":"Working","city":"Moncton","latitude":46.109008,"title":284,"zipcode":"E1G 0J8","freeform address":"Moncton, NB, E1G 0J8, CA","country":"CA","education":"High School","longitude":-64.865723,"id":"afzt5t8itw8c","state":"NB"},"type":"Feature","geometry":{"type":"Point","coordinates":[-64.865723,46.109008]}},{"properties":{"tenure":"Working","city":"Riverview","latitude":46.073983,"title":285,"zipcode":"E1B 3N1","freeform address":"Riverview, NB, E1B 3N1, CA","country":"CA","education":"College","longitude":-64.75184,"id":"afzt5td4g3p1","state":"NB"},"type":"Feature","geometry":{"type":"Point","coordinates":[-64.75184,46.073983]}},{"properties":{"tenure":"Working","city":"Moncton","latitude":46.115807,"title":286,"zipcode":"E1G 4W7","freeform address":"Moncton, NB, E1G 4W7, CA","country":"CA","education":"High School","longitude":-64.870323,"id":"afzt5t7b3uqv","state":"NB"},"type":"Feature","geometry":{"type":"Point","coordinates":[-64.870323,46.115807]}},{"properties":{"tenure":"Working","city":"Riverview","latitude":46.069293,"title":300,"zipcode":"E1B 3W1","freeform address":"Riverview, NB, E1B 3W1, CA","country":"CA","education":"University","longitude":-64.74677,"id":"afzt5tepx3nj","state":"NB"},"type":"Feature","geometry":{"type":"Point","coordinates":[-64.74677,46.069293]}},{"properties":{"tenure":"Working","city":"Moncton","latitude":46.104652,"title":301,"zipcode":"E1A 3W8","freeform address":"Moncton, NB, E1A 3W8, CA","country":"CA","education":"High School","longitude":-64.773773,"id":"afzt5tkq59b8","state":"NB"},"type":"Feature","geometry":{"type":"Point","coordinates":[-64.773773,46.104652]}},{"properties":{"tenure":"Working","city":"Riverview","latitude":46.044133,"title":302,"zipcode":"E1B 4M6","freeform address":"Riverview, NB, E1B 4M6, CA","country":"CA","education":"High School","longitude":-64.813929,"id":"afzt5tjtzs74","state":"NB"},"type":"Feature","geometry":{"type":"Point","coordinates":[-64.813929,46.044133]}},{"properties":{"tenure":"Working","city":"Moncton","latitude":46.133134,"title":303,"zipcode":"E1G 2K6","freeform address":"Moncton, NB, E1G 2K6, CA","country":"CA","education":"High School","longitude":-64.833061,"id":"afzt5tjt3fq1","state":"NB"},"type":"Feature","geometry":{"type":"Point","coordinates":[-64.833061,46.133134]}},{"properties":{"tenure":"Working","city":"Haute-Aboujagane","latitude":46.162263,"title":304,"zipcode":"E4P 5M4","freeform address":"Haute-Aboujagane, NB, E4P 5M4, CA","country":"CA","education":"PG","longitude":-64.422464,"id":"afzt5t8p7lju","state":"NB"},"type":"Feature","geometry":{"type":"Point","coordinates":[-64.422464,46.162263]}},{"properties":{"tenure":"Working","city":"Memramcook","latitude":46.035818,"title":305,"zipcode":"E4K 3P7","freeform address":"Memramcook, NB, E4K 3P7, CA","country":"CA","education":"University","longitude":-64.452965,"id":"afzt5t90bx1v","state":"NB"},"type":"Feature","geometry":{"type":"Point","coordinates":[-64.452965,46.035818]}},{"properties":{"tenure":"Working","city":"Hillsborough","latitude":45.927511,"title":306,"zipcode":"E4H 2S1","freeform address":"Hillsborough, NB, E4H 2S1, CA","country":"CA","education":"University","longitude":-64.663669,"id":"afzt5tlzqvzb","state":"NB"},"type":"Feature","geometry":{"type":"Point","coordinates":[-64.663669,45.927511]}},{"properties":{"tenure":"Working","city":"Saint-Antoine","latitude":46.361523,"title":289,"zipcode":"E4V 1M2","freeform address":"Saint-Antoine, NB, E4V 1M2, CA","country":"CA","education":"High School","longitude":-64.769898,"id":"afzt5t7cgtg2","state":"NB"},"type":"Feature","geometry":{"type":"Point","coordinates":[-64.769898,46.361523]}},{"properties":{"tenure":"Working","city":"Moncton","latitude":46.099059,"title":290,"zipcode":"E1C 5R7","freeform address":"Moncton, NB, E1C 5R7, CA","country":"CA","education":"High School","longitude":-64.788168,"id":"afzt5tddll3h","state":"NB"},"type":"Feature","geometry":{"type":"Point","coordinates":[-64.788168,46.099059]}},{"properties":{"tenure":"Working","city":"Moncton","latitude":46.11959,"title":291,"zipcode":"E1G 1A6","freeform address":"Moncton, NB, E1G 1A6, CA","country":"CA","education":"High School","longitude":-64.845794,"id":"afzt5tb3w7m0","state":"NB"},"type":"Feature","geometry":{"type":"Point","coordinates":[-64.845794,46.11959]}},{"properties":{"tenure":"Working","city":"Dieppe","latitude":46.10299,"title":292,"zipcode":"E1A 6B2","freeform address":"Dieppe, NB, E1A 6B2, CA","country":"CA","education":"High School","longitude":-64.745459,"id":"afzt5tf0u8gr","state":"NB"},"type":"Feature","geometry":{"type":"Point","coordinates":[-64.745459,46.10299]}},{"properties":{"tenure":"Working","city":"Moncton","latitude":46.107498,"title":293,"zipcode":"E1G 2V7","freeform address":"Moncton, NB, E1G 2V7, CA","country":"CA","education":"College","longitude":-64.879619,"id":"afzt5tkcp13f","state":"NB"},"type":"Feature","geometry":{"type":"Point","coordinates":[-64.879619,46.107498]}},{"properties":{"tenure":"Working","city":"Moncton","latitude":46.094016,"title":294,"zipcode":"E1C 4X6","freeform address":"Moncton, NB, E1C 4X6, CA","country":"CA","education":"College","longitude":-64.778552,"id":"afzt5tb1saqh","state":"NB"},"type":"Feature","geometry":{"type":"Point","coordinates":[-64.778552,46.094016]}},{"properties":{"tenure":"Working","city":"Riverview","latitude":46.055265,"title":295,"zipcode":"E1B 3C3","freeform address":"Riverview, NB, E1B 3C3, CA","country":"CA","education":"College","longitude":-64.821789,"id":"afzt5tb1aj2w","state":"NB"},"type":"Feature","geometry":{"type":"Point","coordinates":[-64.821789,46.055265]}},{"properties":{"tenure":"Working","city":"Riverview","latitude":46.05503,"title":297,"zipcode":"E1B 1Y6","freeform address":"Riverview, NB, E1B 1Y6, CA","country":"CA","education":"College","longitude":-64.793438,"id":"afzt5tjkl44w","state":"NB"},"type":"Feature","geometry":{"type":"Point","coordinates":[-64.793438,46.05503]}},{"properties":{"tenure":"Working","city":"Riverview","latitude":46.06253,"title":298,"zipcode":"E1B 2K9","freeform address":"Riverview, NB, E1B 2K9, CA","country":"CA","education":"College","longitude":-64.788869,"id":"afzt5t8nig33","state":"NB"},"type":"Feature","geometry":{"type":"Point","coordinates":[-64.788869,46.06253]}},{"properties":{"tenure":"Working","city":"Moncton","latitude":46.083297,"title":287,"zipcode":"E1E 1V6","freeform address":"Moncton, NB, E1E 1V6, CA","country":"CA","education":"University","longitude":-64.808634,"id":"afzt5tdg5hqp","state":"NB"},"type":"Feature","geometry":{"type":"Point","coordinates":[-64.808634,46.083297]}},{"properties":{"tenure":"Working","city":"Moncton","latitude":46.083297,"title":288,"zipcode":"E1E 1V6","freeform address":"Moncton, NB, E1E 1V6, CA","country":"CA","education":"University","longitude":-64.808634,"id":"afzt5t7af9jx","state":"NB"},"type":"Feature","geometry":{"type":"Point","coordinates":[-64.808634,46.083297]}},{"properties":{"tenure":"Working","city":"Moncton","latitude":46.107703,"title":309,"zipcode":"E1C 7L6","freeform address":"Moncton, NB, E1C 7L6, CA","country":"CA","education":"University","longitude":-64.815133,"id":"afzt5thn3hwj","state":"NB"},"type":"Feature","geometry":{"type":"Point","coordinates":[-64.815133,46.107703]}},{"properties":{"tenure":"Working","city":"Shediac","latitude":46.215284,"title":310,"zipcode":"E4P 2T1","freeform address":"Shediac, NB, E4P 2T1, CA","country":"CA","education":"College","longitude":-64.53578,"id":"afzt5tl3l6fz","state":"NB"},"type":"Feature","geometry":{"type":"Point","coordinates":[-64.53578,46.215284]}},{"properties":{"tenure":"Working","city":"Riverview","latitude":46.061662,"title":312,"zipcode":"E1B 2G9","freeform address":"Riverview, NB, E1B 2G9, CA","country":"CA","education":"University","longitude":-64.801045,"id":"afzt5tjul7hl","state":"NB"},"type":"Feature","geometry":{"type":"Point","coordinates":[-64.801045,46.061662]}},{"properties":{"tenure":"Working","city":"Memramcook","latitude":46.011362,"title":313,"zipcode":"E4K 3T8","freeform address":"Memramcook, NB, E4K 3T8, CA","country":"CA","education":"University","longitude":-64.622608,"id":"afzt5tgpesis","state":"NB"},"type":"Feature","geometry":{"type":"Point","coordinates":[-64.622608,46.011362]}},{"properties":{"tenure":"Working","city":"Moncton","latitude":46.115408,"title":314,"zipcode":"E1G 1P7","freeform address":"Moncton, NB, E1G 1P7, CA","country":"CA","education":"University","longitude":-64.839485,"id":"afzt5t8mmkkw","state":"NB"},"type":"Feature","geometry":{"type":"Point","coordinates":[-64.839485,46.115408]}},{"properties":{"tenure":"Working","city":"Riverview","latitude":46.05503,"title":315,"zipcode":"E1B 1Y6","freeform address":"Riverview, NB, E1B 1Y6, CA","country":"CA","education":"High School","longitude":-64.793438,"id":"afzt5te5id9i","state":"NB"},"type":"Feature","geometry":{"type":"Point","coordinates":[-64.793438,46.05503]}},{"properties":{"tenure":"Working","city":"Moncton","latitude":46.109837,"title":316,"zipcode":"E1A 8W2","freeform address":"Moncton, NB, E1A 8W2, CA","country":"CA","education":"College","longitude":-64.779259,"id":"afzt5thgxpzp","state":"NB"},"type":"Feature","geometry":{"type":"Point","coordinates":[-64.779259,46.109837]}},{"properties":{"tenure":"Working","city":"Dieppe","latitude":46.098071,"title":307,"zipcode":"E1A 2E8","freeform address":"Dieppe, NB, E1A 2E8, CA","country":"CA","education":"University","longitude":-64.685546,"id":"afzt5t5xa7n9","state":"NB"},"type":"Feature","geometry":{"type":"Point","coordinates":[-64.685546,46.098071]}},{"properties":{"tenure":"Working","city":"Dieppe","latitude":46.100316,"title":308,"zipcode":"E1A 1Z9","freeform address":"Dieppe, NB, E1A 1Z9, CA","country":"CA","education":"High School","longitude":-64.75536,"id":"afzt5tcd99lj","state":"NB"},"type":"Feature","geometry":{"type":"Point","coordinates":[-64.75536,46.100316]}}],"is_temporal":false,"author":{"url":"","metadata":null,"contact_name":null,"contact_address":null,"source":null,"contact_phone":null},"source":"","pagination":{"sort":null,"start":0,"total":92,"limit":1000000},"state":"complete","tags":"","published":"2014-08-16T13:15:43-04:00","id":380191}