{"type":"FeatureCollection","data_type":"Dataset","url_type":null,"permissions":[{"permissions":{"download":true,"view":true},"group_id":"everyone"}],"classification":null,"title":"Monc","count":29,"stream_id":380214,"contributor":{"url":"http://geocommons.com/users/74787","name":"stevendosanjh"},"data_attributes":null,"calculation_params":null,"icon_link":null,"link":"http://geocommons.com/overlays/380214.json","extent":[-65.9611,45.4135,-64.5478,46.5791],"geometry_types":["point"],"unique_name":null,"name":"Monc","feature_count":29,"description":"","next_feature":null,"is_raster":false,"short_classification":"Y","stats":{"latitude":{"max":46.579112,"variance":0.0291411599842438,"mean":46.1059406206897,"stdev":0.170707820512839,"min":45.41351,"median":46.103304},"title":{"max":344,"variance":2620.69458128079,"mean":292.137931034483,"stdev":51.1927200027581,"min":208,"median":324},"longitude":{"max":-64.5478,"variance":0.0580700078148376,"mean":-64.815844137931,"stdev":0.240977193557477,"min":-65.961066,"median":-64.778018}},"features":[{"properties":{"tenure":"30 to 90","city":"Dieppe","latitude":46.099521,"title":219,"zipcode":"E1A 1Z8","freeform address":"Dieppe, NB, E1A 1Z8, CA","country":"CA","education":"University","longitude":-64.75536,"id":"afzthpskkn9a","state":"NB"},"type":"Feature","geometry":{"type":"Point","coordinates":[-64.75536,46.099521]}},{"properties":{"tenure":"30 to 90","city":"Salisbury","latitude":46.022201,"title":221,"zipcode":"E4J 2M3","freeform address":"Salisbury, NB, E4J 2M3, CA","country":"CA","education":"College","longitude":-65.059371,"id":"afzthq6b6m8g","state":"NB"},"type":"Feature","geometry":{"type":"Point","coordinates":[-65.059371,46.022201]}},{"properties":{"tenure":"30 to 90","city":"Notre-Dame","latitude":46.258038,"title":222,"zipcode":"E4V 3G6","freeform address":"Notre-Dame, NB, E4V 3G6, CA","country":"CA","education":"College","longitude":-64.794103,"id":"afzthpx1aifj","state":"NB"},"type":"Feature","geometry":{"type":"Point","coordinates":[-64.794103,46.258038]}},{"properties":{"tenure":"30 to 90","city":"Riverview","latitude":46.043362,"title":208,"zipcode":"E1B 4C5","freeform address":"Riverview, NB, E1B 4C5, CA","country":"CA","education":"University","longitude":-64.805924,"id":"afzthpt0732a","state":"NB"},"type":"Feature","geometry":{"type":"Point","coordinates":[-64.805924,46.043362]}},{"properties":{"tenure":"30 to 90","city":"Moncton","latitude":46.105057,"title":214,"zipcode":"E1A 2T9","freeform address":"Moncton, NB, E1A 2T9, CA","country":"CA","education":"College","longitude":-64.767391,"id":"afzthq8agz92","state":"NB"},"type":"Feature","geometry":{"type":"Point","coordinates":[-64.767391,46.105057]}},{"properties":{"tenure":"30 to 90","city":"Moncton","latitude":46.11885,"title":215,"zipcode":"E1A 3N4","freeform address":"Moncton, NB, E1A 3N4, CA","country":"CA","education":"College","longitude":-64.765883,"id":"afzthq6fxvyv","state":"NB"},"type":"Feature","geometry":{"type":"Point","coordinates":[-64.765883,46.11885]}},{"properties":{"tenure":"30 to 90","city":"Dieppe","latitude":46.091302,"title":243,"zipcode":"E1A 2C9","freeform address":"Dieppe, NB, E1A 2C9, CA","country":"CA","education":"University","longitude":-64.699962,"id":"afzthpymcuym","state":"NB"},"type":"Feature","geometry":{"type":"Point","coordinates":[-64.699962,46.091302]}},{"properties":{"tenure":"30 to 90","city":"Shediac","latitude":46.211124,"title":229,"zipcode":"E4P 8Z6","freeform address":"Shediac, NB, E4P 8Z6, CA","country":"CA","education":"College","longitude":-64.5478,"id":"afzthq1w4lyx","state":"NB"},"type":"Feature","geometry":{"type":"Point","coordinates":[-64.5478,46.211124]}},{"properties":{"tenure":"30 to 90","city":"Moncton","latitude":46.094124,"title":230,"zipcode":"E1C 6C3","freeform address":"Moncton, NB, E1C 6C3, CA","country":"CA","education":"University","longitude":-64.793193,"id":"afzthpw6zj7x","state":"NB"},"type":"Feature","geometry":{"type":"Point","coordinates":[-64.793193,46.094124]}},{"properties":{"tenure":"30 to 90","city":"Moncton","latitude":46.119474,"title":271,"zipcode":"E1G 1N7","freeform address":"Moncton, NB, E1G 1N7, CA","country":"CA","education":"University","longitude":-64.85377,"id":"afzthpsp3dq8","state":"NB"},"type":"Feature","geometry":{"type":"Point","coordinates":[-64.85377,46.119474]}},{"properties":{"tenure":"30 to 90","city":"Riverview","latitude":46.059659,"title":277,"zipcode":"E1B 4V4","freeform address":"Riverview, NB, E1B 4V4, CA","country":"CA","education":"College","longitude":-64.820897,"id":"afzthpzx73z3","state":"NB"},"type":"Feature","geometry":{"type":"Point","coordinates":[-64.820897,46.059659]}},{"properties":{"tenure":"30 to 90","city":"Saint-Philippe","latitude":46.214782,"title":299,"zipcode":"E1H 1S9","freeform address":"Saint-Philippe, NB, E1H 1S9, CA","country":"CA","education":"College","longitude":-64.668794,"id":"afzthpsuuai2","state":"NB"},"type":"Feature","geometry":{"type":"Point","coordinates":[-64.668794,46.214782]}},{"properties":{"tenure":"30 to 90","city":"Moncton","latitude":46.116738,"title":296,"zipcode":"E1G 2H4","freeform address":"Moncton, NB, E1G 2H4, CA","country":"CA","education":"High School","longitude":-64.844478,"id":"afzthq3ztmzh","state":"NB"},"type":"Feature","geometry":{"type":"Point","coordinates":[-64.844478,46.116738]}},{"properties":{"tenure":"30 to 90","city":"LAKEVILLE-WESTMORLAND","latitude":46.160392,"title":324,"zipcode":"E1H 1L7","freeform address":"LAKEVILLE-WESTMORLAND, NB, E1H 1L7, CA","country":"CA","education":"College","longitude":-64.678279,"id":"afzthq0osbvu","state":"NB"},"type":"Feature","geometry":{"type":"Point","coordinates":[-64.678279,46.160392]}},{"properties":{"tenure":"30 to 90","city":"Dieppe","latitude":46.103304,"title":325,"zipcode":"E1A 6W6","freeform address":"Dieppe, NB, E1A 6W6, CA","country":"CA","education":"PG","longitude":-64.734656,"id":"afzthq6fcueo","state":"NB"},"type":"Feature","geometry":{"type":"Point","coordinates":[-64.734656,46.103304]}},{"properties":{"tenure":"30 to 90","city":"Dieppe","latitude":46.072764,"title":326,"zipcode":"E1A 5A4","freeform address":"Dieppe, NB, E1A 5A4, CA","country":"CA","education":"College","longitude":-64.717368,"id":"afzthpv6hhoa","state":"NB"},"type":"Feature","geometry":{"type":"Point","coordinates":[-64.717368,46.072764]}},{"properties":{"tenure":"30 to 90","city":"Dieppe","latitude":46.095964,"title":311,"zipcode":"E1A 2B3","freeform address":"Dieppe, NB, E1A 2B3, CA","country":"CA","education":"University","longitude":-64.742964,"id":"afzthpyl6ukl","state":"NB"},"type":"Feature","geometry":{"type":"Point","coordinates":[-64.742964,46.095964]}},{"properties":{"tenure":"30 to 90","city":"Grande-Digue","latitude":46.299103,"title":328,"zipcode":"E4R 5B8","freeform address":"Grande-Digue, NB, E4R 5B8, CA","country":"CA","education":"University","longitude":-64.584206,"id":"afzthq6g97c4","state":"NB"},"type":"Feature","geometry":{"type":"Point","coordinates":[-64.584206,46.299103]}},{"properties":{"tenure":"30 to 90","city":"Moncton","latitude":46.109438,"title":339,"zipcode":"E1C 8Y4","freeform address":"Moncton, NB, E1C 8Y4, CA","country":"CA","education":"High School","longitude":-64.818122,"id":"afzthq2by4je","state":"NB"},"type":"Feature","geometry":{"type":"Point","coordinates":[-64.818122,46.109438]}},{"properties":{"tenure":"30 to 90","city":"MAIN RIVER","latitude":46.579112,"title":340,"zipcode":"E4T 3Z4","freeform address":"MAIN RIVER, NB, E4T 3Z4, CA","country":"CA","education":"University","longitude":-64.963466,"id":"afzthpwfnhr4","state":"NB"},"type":"Feature","geometry":{"type":"Point","coordinates":[-64.963466,46.579112]}},{"properties":{"tenure":"30 to 90","city":"Moncton","latitude":46.103608,"title":341,"zipcode":"E1E 4V7","freeform address":"Moncton, NB, E1E 4V7, CA","country":"CA","education":"University","longitude":-64.850825,"id":"afzthpvo1wwn","state":"NB"},"type":"Feature","geometry":{"type":"Point","coordinates":[-64.850825,46.103608]}},{"properties":{"tenure":"30 to 90","city":"Riverview","latitude":46.0755,"title":342,"zipcode":"E1B 3T7","freeform address":"Riverview, NB, E1B 3T7, CA","country":"CA","education":"University","longitude":-64.761653,"id":"afzthq06i409","state":"NB"},"type":"Feature","geometry":{"type":"Point","coordinates":[-64.761653,46.0755]}},{"properties":{"tenure":"30 to 90","city":"Moncton","latitude":46.122451,"title":343,"zipcode":"E1A 6E5","freeform address":"Moncton, NB, E1A 6E5, CA","country":"CA","education":"High School","longitude":-64.782871,"id":"afzthpymjta2","state":"NB"},"type":"Feature","geometry":{"type":"Point","coordinates":[-64.782871,46.122451]}},{"properties":{"tenure":"30 to 90","city":"Moncton","latitude":46.091666,"title":344,"zipcode":"E1C 4Y5","freeform address":"Moncton, NB, E1C 4Y5, CA","country":"CA","education":"University","longitude":-64.778018,"id":"afzthq6yqfbm","state":"NB"},"type":"Feature","geometry":{"type":"Point","coordinates":[-64.778018,46.091666]}},{"properties":{"tenure":"30 to 90","city":"Stoney Creek","latitude":46.011705,"title":329,"zipcode":"E1J 1L6","freeform address":"Stoney Creek, NB, E1J 1L6, CA","country":"CA","education":"High School","longitude":-64.707254,"id":"afzthpzwkr24","state":"NB"},"type":"Feature","geometry":{"type":"Point","coordinates":[-64.707254,46.011705]}},{"properties":{"tenure":"30 to 90","city":"Moncton","latitude":46.080733,"title":331,"zipcode":"E1E 1N4","freeform address":"Moncton, NB, E1E 1N4, CA","country":"CA","education":"High School","longitude":-64.799249,"id":"afzthpw3qifh","state":"NB"},"type":"Feature","geometry":{"type":"Point","coordinates":[-64.799249,46.080733]}},{"properties":{"tenure":"30 to 90","city":"Moncton","latitude":46.091685,"title":333,"zipcode":"E1C 4X2","freeform address":"Moncton, NB, E1C 4X2, CA","country":"CA","education":"University","longitude":-64.77675,"id":"afzthpu26ug2","state":"NB"},"type":"Feature","geometry":{"type":"Point","coordinates":[-64.77675,46.091685]}},{"properties":{"tenure":"30 to 90","city":"Moncton","latitude":46.107111,"title":334,"zipcode":"E1C 8A1","freeform address":"Moncton, NB, E1C 8A1, CA","country":"CA","education":"College","longitude":-64.825807,"id":"afzthpxin241","state":"NB"},"type":"Feature","geometry":{"type":"Point","coordinates":[-64.825807,46.107111]}},{"properties":{"tenure":"30 to 90","city":"Quispamsis","latitude":45.41351,"title":338,"zipcode":"E2E 4N5","freeform address":"Quispamsis, NB, E2E 4N5, CA","country":"CA","education":"College","longitude":-65.961066,"id":"afzthq4223j6","state":"NB"},"type":"Feature","geometry":{"type":"Point","coordinates":[-65.961066,45.41351]}}],"is_temporal":false,"author":{"url":"","metadata":null,"contact_name":null,"contact_address":null,"source":null,"contact_phone":null},"source":"","pagination":{"sort":null,"start":0,"total":29,"limit":1000000},"state":"complete","tags":"","published":"2014-08-16T13:16:30-04:00","id":380214}