{"type":"FeatureCollection","data_type":"Dataset","url_type":null,"permissions":[{"permissions":{"download":true,"view":true},"group_id":"everyone"}],"classification":null,"title":"Attrited: 30-90","count":31,"stream_id":380239,"contributor":{"url":"http://geocommons.com/users/74787","name":"stevendosanjh"},"data_attributes":null,"calculation_params":null,"icon_link":null,"link":"http://geocommons.com/overlays/380239.json","extent":[-79.8747,43.4907,-79.2048,43.8687],"geometry_types":["point"],"unique_name":null,"name":"Attrited: 30-90","feature_count":31,"description":"","next_feature":null,"is_raster":false,"short_classification":"Y","stats":{"latitude":{"max":43.868712,"variance":0.0105904660871893,"mean":43.6810354516129,"stdev":0.102909990220529,"min":43.490723,"median":43.676729},"title":{"max":199,"variance":2630.23225806452,"mean":129.967741935484,"stdev":51.2857900208675,"min":41,"median":122},"longitude":{"max":-79.204755,"variance":0.0360411613517909,"mean":-79.636554516129,"stdev":0.189845098308571,"min":-79.874659,"median":-79.708786},"identifying number":{"max":11040580,"variance":3002.86451612903,"mean":11040508.2580645,"stdev":54.7983988463991,"min":11040411,"median":11040503}},"features":[{"properties":{"tenure":"30 to 90","city":"Brampton","latitude":43.78484,"title":41,"directions":"FALSE","zipcode":"L6P 0G3","freeform address":"Brampton, ON, L6P 0G3, CA","country":"CA","education":"University","identifying number":11040411,"longitude":-79.687044,"id":"afzumfwqt6ck","state":"ON"},"type":"Feature","geometry":{"type":"Point","coordinates":[-79.687044,43.78484]}},{"properties":{"tenure":"30 to 90","city":"Richmond Hill","latitude":43.858019,"title":56,"directions":"FALSE","zipcode":"L4C 8R5","freeform address":"Richmond Hill, ON, L4C 8R5, CA","country":"CA","education":"University","identifying number":11040426,"longitude":-79.420629,"id":"afzumfvs670r","state":"ON"},"type":"Feature","geometry":{"type":"Point","coordinates":[-79.420629,43.858019]}},{"properties":{"tenure":"30 to 90","city":"Markham","latitude":43.868712,"title":57,"directions":"FALSE","zipcode":"L6B 0SB","freeform address":"Markham, ON, L6B 0SB, CA","country":"CA","education":"College","identifying number":11040427,"longitude":-79.225378,"id":"afzumg2jc5ht","state":"ON"},"type":"Feature","geometry":{"type":"Point","coordinates":[-79.225378,43.868712]}},{"properties":{"tenure":"30 to 90","city":"Toronto","latitude":43.763475,"title":62,"directions":"FALSE","zipcode":"M1G 1R9","freeform address":"Toronto, ON, M1G 1R9, CA","country":"CA","education":"College","identifying number":11040441,"longitude":-79.204755,"id":"afzumg2ht9eq","state":"ON"},"type":"Feature","geometry":{"type":"Point","coordinates":[-79.204755,43.763475]}},{"properties":{"tenure":"30 to 90","city":"Mississauga","latitude":43.59204,"title":64,"directions":"FALSE","zipcode":"L5B 3Y5","freeform address":"Mississauga, ON, L5B 3Y5, CA","country":"CA","education":"College","identifying number":11040443,"longitude":-79.635999,"id":"afzumg2vildu","state":"ON"},"type":"Feature","geometry":{"type":"Point","coordinates":[-79.635999,43.59204]}},{"properties":{"tenure":"30 to 90","city":"Toronto","latitude":43.765171,"title":70,"directions":"FALSE","zipcode":"M3A 3A7","freeform address":"Toronto, ON, M3A 3A7, CA","country":"CA","education":"PG","identifying number":11040430,"longitude":-79.34462,"id":"afzumg2ewezn","state":"ON"},"type":"Feature","geometry":{"type":"Point","coordinates":[-79.34462,43.765171]}},{"properties":{"tenure":"30 to 90","city":"Brampton","latitude":43.66474,"title":80,"directions":"FALSE","zipcode":"L6Y 4Y6","freeform address":"Brampton, ON, L6Y 4Y6, CA","country":"CA","education":"University","identifying number":11040449,"longitude":-79.776259,"id":"afzumfqjc2lz","state":"ON"},"type":"Feature","geometry":{"type":"Point","coordinates":[-79.776259,43.66474]}},{"properties":{"tenure":"30 to 90","city":"Mississauga","latitude":43.599407,"title":86,"directions":"FALSE","zipcode":"L5V 2Y5","freeform address":"Mississauga, ON, L5V 2Y5, CA","country":"CA","education":"College","identifying number":11040466,"longitude":-79.708786,"id":"afzumfv5nnz6","state":"ON"},"type":"Feature","geometry":{"type":"Point","coordinates":[-79.708786,43.599407]}},{"properties":{"tenure":"30 to 90","city":"Brampton","latitude":43.657389,"title":89,"directions":"FALSE","zipcode":"L6Y 4E4","freeform address":"Brampton, ON, L6Y 4E4, CA","country":"CA","education":"College","identifying number":11040469,"longitude":-79.732626,"id":"afzumfytouod","state":"ON"},"type":"Feature","geometry":{"type":"Point","coordinates":[-79.732626,43.657389]}},{"properties":{"tenure":"30 to 90","city":"Milton","latitude":43.490723,"title":90,"directions":"FALSE","zipcode":"L9T 0P3","freeform address":"Milton, ON, L9T 0P3, CA","country":"CA","education":"PG","identifying number":11040451,"longitude":-79.874659,"id":"afzumg4ddvlp","state":"ON"},"type":"Feature","geometry":{"type":"Point","coordinates":[-79.874659,43.490723]}},{"properties":{"tenure":"30 to 90","city":"Mississauga","latitude":43.553617,"title":102,"directions":"FALSE","zipcode":"L5M 6P5","freeform address":"Mississauga, ON, L5M 6P5, CA","country":"CA","education":"College","identifying number":11040495,"longitude":-79.756285,"id":"afzumfpwqj7x","state":"ON"},"type":"Feature","geometry":{"type":"Point","coordinates":[-79.756285,43.553617]}},{"properties":{"tenure":"30 to 90","city":"Mississauga","latitude":43.596906,"title":109,"directions":"FALSE","zipcode":"L5R 2P9","freeform address":"Mississauga, ON, L5R 2P9, CA","country":"CA","education":"University","identifying number":11040502,"longitude":-79.665735,"id":"afzumfyzbs9g","state":"ON"},"type":"Feature","geometry":{"type":"Point","coordinates":[-79.665735,43.596906]}},{"properties":{"tenure":"30 to 90","city":"Brampton","latitude":43.645745,"title":116,"directions":"FALSE","zipcode":"L6Y 5A4","freeform address":"Brampton, ON, L6Y 5A4, CA","country":"CA","education":"University","identifying number":11040491,"longitude":-79.733503,"id":"afzumfx8ffd3","state":"ON"},"type":"Feature","geometry":{"type":"Point","coordinates":[-79.733503,43.645745]}},{"properties":{"tenure":"30 to 90","city":"Toronto","latitude":43.676729,"title":117,"directions":"FALSE","zipcode":"M9R 2K9","freeform address":"Toronto, ON, M9R 2K9, CA","country":"CA","education":"University","identifying number":11040492,"longitude":-79.565788,"id":"afzumg4jlye1","state":"ON"},"type":"Feature","geometry":{"type":"Point","coordinates":[-79.565788,43.676729]}},{"properties":{"tenure":"30 to 90","city":"Brampton","latitude":43.664646,"title":118,"directions":"FALSE","zipcode":"L6Y 4Z2","freeform address":"Brampton, ON, L6Y 4Z2, CA","country":"CA","education":"University","identifying number":11040493,"longitude":-79.775207,"id":"afzumg481641","state":"ON"},"type":"Feature","geometry":{"type":"Point","coordinates":[-79.775207,43.664646]}},{"properties":{"tenure":"30 to 90","city":"Mississauga","latitude":43.576768,"title":122,"directions":"FALSE","zipcode":"L5B 4E3","freeform address":"Mississauga, ON, L5B 4E3, CA","country":"CA","education":"High School","identifying number":11040503,"longitude":-79.642842,"id":"afzumfz11uag","state":"ON"},"type":"Feature","geometry":{"type":"Point","coordinates":[-79.642842,43.576768]}},{"properties":{"tenure":"30 to 90","city":"Brampton","latitude":43.702737,"title":131,"directions":"FALSE","zipcode":"L7A 2X2","freeform address":"Brampton, ON, L7A 2X2, CA","country":"CA","education":"PG","identifying number":11040514,"longitude":-79.809538,"id":"afzumfueswhd","state":"ON"},"type":"Feature","geometry":{"type":"Point","coordinates":[-79.809538,43.702737]}},{"properties":{"tenure":"30 to 90","city":"Markham","latitude":43.824564,"title":153,"directions":"FALSE","zipcode":"L3R 3N2","freeform address":"Markham, ON, L3R 3N2, CA","country":"CA","education":"University","identifying number":11040536,"longitude":-79.315131,"id":"afzumfrzmrmi","state":"ON"},"type":"Feature","geometry":{"type":"Point","coordinates":[-79.315131,43.824564]}},{"properties":{"tenure":"30 to 90","city":"Brampton","latitude":43.753148,"title":158,"directions":"FALSE","zipcode":"L6R 1Z4","freeform address":"Brampton, ON, L6R 1Z4, CA","country":"CA","education":"College","identifying number":11040541,"longitude":-79.742441,"id":"afzumfu6ilj3","state":"ON"},"type":"Feature","geometry":{"type":"Point","coordinates":[-79.742441,43.753148]}},{"properties":{"tenure":"30 to 90","city":"Mississauga","latitude":43.605692,"title":164,"directions":"FALSE","zipcode":"L4Z 4H2","freeform address":"Mississauga, ON, L4Z 4H2, CA","country":"CA","education":"College","identifying number":11040554,"longitude":-79.640737,"id":"afzumg3pr0nv","state":"ON"},"type":"Feature","geometry":{"type":"Point","coordinates":[-79.640737,43.605692]}},{"properties":{"tenure":"30 to 90","city":"Milton","latitude":43.512004,"title":167,"directions":"FALSE","zipcode":"L9T 0G5","freeform address":"Milton, ON, L9T 0G5, CA","country":"CA","education":"College","identifying number":11040557,"longitude":-79.854532,"id":"afzumfs48sx9","state":"ON"},"type":"Feature","geometry":{"type":"Point","coordinates":[-79.854532,43.512004]}},{"properties":{"tenure":"30 to 90","city":"Markham","latitude":43.849176,"title":168,"directions":"FALSE","zipcode":"L3S 4J4","freeform address":"Markham, ON, L3S 4J4, CA","country":"CA","education":"University","identifying number":11040558,"longitude":-79.271542,"id":"afzumfuwi42r","state":"ON"},"type":"Feature","geometry":{"type":"Point","coordinates":[-79.271542,43.849176]}},{"properties":{"tenure":"30 to 90","city":"Brampton","latitude":43.715343,"title":174,"directions":"FALSE","zipcode":"L6S 5V7","freeform address":"Brampton, ON, L6S 5V7, CA","country":"CA","education":"University","identifying number":11040546,"longitude":-79.74542,"id":"afzumg2ozxp4","state":"ON"},"type":"Feature","geometry":{"type":"Point","coordinates":[-79.74542,43.715343]}},{"properties":{"tenure":"30 to 90","city":"Mississauga","latitude":43.611793,"title":182,"directions":"FALSE","zipcode":"L4Y 3M5","freeform address":"Mississauga, ON, L4Y 3M5, CA","country":"CA","education":"PG","identifying number":11040570,"longitude":-79.603533,"id":"afzumg1o63hi","state":"ON"},"type":"Feature","geometry":{"type":"Point","coordinates":[-79.603533,43.611793]}},{"properties":{"tenure":"30 to 90","city":"Toronto","latitude":43.727799,"title":186,"directions":"FALSE","zipcode":"M9W 2N7","freeform address":"Toronto, ON, M9W 2N7, CA","country":"CA","education":"College","identifying number":11040574,"longitude":-79.550685,"id":"afzumg1fyklg","state":"ON"},"type":"Feature","geometry":{"type":"Point","coordinates":[-79.550685,43.727799]}},{"properties":{"tenure":"30 to 90","city":"Mississauga","latitude":43.568598,"title":190,"directions":"FALSE","zipcode":"L5N 6W5","freeform address":"Mississauga, ON, L5N 6W5, CA","country":"CA","education":"University","identifying number":11040562,"longitude":-79.769076,"id":"afzumg51tw4x","state":"ON"},"type":"Feature","geometry":{"type":"Point","coordinates":[-79.769076,43.568598]}},{"properties":{"tenure":"30 to 90","city":"Brampton","latitude":43.677053,"title":191,"directions":"FALSE","zipcode":"L6X 0K3","freeform address":"Brampton, ON, L6X 0K3, CA","country":"CA","education":"University","identifying number":11040563,"longitude":-79.804284,"id":"afzumfqaprnn","state":"ON"},"type":"Feature","geometry":{"type":"Point","coordinates":[-79.804284,43.677053]}},{"properties":{"tenure":"30 to 90","city":"Brampton","latitude":43.750814,"title":194,"directions":"FALSE","zipcode":"L6R 2N6","freeform address":"Brampton, ON, L6R 2N6, CA","country":"CA","education":"University","identifying number":11040566,"longitude":-79.769076,"id":"afzumfwizocs","state":"ON"},"type":"Feature","geometry":{"type":"Point","coordinates":[-79.769076,43.750814]}},{"properties":{"tenure":"30 to 90","city":"Vaughan","latitude":43.790853,"title":195,"directions":"FALSE","zipcode":"L4L 5H8","freeform address":"Vaughan, ON, L4L 5H8, CA","country":"CA","education":"University","identifying number":11040567,"longitude":-79.573162,"id":"afzumfstubiw","state":"ON"},"type":"Feature","geometry":{"type":"Point","coordinates":[-79.573162,43.790853]}},{"properties":{"tenure":"30 to 90","city":"Mississauga","latitude":43.569395,"title":198,"directions":"FALSE","zipcode":"L5M 7J3","freeform address":"Mississauga, ON, L5M 7J3, CA","country":"CA","education":"University","identifying number":11040579,"longitude":-79.717026,"id":"afzumg14lzxy","state":"ON"},"type":"Feature","geometry":{"type":"Point","coordinates":[-79.717026,43.569395]}},{"properties":{"tenure":"30 to 90","city":"Brampton","latitude":43.694203,"title":199,"directions":"FALSE","zipcode":"L7A 2P8","freeform address":"Brampton, ON, L7A 2P8, CA","country":"CA","education":"High School","identifying number":11040580,"longitude":-79.816892,"id":"afzumfxkcut4","state":"ON"},"type":"Feature","geometry":{"type":"Point","coordinates":[-79.816892,43.694203]}}],"is_temporal":false,"author":{"url":"","metadata":null,"contact_name":null,"contact_address":null,"source":null,"contact_phone":null},"source":"","pagination":{"sort":null,"start":0,"total":31,"limit":1000000},"state":"complete","tags":"","published":"2014-08-16T13:17:06-04:00","id":380239}