{"type":"FeatureCollection","data_type":"Dataset","url_type":null,"permissions":[{"permissions":{"download":true,"view":true},"group_id":"everyone"}],"classification":null,"title":"Working","count":48,"stream_id":380231,"contributor":{"url":"http://geocommons.com/users/74787","name":"stevendosanjh"},"data_attributes":null,"calculation_params":null,"icon_link":null,"link":"http://geocommons.com/overlays/380231.json","extent":[-123.21,49.1294,-122.739,49.3336],"geometry_types":["point"],"unique_name":null,"name":"Working","feature_count":48,"description":"","next_feature":null,"is_raster":false,"short_classification":"Y","stats":{"latitude":{"max":49.333616,"variance":0.00349374289746105,"mean":49.2167461666667,"stdev":0.059107892006576,"median":49.213999,"min":49.129379},"title":{"max":407,"variance":312.196808510638,"mean":375.625,"stdev":17.6690918983019,"median":377,"min":346},"longitude":{"max":-122.739481,"variance":0.0161802945377408,"mean":-122.9695624375,"stdev":0.127201786692408,"median":-122.980672,"min":-123.209816}},"features":[{"properties":{"tenure":"Working","city":"Coquitlam","latitude":49.284855,"title":355,"zipcode":"V3B 7M4","freeform address":"Coquitlam, BC, V3B 7M4, CA","country":"CA","education":"College","longitude":-122.797605,"id":"afzuf76megmv","state":"BC"},"type":"Feature","geometry":{"type":"Point","coordinates":[-122.797605,49.284855]}},{"properties":{"tenure":"Working","city":"Surrey","latitude":49.141465,"title":357,"zipcode":"V3W 8J5","freeform address":"Surrey, BC, V3W 8J5, CA","country":"CA","education":"University","longitude":-122.843176,"id":"afzuf75elhcj","state":"BC"},"type":"Feature","geometry":{"type":"Point","coordinates":[-122.843176,49.141465]}},{"properties":{"tenure":"Working","city":"New Westminster","latitude":49.199389,"title":358,"zipcode":"V3M 6C9","freeform address":"New Westminster, BC, V3M 6C9, CA","country":"CA","education":"University","longitude":-122.915903,"id":"afzuf6vqiksm","state":"BC"},"type":"Feature","geometry":{"type":"Point","coordinates":[-122.915903,49.199389]}},{"properties":{"tenure":"Working","city":"Burnaby","latitude":49.255422,"title":359,"zipcode":"V5G 1G3","freeform address":"Burnaby, BC, V5G 1G3, CA","country":"CA","education":"University","longitude":-122.987,"id":"afzuf6wu6d1x","state":"BC"},"type":"Feature","geometry":{"type":"Point","coordinates":[-122.987,49.255422]}},{"properties":{"tenure":"Working","city":"Burnaby","latitude":49.283123,"title":360,"zipcode":"V5B 3C6","freeform address":"Burnaby, BC, V5B 3C6, CA","country":"CA","education":"College","longitude":-122.992227,"id":"afzuf702ixz3","state":"BC"},"type":"Feature","geometry":{"type":"Point","coordinates":[-122.992227,49.283123]}},{"properties":{"tenure":"Working","city":"Burnaby","latitude":49.245649,"title":361,"zipcode":"V5G 3B6","freeform address":"Burnaby, BC, V5G 3B6, CA","country":"CA","education":"College","longitude":-123.012182,"id":"afzuf6vc0xl5","state":"BC"},"type":"Feature","geometry":{"type":"Point","coordinates":[-123.012182,49.245649]}},{"properties":{"tenure":"Working","city":"Vancouver","latitude":49.218425,"title":362,"zipcode":"V5X 1T3","freeform address":"Vancouver, BC, V5X 1T3, CA","country":"CA","education":"College","longitude":-123.089062,"id":"afzuf6vaivyb","state":"BC"},"type":"Feature","geometry":{"type":"Point","coordinates":[-123.089062,49.218425]}},{"properties":{"tenure":"Working","city":"Surrey","latitude":49.145626,"title":363,"zipcode":"V3W 2Y2","freeform address":"Surrey, BC, V3W 2Y2, CA","country":"CA","education":"College","longitude":-122.849538,"id":"afzuf74fq83k","state":"BC"},"type":"Feature","geometry":{"type":"Point","coordinates":[-122.849538,49.145626]}},{"properties":{"tenure":"Working","city":"Richmond","latitude":49.154877,"title":364,"zipcode":"V6Y 2R1","freeform address":"Richmond, BC, V6Y 2R1, CA","country":"CA","education":"College","longitude":-123.1219,"id":"afzuf77qm591","state":"BC"},"type":"Feature","geometry":{"type":"Point","coordinates":[-123.1219,49.154877]}},{"properties":{"tenure":"Working","city":"Vancouver","latitude":49.25036,"title":346,"zipcode":"V5Z 2B3","freeform address":"Vancouver, BC, V5Z 2B3, CA","country":"CA","education":"University","longitude":-123.126311,"id":"afzuf6vztqqq","state":"BC"},"type":"Feature","geometry":{"type":"Point","coordinates":[-123.126311,49.25036]}},{"properties":{"tenure":"Working","city":"West Vancouver","latitude":49.333616,"title":347,"zipcode":"V7T 1Z5","freeform address":"West Vancouver, BC, V7T 1Z5, CA","country":"CA","education":"University","longitude":-123.133852,"id":"afzuf6tr855f","state":"BC"},"type":"Feature","geometry":{"type":"Point","coordinates":[-123.133852,49.333616]}},{"properties":{"tenure":"Working","city":"New Westminster","latitude":49.190019,"title":348,"zipcode":"V3M 5H8","freeform address":"New Westminster, BC, V3M 5H8, CA","country":"CA","education":"College","longitude":-122.934369,"id":"afzuf6yz5ecs","state":"BC"},"type":"Feature","geometry":{"type":"Point","coordinates":[-122.934369,49.190019]}},{"properties":{"tenure":"Working","city":"North Vancouver","latitude":49.319126,"title":349,"zipcode":"V7L 2J5","freeform address":"North Vancouver, BC, V7L 2J5, CA","country":"CA","education":"PG","longitude":-123.070924,"id":"afzuf6xkkwq0","state":"BC"},"type":"Feature","geometry":{"type":"Point","coordinates":[-123.070924,49.319126]}},{"properties":{"tenure":"Working","city":"Coquitlam","latitude":49.246025,"title":350,"zipcode":"V3K 3B8","freeform address":"Coquitlam, BC, V3K 3B8, CA","country":"CA","education":"College","longitude":-122.863465,"id":"afzuf76f53on","state":"BC"},"type":"Feature","geometry":{"type":"Point","coordinates":[-122.863465,49.246025]}},{"properties":{"tenure":"Working","city":"Surrey","latitude":49.165712,"title":353,"zipcode":"V3R 4J3","freeform address":"Surrey, BC, V3R 4J3, CA","country":"CA","education":"University","longitude":-122.795465,"id":"afzuf73u66ng","state":"BC"},"type":"Feature","geometry":{"type":"Point","coordinates":[-122.795465,49.165712]}},{"properties":{"tenure":"Working","city":"Richmond","latitude":49.168831,"title":354,"zipcode":"V6Y 0B8","freeform address":"Richmond, BC, V6Y 0B8, CA","country":"CA","education":"High School","longitude":-123.121526,"id":"afzuf6zr22ce","state":"BC"},"type":"Feature","geometry":{"type":"Point","coordinates":[-123.121526,49.168831]}},{"properties":{"tenure":"Working","city":"New Westminster","latitude":49.183352,"title":366,"zipcode":"V3M 6X3","freeform address":"New Westminster, BC, V3M 6X3, CA","country":"CA","education":"University","longitude":-122.951848,"id":"afzuf73xmetq","state":"BC"},"type":"Feature","geometry":{"type":"Point","coordinates":[-122.951848,49.183352]}},{"properties":{"tenure":"Working","city":"Surrey","latitude":49.190792,"title":367,"zipcode":"V4N 5R4","freeform address":"Surrey, BC, V4N 5R4, CA","country":"CA","education":"University","longitude":-122.739481,"id":"afzuf6u4b4mv","state":"BC"},"type":"Feature","geometry":{"type":"Point","coordinates":[-122.739481,49.190792]}},{"properties":{"tenure":"Working","city":"Surrey","latitude":49.200124,"title":369,"zipcode":"V4N 5E2","freeform address":"Surrey, BC, V4N 5E2, CA","country":"CA","education":"College","longitude":-122.761878,"id":"afzuf7396d18","state":"BC"},"type":"Feature","geometry":{"type":"Point","coordinates":[-122.761878,49.200124]}},{"properties":{"tenure":"Working","city":"North Vancouver","latitude":49.333469,"title":370,"zipcode":"V7J 1S8","freeform address":"North Vancouver, BC, V7J 1S8, CA","country":"CA","education":"College","longitude":-123.033793,"id":"afzuf6zn1jjh","state":"BC"},"type":"Feature","geometry":{"type":"Point","coordinates":[-123.033793,49.333469]}},{"properties":{"tenure":"Working","city":"Burnaby","latitude":49.213286,"title":372,"zipcode":"V5J 2L7","freeform address":"Burnaby, BC, V5J 2L7, CA","country":"CA","education":"High School","longitude":-122.98673,"id":"afzuf6tw8v54","state":"BC"},"type":"Feature","geometry":{"type":"Point","coordinates":[-122.98673,49.213286]}},{"properties":{"tenure":"Working","city":"Coquitlam","latitude":49.283654,"title":373,"zipcode":"V3B 7Z2","freeform address":"Coquitlam, BC, V3B 7Z2, CA","country":"CA","education":"University","longitude":-122.797756,"id":"afzuf6uz5uts","state":"BC"},"type":"Feature","geometry":{"type":"Point","coordinates":[-122.797756,49.283654]}},{"properties":{"tenure":"Working","city":"Vancouver","latitude":49.239546,"title":385,"zipcode":"V5R 2S3","freeform address":"Vancouver, BC, V5R 2S3, CA","country":"CA","education":"University","longitude":-123.056276,"id":"afzuf6w2hyiz","state":"BC"},"type":"Feature","geometry":{"type":"Point","coordinates":[-123.056276,49.239546]}},{"properties":{"tenure":"Working","city":"Burnaby","latitude":49.274076,"title":375,"zipcode":"V5B 2C4","freeform address":"Burnaby, BC, V5B 2C4, CA","country":"CA","education":"High School","longitude":-122.962046,"id":"afzuf6zb828h","state":"BC"},"type":"Feature","geometry":{"type":"Point","coordinates":[-122.962046,49.274076]}},{"properties":{"tenure":"Working","city":"Richmond","latitude":49.135991,"title":376,"zipcode":"V7E 4K6","freeform address":"Richmond, BC, V7E 4K6, CA","country":"CA","education":"University","longitude":-123.171296,"id":"afzuf6zt01s0","state":"BC"},"type":"Feature","geometry":{"type":"Point","coordinates":[-123.171296,49.135991]}},{"properties":{"tenure":"Working","city":"Surrey","latitude":49.151993,"title":377,"zipcode":"V3W 5A6","freeform address":"Surrey, BC, V3W 5A6, CA","country":"CA","education":"University","longitude":-122.885948,"id":"afzuf760u1kh","state":"BC"},"type":"Feature","geometry":{"type":"Point","coordinates":[-122.885948,49.151993]}},{"properties":{"tenure":"Working","city":"Surrey","latitude":49.136033,"title":378,"zipcode":"V3W 7E5","freeform address":"Surrey, BC, V3W 7E5, CA","country":"CA","education":"University","longitude":-122.866267,"id":"afzuf6wflvc6","state":"BC"},"type":"Feature","geometry":{"type":"Point","coordinates":[-122.866267,49.136033]}},{"properties":{"tenure":"Working","city":"Vancouver","latitude":49.261758,"title":379,"zipcode":"V6R 2R5","freeform address":"Vancouver, BC, V6R 2R5, CA","country":"CA","education":"University","longitude":-123.209816,"id":"afzuf6xobrh5","state":"BC"},"type":"Feature","geometry":{"type":"Point","coordinates":[-123.209816,49.261758]}},{"properties":{"tenure":"Working","city":"Delta","latitude":49.137494,"title":380,"zipcode":"V4C 6P5","freeform address":"Delta, BC, V4C 6P5, CA","country":"CA","education":"University","longitude":-122.890743,"id":"afzuf6sxcp1d","state":"BC"},"type":"Feature","geometry":{"type":"Point","coordinates":[-122.890743,49.137494]}},{"properties":{"tenure":"Working","city":"Richmond","latitude":49.176054,"title":381,"zipcode":"V6V 2S8","freeform address":"Richmond, BC, V6V 2S8, CA","country":"CA","education":"University","longitude":-122.980672,"id":"afzuf6vdfdrq","state":"BC"},"type":"Feature","geometry":{"type":"Point","coordinates":[-122.980672,49.176054]}},{"properties":{"tenure":"Working","city":"Richmond","latitude":49.157147,"title":382,"zipcode":"V6Y 0C1","freeform address":"Richmond, BC, V6Y 0C1, CA","country":"CA","education":"College","longitude":-123.124345,"id":"afzuf71mvjw4","state":"BC"},"type":"Feature","geometry":{"type":"Point","coordinates":[-123.124345,49.157147]}},{"properties":{"tenure":"Working","city":"North Vancouver","latitude":49.316124,"title":383,"zipcode":"V7H 1E9","freeform address":"North Vancouver, BC, V7H 1E9, CA","country":"CA","education":"University","longitude":-122.995941,"id":"afzuf6tardqk","state":"BC"},"type":"Feature","geometry":{"type":"Point","coordinates":[-122.995941,49.316124]}},{"properties":{"tenure":"Working","city":"Burnaby","latitude":49.215003,"title":395,"zipcode":"V5E 1A8","freeform address":"Burnaby, BC, V5E 1A8, CA","country":"CA","education":"University","longitude":-122.965079,"id":"afzuf75wyoh1","state":"BC"},"type":"Feature","geometry":{"type":"Point","coordinates":[-122.965079,49.215003]}},{"properties":{"tenure":"Working","city":"Surrey","latitude":49.182455,"title":396,"zipcode":"V3T 3L4","freeform address":"Surrey, BC, V3T 3L4, CA","country":"CA","education":"High School","longitude":-122.861966,"id":"afzuf701tql7","state":"BC"},"type":"Feature","geometry":{"type":"Point","coordinates":[-122.861966,49.182455]}},{"properties":{"tenure":"Working","city":"Coquitlam","latitude":49.283425,"title":398,"zipcode":"V3B 7T9","freeform address":"Coquitlam, BC, V3B 7T9, CA","country":"CA","education":"University","longitude":-122.786229,"id":"afzuf6v1z0ng","state":"BC"},"type":"Feature","geometry":{"type":"Point","coordinates":[-122.786229,49.283425]}},{"properties":{"tenure":"Working","city":"Surrey","latitude":49.190757,"title":399,"zipcode":"V3R 0M5","freeform address":"Surrey, BC, V3R 0M5, CA","country":"CA","education":"University","longitude":-122.809892,"id":"afzuf73ggyix","state":"BC"},"type":"Feature","geometry":{"type":"Point","coordinates":[-122.809892,49.190757]}},{"properties":{"tenure":"Working","city":"Vancouver","latitude":49.274535,"title":400,"zipcode":"V5L 2N3","freeform address":"Vancouver, BC, V5L 2N3, CA","country":"CA","education":"University","longitude":-123.066461,"id":"afzuf76mrri9","state":"BC"},"type":"Feature","geometry":{"type":"Point","coordinates":[-123.066461,49.274535]}},{"properties":{"tenure":"Working","city":"Vancouver","latitude":49.225553,"title":401,"zipcode":"V5S 1H4","freeform address":"Vancouver, BC, V5S 1H4, CA","country":"CA","education":"University","longitude":-123.037712,"id":"afzuf71ucnrt","state":"BC"},"type":"Feature","geometry":{"type":"Point","coordinates":[-123.037712,49.225553]}},{"properties":{"tenure":"Working","city":"Surrey","latitude":49.133336,"title":402,"zipcode":"V3W 7Z5","freeform address":"Surrey, BC, V3W 7Z5, CA","country":"CA","education":"University","longitude":-122.854501,"id":"afzuf6vwgaxt","state":"BC"},"type":"Feature","geometry":{"type":"Point","coordinates":[-122.854501,49.133336]}},{"properties":{"tenure":"Working","city":"Surrey","latitude":49.129379,"title":386,"zipcode":"V3W 1A5","freeform address":"Surrey, BC, V3W 1A5, CA","country":"CA","education":"College","longitude":-122.827568,"id":"afzuf70w0fsi","state":"BC"},"type":"Feature","geometry":{"type":"Point","coordinates":[-122.827568,49.129379]}},{"properties":{"tenure":"Working","city":"Burnaby","latitude":49.266424,"title":387,"zipcode":"V5B 4S5","freeform address":"Burnaby, BC, V5B 4S5, CA","country":"CA","education":"University","longitude":-122.99143,"id":"afzuf776qrt0","state":"BC"},"type":"Feature","geometry":{"type":"Point","coordinates":[-122.99143,49.266424]}},{"properties":{"tenure":"Working","city":"Vancouver","latitude":49.213999,"title":388,"zipcode":"V5X 2G1","freeform address":"Vancouver, BC, V5X 2G1, CA","country":"CA","education":"University","longitude":-123.095912,"id":"afzuf72c4tm1","state":"BC"},"type":"Feature","geometry":{"type":"Point","coordinates":[-123.095912,49.213999]}},{"properties":{"tenure":"Working","city":"Richmond","latitude":49.166994,"title":390,"zipcode":"V6Y 4J5","freeform address":"Richmond, BC, V6Y 4J5, CA","country":"CA","education":"University","longitude":-123.12145,"id":"afzuf777om0k","state":"BC"},"type":"Feature","geometry":{"type":"Point","coordinates":[-123.12145,49.166994]}},{"properties":{"tenure":"Working","city":"Vancouver","latitude":49.261112,"title":391,"zipcode":"V6R 3J2","freeform address":"Vancouver, BC, V6R 3J2, CA","country":"CA","education":"High School","longitude":-123.180217,"id":"afzuf70s9b26","state":"BC"},"type":"Feature","geometry":{"type":"Point","coordinates":[-123.180217,49.261112]}},{"properties":{"tenure":"Working","city":"Surrey","latitude":49.140557,"title":392,"zipcode":"V3W 9P6","freeform address":"Surrey, BC, V3W 9P6, CA","country":"CA","education":"University","longitude":-122.880892,"id":"afzuf77r9jnw","state":"BC"},"type":"Feature","geometry":{"type":"Point","coordinates":[-122.880892,49.140557]}},{"properties":{"tenure":"Working","city":"Vancouver","latitude":49.267317,"title":394,"zipcode":"V5N 4A8","freeform address":"Vancouver, BC, V5N 4A8, CA","country":"CA","education":"University","longitude":-123.070121,"id":"afzuf6sx38mn","state":"BC"},"type":"Feature","geometry":{"type":"Point","coordinates":[-123.070121,49.267317]}},{"properties":{"tenure":"Working","city":"Vancouver","latitude":49.258914,"title":405,"zipcode":"V5N 2B7","freeform address":"Vancouver, BC, V5N 2B7, CA","country":"CA","education":"University","longitude":-123.071122,"id":"afzuf72gtlt5","state":"BC"},"type":"Feature","geometry":{"type":"Point","coordinates":[-123.071122,49.258914]}},{"properties":{"tenure":"Working","city":"Surrey","latitude":49.200643,"title":407,"zipcode":"V3T 5W9","freeform address":"Surrey, BC, V3T 5W9, CA","country":"CA","education":"PG","longitude":-122.849104,"id":"afzuf72nbffw","state":"BC"},"type":"Feature","geometry":{"type":"Point","coordinates":[-122.849104,49.200643]}}],"is_temporal":false,"author":{"url":"","metadata":null,"contact_name":null,"contact_address":null,"source":null,"contact_phone":null},"source":"","pagination":{"sort":null,"start":0,"total":48,"limit":1000000},"state":"complete","tags":"","published":"2014-08-16T13:17:02-04:00","id":380231}