{"type":"FeatureCollection","data_type":"Dataset","url_type":null,"permissions":[{"permissions":{"download":true,"view":true},"group_id":"everyone"}],"classification":null,"title":"Map CHS 6","count":7,"stream_id":380504,"contributor":{"url":"http://geocommons.com/users/78332","name":"mslavin09"},"data_attributes":null,"calculation_params":null,"icon_link":null,"link":"http://geocommons.com/overlays/380504.json","extent":[-76.6939,39.5931,-75.2108,40.244],"geometry_types":["point"],"unique_name":null,"name":"Map CHS 6","feature_count":7,"description":"","next_feature":null,"is_raster":false,"short_classification":"Y","stats":{"latitude":{"max":40.2439663,"variance":0.0457070278251147,"mean":39.9732920857143,"stdev":0.213792020022064,"median":39.9831616,"min":39.5931267},"longitude":{"max":-75.2108,"variance":0.228726453405568,"mean":-75.7415208857143,"stdev":0.47825354510507,"median":-75.6136358,"min":-76.693888}},"features":[{"properties":{"city":"Coatesville","latitude":39.9831616,"zip code":"19320-","hospital name":"Brandywine Hospital","longitude":-75.8238355,"id":"ag0iw1ew5ubl","address":"201 Reeseville Road","state":"PA"},"type":"Feature","geometry":{"type":"Point","coordinates":[-75.8238355,39.9831616]}},{"properties":{"city":"Philadelphia","latitude":40.078052,"zip code":"19118-","hospital name":"Chestnut Hill Hospital","longitude":-75.2108,"id":"ag0iw1dpfl2o","address":"8835 Germantown Ave","state":"PA"},"type":"Feature","geometry":{"type":"Point","coordinates":[-75.2108,40.078052]}},{"properties":{"city":"West Grove","latitude":39.822733,"zip code":"19390-","hospital name":"Jennersville Regional Hospital","longitude":-75.888391,"id":"ag0iw1ggyzfs","address":"1015 W Baltimore Pk","state":"PA"},"type":"Feature","geometry":{"type":"Point","coordinates":[-75.888391,39.822733]}},{"properties":{"city":"York","latitude":39.968098,"zip code":"17403-","hospital name":"Memorial Hospital York","longitude":-76.693888,"id":"ag0iw1l5f6mo","address":"325 South Belmont Street","state":"PA"},"type":"Feature","geometry":{"type":"Point","coordinates":[-76.693888,39.968098]}},{"properties":{"city":"Phoenixville","latitude":40.123907,"zip code":"19460-","hospital name":"Phoenixville Hospital","longitude":-75.513616,"id":"ag0iw1oan0kx","address":"140 Nutt Road","state":"PA"},"type":"Feature","geometry":{"type":"Point","coordinates":[-75.513616,40.123907]}},{"properties":{"city":"Pottstown","latitude":40.2439663,"zip code":"19464-","hospital name":"Pottstown Memorial Medical Center","longitude":-75.6136358,"id":"ag0iw1s62qzb","address":"1600 East High Street And Armand Hammer Blvd","state":"PA"},"type":"Feature","geometry":{"type":"Point","coordinates":[-75.6136358,40.2439663]}},{"properties":{"city":"Salem","latitude":39.5931267,"zip code":"08079-","hospital name":"Memorial Hospital Of Salem County","longitude":-75.4464799,"id":"ag0iw1e441d3","address":"310 Woodstown Road","state":"NJ"},"type":"Feature","geometry":{"type":"Point","coordinates":[-75.4464799,39.5931267]}}],"is_temporal":false,"author":{"url":"","metadata":"","contact_name":"","contact_address":"","source":"","contact_phone":""},"source":"","pagination":{"sort":null,"start":0,"total":7,"limit":1000000},"state":"complete","tags":"","published":"2014-08-16T13:48:48-04:00","id":380504}