{"type":"FeatureCollection","data_type":"Dataset","url_type":null,"permissions":[{"permissions":{"download":true,"view":true},"group_id":"everyone"}],"classification":null,"title":"Union_Park__4th_Ward","count":225,"stream_id":380686,"contributor":{"url":"http://geocommons.com/users/78373","name":"theceo84"},"data_attributes":null,"calculation_params":null,"icon_link":null,"link":"http://geocommons.com/overlays/380686.json","extent":[-111.881,40.6097,-111.871,40.7531],"geometry_types":["point"],"unique_name":null,"name":"Union_Park__4th_Ward","feature_count":225,"description":"","next_feature":null,"is_raster":false,"short_classification":"Y","stats":{"latitude":{"max":40.7531079,"variance":9.22744756442498e-05,"mean":40.6132202756881,"stdev":0.00960596042279219,"min":40.6097294,"median":40.6125591},"longitude":{"max":-111.8710836,"variance":6.69047602362255e-06,"mean":-111.877454675229,"stdev":0.00258659545032124,"min":-111.8814209,"median":-111.8775255}},"features":[{"properties":{"city":"Sandy","location status":"Verified","latitude":40.6147342,"zip":"84047","e-mail":"steveruger@hotmail.com","street":"7517 S Sandy Woods Ln","phone":"801-561-1970","longitude":-111.8772688,"id":"ag0vctp7bqfa","household":"Adamson, Steven Boyd &amp; Shirley","state":"Utah"},"type":"Feature","geometry":{"type":"Point","coordinates":[-111.8772688,40.6147342]}},{"properties":{"city":"Midvale","location status":"Unverified","latitude":40.609769,"zip":"84047-5721","e-mail":null,"street":"524 Sandy Hollow Circle","phone":"801-277-7105","longitude":-111.876418,"id":"ag0vctog3usy","household":"Adelman, Nicholas Josephberg","state":"Utah"},"type":"Feature","geometry":{"type":"Point","coordinates":[-111.876418,40.609769]}},{"properties":{"city":"Sandy","location status":"Verified","latitude":40.6099534,"zip":"84047","e-mail":"talcivar@gmail.com","street":"7776 Unionwood Dr","phone":"801-828-6329","longitude":-111.8783873,"id":"ag0vctirsc9s","household":"Alcivar, Michael Christopher &amp; Maricela Tina","state":"Utah"},"type":"Feature","geometry":{"type":"Point","coordinates":[-111.8783873,40.6099534]}},{"properties":{"city":"Sandy","location status":"Verified","latitude":40.6107943,"zip":"84047","e-mail":"mallen@wcfgroup.com","street":"478 E Unionwood Dr.","phone":"801-565-0696","longitude":-111.8773841,"id":"ag0vctm420te","household":"Allen, Michael &amp; Diane","state":"Utah"},"type":"Feature","geometry":{"type":"Point","coordinates":[-111.8773841,40.6107943]}},{"properties":{"city":"Midvale","location status":"Unverified","latitude":40.6135829,"zip":"84047","e-mail":null,"street":"725 Lois Cir","phone":null,"longitude":-111.8746241,"id":"ag0vctoe32hq","household":"Allred, Shani Dee","state":"Utah"},"type":"Feature","geometry":{"type":"Point","coordinates":[-111.8746241,40.6135829]}},{"properties":{"city":"Midvale","location status":"Unverified","latitude":40.6133239,"zip":"84047","e-mail":"m.alonso.uky@gmail.com","street":"408 Sandy Woods Ln","phone":"801-518-0234","longitude":-111.879168,"id":"ag0vctmmekfq","household":"Alonso Garcia, Marian","state":"Utah"},"type":"Feature","geometry":{"type":"Point","coordinates":[-111.879168,40.6133239]}},{"properties":{"city":"Midvale","location status":"Verified","latitude":40.6138038,"zip":"84047","e-mail":null,"street":"551 East 7570 South","phone":null,"longitude":-111.8757171,"id":"ag0vcthnaug6","household":"Anderson, Brady &amp; Leslie","state":"Utah"},"type":"Feature","geometry":{"type":"Point","coordinates":[-111.8757171,40.6138038]}},{"properties":{"city":"Sandy","location status":"Verified","latitude":40.6143718,"zip":"84047","e-mail":"lindajanae@hotmail.com","street":"384 Sandy Land Lane","phone":"801-568-3883","longitude":-111.8798156,"id":"ag0vctlpquxm","household":"Anderson, Janae","state":"Utah"},"type":"Feature","geometry":{"type":"Point","coordinates":[-111.8798156,40.6143718]}},{"properties":{"city":"Sandy","location status":"Verified","latitude":40.6101081,"zip":"84047","e-mail":"shaneandrews@hotmail.com","street":"7769  Sandy Heights Dr.","phone":"801-304-9454","longitude":-111.8755146,"id":"ag0vctqxcjia","household":"Andrews, Shane &amp; Elisa","state":"Utah"},"type":"Feature","geometry":{"type":"Point","coordinates":[-111.8755146,40.6101081]}},{"properties":{"city":"Midvale","location status":"Verified","latitude":40.6117554,"zip":"84047","e-mail":"Rikki.arbuckle@gmail.com","street":"388 E. 7670 S.","phone":"801-831-4939","longitude":-111.8796412,"id":"ag0vctb762hl","household":"Arbuckle, Jon &amp; Rikki","state":"Utah"},"type":"Feature","geometry":{"type":"Point","coordinates":[-111.8796412,40.6117554]}},{"properties":{"city":"Sandy","location status":"Verified","latitude":40.6108401,"zip":"84047","e-mail":null,"street":"7729 Sandy Heights Dr","phone":"801-903-3425","longitude":-111.8754395,"id":"ag0vctbmyqof","household":"Arlt, Nathan Joseph &amp; Victoria","state":"Utah"},"type":"Feature","geometry":{"type":"Point","coordinates":[-111.8754395,40.6108401]}},{"properties":{"city":"Sandy","location status":"Verified","latitude":40.6125353,"zip":"84047","e-mail":null,"street":"384 Sandy Park Cir.","phone":"801-233-0310","longitude":-111.8796613,"id":"ag0vctjkqcfz","household":"Arnason, Tony &amp; Sally Ann","state":"Utah"},"type":"Feature","geometry":{"type":"Point","coordinates":[-111.8796613,40.6125353]}},{"properties":{"city":"Sandy","location status":"Verified","latitude":40.6143698,"zip":"84047","e-mail":null,"street":"7536 Sandy Woods Ln","phone":"801-565-1657","longitude":-111.8777704,"id":"ag0vctgx9x8s","household":"Austin, Jerry Lynn &amp; Becky","state":"Utah"},"type":"Feature","geometry":{"type":"Point","coordinates":[-111.8777704,40.6143698]}},{"properties":{"city":"Midvale","location status":"Verified","latitude":40.6117269,"zip":"84047","e-mail":"marcella.bacon@hotmail.com","street":"426 East 7670 South","phone":"801-548-6064","longitude":-111.8787413,"id":"ag0vctcinlf2","household":"Bacon, Thomas Louis &amp; Marcella Ann","state":"Utah"},"type":"Feature","geometry":{"type":"Point","coordinates":[-111.8787413,40.6117269]}},{"properties":{"city":"Midvale","location status":"Approximately Verified","latitude":40.61303,"zip":"84047","e-mail":null,"street":"655 Orchard Vista Court","phone":null,"longitude":-111.8734332,"id":"ag0vctor5tnv","household":"Bailey, Brooke","state":"Utah"},"type":"Feature","geometry":{"type":"Point","coordinates":[-111.8734332,40.61303]}},{"properties":{"city":"Midvale","location status":"Verified","latitude":40.6129873,"zip":"84047","e-mail":null,"street":"7603 S. 425 E.","phone":"801-304-3660","longitude":-111.8784168,"id":"ag0vctmb87rz","household":"Baird, Neil Marshall","state":"Utah"},"type":"Feature","geometry":{"type":"Point","coordinates":[-111.8784168,40.6129873]}},{"properties":{"city":"Midvale","location status":"Verified","latitude":40.6117676,"zip":"84047","e-mail":null,"street":"320 E 7670 S","phone":"801-688-6879","longitude":-111.8812935,"id":"ag0vctjuuwi7","household":"Baker, Gerald &amp; Stephanie","state":"Utah"},"type":"Feature","geometry":{"type":"Point","coordinates":[-111.8812935,40.6117676]}},{"properties":{"city":"Midvale","location status":"Unverified","latitude":40.6119626,"zip":"84047","e-mail":"boardlad@gmail.com","street":"425 E. 7670 S.","phone":"801-783-8001","longitude":-111.8790562,"id":"ag0vcthezd0j","household":"Bangerter, Nicholas &amp; Gina Ranae","state":"Utah"},"type":"Feature","geometry":{"type":"Point","coordinates":[-111.8790562,40.6119626]}},{"properties":{"city":"Midvale","location status":"Unverified","latitude":40.611698,"zip":"84047","e-mail":null,"street":"7688 S. 375 E #1","phone":null,"longitude":-111.880041,"id":"ag0vctdy32nu","household":"Bankhead, Julia Ann","state":"Utah"},"type":"Feature","geometry":{"type":"Point","coordinates":[-111.880041,40.611698]}},{"properties":{"city":"MIDVALE","location status":"Unverified","latitude":40.6127705,"zip":"84047","e-mail":null,"street":"357 E SANDY PARK CIR","phone":null,"longitude":-111.8802004,"id":"ag0vcto7khbu","household":"Barlow, Bradley","state":"Utah"},"type":"Feature","geometry":{"type":"Point","coordinates":[-111.8802004,40.6127705]}},{"properties":{"city":"Sandy","location status":"Verified","latitude":40.6097294,"zip":"84047","e-mail":"cdbarlow@gmail.com","street":"494 Sandy Hollow Cir","phone":"801-999-0080","longitude":-111.8771508,"id":"ag0vctdg7cok","household":"Barlow, Christopher","state":"Utah"},"type":"Feature","geometry":{"type":"Point","coordinates":[-111.8771508,40.6097294]}},{"properties":{"city":"MIdvale","location status":"Unverified","latitude":40.612487,"zip":"84047","e-mail":null,"street":"394 E Sandy Park Cir","phone":"801-725-0695","longitude":-111.8794029,"id":"ag0vctoj0q44","household":"Barrett, Jeremiah Daniel &amp; Cambree Marie","state":"Utah"},"type":"Feature","geometry":{"type":"Point","coordinates":[-111.8794029,40.612487]}},{"properties":{"city":"Sandy","location status":"Verified","latitude":40.612576,"zip":"84047","e-mail":null,"street":"351 E 7635 S","phone":"801-633-4388","longitude":-111.880466,"id":"ag0vcte0kf51","household":"Barron, Gull-Britt Signe","state":"Utah"},"type":"Feature","geometry":{"type":"Point","coordinates":[-111.880466,40.612576]}},{"properties":{"city":"Midvale","location status":"Unverified","latitude":40.6119619,"zip":"84047","e-mail":null,"street":"405 E 7670 S","phone":"801 685-2461","longitude":-111.8792523,"id":"ag0vctfa4rxe","household":"Beckstead, Betty Daraban","state":"Utah"},"type":"Feature","geometry":{"type":"Point","coordinates":[-111.8792523,40.6119619]}},{"properties":{"city":"Sandy","location status":"Verified","latitude":40.6103138,"zip":"84047","e-mail":"clarktbell@gmail.com","street":"7758 S. Unionwood Dr.","phone":"801-891-1717","longitude":-111.8783926,"id":"ag0vctn0w8kb","household":"Bell, Clark T. &amp; Jamilyn","state":"Utah"},"type":"Feature","geometry":{"type":"Point","coordinates":[-111.8783926,40.6103138]}},{"properties":{"city":"Sandy","location status":"Verified","latitude":40.6111486,"zip":"84047","e-mail":null,"street":"449 Unionwood Dr","phone":"801-255-2080","longitude":-111.8782451,"id":"ag0vctekhobk","household":"Beyer, Kent &amp; Joy","state":"Utah"},"type":"Feature","geometry":{"type":"Point","coordinates":[-111.8782451,40.6111486]}},{"properties":{"city":"Midvale","location status":"Verified","latitude":40.6135268,"zip":"84047","e-mail":null,"street":"7570 South 520 East","phone":"801-255-0625","longitude":-111.8767082,"id":"ag0vctmcpqvu","household":"Biesinger, Bruce Arvill","state":"Utah"},"type":"Feature","geometry":{"type":"Point","coordinates":[-111.8767082,40.6135268]}},{"properties":{"city":"Sandy","location status":"Verified","latitude":40.6111873,"zip":"84047","e-mail":null,"street":"545 E Unionwood Drive","phone":"801-255-3310","longitude":-111.8758003,"id":"ag0vctofp55y","household":"Billings, Ryan Adam &amp; Sheri","state":"Utah"},"type":"Feature","geometry":{"type":"Point","coordinates":[-111.8758003,40.6111873]}},{"properties":{"city":"Sandy","location status":"Verified","latitude":40.6124151,"zip":"84047","e-mail":null,"street":"7641 S 520 E","phone":"801-566-1128","longitude":-111.8762817,"id":"ag0vctl3ze65","household":"Bishop, Bruce &amp; Helaine","state":"Utah"},"type":"Feature","geometry":{"type":"Point","coordinates":[-111.8762817,40.6124151]}},{"properties":{"city":"Midvale","location status":"Verified","latitude":40.6146691,"zip":"84047","e-mail":"mattbjarnson@yahoo.com","street":"594 East 7500 South","phone":"801-566-7075","longitude":-111.8747851,"id":"ag0vctp1pfz8","household":"Bjarnson, Matt &amp; Diane","state":"Utah"},"type":"Feature","geometry":{"type":"Point","coordinates":[-111.8747851,40.6146691]}},{"properties":{"city":"Midvale","location status":"Verified","latitude":40.6117676,"zip":"84047","e-mail":null,"street":"7680 375 E","phone":null,"longitude":-111.88023,"id":"ag0vctqq1upw","household":"Boone, Isaiah Rico","state":"Utah"},"type":"Feature","geometry":{"type":"Point","coordinates":[-111.88023,40.6117676]}},{"properties":{"city":"Midvale","location status":"Verified","latitude":40.6130117,"zip":"84047","e-mail":"bnbowers@gmail.com","street":"627 Orchard Vista Ct.","phone":"801-550-1404","longitude":-111.8737417,"id":"ag0vctcwo43b","household":"Bowers, Brian Norris &amp; Alison","state":"Utah"},"type":"Feature","geometry":{"type":"Point","coordinates":[-111.8737417,40.6130117]}},{"properties":{"city":"Sandy","location status":"Verified","latitude":40.6141275,"zip":"84047","e-mail":null,"street":"7546 Sandy Woods Ln","phone":"801-561-5407","longitude":-111.8778213,"id":"ag0vctbfpafn","household":"Bown, Brian Carl &amp; Lisa Kae","state":"Utah"},"type":"Feature","geometry":{"type":"Point","coordinates":[-111.8778213,40.6141275]}},{"properties":{"city":"Midvale","location status":"Verified","latitude":40.6146691,"zip":"84047","e-mail":null,"street":"731 Lois Cir.","phone":"801-561-7191","longitude":-111.8711051,"id":"ag0vctchc50b","household":"Bowthorpe, Sherene Lin","state":"Utah"},"type":"Feature","geometry":{"type":"Point","coordinates":[-111.8711051,40.6146691]}},{"properties":{"city":"Midvale","location status":"Approximately Verified","latitude":40.6143881,"zip":"84047","e-mail":"rourkeboyakin@hotmail.com","street":"7542 S. 520 E.","phone":"801-792-4073","longitude":-111.8766278,"id":"ag0vctm6tqtv","household":"Boyakin, Rourke &amp; Lettie","state":"Utah"},"type":"Feature","geometry":{"type":"Point","coordinates":[-111.8766278,40.6143881]}},{"properties":{"city":"Sandy","location status":"Verified","latitude":40.6127266,"zip":"84047","e-mail":null,"street":"7619 S Concordia Pl","phone":"801-562-2162","longitude":-111.8737511,"id":"ag0vctmkcheb","household":"Brown, Lionel William &amp; Maj-Britt","state":"Utah"},"type":"Feature","geometry":{"type":"Point","coordinates":[-111.8737511,40.6127266]}},{"properties":{"city":"Sandy","location status":"Verified","latitude":40.6124457,"zip":"84047-2786","e-mail":null,"street":"7632 Lark Meadow Cv","phone":"801-566-2864","longitude":-111.8738973,"id":"ag0vctqmhnts","household":"Buehler, Kay Lynne","state":"Utah"},"type":"Feature","geometry":{"type":"Point","coordinates":[-111.8738973,40.6124457]}},{"properties":{"city":"Midvale","location status":"Verified","latitude":40.6146711,"zip":"84047","e-mail":null,"street":"570 East 7500 South","phone":"801-255-2682","longitude":-111.8751928,"id":"ag0vctc88yvk","household":"Burgon, Helen","state":"Utah"},"type":"Feature","geometry":{"type":"Point","coordinates":[-111.8751928,40.6146711]}},{"properties":{"city":"Midvale","location status":"Approximately Verified","latitude":40.6114418,"zip":"84047","e-mail":null,"street":"7693 S 300 E (up Stairs)","phone":"801-562-8686","longitude":-111.8813002,"id":"ag0vctp89w1b","household":"Busch, Lee Ann","state":"Utah"},"type":"Feature","geometry":{"type":"Point","coordinates":[-111.8813002,40.6114418]}},{"properties":{"city":"Sandy","location status":"Verified","latitude":40.6111812,"zip":"84047","e-mail":null,"street":"535 E Unionwood Dr.","phone":"801-505-8099","longitude":-111.8760645,"id":"ag0vctlsw7z3","household":"Butler, Darrel &amp; Chanmaly","state":"Utah"},"type":"Feature","geometry":{"type":"Point","coordinates":[-111.8760645,40.6111812]}},{"properties":{"city":"Midvale Ut","location status":"Verified","latitude":40.6115518,"zip":"84047","e-mail":null,"street":"7686 S 375 E #b","phone":"801-604-1102","longitude":-111.8802809,"id":"ag0vctijh1xo","household":"Butler, Gabriel Joseph","state":"Utah"},"type":"Feature","geometry":{"type":"Point","coordinates":[-111.8802809,40.6115518]}},{"properties":{"city":"Midvale","location status":"Unverified","latitude":40.613354,"zip":"84047","e-mail":null,"street":"550 E 7570 S","phone":null,"longitude":-111.875746,"id":"ag0vctmeydlp","household":"Cannon, Dustin David &amp; Christine","state":"Utah"},"type":"Feature","geometry":{"type":"Point","coordinates":[-111.875746,40.613354]}},{"properties":{"city":"Sandy","location status":"Verified","latitude":40.6147505,"zip":"84047","e-mail":null,"street":"343 Sandy Land Ln","phone":"801-561-9059","longitude":-111.8806497,"id":"ag0vctgquhup","household":"Carn, Thomas Daniel","state":"Utah"},"type":"Feature","geometry":{"type":"Point","coordinates":[-111.8806497,40.6147505]}},{"properties":{"city":"Midvale","location status":"Verified","latitude":40.6129934,"zip":"84047","e-mail":null,"street":"447 E 7620 S","phone":"801-565-0070","longitude":-111.8781968,"id":"ag0vctisinav","household":"Carnahan, Stephen &amp; Faye","state":"Utah"},"type":"Feature","geometry":{"type":"Point","coordinates":[-111.8781968,40.6129934]}},{"properties":{"city":"Sandy","location status":"Verified","latitude":40.6133049,"zip":"84047","e-mail":null,"street":"352 Sandy Woods Ln","phone":"801-561-5906","longitude":-111.8804499,"id":"ag0vctc2793n","household":"Christensen, Jay Steven &amp; Kathy Anne","state":"Utah"},"type":"Feature","geometry":{"type":"Point","coordinates":[-111.8804499,40.6133049]}},{"properties":{"city":"Sandy","location status":"Verified","latitude":40.6123622,"zip":"84047","e-mail":null,"street":"7642 Concordia Pl","phone":"801-566-2663","longitude":-111.8742379,"id":"ag0vctixgk06","household":"Chun, Creighton Garreth","state":"Utah"},"type":"Feature","geometry":{"type":"Point","coordinates":[-111.8742379,40.6123622]}},{"properties":{"city":"Sandy","location status":"Unverified","latitude":40.614736,"zip":"84047","e-mail":null,"street":"327 Sandy Land Lane","phone":"801-577-5214","longitude":-111.881295,"id":"ag0vctp33v91","household":"Clark, Charles &amp; Anna","state":"Utah"},"type":"Feature","geometry":{"type":"Point","coordinates":[-111.881295,40.614736]}},{"properties":{"city":"Midvale","location status":"Unverified","latitude":40.614736,"zip":"84047","e-mail":"wade849@gmail.com","street":"327 Sandy Land Lane","phone":"801-347-6486","longitude":-111.8812949,"id":"ag0vctdjixo3","household":"Clark, Wade","state":"Utah"},"type":"Feature","geometry":{"type":"Point","coordinates":[-111.8812949,40.614736]}},{"properties":{"city":"Sandy","location status":"Verified","latitude":40.6123479,"zip":"84047","e-mail":null,"street":"7644 Lark Meadow Cove","phone":"801-568-0928","longitude":-111.8737873,"id":"ag0vctn8k3cr","household":"Clayton, Clair &amp; Viola Mae","state":"Utah"},"type":"Feature","geometry":{"type":"Point","coordinates":[-111.8737873,40.6123479]}},{"properties":{"city":"Midvale Ut","location status":"Verified","latitude":40.6114317,"zip":"84047","e-mail":null,"street":"7703 S 520 E","phone":null,"longitude":-111.8763622,"id":"ag0vctai69yn","household":"Cockayne, Donald James","state":"Utah"},"type":"Feature","geometry":{"type":"Point","coordinates":[-111.8763622,40.6114317]}},{"properties":{"city":"Sandy","location status":"Verified","latitude":40.6107862,"zip":"84047","e-mail":null,"street":"522 E Unionwood Dr.","phone":"801-562-2198","longitude":-111.8766063,"id":"ag0vctmdgwhd","household":"Collins, Nola","state":"Utah"},"type":"Feature","geometry":{"type":"Point","coordinates":[-111.8766063,40.6107862]}},{"properties":{"city":"Sandy","location status":"Verified","latitude":40.6132927,"zip":"84047-4900","e-mail":null,"street":"342 Sandy Woods Ln","phone":"801-562-8809","longitude":-111.880761,"id":"ag0vctmekqcd","household":"Colyar, Janice","state":"Utah"},"type":"Feature","geometry":{"type":"Point","coordinates":[-111.880761,40.6132927]}},{"properties":{"city":"Sandy","location status":"Verified","latitude":40.6111751,"zip":"84047","e-mail":null,"street":"7712 Unionwood Dr.","phone":"801-565-1521","longitude":-111.8768611,"id":"ag0vctnnlojw","household":"Coombs, Gilbert &amp; Janet","state":"Utah"},"type":"Feature","geometry":{"type":"Point","coordinates":[-111.8768611,40.6111751]}},{"properties":{"city":"Sandy","location status":"Verified","latitude":40.6106803,"zip":"84047","e-mail":null,"street":"7739 Sandy Heights Dr","phone":"801-304-5986","longitude":-111.8754959,"id":"ag0vctkhjxvs","household":"Cope, Debra","state":"Utah"},"type":"Feature","geometry":{"type":"Point","coordinates":[-111.8754959,40.6106803]}},{"properties":{"city":"Midvale","location status":"Verified","latitude":40.6117269,"zip":"84047","e-mail":null,"street":"484 E 7670 S","phone":"801-300-0121","longitude":-111.8771857,"id":"ag0vctj7k1v0","household":"Coulombe, Alan &amp; Michelle","state":"Utah"},"type":"Feature","geometry":{"type":"Point","coordinates":[-111.8771857,40.6117269]}},{"properties":{"city":"Midvale","location status":"Unverified","latitude":40.61451,"zip":"84047","e-mail":"pcounsel@gmail.com","street":"7523 S 520 E","phone":"407-617-7079","longitude":-111.876121,"id":"ag0vcthb59vs","household":"Counsel, Joshua &amp; Paulina","state":"Utah"},"type":"Feature","geometry":{"type":"Point","coordinates":[-111.876121,40.61451]}},{"properties":{"city":"Midvale Ut","location status":"Verified","latitude":40.6117004,"zip":"84047","e-mail":null,"street":"7681 S 455 E","phone":"801-688-2979","longitude":-111.8776631,"id":"ag0vctlc3edi","household":"Cox, Alisha Marie","state":"Utah"},"type":"Feature","geometry":{"type":"Point","coordinates":[-111.8776631,40.6117004]}},{"properties":{"city":"Midvale","location status":"Verified","latitude":40.6116841,"zip":"84047","e-mail":null,"street":"7682 S. 375 E.","phone":"808 729 8726","longitude":-111.88023,"id":"ag0vctc5ndxj","household":"Curran, Iwalani","state":"Utah"},"type":"Feature","geometry":{"type":"Point","coordinates":[-111.88023,40.6116841]}},{"properties":{"city":"MIDVALE","location status":"Unverified","latitude":40.6119622,"zip":"84047","e-mail":"tgc1701@gmail.com","street":"415 E 7670 S","phone":null,"longitude":-111.8791786,"id":"ag0vctdr72ro","household":"Curtis, Patrick &amp; Gabi","state":"Utah"},"type":"Feature","geometry":{"type":"Point","coordinates":[-111.8791786,40.6119622]}},{"properties":{"city":"Midvale","location status":"Unverified","latitude":40.6101079,"zip":"84047","e-mail":null,"street":"7765 S Unionwood Dr","phone":null,"longitude":-111.877928,"id":"ag0vctm49ava","household":"Cyrus, Jessie","state":"Utah"},"type":"Feature","geometry":{"type":"Point","coordinates":[-111.877928,40.6101079]}},{"properties":{"city":"Midvale","location status":"Unverified","latitude":40.6130443,"zip":"84047-5555","e-mail":null,"street":"659 E Orchard Vista Ct","phone":"801-573-4618","longitude":-111.8730783,"id":"ag0vctmmiyi3","household":"Davis, Heidie Louise","state":"Utah"},"type":"Feature","geometry":{"type":"Point","coordinates":[-111.8730783,40.6130443]}},{"properties":{"city":"Sandy","location status":"Verified","latitude":40.6133456,"zip":"84047","e-mail":null,"street":"472 E Sandy Woods Ln","phone":"801-562-1204","longitude":-111.87736,"id":"ag0vctqxfxdq","household":"Davis, Scott Backman &amp; Terri K","state":"Utah"},"type":"Feature","geometry":{"type":"Point","coordinates":[-111.87736,40.6133456]}},{"properties":{"city":"Midvale","location status":"Verified","latitude":40.6143392,"zip":"84047","e-mail":null,"street":"734 Lois Circle","phone":null,"longitude":-111.8710836,"id":"ag0vctndzma7","household":"Davis, Sean Christopher","state":"Utah"},"type":"Feature","geometry":{"type":"Point","coordinates":[-111.8710836,40.6143392]}},{"properties":{"city":"Midvale","location status":"Unverified","latitude":40.6125899,"zip":"84047","e-mail":null,"street":"7621 Quail Springs Cir","phone":null,"longitude":-111.874739,"id":"ag0vctq0s673","household":"Deterline, Mark Stedman","state":"Utah"},"type":"Feature","geometry":{"type":"Point","coordinates":[-111.874739,40.6125899]}},{"properties":{"city":"Sandy","location status":"Verified","latitude":40.6124457,"zip":"84047","e-mail":null,"street":"7635 Lark Meadow Cove","phone":"801-824-2281","longitude":-111.8734869,"id":"ag0vctj9kirj","household":"Doxey, Willard Riley","state":"Utah"},"type":"Feature","geometry":{"type":"Point","coordinates":[-111.8734869,40.6124457]}},{"properties":{"city":"Sandy","location status":"Verified","latitude":40.6133334,"zip":"84047","e-mail":"Jeff.durrant@utahhomes.com","street":"396 E Sandy Woods Ln","phone":"801-870-1443","longitude":-111.8794387,"id":"ag0vctcta6fc","household":"Durrant, Jeff &amp; Kristi Marie","state":"Utah"},"type":"Feature","geometry":{"type":"Point","coordinates":[-111.8794387,40.6133334]}},{"properties":{"city":"Sandy","location status":"Verified","latitude":40.6126533,"zip":"84047","e-mail":null,"street":"7623 Concordia Place","phone":"801-520-4426","longitude":-111.8738557,"id":"ag0vctf575em","household":"Edens, Paula","state":"Utah"},"type":"Feature","geometry":{"type":"Point","coordinates":[-111.8738557,40.6126533]}},{"properties":{"city":"Midvale","location status":"Unverified","latitude":40.6124379,"zip":"84047-","e-mail":null,"street":"538 Woodpine CIR","phone":"801-999-4029","longitude":-111.875996,"id":"ag0vctamwu0l","household":"Erickson, Kyle","state":"Utah"},"type":"Feature","geometry":{"type":"Point","coordinates":[-111.875996,40.6124379]}},{"properties":{"city":"Midvale","location status":"Unverified","latitude":40.612417,"zip":"84047","e-mail":null,"street":"7642 520 E.","phone":"801-712-5627","longitude":-111.876836,"id":"ag0vctnueay3","household":"Ethington, Brickmann Price &amp; April","state":"Utah"},"type":"Feature","geometry":{"type":"Point","coordinates":[-111.876836,40.612417]}},{"properties":{"city":"Sandy","location status":"Verified","latitude":40.6137243,"zip":"84047","e-mail":null,"street":"359 Sandy Woods Ln","phone":"801-561-5929","longitude":-111.8802917,"id":"ag0vctkqpfvk","household":"Evans, Michael Jay &amp; BJ","state":"Utah"},"type":"Feature","geometry":{"type":"Point","coordinates":[-111.8802917,40.6137243]}},{"properties":{"city":"Midvale","location status":"Verified","latitude":40.614779,"zip":"84047","e-mail":null,"street":"7513 S. 520 E.","phone":"801-568-7813","longitude":-111.8763273,"id":"ag0vctk67xvd","household":"Farmer, Darrell &amp; Joyce","state":"Utah"},"type":"Feature","geometry":{"type":"Point","coordinates":[-111.8763273,40.614779]}},{"properties":{"city":"Midvale","location status":"Unverified","latitude":40.6147149,"zip":"84047","e-mail":null,"street":"7513 South 520 East","phone":"8016314640","longitude":-111.876115,"id":"ag0vctoh93n8","household":"Farmer, Melanie","state":"Utah"},"type":"Feature","geometry":{"type":"Point","coordinates":[-111.876115,40.6147149]}},{"properties":{"city":"Midvale","location status":"Verified","latitude":40.6097803,"zip":"84047-5721","e-mail":null,"street":"524 Sandy Hollow Circle","phone":"801-277-7105","longitude":-111.876381,"id":"ag0vctnax2gs","household":"Fawcett, Lezlie","state":"Utah"},"type":"Feature","geometry":{"type":"Point","coordinates":[-111.876381,40.6097803]}},{"properties":{"city":"Midvale","location status":"Unverified","latitude":40.609994,"zip":"84047","e-mail":null,"street":"488 Sandy Hollow Circle","phone":null,"longitude":-111.877527,"id":"ag0vctdmjes6","household":"File, David &amp; Lynette","state":"Utah"},"type":"Feature","geometry":{"type":"Point","coordinates":[-111.877527,40.609994]}},{"properties":{"city":"Midvale","location status":"Unverified","latitude":40.614516,"zip":"84047","e-mail":null,"street":"7522 S. 520 E.","phone":"801-836-6338","longitude":-111.876834,"id":"ag0vctlbengv","household":"Fish, Ryan &amp; Maggie","state":"Utah"},"type":"Feature","geometry":{"type":"Point","coordinates":[-111.876834,40.614516]}},{"properties":{"city":"Midvale","location status":"Verified","latitude":40.6133497,"zip":"84047","e-mail":"jlfletch8@yahoo.com","street":"7579 South 520 East","phone":"801-255-4703","longitude":-111.8761959,"id":"ag0vctdeg6c5","household":"Fletcher, Jenny Lynne","state":"Utah"},"type":"Feature","geometry":{"type":"Point","coordinates":[-111.8761959,40.6133497]}},{"properties":{"city":"Midvale","location status":"Approximately Verified","latitude":40.6114398,"zip":"84047","e-mail":null,"street":"7693 S 300 E","phone":null,"longitude":-111.8812572,"id":"ag0vctma8e17","household":"Floyd, Rebecca Grace","state":"Utah"},"type":"Feature","geometry":{"type":"Point","coordinates":[-111.8812572,40.6114398]}},{"properties":{"city":"Midvale","location status":"Unverified","latitude":40.61106,"zip":"84047","e-mail":"dfrancypants@yahoo.com","street":"7722 S Unionwood Dr","phone":"801-842-2175","longitude":-111.878465,"id":"ag0vctk1dnth","household":"Francis, David Charles &amp; Chelsea Lynne","state":"Utah"},"type":"Feature","geometry":{"type":"Point","coordinates":[-111.878465,40.61106]}},{"properties":{"city":"Midvale","location status":"Verified","latitude":40.6125719,"zip":"84047","e-mail":null,"street":"7631 S 520 E","phone":"801-569-2408","longitude":-111.8762603,"id":"ag0vcti9wq9c","household":"Frogget, Eric","state":"Utah"},"type":"Feature","geometry":{"type":"Point","coordinates":[-111.8762603,40.6125719]}},{"properties":{"city":"Midvale","location status":"Verified","latitude":40.6115436,"zip":"84047","e-mail":"kaegallegos@netzero.net","street":"7684 S 455 E","phone":"801-415-6802","longitude":-111.8783122,"id":"ag0vcti85nz4","household":"Gallegos, Anthony &amp; Ellen","state":"Utah"},"type":"Feature","geometry":{"type":"Point","coordinates":[-111.8783122,40.6115436]}},{"properties":{"city":"Sandy","location status":"Verified","latitude":40.6129282,"zip":"84047","e-mail":null,"street":"7599 South 520 East","phone":null,"longitude":-111.8762442,"id":"ag0vctieq5b2","household":"Gallegos, Silvana Lorena","state":"Utah"},"type":"Feature","geometry":{"type":"Point","coordinates":[-111.8762442,40.6129282]}},{"properties":{"city":"Sandy","location status":"Unverified","latitude":40.611589,"zip":"84047","e-mail":null,"street":"7693 S. 520 E","phone":null,"longitude":-111.876347,"id":"ag0vctclnyn3","household":"Gardner, Amanda","state":"Utah"},"type":"Feature","geometry":{"type":"Point","coordinates":[-111.876347,40.611589]}},{"properties":{"city":"Midvale","location status":"Unverified","latitude":40.6119413,"zip":"84047","e-mail":"bgeiger@gmail.com","street":"318 E. 7670 S","phone":"801-425-1586","longitude":-111.8813991,"id":"ag0vctmyk6n4","household":"Geiger, Jason &amp; Britney","state":"Utah"},"type":"Feature","geometry":{"type":"Point","coordinates":[-111.8813991,40.6119413]}},{"properties":{"city":"MIDVALE","location status":"Unverified","latitude":40.6126014,"zip":"84047-2726","e-mail":null,"street":"334 E 7635 S","phone":"801-673-9664","longitude":-111.881265,"id":"ag0vcti6u9qy","household":"Gibson, Hope","state":"Utah"},"type":"Feature","geometry":{"type":"Point","coordinates":[-111.881265,40.6126014]}},{"properties":{"city":"Midvale","location status":"Unverified","latitude":40.6119198,"zip":"84047","e-mail":null,"street":"484 E 7670 S","phone":"(801)300-0121","longitude":-111.8775255,"id":"ag0vctpmdycj","household":"Gilliland, Tiny Cecelia","state":"Utah"},"type":"Feature","geometry":{"type":"Point","coordinates":[-111.8775255,40.6119198]}},{"properties":{"city":"Sandy","location status":"Verified","latitude":40.6139575,"zip":"84047","e-mail":null,"street":"7552 Woods Ln","phone":"801-255-7652","longitude":-111.8797928,"id":"ag0vctf6envl","household":"Gray, Suzanne Gail","state":"Utah"},"type":"Feature","geometry":{"type":"Point","coordinates":[-111.8797928,40.6139575]}},{"properties":{"city":"Midvale","location status":"Unverified","latitude":40.6119198,"zip":"84107","e-mail":null,"street":"490 E 7670 S","phone":null,"longitude":-111.877475,"id":"ag0vctounnk4","household":"Griffin, Brooke","state":"Utah"},"type":"Feature","geometry":{"type":"Point","coordinates":[-111.877475,40.6119198]}},{"properties":{"city":"Salt Lake City","location status":"Unverified","latitude":40.6119596,"zip":"84047","e-mail":null,"street":"329 E. 7670 So.","phone":null,"longitude":-111.8811037,"id":"ag0vctdkmbe5","household":"Griffin, Moriah Chant'e","state":"Utah"},"type":"Feature","geometry":{"type":"Point","coordinates":[-111.8811037,40.6119596]}},{"properties":{"city":"Sandy","location status":"Verified","latitude":40.6127429,"zip":"84047","e-mail":null,"street":"7620 South Concordia Pl","phone":"801-455-7755","longitude":-111.8741145,"id":"ag0vctbmij7k","household":"Griffith, Jason &amp; Kandice","state":"Utah"},"type":"Feature","geometry":{"type":"Point","coordinates":[-111.8741145,40.6127429]}},{"properties":{"city":"Midvale","location status":"Verified","latitude":40.6134413,"zip":"84047","e-mail":null,"street":"660 E 7570 S","phone":"801-561-0255","longitude":-111.8728981,"id":"ag0vctg3ifm6","household":"Guest, Richard Earl","state":"Utah"},"type":"Feature","geometry":{"type":"Point","coordinates":[-111.8728981,40.6134413]}},{"properties":{"city":"Midvale","location status":"Unverified","latitude":40.609767,"zip":"84047","e-mail":null,"street":"494 Sandy Hollow Cir","phone":"801-675-7806","longitude":-111.877191,"id":"ag0vctmpo52k","household":"Guinan, Candie","state":"Utah"},"type":"Feature","geometry":{"type":"Point","coordinates":[-111.877191,40.609767]}},{"properties":{"city":"Midvale Ut","location status":"Verified","latitude":40.6138404,"zip":"84047","e-mail":null,"street":"7580 Sandyland Ln","phone":"801-897-2387","longitude":-111.8812948,"id":"ag0vctezspci","household":"Hansen, Spencer Lynn","state":"Utah"},"type":"Feature","geometry":{"type":"Point","coordinates":[-111.8812948,40.6138404]}},{"properties":{"city":"Sandy","location status":"Verified","latitude":40.612464,"zip":"84047","e-mail":null,"street":"366 E Sandy Park Circle","phone":"801-561-7019","longitude":-111.8801334,"id":"ag0vctanwa7g","household":"Hansen, Thadus Lamonte &amp; Judi Ann","state":"Utah"},"type":"Feature","geometry":{"type":"Point","coordinates":[-111.8801334,40.612464]}},{"properties":{"city":"Sandy","location status":"Verified","latitude":40.6123255,"zip":"84047","e-mail":"gpahansen@gmail.com","street":"7640 Lark Meadow Cove","phone":"801-562-1139","longitude":-111.8739026,"id":"ag0vctefhdyj","household":"Hansen, Wayne &amp; Marilyn","state":"Utah"},"type":"Feature","geometry":{"type":"Point","coordinates":[-111.8739026,40.6123255]}},{"properties":{"city":"Midvale","location status":"Unverified","latitude":40.6106347,"zip":"84047","e-mail":null,"street":"7741 Unionwood Dr.","phone":"801-256-1165","longitude":-111.8779817,"id":"ag0vcthci81f","household":"Hanson, Eric Michael &amp; Heather I","state":"Utah"},"type":"Feature","geometry":{"type":"Point","coordinates":[-111.8779817,40.6106347]}},{"properties":{"city":"MIDVALE","location status":"Unverified","latitude":40.6126014,"zip":"84047","e-mail":null,"street":"334 E 7635 S","phone":"801-548-2130","longitude":-111.881265,"id":"ag0vctfo51ur","household":"Hartlerode, Sterling Paul","state":"Utah"},"type":"Feature","geometry":{"type":"Point","coordinates":[-111.881265,40.6126014]}},{"properties":{"city":"Midvale","location status":"Unverified","latitude":40.6125687,"zip":"84047","e-mail":null,"street":"354 East 7635 South","phone":"801-759-3860","longitude":-111.8810186,"id":"ag0vctfbtvvb","household":"Harvey, Daniel &amp; Angela","state":"Utah"},"type":"Feature","geometry":{"type":"Point","coordinates":[-111.8810186,40.6125687]}},{"properties":{"city":"Midvale Ut","location status":"Unverified","latitude":40.6130453,"zip":"84047","e-mail":null,"street":"637 Orchard Vista Ct","phone":null,"longitude":-111.8735393,"id":"ag0vcthgb26p","household":"Harvey, Jana Lee","state":"Utah"},"type":"Feature","geometry":{"type":"Point","coordinates":[-111.8735393,40.6130453]}},{"properties":{"city":"MIDVALE","location status":"Unverified","latitude":40.6119491,"zip":"84047-2742","e-mail":null,"street":"351 E 7670 S","phone":null,"longitude":-111.880785,"id":"ag0vctq6zz9c","household":"Harward, Jason","state":"Utah"},"type":"Feature","geometry":{"type":"Point","coordinates":[-111.880785,40.6119491]}},{"properties":{"city":"Sandy","location status":"Verified","latitude":40.6097498,"zip":"84047","e-mail":null,"street":"7789 Sandy Heights Dr.","phone":"801-561-3367","longitude":-111.8755763,"id":"ag0vctmvg04u","household":"Harward, Nicholas","state":"Utah"},"type":"Feature","geometry":{"type":"Point","coordinates":[-111.8755763,40.6097498]}},{"properties":{"city":"Midvale","location status":"Unverified","latitude":40.6133529,"zip":"84047","e-mail":null,"street":"670 East 7570 South","phone":null,"longitude":-111.872664,"id":"ag0vctq95cca","household":"Heigert, Ryan Keith &amp; Pamela Sue","state":"Utah"},"type":"Feature","geometry":{"type":"Point","coordinates":[-111.872664,40.6133529]}},{"properties":{"city":"Midvale","location status":"Verified","latitude":40.6133578,"zip":"84047","e-mail":null,"street":"7601 South 700 East","phone":"801-566-7571","longitude":-111.8715932,"id":"ag0vctigw0kz","household":"Hendricks, Teresea Ann","state":"Utah"},"type":"Feature","geometry":{"type":"Point","coordinates":[-111.8715932,40.6133578]}},{"properties":{"city":"Midvale","location status":"Unverified","latitude":40.6144869,"zip":"84047","e-mail":null,"street":"7542 South Sandy Land Lane","phone":null,"longitude":-111.881341,"id":"ag0vctq1tw2k","household":"Hendrickson, Greg","state":"Utah"},"type":"Feature","geometry":{"type":"Point","coordinates":[-111.881341,40.6144869]}},{"properties":{"city":"Sandy","location status":"Verified","latitude":40.6123663,"zip":"84047","e-mail":null,"street":"7646 Concordia Pl","phone":"801-561-1256","longitude":-111.8741601,"id":"ag0vctm4shjs","household":"Henrie, Kathleen Joy","state":"Utah"},"type":"Feature","geometry":{"type":"Point","coordinates":[-111.8741601,40.6123663]}},{"properties":{"city":"Sandy","location status":"Verified","latitude":40.610157,"zip":"84047","e-mail":null,"street":"482 Sandy Hollow Cir","phone":"801-568-1997","longitude":-111.8775397,"id":"ag0vctcdgpve","household":"Henry, Brian &amp; Kimberly","state":"Utah"},"type":"Feature","geometry":{"type":"Point","coordinates":[-111.8775397,40.610157]}},{"properties":{"city":"Midvale","location status":"Unverified","latitude":40.613853,"zip":null,"e-mail":null,"street":"641 E 7570 S","phone":"8019432615","longitude":-111.873444,"id":"ag0vctau9fzq","household":"Herzog, Mindy","state":"Utah"},"type":"Feature","geometry":{"type":"Point","coordinates":[-111.873444,40.613853]}},{"properties":{"city":"Sandy","location status":"Verified","latitude":40.6127226,"zip":"84047","e-mail":null,"street":"7626 Quail Springs Cir.","phone":"801-256-3372","longitude":-111.8753296,"id":"ag0vctgccb2m","household":"Hines, Connie Rae Borg","state":"Utah"},"type":"Feature","geometry":{"type":"Point","coordinates":[-111.8753296,40.6127226]}},{"properties":{"city":"Midvale","location status":"Unverified","latitude":40.6130946,"zip":"84047","e-mail":null,"street":"623 Orchard Vista Court","phone":"801-231-8792","longitude":-111.8738922,"id":"ag0vctk0d1nh","household":"Hoggan, Lynn &amp; Kathy","state":"Utah"},"type":"Feature","geometry":{"type":"Point","coordinates":[-111.8738922,40.6130946]}},{"properties":{"city":"Midvale","location status":"Unverified","latitude":40.612884,"zip":"84047","e-mail":null,"street":"7613 S 300 E","phone":"801-255-3206","longitude":-111.8809069,"id":"ag0vctdp9dzb","household":"Hone, Shirl","state":"Utah"},"type":"Feature","geometry":{"type":"Point","coordinates":[-111.8809069,40.612884]}},{"properties":{"city":"Midvale","location status":"Verified","latitude":40.6123439,"zip":"84047","e-mail":null,"street":"7649 S 300 E","phone":"801-618-6171","longitude":-111.8814209,"id":"ag0vctg4g76d","household":"Hone, Suzette","state":"Utah"},"type":"Feature","geometry":{"type":"Point","coordinates":[-111.8814209,40.6123439]}},{"properties":{"city":"Midvale","location status":"Unverified","latitude":40.6119684,"zip":"84047","e-mail":null,"street":"317 E. 7670 S.","phone":null,"longitude":-111.8813731,"id":"ag0vctmgf4cp","household":"Hoopes, Kenneth James &amp; Valerie Jean","state":"Utah"},"type":"Feature","geometry":{"type":"Point","coordinates":[-111.8813731,40.6119684]}},{"properties":{"city":"Midvale","location status":"Unverified","latitude":40.6119339,"zip":"84047","e-mail":null,"street":"404 E. 7670 S.","phone":"801-577-5829","longitude":-111.8792748,"id":"ag0vctlwqqtw","household":"Horton, Edward &amp; Robin Lynn","state":"Utah"},"type":"Feature","geometry":{"type":"Point","coordinates":[-111.8792748,40.6119339]}},{"properties":{"city":"Midvale","location status":"Unverified","latitude":40.6119492,"zip":"84047","e-mail":null,"street":"461 East 7670 South","phone":null,"longitude":-111.8780503,"id":"ag0vctdzb4b4","household":"Hotchkiss, Delores Therissa","state":"Utah"},"type":"Feature","geometry":{"type":"Point","coordinates":[-111.8780503,40.6119492]}},{"properties":{"city":"Midvale","location status":"Verified","latitude":40.6134413,"zip":"84047","e-mail":null,"street":"660 East 7570 South","phone":"801-561-0255","longitude":-111.8728981,"id":"ag0vctckn8mt","household":"Hudson, Darlene","state":"Utah"},"type":"Feature","geometry":{"type":"Point","coordinates":[-111.8728981,40.6134413]}},{"properties":{"city":"Sandy","location status":"Verified","latitude":40.6134892,"zip":"84047","e-mail":null,"street":"7577 Sandy Woods Ln","phone":"801-455-5554","longitude":-111.8772017,"id":"ag0vcte906lk","household":"Ingram, Ronda Kay","state":"Utah"},"type":"Feature","geometry":{"type":"Point","coordinates":[-111.8772017,40.6134892]}},{"properties":{"city":"Midvale","location status":"Unverified","latitude":40.613853,"zip":null,"e-mail":null,"street":"641 E 7570 S","phone":null,"longitude":-111.873444,"id":"ag0vctqt3kun","household":"Jack, James","state":"Utah"},"type":"Feature","geometry":{"type":"Point","coordinates":[-111.873444,40.613853]}},{"properties":{"city":"Sandy","location status":"Verified","latitude":40.6111669,"zip":"84047","e-mail":"sarajay4@hotmail.com","street":"479 Unionwood Dr.","phone":"801-878-7492","longitude":-111.8773975,"id":"ag0vctejz5hp","household":"Jorgensen, Sara","state":"Utah"},"type":"Feature","geometry":{"type":"Point","coordinates":[-111.8773975,40.6111669]}},{"properties":{"city":"Sandy","location status":"Verified","latitude":40.6130626,"zip":"84047","e-mail":"dawnkalana@yahoo.com","street":"7589 South 520 East","phone":"801-601-1243","longitude":-111.8761959,"id":"ag0vctn96s9a","household":"Kalana, Dawn","state":"Utah"},"type":"Feature","geometry":{"type":"Point","coordinates":[-111.8761959,40.6130626]}},{"properties":{"city":"Midvale","location status":"Verified","latitude":40.6138038,"zip":"84047","e-mail":null,"street":"681 East 7570 South","phone":"801-561-1995","longitude":-111.8724167,"id":"ag0vcteotshr","household":"Kapp, Lois","state":"Utah"},"type":"Feature","geometry":{"type":"Point","coordinates":[-111.8724167,40.6138038]}},{"properties":{"city":"Midvale","location status":"Unverified","latitude":40.609831,"zip":"84047","e-mail":"kaufman320@yahoo.com","street":"534 Sandy Hollow Cir","phone":"801-618-5507","longitude":-111.8761671,"id":"ag0vctf3aq6t","household":"Kaufman, Jordan","state":"Utah"},"type":"Feature","geometry":{"type":"Point","coordinates":[-111.8761671,40.609831]}},{"properties":{"city":"Sandy","location status":"Verified","latitude":40.6138995,"zip":"84047","e-mail":null,"street":"7553 Sandy Land Ln","phone":null,"longitude":-111.880761,"id":"ag0vctjzwo65","household":"Keith, Bryan &amp; Angela","state":"Utah"},"type":"Feature","geometry":{"type":"Point","coordinates":[-111.880761,40.6138995]}},{"properties":{"city":"Midvale","location status":"Unverified","latitude":40.613362,"zip":null,"e-mail":null,"street":"7601 S. 700 East","phone":"801-381-5150","longitude":-111.871642,"id":"ag0vctif86c9","household":"Kennicott, Johnni","state":"Utah"},"type":"Feature","geometry":{"type":"Point","coordinates":[-111.871642,40.613362]}},{"properties":{"city":"Sandy","location status":"Verified","latitude":40.614099,"zip":"84047","e-mail":null,"street":"7543 Sandy Land Ln","phone":"801-230-4282","longitude":-111.8807396,"id":"ag0vctnngovk","household":"Kerr, Bradley Leon &amp; Sheri","state":"Utah"},"type":"Feature","geometry":{"type":"Point","coordinates":[-111.8807396,40.614099]}},{"properties":{"city":"Midvale","location status":"Verified","latitude":40.6134291,"zip":"84047","e-mail":null,"street":"630 E 7570 S","phone":null,"longitude":-111.8736612,"id":"ag0vctc9q2r1","household":"Kindig, David Rick","state":"Utah"},"type":"Feature","geometry":{"type":"Point","coordinates":[-111.8736612,40.6134291]}},{"properties":{"city":"Sandy","location status":"Verified","latitude":40.6125088,"zip":"84047","e-mail":null,"street":"474 Sandy Park Dr.","phone":"801-568-0092","longitude":-111.8776215,"id":"ag0vctlrhfuu","household":"King, Kenneth &amp; Suzie","state":"Utah"},"type":"Feature","geometry":{"type":"Point","coordinates":[-111.8776215,40.6125088]}},{"properties":{"city":"Sandy","location status":"Verified","latitude":40.6129099,"zip":"84047","e-mail":null,"street":"7638 Quail Springs Cir","phone":"801-569-8679","longitude":-111.8752156,"id":"ag0vctfgyclx","household":"Larsen, Freddie Lynn","state":"Utah"},"type":"Feature","geometry":{"type":"Point","coordinates":[-111.8752156,40.6129099]}},{"properties":{"city":"Midvale","location status":"Unverified","latitude":40.6118256,"zip":"84047","e-mail":null,"street":"7689 S 455 E","phone":null,"longitude":-111.8779995,"id":"ag0vctl9qz3z","household":"Larsen, Katlyn","state":"Utah"},"type":"Feature","geometry":{"type":"Point","coordinates":[-111.8779995,40.6118256]}},{"properties":{"city":"Midvale","location status":"Unverified","latitude":40.612147,"zip":"84047","e-mail":null,"street":"389 E 7670 S # B","phone":null,"longitude":-111.8796449,"id":"ag0vctj19bhz","household":"Larsen, Kylee","state":"Utah"},"type":"Feature","geometry":{"type":"Point","coordinates":[-111.8796449,40.612147]}},{"properties":{"city":"Midvale","location status":"Verified","latitude":40.6137915,"zip":"84047","e-mail":null,"street":"581 E 7570 So","phone":"801-566-3640","longitude":-111.8748816,"id":"ag0vctosioae","household":"Larsen, Trevor John &amp; Michelle","state":"Utah"},"type":"Feature","geometry":{"type":"Point","coordinates":[-111.8748816,40.6137915]}},{"properties":{"city":"Midvale","location status":"Unverified","latitude":40.6130444,"zip":"84047","e-mail":null,"street":"659 Orchard Vista Court","phone":"801-971-3367","longitude":-111.8730784,"id":"ag0vctnxmpud","household":"Lewis, Kara","state":"Utah"},"type":"Feature","geometry":{"type":"Point","coordinates":[-111.8730784,40.6130444]}},{"properties":{"city":"Sandy","location status":"Verified","latitude":40.6129975,"zip":"84047","e-mail":null,"street":"7612 Quail Springs Cir.","phone":"8018705841","longitude":-111.8744364,"id":"ag0vctmlgwem","household":"Liddell, Chris &amp; Sara Jane","state":"Utah"},"type":"Feature","geometry":{"type":"Point","coordinates":[-111.8744364,40.6129975]}},{"properties":{"city":"Midvale","location status":"Unverified","latitude":40.613055,"zip":"84047","e-mail":"mdlscooter@aol.com","street":"545 Woodpine Circle","phone":"(703) 296-7060","longitude":-111.875695,"id":"ag0vctctyb6k","household":"Lowry, Matt &amp; Julia Anne","state":"Utah"},"type":"Feature","geometry":{"type":"Point","coordinates":[-111.875695,40.613055]}},{"properties":{"city":"Sandy","location status":"Verified","latitude":40.6133355,"zip":"84047","e-mail":null,"street":"364 Sandy Woods Ln","phone":"801-565-8330","longitude":-111.8802018,"id":"ag0vctjgy9bj","household":"Loyola, Pete &amp; Jacqueline","state":"Utah"},"type":"Feature","geometry":{"type":"Point","coordinates":[-111.8802018,40.6133355]}},{"properties":{"city":"Midvale","location status":"Unverified","latitude":40.612417,"zip":"84047","e-mail":"tom.lundell@imail.org","street":"7642 S 520 E","phone":"435-225-0465","longitude":-111.8768359,"id":"ag0vctdcgp01","household":"Lundell, Tom","state":"Utah"},"type":"Feature","geometry":{"type":"Point","coordinates":[-111.8768359,40.612417]}},{"properties":{"city":"Sandy","location status":"Verified","latitude":40.6117249,"zip":"84047","e-mail":null,"street":"7682 S. 520 E.","phone":"801-563-7995","longitude":-111.8768101,"id":"ag0vctj9qjvu","household":"Machado, Marcia Martins","state":"Utah"},"type":"Feature","geometry":{"type":"Point","coordinates":[-111.8768101,40.6117249]}},{"properties":{"city":"Midvale","location status":"Unverified","latitude":40.6121482,"zip":"84047","e-mail":null,"street":"315 E 7670 S Unit B","phone":"801-674-4878","longitude":-111.8814163,"id":"ag0vctf7pxdl","household":"Malone, Eric Christopher &amp; Destiny","state":"Utah"},"type":"Feature","geometry":{"type":"Point","coordinates":[-111.8814163,40.6121482]}},{"properties":{"city":"Sandy","location status":"Verified","latitude":40.6137345,"zip":"84047","e-mail":"susana.manwill@gmail.com","street":"7566 Woods Ln","phone":"801-882-3311","longitude":-111.8797901,"id":"ag0vcth3dtkb","household":"Manwill, Susana Miryam","state":"Utah"},"type":"Feature","geometry":{"type":"Point","coordinates":[-111.8797901,40.6137345]}},{"properties":{"city":"Midvale","location status":"Unverified","latitude":40.611436,"zip":"84047-","e-mail":null,"street":"7688 S 375 E","phone":"801-910-2555","longitude":-111.879981,"id":"ag0vctg3cj1h","household":"Martinez, Anthony","state":"Utah"},"type":"Feature","geometry":{"type":"Point","coordinates":[-111.879981,40.611436]}},{"properties":{"city":"Midvale","location status":"Verified","latitude":40.6117391,"zip":"84047","e-mail":null,"street":"390 E. 7670 S.","phone":"801-347-6567","longitude":-111.8795205,"id":"ag0vcthwn2cz","household":"Martinez, Nichol Monic","state":"Utah"},"type":"Feature","geometry":{"type":"Point","coordinates":[-111.8795205,40.6117391]}},{"properties":{"city":"Sandy","location status":"Unverified","latitude":40.612505,"zip":"84047","e-mail":null,"street":"416 Sandy Park Circle","phone":"801-255-8465","longitude":-111.878774,"id":"ag0vctbrhh7g","household":"Maxfield, Mildred Smith","state":"Utah"},"type":"Feature","geometry":{"type":"Point","coordinates":[-111.878774,40.612505]}},{"properties":{"city":"Sandy","location status":"Verified","latitude":40.6129201,"zip":"84047","e-mail":"genealogy-janet@centurylink.net","street":"487 Sandy Park Dr.","phone":"801-568-3353","longitude":-111.877356,"id":"ag0vctpjhf8o","household":"Maxfield, Nathan &amp; Janet","state":"Utah"},"type":"Feature","geometry":{"type":"Point","coordinates":[-111.877356,40.6129201]}},{"properties":{"city":"Sandy","location status":"Unverified","latitude":40.6124579,"zip":"84047","e-mail":null,"street":"7636 Quail Springs Cir # 12","phone":"801-566-8494","longitude":-111.8753549,"id":"ag0vctnel8sk","household":"Mayer, Kathleen","state":"Utah"},"type":"Feature","geometry":{"type":"Point","coordinates":[-111.8753549,40.6124579]}},{"properties":{"city":"Sandy","location status":"Verified","latitude":40.6125393,"zip":"84047","e-mail":null,"street":"462 Sandy Park Dr.","phone":"801-255-7795","longitude":-111.8779179,"id":"ag0vctpwpvr2","household":"Mc Gavin, Karen","state":"Utah"},"type":"Feature","geometry":{"type":"Point","coordinates":[-111.8779179,40.6125393]}},{"properties":{"city":"Midvale","location status":"Unverified","latitude":40.612145,"zip":"84047","e-mail":null,"street":"463 E. 7670 S.","phone":"(801) 759-8710","longitude":-111.877884,"id":"ag0vctofhhjr","household":"McDermott, Roxanne Sally","state":"Utah"},"type":"Feature","geometry":{"type":"Point","coordinates":[-111.877884,40.612145]}},{"properties":{"city":"Sandy","location status":"Verified","latitude":40.6110875,"zip":"84047","e-mail":null,"street":"7721 Sandy Heights Drive","phone":"801-205-1778","longitude":-111.875528,"id":"ag0vctoopuaa","household":"McPolin, Daniel Patrick &amp; Lee Ann Louise","state":"Utah"},"type":"Feature","geometry":{"type":"Point","coordinates":[-111.875528,40.6110875]}},{"properties":{"city":"Sandy","location status":"Verified","latitude":40.6147322,"zip":"84047","e-mail":"hm@merrillenergy.com","street":"379 E Sandy Land Ln.","phone":"801-565-7308","longitude":-111.8798062,"id":"ag0vctfommps","household":"Merrill, Hyde","state":"Utah"},"type":"Feature","geometry":{"type":"Point","coordinates":[-111.8798062,40.6147322]}},{"properties":{"city":"Midvale","location status":"Unverified","latitude":40.6119345,"zip":"84047","e-mail":null,"street":"424 E 7670 S","phone":null,"longitude":-111.8790537,"id":"ag0vctj6cfym","household":"Mills, Jonathon","state":"Utah"},"type":"Feature","geometry":{"type":"Point","coordinates":[-111.8790537,40.6119345]}},{"properties":{"city":"Midvale","location status":"Verified","latitude":40.6134291,"zip":"84047","e-mail":null,"street":"640 E. 7570 S.","phone":"801-718-1675","longitude":-111.8734292,"id":"ag0vctlixels","household":"Mitchell, Joshua Forrest &amp; Aubrey Ann","state":"Utah"},"type":"Feature","geometry":{"type":"Point","coordinates":[-111.8734292,40.6134291]}},{"properties":{"city":"Midvale","location status":"Unverified","latitude":40.6119524,"zip":"84123","e-mail":null,"street":"447 E 7670 S","phone":null,"longitude":-111.8782793,"id":"ag0vctfeo5mi","household":"Neeley, Lindsey","state":"Utah"},"type":"Feature","geometry":{"type":"Point","coordinates":[-111.8782793,40.6119524]}},{"properties":{"city":"Midvale","location status":"Verified","latitude":40.6117412,"zip":"84047","e-mail":null,"street":"442 E 7670 S","phone":"3852592619","longitude":-111.8783122,"id":"ag0vctoc6ctq","household":"Neusch, Lindsey","state":"Utah"},"type":"Feature","geometry":{"type":"Point","coordinates":[-111.8783122,40.6117412]}},{"properties":{"city":"Midvale","location status":"Verified","latitude":40.6117412,"zip":"84047","e-mail":null,"street":"442 E 7670 S","phone":"801-548-9726","longitude":-111.8783122,"id":"ag0vctc21iql","household":"Neusch, Mark &amp; Melissa","state":"Utah"},"type":"Feature","geometry":{"type":"Point","coordinates":[-111.8783122,40.6117412]}},{"properties":{"city":"Midvale","location status":"Verified","latitude":40.6140501,"zip":"84047","e-mail":null,"street":"7555 South 700 East","phone":"801-255-5480","longitude":-111.8718346,"id":"ag0vctnsjvqe","household":"Nielsen, Dale &amp; Pat","state":"Utah"},"type":"Feature","geometry":{"type":"Point","coordinates":[-111.8718346,40.6140501]}},{"properties":{"city":"Sandy","location status":"Unverified","latitude":40.6125591,"zip":"84047","e-mail":null,"street":"360 E. 7635 S.","phone":null,"longitude":-111.8809447,"id":"ag0vctewnkd6","household":"Noorlander, William &amp; Jennifer Harmon","state":"Utah"},"type":"Feature","geometry":{"type":"Point","coordinates":[-111.8809447,40.6125591]}},{"properties":{"city":"Sandy","location status":"Verified","latitude":40.6143291,"zip":"84047","e-mail":null,"street":"350 E Sandy Land Ln","phone":"801-561-5840","longitude":-111.8805639,"id":"ag0vctfqdytu","household":"Nuttall, Terry Rulon","state":"Utah"},"type":"Feature","geometry":{"type":"Point","coordinates":[-111.8805639,40.6143291]}},{"properties":{"city":"Midvale","location status":"Unverified","latitude":40.6119282,"zip":"84047","e-mail":null,"street":"440 East 7670 South","phone":null,"longitude":-111.8785534,"id":"ag0vctbt9w6o","household":"Oneida, Curtis Mark &amp; Vicki Lynn","state":"Utah"},"type":"Feature","geometry":{"type":"Point","coordinates":[-111.8785534,40.6119282]}},{"properties":{"city":"Sandy","location status":"Verified","latitude":40.6125556,"zip":"84047","e-mail":null,"street":"438 Sandy Park Dr.","phone":"801-569-1560","longitude":-111.8783846,"id":"ag0vctmtoavp","household":"Ostler, Andrew &amp; Debra","state":"Utah"},"type":"Feature","geometry":{"type":"Point","coordinates":[-111.8783846,40.6125556]}},{"properties":{"city":"Midvale","location status":"Unverified","latitude":40.6119478,"zip":"84047","e-mail":null,"street":"487 E 7670 S","phone":"435-767-1285","longitude":-111.877492,"id":"ag0vctnvfo15","household":"Parry, Brandon &amp; Tracie Anne","state":"Utah"},"type":"Feature","geometry":{"type":"Point","coordinates":[-111.877492,40.6119478]}},{"properties":{"city":"Midvale","location status":"Unverified","latitude":40.6119231,"zip":"84047","e-mail":null,"street":"346 E 7670 S","phone":"801-568-1892","longitude":-111.8808477,"id":"ag0vctce6bia","household":"Pavelko, Carol Debra","state":"Utah"},"type":"Feature","geometry":{"type":"Point","coordinates":[-111.8808477,40.6119231]}},{"properties":{"city":"Sandy","location status":"Verified","latitude":40.6119488,"zip":"84047","e-mail":null,"street":"547 Woodrose Cir","phone":"801-255-5818","longitude":-111.8756192,"id":"ag0vctdmeoc8","household":"Percey, Darrin &amp; Shaundel","state":"Utah"},"type":"Feature","geometry":{"type":"Point","coordinates":[-111.8756192,40.6119488]}},{"properties":{"city":"Midvale Ut","location status":"Unverified","latitude":40.6139269,"zip":"84047","e-mail":"andy@enarf.com","street":"7550 S 520 E","phone":"801-561-3130","longitude":-111.876839,"id":"ag0vctpnf8lp","household":"Perry, Andy","state":"Utah"},"type":"Feature","geometry":{"type":"Point","coordinates":[-111.876839,40.6139269]}},{"properties":{"city":"Midvale","location status":"Verified","latitude":40.6139096,"zip":"84047","e-mail":null,"street":"7550 S 520 E","phone":"801-561-3130","longitude":-111.8767149,"id":"ag0vcti66apu","household":"Perry, Glenn &amp; Louise","state":"Utah"},"type":"Feature","geometry":{"type":"Point","coordinates":[-111.8767149,40.6139096]}},{"properties":{"city":"Midvale Ut","location status":"Verified","latitude":40.6108534,"zip":"84047","e-mail":null,"street":"7730 Unionwood Dr","phone":"801-828-9147","longitude":-111.8783967,"id":"ag0vctni6vad","household":"Perry, Ricky Marvin","state":"Utah"},"type":"Feature","geometry":{"type":"Point","coordinates":[-111.8783967,40.6108534]}},{"properties":{"city":"Midvale","location status":"Unverified","latitude":40.6119619,"zip":"84047","e-mail":null,"street":"325 E. 7670 South","phone":"801-673-7835","longitude":-111.8811735,"id":"ag0vctpfu9h0","household":"Peterson, Derris Connel &amp; Melissa Jean","state":"Utah"},"type":"Feature","geometry":{"type":"Point","coordinates":[-111.8811735,40.6119619]}},{"properties":{"city":"Midvale","location status":"Unverified","latitude":40.613942,"zip":"84047","e-mail":"wholedr@gmail.com","street":"7557 S Sandy Woods Lane","phone":"801-432-7311","longitude":-111.8772879,"id":"ag0vctcy8dpa","household":"Peterson, Larry &amp; Nannette","state":"Utah"},"type":"Feature","geometry":{"type":"Point","coordinates":[-111.8772879,40.613942]}},{"properties":{"city":"Midvale","location status":"Verified","latitude":40.611395,"zip":"84047","e-mail":"skp58@live.com or mopar59@peoplepc.com","street":"7690 S 455 E","phone":"801-255-8381","longitude":-111.8779259,"id":"ag0vctps9edd","household":"Peterson, Susan","state":"Utah"},"type":"Feature","geometry":{"type":"Point","coordinates":[-111.8779259,40.611395]}},{"properties":{"city":"Sandy","location status":"Verified","latitude":40.612692,"zip":"84047","e-mail":null,"street":"552 Woodpine Circle","phone":"801-566-1336","longitude":-111.8756112,"id":"ag0vctnm6x1w","household":"Pettey, Jesse Albert &amp; Debra","state":"Utah"},"type":"Feature","geometry":{"type":"Point","coordinates":[-111.8756112,40.612692]}},{"properties":{"city":"Midvale","location status":"Unverified","latitude":40.6105469,"zip":"84047","e-mail":"m_poelman@q.com","street":"470 E. Sandy Hollow Circle","phone":"801 571-2290","longitude":-111.87747,"id":"ag0vctjnp18a","household":"Poelman, Douglas &amp; Mary","state":"Utah"},"type":"Feature","geometry":{"type":"Point","coordinates":[-111.87747,40.6105469]}},{"properties":{"city":"Sandy UT","location status":"Unverified","latitude":40.6130069,"zip":"84047","e-mail":null,"street":"393 E Sandy Park Circle","phone":null,"longitude":-111.8794378,"id":"ag0vctkha1sh","household":"Porter, Brian Milo","state":"Utah"},"type":"Feature","geometry":{"type":"Point","coordinates":[-111.8794378,40.6130069]}},{"properties":{"city":"Sandy","location status":"Verified","latitude":40.6145123,"zip":"84047","e-mail":"valpreslar@gmail.com","street":"7527 Sandy Woods Ln","phone":null,"longitude":-111.8772648,"id":"ag0vcthu3jk5","household":"Preslar, Val Jae &amp; Valerie","state":"Utah"},"type":"Feature","geometry":{"type":"Point","coordinates":[-111.8772648,40.6145123]}},{"properties":{"city":"Sandy","location status":"Verified","latitude":40.6143148,"zip":"84047","e-mail":"janvelprice@yahoo.com","street":"7537 Sandy Woods Lane","phone":"801-859-8334","longitude":-111.8772876,"id":"ag0vctfx08yw","household":"Price, Mark Donald &amp; Janet Monica","state":"Utah"},"type":"Feature","geometry":{"type":"Point","coordinates":[-111.8772876,40.6143148]}},{"properties":{"city":"Sandy","location status":"Verified","latitude":40.6133477,"zip":"84047","e-mail":null,"street":"454 Sandy Woods Ln","phone":"801-562-4328","longitude":-111.877883,"id":"ag0vctn8f7dl","household":"Radice, Michael &amp; Tamara Leigh","state":"Utah"},"type":"Feature","geometry":{"type":"Point","coordinates":[-111.877883,40.6133477]}},{"properties":{"city":"Sandy","location status":"Verified","latitude":40.6133375,"zip":"84047","e-mail":null,"street":"386 Sandy Woods Ln","phone":"801-568-1453","longitude":-111.8795943,"id":"ag0vctna243r","household":"Reed, Adam Gregory &amp; Cassie","state":"Utah"},"type":"Feature","geometry":{"type":"Point","coordinates":[-111.8795943,40.6133375]}},{"properties":{"city":"Midvale","location status":"Verified","latitude":40.6137895,"zip":"84047","e-mail":null,"street":"561 East 7570 South","phone":"801-255-8750","longitude":-111.8754382,"id":"ag0vctp4z25p","household":"Richards, Jolita","state":"Utah"},"type":"Feature","geometry":{"type":"Point","coordinates":[-111.8754382,40.6137895]}},{"properties":{"city":"Midvale","location status":"Verified","latitude":40.614549,"zip":"84047","e-mail":"cathrine564@msn.com","street":"564 E 7500 South","phone":"801-561-3405","longitude":-111.8756461,"id":"ag0vctm0lfh9","household":"Richards, Steve &amp; Cathrine Ann","state":"Utah"},"type":"Feature","geometry":{"type":"Point","coordinates":[-111.8756461,40.614549]}},{"properties":{"city":"Sandy","location status":"Verified","latitude":40.6133945,"zip":"84047","e-mail":null,"street":"332 E Sandy Woods Ln","phone":"801-561-5237","longitude":-111.8812653,"id":"ag0vctjn3enb","household":"Richardson, Kurt Theral &amp; Karen","state":"Utah"},"type":"Feature","geometry":{"type":"Point","coordinates":[-111.8812653,40.6133945]}},{"properties":{"city":"Salt Lake City","location status":"Unverified","latitude":40.7531079,"zip":"84111","e-mail":null,"street":"742 S 400 E H 201","phone":"801-574-7108","longitude":-111.8809059,"id":"ag0vctkj8prl","household":"Riessen, Jessica Dawn","state":"Utah"},"type":"Feature","geometry":{"type":"Point","coordinates":[-111.8809059,40.7531079]}},{"properties":{"city":"Midvale","location status":"Verified","latitude":40.6138017,"zip":"84047","e-mail":null,"street":"571 E. 7570 South","phone":"801-568-6634","longitude":-111.8751914,"id":"ag0vctispbb0","household":"Rindlisbacher, James Scoresby &amp; Misty Layne","state":"Utah"},"type":"Feature","geometry":{"type":"Point","coordinates":[-111.8751914,40.6138017]}},{"properties":{"city":"Sandy","location status":"Verified","latitude":40.610776,"zip":"84047","e-mail":null,"street":"492 E Unionwood Dr.","phone":"801-569-8813","longitude":-111.8771293,"id":"ag0vctm4zi87","household":"Robinson, David &amp; Connie","state":"Utah"},"type":"Feature","geometry":{"type":"Point","coordinates":[-111.8771293,40.610776]}},{"properties":{"city":"Midvale","location status":"Unverified","latitude":40.6119507,"zip":"84047","e-mail":null,"street":"449 E 7670 S","phone":null,"longitude":-111.8781611,"id":"ag0vctlhn9r2","household":"Rock, Jordan","state":"Utah"},"type":"Feature","geometry":{"type":"Point","coordinates":[-111.8781611,40.6119507]}},{"properties":{"city":"MIDVALE","location status":"Unverified","latitude":40.6114359,"zip":"84047-2707","e-mail":null,"street":"7688 S 375 E 2","phone":"801-545-0883","longitude":-111.879981,"id":"ag0vctcyo13i","household":"Runia, Macquel","state":"Utah"},"type":"Feature","geometry":{"type":"Point","coordinates":[-111.879981,40.6114359]}},{"properties":{"city":"Midvale Ut","location status":"Unverified","latitude":40.614347,"zip":"84047","e-mail":null,"street":"7536 Sandy Woods Ln","phone":"801-565-1657","longitude":-111.877869,"id":"ag0vctnk0tde","household":"Schiele, Kevin &amp; Jennifer","state":"Utah"},"type":"Feature","geometry":{"type":"Point","coordinates":[-111.877869,40.614347]}},{"properties":{"city":"Midvale","location status":"Verified","latitude":40.6147831,"zip":"84047","e-mail":null,"street":"717 Lois Cr.","phone":null,"longitude":-111.8714135,"id":"ag0vcti9aciv","household":"Sears, Chandler","state":"Utah"},"type":"Feature","geometry":{"type":"Point","coordinates":[-111.8714135,40.6147831]}},{"properties":{"city":"Midvale","location status":"Unverified","latitude":40.6110222,"zip":null,"e-mail":null,"street":"465 East 7720 South","phone":null,"longitude":-111.8777628,"id":"ag0vctodbu22","household":"Sedillo, Heather","state":"Utah"},"type":"Feature","geometry":{"type":"Point","coordinates":[-111.8777628,40.6110222]}},{"properties":{"city":"Midvale","location status":"Unverified","latitude":40.6119231,"zip":"84047","e-mail":null,"street":"346 E. 7670 S.","phone":"4352010860","longitude":-111.8808477,"id":"ag0vctq3b4qf","household":"Shaffer, David","state":null},"type":"Feature","geometry":{"type":"Point","coordinates":[-111.8808477,40.6119231]}},{"properties":{"city":"Sandy","location status":"Unverified","latitude":40.6106869,"zip":"84047","e-mail":null,"street":"7740 Unionwood Dr","phone":"801-577-6909","longitude":-111.878438,"id":"ag0vctm9sdo0","household":"Shelton, Trisha Lynne","state":"Utah"},"type":"Feature","geometry":{"type":"Point","coordinates":[-111.878438,40.6106869]}},{"properties":{"city":"Sandy","location status":"Verified","latitude":40.6128936,"zip":"84047","e-mail":null,"street":"471 Sandy Park Dr.","phone":"801-567-1849","longitude":-111.8777006,"id":"ag0vcti0cqsc","household":"Simmons, Steven &amp; Laurie","state":"Utah"},"type":"Feature","geometry":{"type":"Point","coordinates":[-111.8777006,40.6128936]}},{"properties":{"city":"Sandy","location status":"Verified","latitude":40.614718,"zip":"84047","e-mail":null,"street":"7516 Sandy Woods Ln","phone":"801-565-0925","longitude":-111.8777811,"id":"ag0vctfv11wl","household":"Simpson, Sharon Haight","state":"Utah"},"type":"Feature","geometry":{"type":"Point","coordinates":[-111.8777811,40.614718]}},{"properties":{"city":"Sandy","location status":"Verified","latitude":40.614553,"zip":"84047","e-mail":null,"street":"7526 Sandy Woods Ln","phone":"801-561-1761","longitude":-111.8778093,"id":"ag0vctkmhzxs","household":"Stone, Craig Donald &amp; Kathleen Ann","state":"Utah"},"type":"Feature","geometry":{"type":"Point","coordinates":[-111.8778093,40.614553]}},{"properties":{"city":"Midvale","location status":"Unverified","latitude":40.6119518,"zip":"84047","e-mail":null,"street":"353 E. 7670 S.","phone":null,"longitude":-111.8808643,"id":"ag0vctic3x4d","household":"Stone, Zach &amp; Cristella","state":"Utah"},"type":"Feature","geometry":{"type":"Point","coordinates":[-111.8808643,40.6119518]}},{"properties":{"city":"Midvale","location status":"Unverified","latitude":40.6119524,"zip":"84047","e-mail":null,"street":"351 E. 7670 S","phone":"801-808-3063","longitude":-111.8808843,"id":"ag0vctgz7s5i","household":"Story, Kari","state":"Utah"},"type":"Feature","geometry":{"type":"Point","coordinates":[-111.8808843,40.6119524]}},{"properties":{"city":"Midvale","location status":"Unverified","latitude":40.6137239,"zip":"84047","e-mail":null,"street":"7560 S 520 E","phone":null,"longitude":-111.876844,"id":"ag0vcto55jjn","household":"Stringham, Blake &amp; Britney","state":"Utah"},"type":"Feature","geometry":{"type":"Point","coordinates":[-111.876844,40.6137239]}},{"properties":{"city":"Sandy","location status":"Verified","latitude":40.6133945,"zip":"84047","e-mail":null,"street":"326 Sandy Woods Ln.","phone":"801-233-9388","longitude":-111.8812653,"id":"ag0vctdm4ahf","household":"Su, Lin Fu","state":"Utah"},"type":"Feature","geometry":{"type":"Point","coordinates":[-111.8812653,40.6133945]}},{"properties":{"city":"Sandy","location status":"Unverified","latitude":40.6111751,"zip":"84047","e-mail":null,"street":"527 Unionwood Dr","phone":"801-509-8669","longitude":-111.8764373,"id":"ag0vctlutx5d","household":"Swanson, Mark David &amp; Zara","state":"Utah"},"type":"Feature","geometry":{"type":"Point","coordinates":[-111.8764373,40.6111751]}},{"properties":{"city":"Midvale","location status":"Verified","latitude":40.6115396,"zip":"84047","e-mail":null,"street":"7687 S 375 E  b","phone":null,"longitude":-111.879656,"id":"ag0vctb949ue","household":"Takenaka, Andrew","state":"Utah"},"type":"Feature","geometry":{"type":"Point","coordinates":[-111.879656,40.6115396]}},{"properties":{"city":"Sandy","location status":"Verified","latitude":40.6129099,"zip":"84047","e-mail":null,"street":"7622 Quail Springs Cir","phone":"801-565-0844","longitude":-111.8752156,"id":"ag0vctjrfs3r","household":"Terry, Elizabeth Ann","state":"Utah"},"type":"Feature","geometry":{"type":"Point","coordinates":[-111.8752156,40.6129099]}},{"properties":{"city":"Sandy","location status":"Verified","latitude":40.6140298,"zip":"84047","e-mail":"steve@bluefrontierdiversinc.com","street":"7548 Sandy Land Ln","phone":"801-562-1684","longitude":-111.8813136,"id":"ag0vcto87jwf","household":"Tew, Steve &amp; Kellie Jo","state":"Utah"},"type":"Feature","geometry":{"type":"Point","coordinates":[-111.8813136,40.6140298]}},{"properties":{"city":"Midvale","location status":"Verified","latitude":40.6117412,"zip":"84047","e-mail":"thomasjordan319@gmail.com","street":"344 E. 7670 S.","phone":"801-419-4079","longitude":-111.8807101,"id":"ag0vctqjjqs1","household":"Thomas, Jordan Jay &amp; Amber Lynn","state":"Utah"},"type":"Feature","geometry":{"type":"Point","coordinates":[-111.8807101,40.6117412]}},{"properties":{"city":"Midvale","location status":"Unverified","latitude":40.61149,"zip":"84047","e-mail":null,"street":"7686 S 375 East","phone":"801-568-0917","longitude":-111.8803,"id":"ag0vctddfa4z","household":"Thomson, Marcus &amp; Brandi","state":"Utah"},"type":"Feature","geometry":{"type":"Point","coordinates":[-111.8803,40.61149]}},{"properties":{"city":"Midvale","location status":"Unverified","latitude":40.614737,"zip":"84047","e-mail":null,"street":"7517 S Sandy Woods Lane","phone":null,"longitude":-111.877268,"id":"ag0vctql8g91","household":"Trujillo, Mitchell Aaron","state":"Utah"},"type":"Feature","geometry":{"type":"Point","coordinates":[-111.877268,40.614737]}},{"properties":{"city":"Midvale","location status":"Verified","latitude":40.6134413,"zip":"84047","e-mail":null,"street":"610 E 7570 S","phone":"801-979-5858","longitude":-111.8741843,"id":"ag0vctm8zagd","household":"Unsicker, Brian David &amp; Angela Marie","state":"Utah"},"type":"Feature","geometry":{"type":"Point","coordinates":[-111.8741843,40.6134413]}},{"properties":{"city":"Midvale Ut","location status":"Verified","latitude":40.6133232,"zip":"84047","e-mail":null,"street":"442 Sandy Woods Ln","phone":"801-565-8796","longitude":-111.8781781,"id":"ag0vctfk305x","household":"Walker, Janet","state":"Utah"},"type":"Feature","geometry":{"type":"Point","coordinates":[-111.8781781,40.6133232]}},{"properties":{"city":"Sandy","location status":"Verified","latitude":40.6103117,"zip":"84047","e-mail":"kondaw@comcast.net","street":"7759 Sandy Heights Dr","phone":"801-568-3950","longitude":-111.875528,"id":"ag0vctpm806e","household":"Walker, Lee &amp; Konda","state":"Utah"},"type":"Feature","geometry":{"type":"Point","coordinates":[-111.875528,40.6103117]}},{"properties":{"city":"Sandy","location status":"Unverified","latitude":40.614753,"zip":null,"e-mail":null,"street":"355 Sandy Land Ln","phone":"801-563-8483","longitude":-111.880415,"id":"ag0vctohckln","household":"Warner, Terry","state":"Utah"},"type":"Feature","geometry":{"type":"Point","coordinates":[-111.880415,40.614753]}},{"properties":{"city":"Midvale","location status":"Unverified","latitude":40.6124719,"zip":"84047-5701","e-mail":null,"street":"7633 Quail Springs Cir","phone":null,"longitude":-111.874915,"id":"ag0vctk29ib1","household":"Weaver, Richard &amp; Dee","state":"Utah"},"type":"Feature","geometry":{"type":"Point","coordinates":[-111.874915,40.6124719]}},{"properties":{"city":"Midvale","location status":"Unverified","latitude":40.6124719,"zip":"84047","e-mail":null,"street":"7633 Quail Springs Cir","phone":null,"longitude":-111.874915,"id":"ag0vcti2akjb","household":"Weaver, Rochard M &amp; Kristina Kay","state":"Utah"},"type":"Feature","geometry":{"type":"Point","coordinates":[-111.874915,40.6124719]}},{"properties":{"city":"Sandy","location status":"Verified","latitude":40.6143046,"zip":"84047","e-mail":"dwelch5977@msn.com","street":"7533 Sandy Land Ln","phone":"801-566-5977","longitude":-111.8807624,"id":"ag0vctnvdnzw","household":"Welch, Don &amp; Laura Jean","state":"Utah"},"type":"Feature","geometry":{"type":"Point","coordinates":[-111.8807624,40.6143046]}},{"properties":{"city":"Sandy","location status":"Verified","latitude":40.6119488,"zip":"84047","e-mail":null,"street":"553 Woodrose Cir","phone":"801-568-2837","longitude":-111.8756192,"id":"ag0vctijlaaz","household":"Welte, William Terry","state":"Utah"},"type":"Feature","geometry":{"type":"Point","coordinates":[-111.8756192,40.6119488]}},{"properties":{"city":"Midvale","location status":"Unverified","latitude":40.613363,"zip":"84047","e-mail":null,"street":"418 Sandy Woods Lane","phone":"801-864-7894","longitude":-111.8789622,"id":"ag0vctd33aiu","household":"Wennergren, Josefina","state":"Utah"},"type":"Feature","geometry":{"type":"Point","coordinates":[-111.8789622,40.613363]}},{"properties":{"city":"Sandy","location status":"Verified","latitude":40.6137243,"zip":"84047","e-mail":null,"street":"371 Sandy Woods Ln","phone":null,"longitude":-111.8800127,"id":"ag0vctlkkpyu","household":"West, Joyce Ann","state":"Utah"},"type":"Feature","geometry":{"type":"Point","coordinates":[-111.8800127,40.6137243]}},{"properties":{"city":"Sandy","location status":"Verified","latitude":40.6107964,"zip":"84047","e-mail":null,"street":"470 Unionwood Dr.","phone":"801-562-1382","longitude":-111.8776175,"id":"ag0vctdn5v9z","household":"Westberg, Shayne &amp; Tammy Sarine","state":"Utah"},"type":"Feature","geometry":{"type":"Point","coordinates":[-111.8776175,40.6107964]}},{"properties":{"city":"Sandy","location status":"Verified","latitude":40.6126411,"zip":"84047","e-mail":null,"street":"7628 Concordia Pl","phone":"801-541-0334","longitude":-111.8741387,"id":"ag0vctmifcum","household":"Whaley, Susan Louise","state":"Utah"},"type":"Feature","geometry":{"type":"Point","coordinates":[-111.8741387,40.6126411]}},{"properties":{"city":"Midvale","location status":"Approximately Verified","latitude":40.6145408,"zip":"84047","e-mail":"brian_williams10@hotmail.com","street":"7532 S. 520 E.","phone":"801-938-7529","longitude":-111.8766251,"id":"ag0vctnkdh4p","household":"Williams, Brian Jeffrey &amp; Karen Elizabeth","state":"Utah"},"type":"Feature","geometry":{"type":"Point","coordinates":[-111.8766251,40.6145408]}},{"properties":{"city":"Sandy","location status":"Verified","latitude":40.6101,"zip":"84047","e-mail":"j.k.williamz@gmail.com","street":"7766 Unionwood Dr","phone":"801-450-2318","longitude":-111.8784141,"id":"ag0vctd7703e","household":"Williams, Jared Keith &amp; Stephanie","state":"Utah"},"type":"Feature","geometry":{"type":"Point","coordinates":[-111.8784141,40.6101]}},{"properties":{"city":"Sandy","location status":"Verified","latitude":40.6124823,"zip":"84047","e-mail":"fwilloughby@msn.com","street":"7640 Quail Springs Cir","phone":"801-703-0283","longitude":-111.8753457,"id":"ag0vctajwvau","household":"Willoughby, Fred Raymond &amp; Helen Merlyn","state":"Utah"},"type":"Feature","geometry":{"type":"Point","coordinates":[-111.8753457,40.6124823]}},{"properties":{"city":"Sandy","location status":"Verified","latitude":40.6125434,"zip":"84047","e-mail":null,"street":"404 Sandy Park Cir","phone":"801-569-0965","longitude":-111.8791437,"id":"ag0vctgix6tt","household":"Workman, Justin Jarrod &amp; Meeka Michelle","state":"Utah"},"type":"Feature","geometry":{"type":"Point","coordinates":[-111.8791437,40.6125434]}},{"properties":{"city":"Sandy","location status":"Unverified","latitude":40.609768,"zip":"84047","e-mail":null,"street":"504 Sandy Hollow Cir","phone":"801-561-0081","longitude":-111.876934,"id":"ag0vctk4bncd","household":"Worth, Roger &amp; Chelsea","state":"Utah"},"type":"Feature","geometry":{"type":"Point","coordinates":[-111.876934,40.609768]}},{"properties":{"city":"Midvale","location status":"Verified","latitude":40.6134332,"zip":"84047","e-mail":null,"street":"650 E. 7570 S.","phone":"801-255-6031","longitude":-111.873169,"id":"ag0vctg0k7ti","household":"Wright, Laurie Jo","state":"Utah"},"type":"Feature","geometry":{"type":"Point","coordinates":[-111.873169,40.6134332]}},{"properties":{"city":"Sandy","location status":"Verified","latitude":40.610776,"zip":"84047","e-mail":"tammieynda@gmail.com","street":"492 E Unionwood Dr.","phone":"801-432-8586","longitude":-111.8771293,"id":"ag0vctbk7wxq","household":"Ynda, Jesse &amp; Tamera Jean","state":"Utah"},"type":"Feature","geometry":{"type":"Point","coordinates":[-111.8771293,40.610776]}},{"properties":{"city":"","location status":"Unmapped","latitude":"unknown","zip":"","e-mail":"","street":"","phone":"","longitude":"unknown","id":"ag0vctdnq3g6","household":"Barlow, Ashley Monique","state":""},"type":"Feature","geometry":null},{"properties":{"city":"MIDVALE","location status":"Unmapped","latitude":"unknown","zip":"84047","e-mail":"","street":"357 E SANDY PARK CIR","phone":"","longitude":"unknown","id":"ag0vctnnrqq0","household":"Barlow, Rodney &amp; Heidi","state":"Utah"},"type":"Feature","geometry":null},{"properties":{"city":"Sandy","location status":"Unmapped","latitude":"unknown","zip":"84047","e-mail":"drew_drew13@hotmail.com","street":"438 Sandy Park Dr, Basement","phone":"","longitude":"unknown","id":"ag0vctkt37fh","household":"Bradley, Andrew &amp; Meagan","state":"Utah"},"type":"Feature","geometry":null},{"properties":{"city":"Midvale","location status":"Unmapped","latitude":"unknown","zip":"84047","e-mail":"","street":"Requested By S.L.C. Without Address","phone":"","longitude":"unknown","id":"ag0vctngndrx","household":"Faucheux, Annie Paulette Jacqueline Suzanne","state":"Utah"},"type":"Feature","geometry":null},{"properties":{"city":"Midvale","location status":"Unmapped","latitude":"unknown","zip":"84047","e-mail":"","street":"711 E Lois Cir","phone":"801-870-0860","longitude":"unknown","id":"ag0vctkor3hq","household":"Lyman, Laurie Kay","state":"Utah"},"type":"Feature","geometry":null},{"properties":{"city":"Midvale","location status":"Unmapped","latitude":"unknown","zip":"84047","e-mail":"","street":"","phone":"801-282-5764","longitude":"unknown","id":"ag0vctcmrsl2","household":"Parry, Lorin Walter &amp; Zelma","state":"Utah"},"type":"Feature","geometry":null},{"properties":{"city":"","location status":"","latitude":"","zip":"","e-mail":"","street":"","phone":"","longitude":"For Church use only, not for any commercial, business, or political purpose.","id":"ag0vctezdmhf","household":"","state":""},"type":"Feature","geometry":null}],"is_temporal":false,"author":{"url":"","metadata":null,"contact_name":null,"contact_address":null,"source":null,"contact_phone":null},"source":"","pagination":{"sort":null,"start":0,"total":225,"limit":1000000},"state":"complete","tags":"","published":"2014-08-16T13:58:46-04:00","id":380686}