{"type":"FeatureCollection","data_type":"Dataset","url_type":null,"permissions":[{"permissions":{"download":true,"view":true},"group_id":"everyone"}],"classification":null,"title":"Weiner Donations","count":561,"stream_id":381039,"contributor":{"url":"http://geocommons.com/users/74378","name":"pbump"},"data_attributes":null,"calculation_params":null,"icon_link":null,"link":"http://geocommons.com/overlays/381039.json","extent":[-168.022,13.4443,144.786,65.0365],"geometry_types":["point"],"unique_name":null,"name":"Weiner Donations","feature_count":561,"description":"","next_feature":null,"is_raster":false,"short_classification":"Y","stats":{"donors":{"max":40,"mean":3.1283422459893,"variance":26.0406417112299,"stdev":5.10300320509696,"median":1,"min":1},"donations":{"max":36740.0,"mean":1471.67795008913,"variance":12986353.2267103,"stdev":3603.65831159259,"median":175.0,"min":10.0},"average":{"max":4950.0,"mean":477.900659536542,"variance":1041511.47314724,"stdev":1020.54469434084,"median":100.0,"min":5.0}},"features":[{"properties":{"zip":"00960","donors":2,"geo_score":0.714,"donations":85.0,"average":42.5,"id":"ag2loucxl0kc","geo_precision":"zip"},"type":"Feature","geometry":{"type":"Point","coordinates":[-66.166014,18.34487]}},{"properties":{"zip":"01451","donors":1,"geo_score":0.714,"donations":1000.0,"average":1000.0,"id":"ag2lou525oty","geo_precision":"zip"},"type":"Feature","geometry":{"type":"Point","coordinates":[-71.575864,42.500187]}},{"properties":{"zip":"01844","donors":1,"geo_score":0.714,"donations":50.0,"average":50.0,"id":"ag2loucrthp9","geo_precision":"zip"},"type":"Feature","geometry":{"type":"Point","coordinates":[-71.186915,42.73184]}},{"properties":{"zip":"02339","donors":1,"geo_score":0.714,"donations":10.0,"average":10.0,"id":"ag2loueswgto","geo_precision":"zip"},"type":"Feature","geometry":{"type":"Point","coordinates":[-70.841153,42.116768]}},{"properties":{"zip":"02478","donors":2,"geo_score":0.714,"donations":2000.0,"average":1000.0,"id":"ag2lou8w3uul","geo_precision":"zip"},"type":"Feature","geometry":{"type":"Point","coordinates":[-71.204399,42.412795]}},{"properties":{"zip":"02482","donors":1,"geo_score":0.714,"donations":50.0,"average":50.0,"id":"ag2louevvvup","geo_precision":"zip"},"type":"Feature","geometry":{"type":"Point","coordinates":[-71.299201,42.294546]}},{"properties":{"zip":"02494","donors":1,"geo_score":0.714,"donations":4950.0,"average":4950.0,"id":"ag2louc5zpbg","geo_precision":"zip"},"type":"Feature","geometry":{"type":"Point","coordinates":[-71.26315,42.300147]}},{"properties":{"zip":"02818","donors":4,"geo_score":0.714,"donations":19800.0,"average":4950.0,"id":"ag2lou6jusnv","geo_precision":"zip"},"type":"Feature","geometry":{"type":"Point","coordinates":[-71.474503,41.647879]}},{"properties":{"zip":"02879","donors":2,"geo_score":0.714,"donations":20.0,"average":10.0,"id":"ag2lou86z0bx","geo_precision":"zip"},"type":"Feature","geometry":{"type":"Point","coordinates":[-71.534202,41.443653]}},{"properties":{"zip":"02891","donors":1,"geo_score":0.714,"donations":20.0,"average":20.0,"id":"ag2lou665210","geo_precision":"zip"},"type":"Feature","geometry":{"type":"Point","coordinates":[-71.730065,41.341767]}},{"properties":{"zip":"02905","donors":2,"geo_score":0.714,"donations":4950.0,"average":2475.0,"id":"ag2lou8fou6u","geo_precision":"zip"},"type":"Feature","geometry":{"type":"Point","coordinates":[-71.397556,41.78149]}},{"properties":{"zip":"02906","donors":1,"geo_score":0.714,"donations":4950.0,"average":4950.0,"id":"ag2louao9e6g","geo_precision":"zip"},"type":"Feature","geometry":{"type":"Point","coordinates":[-71.394717,41.8374]}},{"properties":{"zip":"03051","donors":2,"geo_score":0.714,"donations":20.0,"average":10.0,"id":"ag2loueoil0t","geo_precision":"zip"},"type":"Feature","geometry":{"type":"Point","coordinates":[-71.479789,42.844254]}},{"properties":{"zip":"03110","donors":1,"geo_score":0.714,"donations":50.0,"average":50.0,"id":"ag2lou6537ui","geo_precision":"zip"},"type":"Feature","geometry":{"type":"Point","coordinates":[-71.535515,42.93743]}},{"properties":{"zip":"03302","donors":1,"geo_score":0.714,"donations":10.0,"average":10.0,"id":"ag2louekenvj","geo_precision":"zip"},"type":"Feature","geometry":{"type":"Point","coordinates":[-71.468405,43.342302]}},{"properties":{"zip":"03833","donors":1,"geo_score":0.714,"donations":90.0,"average":90.0,"id":"ag2lougzaxgy","geo_precision":"zip"},"type":"Feature","geometry":{"type":"Point","coordinates":[-70.94339,42.985921]}},{"properties":{"zip":"06001","donors":1,"geo_score":0.714,"donations":100.0,"average":100.0,"id":"ag2loui81koe","geo_precision":"zip"},"type":"Feature","geometry":{"type":"Point","coordinates":[-72.728272,41.757944]}},{"properties":{"zip":"06062","donors":1,"geo_score":0.714,"donations":35.0,"average":35.0,"id":"ag2loucxie7u","geo_precision":"zip"},"type":"Feature","geometry":{"type":"Point","coordinates":[-72.859695,41.672983]}},{"properties":{"zip":"06422","donors":2,"geo_score":0.714,"donations":800.0,"average":400.0,"id":"ag2loufaddj4","geo_precision":"zip"},"type":"Feature","geometry":{"type":"Point","coordinates":[-72.682297,41.462468]}},{"properties":{"zip":"06424","donors":1,"geo_score":0.714,"donations":50.0,"average":50.0,"id":"ag2lou7k9luj","geo_precision":"zip"},"type":"Feature","geometry":{"type":"Point","coordinates":[-72.510365,41.598433]}},{"properties":{"zip":"06457","donors":1,"geo_score":0.714,"donations":50.0,"average":50.0,"id":"ag2lou59lw94","geo_precision":"zip"},"type":"Feature","geometry":{"type":"Point","coordinates":[-72.560646,41.543432]}},{"properties":{"zip":"06468","donors":1,"geo_score":0.714,"donations":35.0,"average":35.0,"id":"ag2loue91xu7","geo_precision":"zip"},"type":"Feature","geometry":{"type":"Point","coordinates":[-73.265116,41.322596]}},{"properties":{"zip":"06484","donors":1,"geo_score":0.714,"donations":10.0,"average":10.0,"id":"ag2lou4mqxt1","geo_precision":"zip"},"type":"Feature","geometry":{"type":"Point","coordinates":[-73.146222,41.296485]}},{"properties":{"zip":"06611","donors":1,"geo_score":0.714,"donations":100.0,"average":100.0,"id":"ag2louarw97t","geo_precision":"zip"},"type":"Feature","geometry":{"type":"Point","coordinates":[-73.161223,41.24093]}},{"properties":{"zip":"06704","donors":1,"geo_score":0.714,"donations":35.0,"average":35.0,"id":"ag2lou524cup","geo_precision":"zip"},"type":"Feature","geometry":{"type":"Point","coordinates":[-73.034451,41.581797]}},{"properties":{"zip":"06812","donors":1,"geo_score":0.714,"donations":400.0,"average":400.0,"id":"ag2louh34v0u","geo_precision":"zip"},"type":"Feature","geometry":{"type":"Point","coordinates":[-73.491042,41.486689]}},{"properties":{"zip":"06831","donors":1,"geo_score":0.714,"donations":1000.0,"average":1000.0,"id":"ag2loukak3fg","geo_precision":"zip"},"type":"Feature","geometry":{"type":"Point","coordinates":[-73.65985,41.035375]}},{"properties":{"zip":"06855","donors":1,"geo_score":0.714,"donations":10.0,"average":10.0,"id":"ag2loui84g3i","geo_precision":"zip"},"type":"Feature","geometry":{"type":"Point","coordinates":[-73.398362,41.099196]}},{"properties":{"zip":"06903","donors":1,"geo_score":0.714,"donations":100.0,"average":100.0,"id":"ag2loub2rhps","geo_precision":"zip"},"type":"Feature","geometry":{"type":"Point","coordinates":[-73.565919,41.136773]}},{"properties":{"zip":"07003","donors":1,"geo_score":0.714,"donations":100.0,"average":100.0,"id":"ag2louekkx33","geo_precision":"zip"},"type":"Feature","geometry":{"type":"Point","coordinates":[-74.187005,40.808549]}},{"properties":{"zip":"07006","donors":1,"geo_score":0.714,"donations":150.0,"average":150.0,"id":"ag2loubfwulg","geo_precision":"zip"},"type":"Feature","geometry":{"type":"Point","coordinates":[-74.266259,40.863433]}},{"properties":{"zip":"07008","donors":1,"geo_score":0.714,"donations":20.0,"average":20.0,"id":"ag2louixe3tb","geo_precision":"zip"},"type":"Feature","geometry":{"type":"Point","coordinates":[-74.234839,40.583203]}},{"properties":{"zip":"07020","donors":1,"geo_score":0.714,"donations":10.0,"average":10.0,"id":"ag2lougs11zr","geo_precision":"zip"},"type":"Feature","geometry":{"type":"Point","coordinates":[-73.940693,40.888155]}},{"properties":{"zip":"07030","donors":3,"geo_score":0.714,"donations":275.0,"average":91.67,"id":"ag2loufzoer8","geo_precision":"zip"},"type":"Feature","geometry":{"type":"Point","coordinates":[-74.033934,40.746851]}},{"properties":{"zip":"07039","donors":3,"geo_score":0.714,"donations":650.0,"average":216.67,"id":"ag2louakmxru","geo_precision":"zip"},"type":"Feature","geometry":{"type":"Point","coordinates":[-74.325993,40.787006]}},{"properties":{"zip":"07042","donors":1,"geo_score":0.714,"donations":30.0,"average":30.0,"id":"ag2loud98omg","geo_precision":"zip"},"type":"Feature","geometry":{"type":"Point","coordinates":[-74.216389,40.811908]}},{"properties":{"zip":"07043","donors":1,"geo_score":0.714,"donations":10.0,"average":10.0,"id":"ag2loudzvlbb","geo_precision":"zip"},"type":"Feature","geometry":{"type":"Point","coordinates":[-74.19448,40.8034]}},{"properties":{"zip":"07047","donors":2,"geo_score":0.714,"donations":125.0,"average":62.5,"id":"ag2louas13zj","geo_precision":"zip"},"type":"Feature","geometry":{"type":"Point","coordinates":[-74.019862,40.809823]}},{"properties":{"zip":"07054","donors":1,"geo_score":0.714,"donations":100.0,"average":100.0,"id":"ag2lou93mvpy","geo_precision":"zip"},"type":"Feature","geometry":{"type":"Point","coordinates":[-74.407706,40.852118]}},{"properties":{"zip":"07058","donors":6,"geo_score":0.714,"donations":11175.0,"average":1862.5,"id":"ag2lou6fdf18","geo_precision":"zip"},"type":"Feature","geometry":{"type":"Point","coordinates":[-74.340144,40.871014]}},{"properties":{"zip":"07076","donors":1,"geo_score":0.714,"donations":250.0,"average":250.0,"id":"ag2lou9enn1l","geo_precision":"zip"},"type":"Feature","geometry":{"type":"Point","coordinates":[-74.368244,40.637852]}},{"properties":{"zip":"07082","donors":1,"geo_score":0.714,"donations":4000.0,"average":4000.0,"id":"ag2loufy1xzg","geo_precision":"zip"},"type":"Feature","geometry":{"type":"Point","coordinates":[-74.347695,40.92769]}},{"properties":{"zip":"07087","donors":6,"geo_score":0.714,"donations":450.0,"average":75.0,"id":"ag2lou8nlkz5","geo_precision":"zip"},"type":"Feature","geometry":{"type":"Point","coordinates":[-74.056335,40.758951]}},{"properties":{"zip":"07103","donors":1,"geo_score":0.714,"donations":30.0,"average":30.0,"id":"ag2louah2qi4","geo_precision":"zip"},"type":"Feature","geometry":{"type":"Point","coordinates":[-74.194839,40.738901]}},{"properties":{"zip":"07107","donors":1,"geo_score":0.714,"donations":10.0,"average":10.0,"id":"ag2louh07wlu","geo_precision":"zip"},"type":"Feature","geometry":{"type":"Point","coordinates":[-74.190701,40.755101]}},{"properties":{"zip":"07307","donors":1,"geo_score":0.714,"donations":20.0,"average":20.0,"id":"ag2lou6v1j1c","geo_precision":"zip"},"type":"Feature","geometry":{"type":"Point","coordinates":[-74.054285,40.749801]}},{"properties":{"zip":"07417","donors":1,"geo_score":0.714,"donations":200.0,"average":200.0,"id":"ag2lou9agb88","geo_precision":"zip"},"type":"Feature","geometry":{"type":"Point","coordinates":[-74.20831,41.010464]}},{"properties":{"zip":"07430","donors":1,"geo_score":0.714,"donations":1000.0,"average":1000.0,"id":"ag2lou6vflmz","geo_precision":"zip"},"type":"Feature","geometry":{"type":"Point","coordinates":[-74.135977,41.094541]}},{"properties":{"zip":"07450","donors":1,"geo_score":0.714,"donations":500.0,"average":500.0,"id":"ag2loub09pxx","geo_precision":"zip"},"type":"Feature","geometry":{"type":"Point","coordinates":[-74.11207,40.982247]}},{"properties":{"zip":"07458","donors":2,"geo_score":0.714,"donations":5050.0,"average":2525.0,"id":"ag2loud79oq0","geo_precision":"zip"},"type":"Feature","geometry":{"type":"Point","coordinates":[-74.098093,41.044324]}},{"properties":{"zip":"07631","donors":2,"geo_score":0.714,"donations":2175.0,"average":1087.5,"id":"ag2louhxguwc","geo_precision":"zip"},"type":"Feature","geometry":{"type":"Point","coordinates":[-73.971782,40.889498]}},{"properties":{"zip":"07632","donors":2,"geo_score":0.714,"donations":4950.0,"average":2475.0,"id":"ag2lou573hif","geo_precision":"zip"},"type":"Feature","geometry":{"type":"Point","coordinates":[-73.952423,40.883949]}},{"properties":{"zip":"07644","donors":1,"geo_score":0.714,"donations":250.0,"average":250.0,"id":"ag2loudho998","geo_precision":"zip"},"type":"Feature","geometry":{"type":"Point","coordinates":[-74.081335,40.878349]}},{"properties":{"zip":"07652","donors":2,"geo_score":0.714,"donations":601.0,"average":300.5,"id":"ag2louhprc9w","geo_precision":"zip"},"type":"Feature","geometry":{"type":"Point","coordinates":[-74.068964,40.944997]}},{"properties":{"zip":"07666","donors":1,"geo_score":0.714,"donations":1000.0,"average":1000.0,"id":"ag2lou89z7ez","geo_precision":"zip"},"type":"Feature","geometry":{"type":"Point","coordinates":[-74.003194,40.902044]}},{"properties":{"zip":"07670","donors":2,"geo_score":0.714,"donations":3000.0,"average":1500.0,"id":"ag2loudgi8e3","geo_precision":"zip"},"type":"Feature","geometry":{"type":"Point","coordinates":[-73.960481,40.919298]}},{"properties":{"zip":"07675","donors":1,"geo_score":0.714,"donations":500.0,"average":500.0,"id":"ag2lou60m765","geo_precision":"zip"},"type":"Feature","geometry":{"type":"Point","coordinates":[-74.021278,41.011453]}},{"properties":{"zip":"07722","donors":2,"geo_score":0.714,"donations":899.0,"average":449.5,"id":"ag2lou4ht0pf","geo_precision":"zip"},"type":"Feature","geometry":{"type":"Point","coordinates":[-74.160911,40.302848]}},{"properties":{"zip":"07733","donors":1,"geo_score":0.714,"donations":500.0,"average":500.0,"id":"ag2lougc4qqk","geo_precision":"zip"},"type":"Feature","geometry":{"type":"Point","coordinates":[-74.170037,40.376408]}},{"properties":{"zip":"07748","donors":1,"geo_score":0.714,"donations":25.0,"average":25.0,"id":"ag2loua4fwij","geo_precision":"zip"},"type":"Feature","geometry":{"type":"Point","coordinates":[-74.124309,40.418997]}},{"properties":{"zip":"07751","donors":1,"geo_score":0.714,"donations":2500.0,"average":2500.0,"id":"ag2louepnexk","geo_precision":"zip"},"type":"Feature","geometry":{"type":"Point","coordinates":[-74.214488,40.319979]}},{"properties":{"zip":"08003","donors":2,"geo_score":0.714,"donations":200.0,"average":100.0,"id":"ag2lou94xj1r","geo_precision":"zip"},"type":"Feature","geometry":{"type":"Point","coordinates":[-74.998501,39.872336]}},{"properties":{"zip":"08054","donors":1,"geo_score":0.714,"donations":20.0,"average":20.0,"id":"ag2lou93ay3f","geo_precision":"zip"},"type":"Feature","geometry":{"type":"Point","coordinates":[-74.870165,39.978446]}},{"properties":{"zip":"08530","donors":1,"geo_score":0.714,"donations":50.0,"average":50.0,"id":"ag2louhi7qtu","geo_precision":"zip"},"type":"Feature","geometry":{"type":"Point","coordinates":[-74.907111,40.398717]}},{"properties":{"zip":"08534","donors":1,"geo_score":0.714,"donations":10.0,"average":10.0,"id":"ag2loudnx570","geo_precision":"zip"},"type":"Feature","geometry":{"type":"Point","coordinates":[-74.813557,40.32863]}},{"properties":{"zip":"08540","donors":1,"geo_score":0.714,"donations":10.0,"average":10.0,"id":"ag2lougw8n5c","geo_precision":"zip"},"type":"Feature","geometry":{"type":"Point","coordinates":[-74.64795,40.363882]}},{"properties":{"zip":"08701","donors":2,"geo_score":0.714,"donations":9000.0,"average":4500.0,"id":"ag2lou4vijy1","geo_precision":"zip"},"type":"Feature","geometry":{"type":"Point","coordinates":[-74.21181,40.158447]}},{"properties":{"zip":"08724","donors":1,"geo_score":0.714,"donations":100.0,"average":100.0,"id":"ag2loubylobq","geo_precision":"zip"},"type":"Feature","geometry":{"type":"Point","coordinates":[-74.17109,39.938047]}},{"properties":{"zip":"08816","donors":1,"geo_score":0.714,"donations":250.0,"average":250.0,"id":"ag2louhnytwc","geo_precision":"zip"},"type":"Feature","geometry":{"type":"Point","coordinates":[-74.476819,40.423995]}},{"properties":{"zip":"08820","donors":2,"geo_score":0.714,"donations":350.0,"average":175.0,"id":"ag2loued8jjd","geo_precision":"zip"},"type":"Feature","geometry":{"type":"Point","coordinates":[-74.362616,40.576611]}},{"properties":{"zip":"08837","donors":1,"geo_score":0.714,"donations":101.0,"average":101.0,"id":"ag2loualvlkd","geo_precision":"zip"},"type":"Feature","geometry":{"type":"Point","coordinates":[-74.336537,40.536493]}},{"properties":{"zip":"08840","donors":1,"geo_score":0.714,"donations":200.0,"average":200.0,"id":"ag2lou5hg1e8","geo_precision":"zip"},"type":"Feature","geometry":{"type":"Point","coordinates":[-74.323481,40.552604]}},{"properties":{"zip":"08854","donors":1,"geo_score":0.714,"donations":175.0,"average":175.0,"id":"ag2louavb5rd","geo_precision":"zip"},"type":"Feature","geometry":{"type":"Point","coordinates":[-74.474598,40.515382]}},{"properties":{"zip":"08857","donors":1,"geo_score":0.714,"donations":50.0,"average":50.0,"id":"ag2louemgafa","geo_precision":"zip"},"type":"Feature","geometry":{"type":"Point","coordinates":[-74.314319,40.407319]}},{"properties":{"zip":"10001","donors":12,"geo_score":0.714,"donations":7510.0,"average":625.83,"id":"ag2lougywfz0","geo_precision":"zip"},"type":"Feature","geometry":{"type":"Point","coordinates":[-73.996328,40.750422]}},{"properties":{"zip":"10002","donors":5,"geo_score":0.714,"donations":245.0,"average":49.0,"id":"ag2lou5gpb5v","geo_precision":"zip"},"type":"Feature","geometry":{"type":"Point","coordinates":[-73.986427,40.718758]}},{"properties":{"zip":"10003","donors":24,"geo_score":0.714,"donations":17492.0,"average":728.83,"id":"ag2louf3qbbc","geo_precision":"zip"},"type":"Feature","geometry":{"type":"Point","coordinates":[-73.988564,40.730223]}},{"properties":{"zip":"10004","donors":1,"geo_score":0.714,"donations":35.0,"average":35.0,"id":"ag2louk80jl7","geo_precision":"zip"},"type":"Feature","geometry":{"type":"Point","coordinates":[-74.016389,40.691111]}},{"properties":{"zip":"10005","donors":5,"geo_score":0.714,"donations":2861.0,"average":572.2,"id":"ag2lou6m0jvj","geo_precision":"zip"},"type":"Feature","geometry":{"type":"Point","coordinates":[-74.008654,40.706903]}},{"properties":{"zip":"10007","donors":2,"geo_score":0.714,"donations":750.0,"average":375.0,"id":"ag2lou7632lf","geo_precision":"zip"},"type":"Feature","geometry":{"type":"Point","coordinates":[-74.007401,40.713941]}},{"properties":{"zip":"10009","donors":7,"geo_score":0.714,"donations":325.0,"average":46.43,"id":"ag2louhlo5tl","geo_precision":"zip"},"type":"Feature","geometry":{"type":"Point","coordinates":[-73.980396,40.72775]}},{"properties":{"zip":"10010","donors":19,"geo_score":0.714,"donations":13888.0,"average":730.95,"id":"ag2loudtmbtq","geo_precision":"zip"},"type":"Feature","geometry":{"type":"Point","coordinates":[-73.983542,40.739024]}},{"properties":{"zip":"10011","donors":23,"geo_score":0.714,"donations":2595.0,"average":112.83,"id":"ag2lou60w96p","geo_precision":"zip"},"type":"Feature","geometry":{"type":"Point","coordinates":[-73.999769,40.740916]}},{"properties":{"zip":"10012","donors":13,"geo_score":0.714,"donations":6485.0,"average":498.85,"id":"ag2louk1uo5p","geo_precision":"zip"},"type":"Feature","geometry":{"type":"Point","coordinates":[-73.991582,40.729124]}},{"properties":{"zip":"10013","donors":11,"geo_score":0.714,"donations":12095.0,"average":1099.55,"id":"ag2lou9qscsz","geo_precision":"zip"},"type":"Feature","geometry":{"type":"Point","coordinates":[-73.99625,40.716491]}},{"properties":{"zip":"10014","donors":21,"geo_score":0.714,"donations":4515.0,"average":215.0,"id":"ag2louip0vcc","geo_precision":"zip"},"type":"Feature","geometry":{"type":"Point","coordinates":[-74.005095,40.738088]}},{"properties":{"zip":"10016","donors":23,"geo_score":0.714,"donations":13605.0,"average":591.52,"id":"ag2loujn8emq","geo_precision":"zip"},"type":"Feature","geometry":{"type":"Point","coordinates":[-73.978449,40.745527]}},{"properties":{"zip":"10017","donors":3,"geo_score":0.714,"donations":950.0,"average":316.67,"id":"ag2loukpbshe","geo_precision":"zip"},"type":"Feature","geometry":{"type":"Point","coordinates":[-73.973196,40.752955]}},{"properties":{"zip":"10018","donors":3,"geo_score":0.714,"donations":850.0,"average":283.33,"id":"ag2loufvoqr7","geo_precision":"zip"},"type":"Feature","geometry":{"type":"Point","coordinates":[-73.993172,40.755332]}},{"properties":{"zip":"10019","donors":15,"geo_score":0.714,"donations":8060.0,"average":537.33,"id":"ag2loufe35d0","geo_precision":"zip"},"type":"Feature","geometry":{"type":"Point","coordinates":[-73.985443,40.765926]}},{"properties":{"zip":"10021","donors":20,"geo_score":0.714,"donations":9035.0,"average":451.75,"id":"ag2louhbnec7","geo_precision":"zip"},"type":"Feature","geometry":{"type":"Point","coordinates":[-73.960257,40.768823]}},{"properties":{"zip":"10022","donors":24,"geo_score":0.714,"donations":25895.0,"average":1078.96,"id":"ag2louas11s9","geo_precision":"zip"},"type":"Feature","geometry":{"type":"Point","coordinates":[-73.967842,40.758775]}},{"properties":{"zip":"10023","donors":33,"geo_score":0.714,"donations":23645.0,"average":716.52,"id":"ag2lougr1cfj","geo_precision":"zip"},"type":"Feature","geometry":{"type":"Point","coordinates":[-73.982213,40.776765]}},{"properties":{"zip":"10024","donors":23,"geo_score":0.714,"donations":9610.0,"average":417.83,"id":"ag2lou70wumq","geo_precision":"zip"},"type":"Feature","geometry":{"type":"Point","coordinates":[-73.965653,40.80813]}},{"properties":{"zip":"10025","donors":22,"geo_score":0.714,"donations":10575.0,"average":480.68,"id":"ag2loub791x3","geo_precision":"zip"},"type":"Feature","geometry":{"type":"Point","coordinates":[-73.967778,40.798664]}},{"properties":{"zip":"10026","donors":3,"geo_score":0.714,"donations":135.0,"average":45.0,"id":"ag2louan0khz","geo_precision":"zip"},"type":"Feature","geometry":{"type":"Point","coordinates":[-73.953107,40.802918]}},{"properties":{"zip":"10027","donors":5,"geo_score":0.714,"donations":635.0,"average":127.0,"id":"ag2loukm5ac9","geo_precision":"zip"},"type":"Feature","geometry":{"type":"Point","coordinates":[-73.9532,40.812242]}},{"properties":{"zip":"10028","donors":30,"geo_score":0.714,"donations":29220.0,"average":974.0,"id":"ag2loucvo517","geo_precision":"zip"},"type":"Feature","geometry":{"type":"Point","coordinates":[-73.953914,40.776629]}},{"properties":{"zip":"10029","donors":4,"geo_score":0.714,"donations":480.0,"average":120.0,"id":"ag2louiawbrg","geo_precision":"zip"},"type":"Feature","geometry":{"type":"Point","coordinates":[-73.943517,40.791884]}},{"properties":{"zip":"10030","donors":2,"geo_score":0.714,"donations":60.0,"average":30.0,"id":"ag2louefpm9a","geo_precision":"zip"},"type":"Feature","geometry":{"type":"Point","coordinates":[-73.94329,40.818474]}},{"properties":{"zip":"10031","donors":7,"geo_score":0.714,"donations":400.0,"average":57.14,"id":"ag2loudox95h","geo_precision":"zip"},"type":"Feature","geometry":{"type":"Point","coordinates":[-73.949039,40.823438]}},{"properties":{"zip":"10032","donors":2,"geo_score":0.714,"donations":80.0,"average":40.0,"id":"ag2louac0m7c","geo_precision":"zip"},"type":"Feature","geometry":{"type":"Point","coordinates":[-73.942181,40.839137]}},{"properties":{"zip":"10033","donors":5,"geo_score":0.714,"donations":1120.0,"average":224.0,"id":"ag2loubx965p","geo_precision":"zip"},"type":"Feature","geometry":{"type":"Point","coordinates":[-73.934764,40.851293]}},{"properties":{"zip":"10035","donors":2,"geo_score":0.714,"donations":60.0,"average":30.0,"id":"ag2louijrpyt","geo_precision":"zip"},"type":"Feature","geometry":{"type":"Point","coordinates":[-73.9347,40.801913]}},{"properties":{"zip":"10036","donors":8,"geo_score":0.714,"donations":7670.0,"average":958.75,"id":"ag2lou4oj1um","geo_precision":"zip"},"type":"Feature","geometry":{"type":"Point","coordinates":[-73.989847,40.75953]}},{"properties":{"zip":"10037","donors":4,"geo_score":0.714,"donations":435.0,"average":108.75,"id":"ag2louhqamki","geo_precision":"zip"},"type":"Feature","geometry":{"type":"Point","coordinates":[-73.938498,40.813884]}},{"properties":{"zip":"10038","donors":6,"geo_score":0.714,"donations":685.0,"average":114.17,"id":"ag2loud6k68n","geo_precision":"zip"},"type":"Feature","geometry":{"type":"Point","coordinates":[-74.003368,40.710223]}},{"properties":{"zip":"10039","donors":2,"geo_score":0.714,"donations":275.0,"average":137.5,"id":"ag2louiv99xc","geo_precision":"zip"},"type":"Feature","geometry":{"type":"Point","coordinates":[-73.939398,40.826736]}},{"properties":{"zip":"10040","donors":2,"geo_score":0.714,"donations":250.0,"average":125.0,"id":"ag2loucbiqid","geo_precision":"zip"},"type":"Feature","geometry":{"type":"Point","coordinates":[-73.930999,40.858692]}},{"properties":{"zip":"10044","donors":4,"geo_score":0.714,"donations":220.0,"average":55.0,"id":"ag2loubu0tg9","geo_precision":"zip"},"type":"Feature","geometry":{"type":"Point","coordinates":[-73.950521,40.761812]}},{"properties":{"zip":"10065","donors":15,"geo_score":0.714,"donations":9550.0,"average":636.67,"id":"ag2lou5rbygs","geo_precision":"zip"},"type":"Feature","geometry":{"type":"Point","coordinates":[-74.005973,40.714269]}},{"properties":{"zip":"10069","donors":9,"geo_score":0.714,"donations":1410.0,"average":156.67,"id":"ag2lou5gk27g","geo_precision":"zip"},"type":"Feature","geometry":{"type":"Point","coordinates":[-73.988381,40.777952]}},{"properties":{"zip":"10075","donors":9,"geo_score":0.714,"donations":3495.0,"average":388.33,"id":"ag2lou73sk2s","geo_precision":"zip"},"type":"Feature","geometry":{"type":"Point","coordinates":[-74.005973,40.714269]}},{"properties":{"zip":"10106","donors":1,"geo_score":0.714,"donations":1000.0,"average":1000.0,"id":"ag2lou78ww2p","geo_precision":"zip"},"type":"Feature","geometry":{"type":"Point","coordinates":[-73.980438,40.765243]}},{"properties":{"zip":"10128","donors":35,"geo_score":0.714,"donations":16875.0,"average":482.14,"id":"ag2lou7t8z8j","geo_precision":"zip"},"type":"Feature","geometry":{"type":"Point","coordinates":[-73.95158,40.780989]}},{"properties":{"zip":"10155","donors":2,"geo_score":0.714,"donations":4950.0,"average":2475.0,"id":"ag2loua86c71","geo_precision":"zip"},"type":"Feature","geometry":{"type":"Point","coordinates":[-73.968036,40.761104]}},{"properties":{"zip":"10163","donors":1,"geo_score":0.714,"donations":10.0,"average":10.0,"id":"ag2lou7cww1j","geo_precision":"zip"},"type":"Feature","geometry":{"type":"Point","coordinates":[-73.977182,40.780751]}},{"properties":{"zip":"10276","donors":1,"geo_score":0.714,"donations":35.0,"average":35.0,"id":"ag2loujnruxb","geo_precision":"zip"},"type":"Feature","geometry":{"type":"Point","coordinates":[-73.977182,40.780751]}},{"properties":{"zip":"10280","donors":4,"geo_score":0.714,"donations":2555.0,"average":638.75,"id":"ag2loudhn6bz","geo_precision":"zip"},"type":"Feature","geometry":{"type":"Point","coordinates":[-74.016217,40.708857]}},{"properties":{"zip":"10282","donors":3,"geo_score":0.714,"donations":335.0,"average":111.67,"id":"ag2loudvtvb9","geo_precision":"zip"},"type":"Feature","geometry":{"type":"Point","coordinates":[-74.01459,40.716597]}},{"properties":{"zip":"10301","donors":11,"geo_score":0.714,"donations":890.0,"average":80.91,"id":"ag2lougcrnem","geo_precision":"zip"},"type":"Feature","geometry":{"type":"Point","coordinates":[-74.085419,40.636493]}},{"properties":{"zip":"10302","donors":3,"geo_score":0.714,"donations":285.0,"average":95.0,"id":"ag2loue3q6so","geo_precision":"zip"},"type":"Feature","geometry":{"type":"Point","coordinates":[-74.137947,40.628923]}},{"properties":{"zip":"10303","donors":1,"geo_score":0.714,"donations":200.0,"average":200.0,"id":"ag2loujro074","geo_precision":"zip"},"type":"Feature","geometry":{"type":"Point","coordinates":[-74.165016,40.631697]}},{"properties":{"zip":"10304","donors":6,"geo_score":0.714,"donations":875.0,"average":145.83,"id":"ag2loucpnals","geo_precision":"zip"},"type":"Feature","geometry":{"type":"Point","coordinates":[-74.093684,40.608389]}},{"properties":{"zip":"10305","donors":6,"geo_score":0.714,"donations":1050.0,"average":175.0,"id":"ag2loughocv5","geo_precision":"zip"},"type":"Feature","geometry":{"type":"Point","coordinates":[-74.077837,40.596828]}},{"properties":{"zip":"10306","donors":3,"geo_score":0.714,"donations":350.0,"average":116.67,"id":"ag2louh9ibsn","geo_precision":"zip"},"type":"Feature","geometry":{"type":"Point","coordinates":[-74.094586,40.573161]}},{"properties":{"zip":"10307","donors":2,"geo_score":0.714,"donations":275.0,"average":137.5,"id":"ag2lou7wfpih","geo_precision":"zip"},"type":"Feature","geometry":{"type":"Point","coordinates":[-74.24194,40.510723]}},{"properties":{"zip":"10309","donors":1,"geo_score":0.714,"donations":75.0,"average":75.0,"id":"ag2lou8wai5d","geo_precision":"zip"},"type":"Feature","geometry":{"type":"Point","coordinates":[-74.197644,40.543439]}},{"properties":{"zip":"10310","donors":1,"geo_score":0.714,"donations":10.0,"average":10.0,"id":"ag2lou8c5zel","geo_precision":"zip"},"type":"Feature","geometry":{"type":"Point","coordinates":[-74.118669,40.632943]}},{"properties":{"zip":"10312","donors":9,"geo_score":0.714,"donations":6675.0,"average":741.67,"id":"ag2louiecc7g","geo_precision":"zip"},"type":"Feature","geometry":{"type":"Point","coordinates":[-74.174692,40.545163]}},{"properties":{"zip":"10314","donors":8,"geo_score":0.714,"donations":1470.0,"average":183.75,"id":"ag2louemxz76","geo_precision":"zip"},"type":"Feature","geometry":{"type":"Point","coordinates":[-74.122365,40.61316]}},{"properties":{"zip":"10452","donors":4,"geo_score":0.714,"donations":120.0,"average":30.0,"id":"ag2louc0hn27","geo_precision":"zip"},"type":"Feature","geometry":{"type":"Point","coordinates":[-73.921605,40.838729]}},{"properties":{"zip":"10453","donors":1,"geo_score":0.714,"donations":10.0,"average":10.0,"id":"ag2loub9e6ll","geo_precision":"zip"},"type":"Feature","geometry":{"type":"Point","coordinates":[-73.919859,40.849822]}},{"properties":{"zip":"10458","donors":3,"geo_score":0.714,"donations":200.0,"average":66.67,"id":"ag2loucd6i1w","geo_precision":"zip"},"type":"Feature","geometry":{"type":"Point","coordinates":[-73.889855,40.864728]}},{"properties":{"zip":"10459","donors":1,"geo_score":0.714,"donations":100.0,"average":100.0,"id":"ag2louhp4q8z","geo_precision":"zip"},"type":"Feature","geometry":{"type":"Point","coordinates":[-73.893605,40.825629]}},{"properties":{"zip":"10461","donors":1,"geo_score":0.714,"donations":50.0,"average":50.0,"id":"ag2louj7c9vb","geo_precision":"zip"},"type":"Feature","geometry":{"type":"Point","coordinates":[-73.843103,40.845279]}},{"properties":{"zip":"10462","donors":3,"geo_score":0.714,"donations":135.0,"average":45.0,"id":"ag2loufz1p97","geo_precision":"zip"},"type":"Feature","geometry":{"type":"Point","coordinates":[-73.863746,40.848434]}},{"properties":{"zip":"10463","donors":4,"geo_score":0.714,"donations":1235.0,"average":308.75,"id":"ag2loujueveo","geo_precision":"zip"},"type":"Feature","geometry":{"type":"Point","coordinates":[-73.917359,40.881211]}},{"properties":{"zip":"10464","donors":1,"geo_score":0.714,"donations":10.0,"average":10.0,"id":"ag2loubiyof7","geo_precision":"zip"},"type":"Feature","geometry":{"type":"Point","coordinates":[-73.799802,40.863028]}},{"properties":{"zip":"10465","donors":2,"geo_score":0.714,"donations":118.0,"average":59.0,"id":"ag2louaw5rxh","geo_precision":"zip"},"type":"Feature","geometry":{"type":"Point","coordinates":[-73.819578,40.822601]}},{"properties":{"zip":"10467","donors":2,"geo_score":0.714,"donations":300.0,"average":150.0,"id":"ag2lou4ij1rw","geo_precision":"zip"},"type":"Feature","geometry":{"type":"Point","coordinates":[-73.870404,40.876328]}},{"properties":{"zip":"10468","donors":3,"geo_score":0.714,"donations":585.0,"average":195.0,"id":"ag2lou5sav6z","geo_precision":"zip"},"type":"Feature","geometry":{"type":"Point","coordinates":[-73.900505,40.870978]}},{"properties":{"zip":"10469","donors":2,"geo_score":0.714,"donations":40.0,"average":20.0,"id":"ag2lou7yz53s","geo_precision":"zip"},"type":"Feature","geometry":{"type":"Point","coordinates":[-73.844903,40.869978]}},{"properties":{"zip":"10470","donors":2,"geo_score":0.714,"donations":200.0,"average":100.0,"id":"ag2lou6e2m59","geo_precision":"zip"},"type":"Feature","geometry":{"type":"Point","coordinates":[-73.862303,40.87143]}},{"properties":{"zip":"10471","donors":3,"geo_score":0.714,"donations":225.0,"average":75.0,"id":"ag2loukps15x","geo_precision":"zip"},"type":"Feature","geometry":{"type":"Point","coordinates":[-73.898677,40.899178]}},{"properties":{"zip":"10472","donors":2,"geo_score":0.714,"donations":60.0,"average":30.0,"id":"ag2louhn0f9n","geo_precision":"zip"},"type":"Feature","geometry":{"type":"Point","coordinates":[-73.865704,40.829529]}},{"properties":{"zip":"10514","donors":1,"geo_score":0.714,"donations":100.0,"average":100.0,"id":"ag2loujvg21k","geo_precision":"zip"},"type":"Feature","geometry":{"type":"Point","coordinates":[-73.775547,41.078957]}},{"properties":{"zip":"10518","donors":3,"geo_score":0.714,"donations":5050.0,"average":1683.33,"id":"ag2loubbblg8","geo_precision":"zip"},"type":"Feature","geometry":{"type":"Point","coordinates":[-73.612074,41.269896]}},{"properties":{"zip":"10520","donors":1,"geo_score":0.714,"donations":175.0,"average":175.0,"id":"ag2lougr0p2u","geo_precision":"zip"},"type":"Feature","geometry":{"type":"Point","coordinates":[-73.914027,41.227872]}},{"properties":{"zip":"10536","donors":1,"geo_score":0.714,"donations":1000.0,"average":1000.0,"id":"ag2loubgs2zu","geo_precision":"zip"},"type":"Feature","geometry":{"type":"Point","coordinates":[-73.651518,41.284261]}},{"properties":{"zip":"10543","donors":2,"geo_score":0.714,"donations":9900.0,"average":4950.0,"id":"ag2lou9a3yud","geo_precision":"zip"},"type":"Feature","geometry":{"type":"Point","coordinates":[-73.738779,40.949199]}},{"properties":{"zip":"10549","donors":4,"geo_score":0.714,"donations":5200.0,"average":1300.0,"id":"ag2lou7yz1o1","geo_precision":"zip"},"type":"Feature","geometry":{"type":"Point","coordinates":[-73.72286,41.197329]}},{"properties":{"zip":"10560","donors":3,"geo_score":0.714,"donations":1200.0,"average":400.0,"id":"ag2loubzg855","geo_precision":"zip"},"type":"Feature","geometry":{"type":"Point","coordinates":[-73.608451,41.331814]}},{"properties":{"zip":"10576","donors":1,"geo_score":0.714,"donations":2500.0,"average":2500.0,"id":"ag2lou9mvloc","geo_precision":"zip"},"type":"Feature","geometry":{"type":"Point","coordinates":[-73.550681,41.189263]}},{"properties":{"zip":"10577","donors":1,"geo_score":0.714,"donations":175.0,"average":175.0,"id":"ag2lougjursr","geo_precision":"zip"},"type":"Feature","geometry":{"type":"Point","coordinates":[-73.751025,41.002757]}},{"properties":{"zip":"10580","donors":2,"geo_score":0.714,"donations":5150.0,"average":2575.0,"id":"ag2lou50bvgl","geo_precision":"zip"},"type":"Feature","geometry":{"type":"Point","coordinates":[-73.744725,40.955237]}},{"properties":{"zip":"10583","donors":2,"geo_score":0.714,"donations":900.0,"average":450.0,"id":"ag2louciqi49","geo_precision":"zip"},"type":"Feature","geometry":{"type":"Point","coordinates":[-73.819856,40.993153]}},{"properties":{"zip":"10590","donors":1,"geo_score":0.714,"donations":20.0,"average":20.0,"id":"ag2loujbc1ct","geo_precision":"zip"},"type":"Feature","geometry":{"type":"Point","coordinates":[-73.522625,41.238151]}},{"properties":{"zip":"10601","donors":1,"geo_score":0.714,"donations":35.0,"average":35.0,"id":"ag2lou70uwmp","geo_precision":"zip"},"type":"Feature","geometry":{"type":"Point","coordinates":[-73.769626,41.031397]}},{"properties":{"zip":"10602","donors":1,"geo_score":0.714,"donations":10.0,"average":10.0,"id":"ag2loukhggcr","geo_precision":"zip"},"type":"Feature","geometry":{"type":"Point","coordinates":[-73.732996,41.119008]}},{"properties":{"zip":"10603","donors":2,"geo_score":0.714,"donations":200.0,"average":100.0,"id":"ag2louc7ilf6","geo_precision":"zip"},"type":"Feature","geometry":{"type":"Point","coordinates":[-73.783036,41.048958]}},{"properties":{"zip":"10705","donors":1,"geo_score":0.714,"donations":100.0,"average":100.0,"id":"ag2lougmtmz7","geo_precision":"zip"},"type":"Feature","geometry":{"type":"Point","coordinates":[-73.872529,40.926538]}},{"properties":{"zip":"10709","donors":1,"geo_score":0.714,"donations":2500.0,"average":2500.0,"id":"ag2loucdlojt","geo_precision":"zip"},"type":"Feature","geometry":{"type":"Point","coordinates":[-73.812177,40.956098]}},{"properties":{"zip":"10804","donors":1,"geo_score":0.714,"donations":100.0,"average":100.0,"id":"ag2loucai5y7","geo_precision":"zip"},"type":"Feature","geometry":{"type":"Point","coordinates":[-73.786526,40.951498]}},{"properties":{"zip":"10926","donors":1,"geo_score":0.714,"donations":10.0,"average":10.0,"id":"ag2louk0cycz","geo_precision":"zip"},"type":"Feature","geometry":{"type":"Point","coordinates":[-74.124934,41.300486]}},{"properties":{"zip":"10952","donors":1,"geo_score":0.714,"donations":4950.0,"average":4950.0,"id":"ag2lou9w4ujr","geo_precision":"zip"},"type":"Feature","geometry":{"type":"Point","coordinates":[-74.082365,41.136484]}},{"properties":{"zip":"11001","donors":3,"geo_score":0.714,"donations":650.0,"average":216.67,"id":"ag2louf1d0w2","geo_precision":"zip"},"type":"Feature","geometry":{"type":"Point","coordinates":[-73.706783,40.720051]}},{"properties":{"zip":"11004","donors":6,"geo_score":0.714,"donations":1250.0,"average":208.33,"id":"ag2lou55fjq7","geo_precision":"zip"},"type":"Feature","geometry":{"type":"Point","coordinates":[-73.711159,40.745263]}},{"properties":{"zip":"11005","donors":1,"geo_score":0.714,"donations":4950.0,"average":4950.0,"id":"ag2louhjhho9","geo_precision":"zip"},"type":"Feature","geometry":{"type":"Point","coordinates":[-73.7182,40.757057]}},{"properties":{"zip":"11021","donors":2,"geo_score":0.714,"donations":70.0,"average":35.0,"id":"ag2lou7txh2y","geo_precision":"zip"},"type":"Feature","geometry":{"type":"Point","coordinates":[-73.724576,40.781213]}},{"properties":{"zip":"11024","donors":1,"geo_score":0.714,"donations":250.0,"average":250.0,"id":"ag2louftlji3","geo_precision":"zip"},"type":"Feature","geometry":{"type":"Point","coordinates":[-73.735132,40.819823]}},{"properties":{"zip":"11030","donors":10,"geo_score":0.714,"donations":5600.0,"average":560.0,"id":"ag2loubm7dqp","geo_precision":"zip"},"type":"Feature","geometry":{"type":"Point","coordinates":[-73.679852,40.798712]}},{"properties":{"zip":"11040","donors":13,"geo_score":0.714,"donations":2336.0,"average":179.69,"id":"ag2loug77x0a","geo_precision":"zip"},"type":"Feature","geometry":{"type":"Point","coordinates":[-73.66263,40.740935]}},{"properties":{"zip":"11042","donors":1,"geo_score":0.714,"donations":4950.0,"average":4950.0,"id":"ag2loujx492n","geo_precision":"zip"},"type":"Feature","geometry":{"type":"Point","coordinates":[-73.601772,40.754757]}},{"properties":{"zip":"11050","donors":2,"geo_score":0.714,"donations":510.0,"average":255.0,"id":"ag2louj7mb6s","geo_precision":"zip"},"type":"Feature","geometry":{"type":"Point","coordinates":[-73.695408,40.834823]}},{"properties":{"zip":"11101","donors":6,"geo_score":0.714,"donations":2780.0,"average":463.33,"id":"ag2louhl68lv","geo_precision":"zip"},"type":"Feature","geometry":{"type":"Point","coordinates":[-73.934502,40.744622]}},{"properties":{"zip":"11102","donors":3,"geo_score":0.714,"donations":325.0,"average":108.33,"id":"ag2lou8qi040","geo_precision":"zip"},"type":"Feature","geometry":{"type":"Point","coordinates":[-73.92516,40.770808]}},{"properties":{"zip":"11103","donors":5,"geo_score":0.714,"donations":175.0,"average":35.0,"id":"ag2lou5u841k","geo_precision":"zip"},"type":"Feature","geometry":{"type":"Point","coordinates":[-73.903748,40.774546]}},{"properties":{"zip":"11104","donors":4,"geo_score":0.714,"donations":105.0,"average":26.25,"id":"ag2louamfbec","geo_precision":"zip"},"type":"Feature","geometry":{"type":"Point","coordinates":[-73.918216,40.742794]}},{"properties":{"zip":"11106","donors":5,"geo_score":0.714,"donations":545.0,"average":109.0,"id":"ag2loud226ph","geo_precision":"zip"},"type":"Feature","geometry":{"type":"Point","coordinates":[-73.930984,40.760601]}},{"properties":{"zip":"11107","donors":1,"geo_score":0.714,"donations":2000.0,"average":2000.0,"id":"ag2loubll2n5","geo_precision":"zip"},"type":"Feature","geometry":{"type":"Point","coordinates":[-73.948749,40.744824]}},{"properties":{"zip":"11109","donors":1,"geo_score":0.714,"donations":500.0,"average":500.0,"id":"ag2louirzf54","geo_precision":"zip"},"type":"Feature","geometry":{"type":"Point","coordinates":[-73.870779,40.651378]}},{"properties":{"zip":"11201","donors":16,"geo_score":0.714,"donations":7790.0,"average":486.88,"id":"ag2lou9ajf03","geo_precision":"zip"},"type":"Feature","geometry":{"type":"Point","coordinates":[-73.989319,40.694481]}},{"properties":{"zip":"11203","donors":1,"geo_score":0.714,"donations":175.0,"average":175.0,"id":"ag2loujwglkb","geo_precision":"zip"},"type":"Feature","geometry":{"type":"Point","coordinates":[-73.949389,40.663551]}},{"properties":{"zip":"11204","donors":9,"geo_score":0.714,"donations":11850.0,"average":1316.67,"id":"ag2loukw7yr5","geo_precision":"zip"},"type":"Feature","geometry":{"type":"Point","coordinates":[-73.978472,40.63316]}},{"properties":{"zip":"11205","donors":1,"geo_score":0.714,"donations":75.0,"average":75.0,"id":"ag2loudc5gzk","geo_precision":"zip"},"type":"Feature","geometry":{"type":"Point","coordinates":[-73.936274,40.682507]}},{"properties":{"zip":"11206","donors":3,"geo_score":0.714,"donations":22.01,"average":7.34,"id":"ag2louab0f0m","geo_precision":"zip"},"type":"Feature","geometry":{"type":"Point","coordinates":[-73.949255,40.700453]}},{"properties":{"zip":"11207","donors":2,"geo_score":0.714,"donations":85.0,"average":42.5,"id":"ag2loug69sfk","geo_precision":"zip"},"type":"Feature","geometry":{"type":"Point","coordinates":[-73.882358,40.66677]}},{"properties":{"zip":"11208","donors":6,"geo_score":0.714,"donations":570.0,"average":95.0,"id":"ag2louiqqdrr","geo_precision":"zip"},"type":"Feature","geometry":{"type":"Point","coordinates":[-73.912945,40.662195]}},{"properties":{"zip":"11209","donors":15,"geo_score":0.714,"donations":820.0,"average":54.67,"id":"ag2louecxdsi","geo_precision":"zip"},"type":"Feature","geometry":{"type":"Point","coordinates":[-74.033196,40.618715]}},{"properties":{"zip":"11210","donors":24,"geo_score":0.714,"donations":4522.0,"average":188.42,"id":"ag2loubqxhvo","geo_precision":"zip"},"type":"Feature","geometry":{"type":"Point","coordinates":[-73.945521,40.625468]}},{"properties":{"zip":"11211","donors":5,"geo_score":0.714,"donations":550.0,"average":110.0,"id":"ag2loufbw7gp","geo_precision":"zip"},"type":"Feature","geometry":{"type":"Point","coordinates":[-73.953471,40.714269]}},{"properties":{"zip":"11212","donors":2,"geo_score":0.714,"donations":450.0,"average":225.0,"id":"ag2louidq5uh","geo_precision":"zip"},"type":"Feature","geometry":{"type":"Point","coordinates":[-73.920137,40.660937]}},{"properties":{"zip":"11213","donors":1,"geo_score":0.714,"donations":25.0,"average":25.0,"id":"ag2lou919dzn","geo_precision":"zip"},"type":"Feature","geometry":{"type":"Point","coordinates":[-73.936055,40.67317]}},{"properties":{"zip":"11214","donors":11,"geo_score":0.714,"donations":4780.0,"average":434.55,"id":"ag2loue29rv4","geo_precision":"zip"},"type":"Feature","geometry":{"type":"Point","coordinates":[-74.004306,40.604549]}},{"properties":{"zip":"11215","donors":29,"geo_score":0.714,"donations":3245.0,"average":111.9,"id":"ag2loua9hi4e","geo_precision":"zip"},"type":"Feature","geometry":{"type":"Point","coordinates":[-73.985972,40.670103]}},{"properties":{"zip":"11216","donors":1,"geo_score":0.714,"donations":100.0,"average":100.0,"id":"ag2louayn3vx","geo_precision":"zip"},"type":"Feature","geometry":{"type":"Point","coordinates":[-73.946829,40.680474]}},{"properties":{"zip":"11217","donors":5,"geo_score":0.714,"donations":320.0,"average":64.0,"id":"ag2louey4uc0","geo_precision":"zip"},"type":"Feature","geometry":{"type":"Point","coordinates":[-73.980613,40.684948]}},{"properties":{"zip":"11218","donors":9,"geo_score":0.714,"donations":1130.0,"average":125.56,"id":"ag2lou7lu25d","geo_precision":"zip"},"type":"Feature","geometry":{"type":"Point","coordinates":[-73.970694,40.646215]}},{"properties":{"zip":"11219","donors":13,"geo_score":0.714,"donations":2410.0,"average":185.38,"id":"ag2lou5066w6","geo_precision":"zip"},"type":"Feature","geometry":{"type":"Point","coordinates":[-73.996953,40.633157]}},{"properties":{"zip":"11220","donors":2,"geo_score":0.714,"donations":210.0,"average":105.0,"id":"ag2lougz9vx9","geo_precision":"zip"},"type":"Feature","geometry":{"type":"Point","coordinates":[-74.014584,40.633993]}},{"properties":{"zip":"11222","donors":2,"geo_score":0.714,"donations":120.0,"average":60.0,"id":"ag2loudwwb5n","geo_precision":"zip"},"type":"Feature","geometry":{"type":"Point","coordinates":[-73.950971,40.723713]}},{"properties":{"zip":"11223","donors":23,"geo_score":0.714,"donations":36740.0,"average":1597.39,"id":"ag2loukheadx","geo_precision":"zip"},"type":"Feature","geometry":{"type":"Point","coordinates":[-73.965138,40.597605]}},{"properties":{"zip":"11224","donors":8,"geo_score":0.714,"donations":895.0,"average":111.88,"id":"ag2louix8h6z","geo_precision":"zip"},"type":"Feature","geometry":{"type":"Point","coordinates":[-73.994028,40.577883]}},{"properties":{"zip":"11225","donors":4,"geo_score":0.714,"donations":425.0,"average":106.25,"id":"ag2loukubhwz","geo_precision":"zip"},"type":"Feature","geometry":{"type":"Point","coordinates":[-73.952295,40.661096]}},{"properties":{"zip":"11226","donors":6,"geo_score":0.714,"donations":1110.0,"average":185.0,"id":"ag2lou9zk36u","geo_precision":"zip"},"type":"Feature","geometry":{"type":"Point","coordinates":[-73.959027,40.652048]}},{"properties":{"zip":"11228","donors":7,"geo_score":0.714,"donations":1600.0,"average":228.57,"id":"ag2loucpuwl1","geo_precision":"zip"},"type":"Feature","geometry":{"type":"Point","coordinates":[-74.009584,40.621493]}},{"properties":{"zip":"11229","donors":21,"geo_score":0.714,"donations":4635.0,"average":220.71,"id":"ag2lou93dmel","geo_precision":"zip"},"type":"Feature","geometry":{"type":"Point","coordinates":[-73.939998,40.600988]}},{"properties":{"zip":"11230","donors":21,"geo_score":0.714,"donations":9265.0,"average":441.19,"id":"ag2loukp7o3y","geo_precision":"zip"},"type":"Feature","geometry":{"type":"Point","coordinates":[-73.966109,40.62251]}},{"properties":{"zip":"11231","donors":9,"geo_score":0.714,"donations":960.0,"average":106.67,"id":"ag2lou54fj0k","geo_precision":"zip"},"type":"Feature","geometry":{"type":"Point","coordinates":[-74.009584,40.675103]}},{"properties":{"zip":"11232","donors":1,"geo_score":0.714,"donations":75.0,"average":75.0,"id":"ag2louet1uwp","geo_precision":"zip"},"type":"Feature","geometry":{"type":"Point","coordinates":[-73.971708,40.671186]}},{"properties":{"zip":"11233","donors":6,"geo_score":0.714,"donations":175.0,"average":29.17,"id":"ag2loujn4iga","geo_precision":"zip"},"type":"Feature","geometry":{"type":"Point","coordinates":[-73.941249,40.683436]}},{"properties":{"zip":"11234","donors":20,"geo_score":0.714,"donations":13350.0,"average":667.5,"id":"ag2louey4e3x","geo_precision":"zip"},"type":"Feature","geometry":{"type":"Point","coordinates":[-73.913892,40.610947]}},{"properties":{"zip":"11235","donors":40,"geo_score":0.714,"donations":13585.0,"average":339.63,"id":"ag2louao7hfh","geo_precision":"zip"},"type":"Feature","geometry":{"type":"Point","coordinates":[-73.948402,40.584455]}},{"properties":{"zip":"11236","donors":2,"geo_score":0.714,"donations":220.0,"average":110.0,"id":"ag2lou7t7g2x","geo_precision":"zip"},"type":"Feature","geometry":{"type":"Point","coordinates":[-73.900692,40.643715]}},{"properties":{"zip":"11237","donors":4,"geo_score":0.714,"donations":2935.0,"average":733.75,"id":"ag2lougfxneo","geo_precision":"zip"},"type":"Feature","geometry":{"type":"Point","coordinates":[-73.91807,40.702192]}},{"properties":{"zip":"11238","donors":8,"geo_score":0.714,"donations":2345.0,"average":293.13,"id":"ag2louc6vloc","geo_precision":"zip"},"type":"Feature","geometry":{"type":"Point","coordinates":[-73.964583,40.680936]}},{"properties":{"zip":"11242","donors":1,"geo_score":0.714,"donations":400.0,"average":400.0,"id":"ag2louh7m6sg","geo_precision":"zip"},"type":"Feature","geometry":{"type":"Point","coordinates":[-73.945032,40.645099]}},{"properties":{"zip":"11249","donors":1,"geo_score":0.714,"donations":250.0,"average":250.0,"id":"ag2lou6thxks","geo_precision":"zip"},"type":"Feature","geometry":{"type":"Point","coordinates":[-73.945032,40.645099]}},{"properties":{"zip":"11354","donors":4,"geo_score":0.714,"donations":850.0,"average":212.5,"id":"ag2louduqsu9","geo_precision":"zip"},"type":"Feature","geometry":{"type":"Point","coordinates":[-73.923471,40.715658]}},{"properties":{"zip":"11355","donors":11,"geo_score":0.714,"donations":4905.0,"average":445.91,"id":"ag2loubjkz3t","geo_precision":"zip"},"type":"Feature","geometry":{"type":"Point","coordinates":[-73.813903,40.750317]}},{"properties":{"zip":"11357","donors":2,"geo_score":0.714,"donations":5950.0,"average":2975.0,"id":"ag2louc7ofrv","geo_precision":"zip"},"type":"Feature","geometry":{"type":"Point","coordinates":[-73.819069,40.786173]}},{"properties":{"zip":"11358","donors":4,"geo_score":0.714,"donations":800.0,"average":200.0,"id":"ag2lou877g40","geo_precision":"zip"},"type":"Feature","geometry":{"type":"Point","coordinates":[-73.795788,40.760426]}},{"properties":{"zip":"11360","donors":2,"geo_score":0.714,"donations":40.0,"average":20.0,"id":"ag2louitm31o","geo_precision":"zip"},"type":"Feature","geometry":{"type":"Point","coordinates":[-73.803301,40.756745]}},{"properties":{"zip":"11361","donors":1,"geo_score":0.714,"donations":25.0,"average":25.0,"id":"ag2lou8gpe7m","geo_precision":"zip"},"type":"Feature","geometry":{"type":"Point","coordinates":[-73.773026,40.764438]}},{"properties":{"zip":"11362","donors":1,"geo_score":0.714,"donations":35.0,"average":35.0,"id":"ag2lou8tteel","geo_precision":"zip"},"type":"Feature","geometry":{"type":"Point","coordinates":[-73.735759,40.758364]}},{"properties":{"zip":"11363","donors":2,"geo_score":0.714,"donations":550.0,"average":275.0,"id":"ag2lougl3edc","geo_precision":"zip"},"type":"Feature","geometry":{"type":"Point","coordinates":[-73.745323,40.771467]}},{"properties":{"zip":"11364","donors":8,"geo_score":0.714,"donations":3145.0,"average":393.13,"id":"ag2loukdc0ou","geo_precision":"zip"},"type":"Feature","geometry":{"type":"Point","coordinates":[-73.758831,40.742772]}},{"properties":{"zip":"11365","donors":20,"geo_score":0.714,"donations":1905.0,"average":95.25,"id":"ag2lou7p2peg","geo_precision":"zip"},"type":"Feature","geometry":{"type":"Point","coordinates":[-73.790067,40.738884]}},{"properties":{"zip":"11366","donors":2,"geo_score":0.714,"donations":20.0,"average":10.0,"id":"ag2loufv7wqy","geo_precision":"zip"},"type":"Feature","geometry":{"type":"Point","coordinates":[-73.790772,40.727277]}},{"properties":{"zip":"11367","donors":10,"geo_score":0.714,"donations":1935.0,"average":193.5,"id":"ag2loujnenke","geo_precision":"zip"},"type":"Feature","geometry":{"type":"Point","coordinates":[-73.821997,40.730164]}},{"properties":{"zip":"11368","donors":1,"geo_score":0.714,"donations":20.0,"average":20.0,"id":"ag2lou5ea03j","geo_precision":"zip"},"type":"Feature","geometry":{"type":"Point","coordinates":[-73.854333,40.748751]}},{"properties":{"zip":"11370","donors":5,"geo_score":0.714,"donations":1110.0,"average":222.0,"id":"ag2loukdxar2","geo_precision":"zip"},"type":"Feature","geometry":{"type":"Point","coordinates":[-73.891451,40.763771]}},{"properties":{"zip":"11372","donors":10,"geo_score":0.714,"donations":595.0,"average":59.5,"id":"ag2louk3pimb","geo_precision":"zip"},"type":"Feature","geometry":{"type":"Point","coordinates":[-73.882508,40.751146]}},{"properties":{"zip":"11373","donors":11,"geo_score":0.714,"donations":1205.0,"average":109.55,"id":"ag2lou9kp16p","geo_precision":"zip"},"type":"Feature","geometry":{"type":"Point","coordinates":[-73.877562,40.73509]}},{"properties":{"zip":"11374","donors":13,"geo_score":0.714,"donations":980.0,"average":75.38,"id":"ag2lou9veoya","geo_precision":"zip"},"type":"Feature","geometry":{"type":"Point","coordinates":[-73.862069,40.722861]}},{"properties":{"zip":"11375","donors":32,"geo_score":0.714,"donations":6610.0,"average":206.56,"id":"ag2louhqyh9h","geo_precision":"zip"},"type":"Feature","geometry":{"type":"Point","coordinates":[-73.850969,40.710658]}},{"properties":{"zip":"11377","donors":7,"geo_score":0.714,"donations":735.0,"average":105.0,"id":"ag2lou6o6jco","geo_precision":"zip"},"type":"Feature","geometry":{"type":"Point","coordinates":[-73.905445,40.748372]}},{"properties":{"zip":"11378","donors":2,"geo_score":0.714,"donations":275.0,"average":137.5,"id":"ag2loua7ks45","geo_precision":"zip"},"type":"Feature","geometry":{"type":"Point","coordinates":[-73.908413,40.722848]}},{"properties":{"zip":"11379","donors":4,"geo_score":0.714,"donations":550.0,"average":137.5,"id":"ag2loug60row","geo_precision":"zip"},"type":"Feature","geometry":{"type":"Point","coordinates":[-73.892791,40.71924]}},{"properties":{"zip":"11385","donors":7,"geo_score":0.714,"donations":620.0,"average":88.57,"id":"ag2louh8je8m","geo_precision":"zip"},"type":"Feature","geometry":{"type":"Point","coordinates":[-73.90347,40.707047]}},{"properties":{"zip":"11413","donors":4,"geo_score":0.714,"donations":600.0,"average":150.0,"id":"ag2louhbypvk","geo_precision":"zip"},"type":"Feature","geometry":{"type":"Point","coordinates":[-73.755926,40.664542]}},{"properties":{"zip":"11414","donors":6,"geo_score":0.714,"donations":810.0,"average":135.0,"id":"ag2lougzhnan","geo_precision":"zip"},"type":"Feature","geometry":{"type":"Point","coordinates":[-73.84382,40.658825]}},{"properties":{"zip":"11415","donors":3,"geo_score":0.714,"donations":250.0,"average":83.33,"id":"ag2lou5hobpr","geo_precision":"zip"},"type":"Feature","geometry":{"type":"Point","coordinates":[-73.829247,40.707133]}},{"properties":{"zip":"11416","donors":2,"geo_score":0.714,"donations":60.0,"average":30.0,"id":"ag2lougecvcj","geo_precision":"zip"},"type":"Feature","geometry":{"type":"Point","coordinates":[-73.850708,40.684546]}},{"properties":{"zip":"11418","donors":4,"geo_score":0.714,"donations":530.0,"average":132.5,"id":"ag2lou621m3t","geo_precision":"zip"},"type":"Feature","geometry":{"type":"Point","coordinates":[-73.83127,40.698566]}},{"properties":{"zip":"11419","donors":10,"geo_score":0.714,"donations":4070.0,"average":407.0,"id":"ag2loujhxkyl","geo_precision":"zip"},"type":"Feature","geometry":{"type":"Point","coordinates":[-73.822979,40.686769]}},{"properties":{"zip":"11420","donors":2,"geo_score":0.714,"donations":500.0,"average":250.0,"id":"ag2louhpkjaj","geo_precision":"zip"},"type":"Feature","geometry":{"type":"Point","coordinates":[-73.819013,40.674432]}},{"properties":{"zip":"11421","donors":5,"geo_score":0.714,"donations":420.0,"average":84.0,"id":"ag2loubthpy2","geo_precision":"zip"},"type":"Feature","geometry":{"type":"Point","coordinates":[-73.85666,40.691917]}},{"properties":{"zip":"11422","donors":1,"geo_score":0.714,"donations":500.0,"average":500.0,"id":"ag2loucrlmk0","geo_precision":"zip"},"type":"Feature","geometry":{"type":"Point","coordinates":[-73.736866,40.659418]}},{"properties":{"zip":"11423","donors":3,"geo_score":0.714,"donations":335.0,"average":111.67,"id":"ag2lou9mwts3","geo_precision":"zip"},"type":"Feature","geometry":{"type":"Point","coordinates":[-73.766897,40.716888]}},{"properties":{"zip":"11426","donors":4,"geo_score":0.714,"donations":800.0,"average":200.0,"id":"ag2louifu953","geo_precision":"zip"},"type":"Feature","geometry":{"type":"Point","coordinates":[-73.725965,40.720658]}},{"properties":{"zip":"11427","donors":4,"geo_score":0.714,"donations":270.0,"average":67.5,"id":"ag2louha31tq","geo_precision":"zip"},"type":"Feature","geometry":{"type":"Point","coordinates":[-73.749811,40.729293]}},{"properties":{"zip":"11428","donors":4,"geo_score":0.714,"donations":333.32,"average":83.33,"id":"ag2louiadmts","geo_precision":"zip"},"type":"Feature","geometry":{"type":"Point","coordinates":[-73.742099,40.720639]}},{"properties":{"zip":"11429","donors":3,"geo_score":0.714,"donations":575.0,"average":191.67,"id":"ag2loud80p0n","geo_precision":"zip"},"type":"Feature","geometry":{"type":"Point","coordinates":[-73.740151,40.710076]}},{"properties":{"zip":"11432","donors":8,"geo_score":0.714,"donations":1410.0,"average":176.25,"id":"ag2lou9v0t7p","geo_precision":"zip"},"type":"Feature","geometry":{"type":"Point","coordinates":[-73.794435,40.714531]}},{"properties":{"zip":"11433","donors":2,"geo_score":0.714,"donations":90.0,"average":45.0,"id":"ag2louelbzit","geo_precision":"zip"},"type":"Feature","geometry":{"type":"Point","coordinates":[-73.786776,40.696533]}},{"properties":{"zip":"11434","donors":3,"geo_score":0.714,"donations":170.0,"average":56.67,"id":"ag2loudrxhm3","geo_precision":"zip"},"type":"Feature","geometry":{"type":"Point","coordinates":[-73.78156,40.674583]}},{"properties":{"zip":"11435","donors":6,"geo_score":0.714,"donations":1105.0,"average":184.17,"id":"ag2lou7ylhfc","geo_precision":"zip"},"type":"Feature","geometry":{"type":"Point","coordinates":[-73.797278,40.700229]}},{"properties":{"zip":"11436","donors":1,"geo_score":0.714,"donations":175.0,"average":175.0,"id":"ag2lou5hvkze","geo_precision":"zip"},"type":"Feature","geometry":{"type":"Point","coordinates":[-73.800696,40.675283]}},{"properties":{"zip":"11507","donors":1,"geo_score":0.714,"donations":100.0,"average":100.0,"id":"ag2loujein1u","geo_precision":"zip"},"type":"Feature","geometry":{"type":"Point","coordinates":[-73.601772,40.754757]}},{"properties":{"zip":"11516","donors":5,"geo_score":0.714,"donations":7525.0,"average":1505.0,"id":"ag2loub6x61p","geo_precision":"zip"},"type":"Feature","geometry":{"type":"Point","coordinates":[-73.725825,40.626453]}},{"properties":{"zip":"11530","donors":1,"geo_score":0.714,"donations":1000.0,"average":1000.0,"id":"ag2lou61y243","geo_precision":"zip"},"type":"Feature","geometry":{"type":"Point","coordinates":[-73.688464,40.719269]}},{"properties":{"zip":"11545","donors":3,"geo_score":0.714,"donations":7950.0,"average":2650.0,"id":"ag2loudfnltl","geo_precision":"zip"},"type":"Feature","geometry":{"type":"Point","coordinates":[-73.601772,40.754757]}},{"properties":{"zip":"11552","donors":1,"geo_score":0.714,"donations":50.0,"average":50.0,"id":"ag2louh1e8f8","geo_precision":"zip"},"type":"Feature","geometry":{"type":"Point","coordinates":[-73.645129,40.696491]}},{"properties":{"zip":"11554","donors":4,"geo_score":0.714,"donations":750.0,"average":187.5,"id":"ag2louenjl3b","geo_precision":"zip"},"type":"Feature","geometry":{"type":"Point","coordinates":[-73.55877,40.72135]}},{"properties":{"zip":"11557","donors":5,"geo_score":0.714,"donations":8100.0,"average":1620.0,"id":"ag2loujcyghd","geo_precision":"zip"},"type":"Feature","geometry":{"type":"Point","coordinates":[-73.695409,40.633159]}},{"properties":{"zip":"11559","donors":1,"geo_score":0.714,"donations":1000.0,"average":1000.0,"id":"ag2louijhdmk","geo_precision":"zip"},"type":"Feature","geometry":{"type":"Point","coordinates":[-73.72642,40.615435]}},{"properties":{"zip":"11561","donors":1,"geo_score":0.714,"donations":35.0,"average":35.0,"id":"ag2loubnh2s4","geo_precision":"zip"},"type":"Feature","geometry":{"type":"Point","coordinates":[-73.642323,40.589139]}},{"properties":{"zip":"11563","donors":1,"geo_score":0.714,"donations":50.0,"average":50.0,"id":"ag2lou6xhvsb","geo_precision":"zip"},"type":"Feature","geometry":{"type":"Point","coordinates":[-73.664575,40.602326]}},{"properties":{"zip":"11568","donors":4,"geo_score":0.714,"donations":7950.0,"average":1987.5,"id":"ag2lou6iudat","geo_precision":"zip"},"type":"Feature","geometry":{"type":"Point","coordinates":[-73.601772,40.754757]}},{"properties":{"zip":"11570","donors":3,"geo_score":0.714,"donations":510.0,"average":170.0,"id":"ag2louhff97f","geo_precision":"zip"},"type":"Feature","geometry":{"type":"Point","coordinates":[-73.638523,40.667352]}},{"properties":{"zip":"11576","donors":3,"geo_score":0.714,"donations":900.0,"average":300.0,"id":"ag2lou80prim","geo_precision":"zip"},"type":"Feature","geometry":{"type":"Point","coordinates":[-73.637073,40.816489]}},{"properties":{"zip":"11577","donors":1,"geo_score":0.714,"donations":250.0,"average":250.0,"id":"ag2lougzy4ng","geo_precision":"zip"},"type":"Feature","geometry":{"type":"Point","coordinates":[-73.601772,40.754757]}},{"properties":{"zip":"11581","donors":1,"geo_score":0.714,"donations":150.0,"average":150.0,"id":"ag2lougohj51","geo_precision":"zip"},"type":"Feature","geometry":{"type":"Point","coordinates":[-73.711775,40.652253]}},{"properties":{"zip":"11590","donors":3,"geo_score":0.714,"donations":170.0,"average":56.67,"id":"ag2lou4j1qcc","geo_precision":"zip"},"type":"Feature","geometry":{"type":"Point","coordinates":[-73.560127,40.745656]}},{"properties":{"zip":"11596","donors":3,"geo_score":0.714,"donations":400.0,"average":133.33,"id":"ag2lou9903y5","geo_precision":"zip"},"type":"Feature","geometry":{"type":"Point","coordinates":[-73.634851,40.758434]}},{"properties":{"zip":"11598","donors":1,"geo_score":0.714,"donations":250.0,"average":250.0,"id":"ag2loui41ygk","geo_precision":"zip"},"type":"Feature","geometry":{"type":"Point","coordinates":[-73.712025,40.633103]}},{"properties":{"zip":"11691","donors":7,"geo_score":0.714,"donations":500.0,"average":71.43,"id":"ag2loud3hmv0","geo_precision":"zip"},"type":"Feature","geometry":{"type":"Point","coordinates":[-73.76191,40.601475]}},{"properties":{"zip":"11692","donors":1,"geo_score":0.714,"donations":175.0,"average":175.0,"id":"ag2louar60vl","geo_precision":"zip"},"type":"Feature","geometry":{"type":"Point","coordinates":[-73.793273,40.5923]}},{"properties":{"zip":"11694","donors":6,"geo_score":0.714,"donations":1460.0,"average":243.33,"id":"ag2lougwd847","geo_precision":"zip"},"type":"Feature","geometry":{"type":"Point","coordinates":[-73.84276,40.57661]}},{"properties":{"zip":"11702","donors":1,"geo_score":0.714,"donations":175.0,"average":175.0,"id":"ag2loudvjiln","geo_precision":"zip"},"type":"Feature","geometry":{"type":"Point","coordinates":[-73.288452,40.639267]}},{"properties":{"zip":"11704","donors":1,"geo_score":0.714,"donations":100.0,"average":100.0,"id":"ag2louhpefa6","geo_precision":"zip"},"type":"Feature","geometry":{"type":"Point","coordinates":[-73.356164,40.709098]}},{"properties":{"zip":"11706","donors":1,"geo_score":0.714,"donations":10.0,"average":10.0,"id":"ag2loucyzh72","geo_precision":"zip"},"type":"Feature","geometry":{"type":"Point","coordinates":[-73.140114,40.648711]}},{"properties":{"zip":"11710","donors":1,"geo_score":0.714,"donations":175.0,"average":175.0,"id":"ag2loub4q9wt","geo_precision":"zip"},"type":"Feature","geometry":{"type":"Point","coordinates":[-73.53652,40.6729]}},{"properties":{"zip":"11715","donors":1,"geo_score":0.714,"donations":100.0,"average":100.0,"id":"ag2loukesa5z","geo_precision":"zip"},"type":"Feature","geometry":{"type":"Point","coordinates":[-73.043481,40.75673]}},{"properties":{"zip":"11722","donors":1,"geo_score":0.714,"donations":250.0,"average":250.0,"id":"ag2lou8313eh","geo_precision":"zip"},"type":"Feature","geometry":{"type":"Point","coordinates":[-73.196148,40.78193]}},{"properties":{"zip":"11725","donors":1,"geo_score":0.714,"donations":500.0,"average":500.0,"id":"ag2lou8gvm21","geo_precision":"zip"},"type":"Feature","geometry":{"type":"Point","coordinates":[-73.280935,40.842247]}},{"properties":{"zip":"11729","donors":2,"geo_score":0.714,"donations":55.0,"average":27.5,"id":"ag2lou9563ix","geo_precision":"zip"},"type":"Feature","geometry":{"type":"Point","coordinates":[-73.343175,40.776488]}},{"properties":{"zip":"11731","donors":1,"geo_score":0.714,"donations":500.0,"average":500.0,"id":"ag2lou9px8b5","geo_precision":"zip"},"type":"Feature","geometry":{"type":"Point","coordinates":[-73.329006,40.899542]}},{"properties":{"zip":"11740","donors":1,"geo_score":0.714,"donations":500.0,"average":500.0,"id":"ag2louesn5do","geo_precision":"zip"},"type":"Feature","geometry":{"type":"Point","coordinates":[-73.362512,40.866948]}},{"properties":{"zip":"11743","donors":2,"geo_score":0.714,"donations":335.0,"average":167.5,"id":"ag2lou9qtzty","geo_precision":"zip"},"type":"Feature","geometry":{"type":"Point","coordinates":[-73.415398,40.888432]}},{"properties":{"zip":"11746","donors":2,"geo_score":0.714,"donations":3500.0,"average":1750.0,"id":"ag2loucuhm5x","geo_precision":"zip"},"type":"Feature","geometry":{"type":"Point","coordinates":[-73.398731,40.82371]}},{"properties":{"zip":"11747","donors":1,"geo_score":0.714,"donations":4950.0,"average":4950.0,"id":"ag2louh9pdix","geo_precision":"zip"},"type":"Feature","geometry":{"type":"Point","coordinates":[-73.405573,40.787248]}},{"properties":{"zip":"11753","donors":3,"geo_score":0.714,"donations":3000.0,"average":1000.0,"id":"ag2loua29ruv","geo_precision":"zip"},"type":"Feature","geometry":{"type":"Point","coordinates":[-73.601772,40.754757]}},{"properties":{"zip":"11757","donors":1,"geo_score":0.714,"donations":50.0,"average":50.0,"id":"ag2louisint2","geo_precision":"zip"},"type":"Feature","geometry":{"type":"Point","coordinates":[-73.38151,40.714266]}},{"properties":{"zip":"11768","donors":1,"geo_score":0.714,"donations":2500.0,"average":2500.0,"id":"ag2lou4sjmm3","geo_precision":"zip"},"type":"Feature","geometry":{"type":"Point","coordinates":[-73.401507,40.930654]}},{"properties":{"zip":"11787","donors":2,"geo_score":0.714,"donations":3000.0,"average":1500.0,"id":"ag2loucwogjq","geo_precision":"zip"},"type":"Feature","geometry":{"type":"Point","coordinates":[-73.208278,40.856793]}},{"properties":{"zip":"11791","donors":4,"geo_score":0.714,"donations":500.0,"average":125.0,"id":"ag2louaf8pk9","geo_precision":"zip"},"type":"Feature","geometry":{"type":"Point","coordinates":[-73.502068,40.810099]}},{"properties":{"zip":"11793","donors":2,"geo_score":0.714,"donations":350.0,"average":175.0,"id":"ag2louc8a5g8","geo_precision":"zip"},"type":"Feature","geometry":{"type":"Point","coordinates":[-73.509519,40.67815]}},{"properties":{"zip":"11797","donors":3,"geo_score":0.714,"donations":1680.0,"average":560.0,"id":"ag2loub72ki9","geo_precision":"zip"},"type":"Feature","geometry":{"type":"Point","coordinates":[-73.601772,40.754757]}},{"properties":{"zip":"11801","donors":3,"geo_score":0.714,"donations":600.0,"average":200.0,"id":"ag2loukimeww","geo_precision":"zip"},"type":"Feature","geometry":{"type":"Point","coordinates":[-73.601772,40.754757]}},{"properties":{"zip":"11804","donors":1,"geo_score":0.714,"donations":500.0,"average":500.0,"id":"ag2lou96k7mq","geo_precision":"zip"},"type":"Feature","geometry":{"type":"Point","coordinates":[-73.601772,40.754757]}},{"properties":{"zip":"11937","donors":2,"geo_score":0.714,"donations":135.0,"average":67.5,"id":"ag2lou6d0o03","geo_precision":"zip"},"type":"Feature","geometry":{"type":"Point","coordinates":[-72.222302,40.971211]}},{"properties":{"zip":"11951","donors":1,"geo_score":0.714,"donations":525.0,"average":525.0,"id":"ag2loubfz36j","geo_precision":"zip"},"type":"Feature","geometry":{"type":"Point","coordinates":[-72.637078,40.922326]}},{"properties":{"zip":"11962","donors":1,"geo_score":0.714,"donations":35.0,"average":35.0,"id":"ag2louc1qdom","geo_precision":"zip"},"type":"Feature","geometry":{"type":"Point","coordinates":[-72.637078,40.922326]}},{"properties":{"zip":"11968","donors":4,"geo_score":0.714,"donations":13325.0,"average":3331.25,"id":"ag2louderi7m","geo_precision":"zip"},"type":"Feature","geometry":{"type":"Point","coordinates":[-72.414252,40.932878]}},{"properties":{"zip":"12065","donors":1,"geo_score":0.714,"donations":250.0,"average":250.0,"id":"ag2loug8yq22","geo_precision":"zip"},"type":"Feature","geometry":{"type":"Point","coordinates":[-73.823733,42.910076]}},{"properties":{"zip":"12077","donors":1,"geo_score":0.714,"donations":50.0,"average":50.0,"id":"ag2louj4r1zm","geo_precision":"zip"},"type":"Feature","geometry":{"type":"Point","coordinates":[-73.787766,42.595704]}},{"properties":{"zip":"12165","donors":1,"geo_score":0.714,"donations":1000.0,"average":1000.0,"id":"ag2loukzugem","geo_precision":"zip"},"type":"Feature","geometry":{"type":"Point","coordinates":[-73.529774,42.331057]}},{"properties":{"zip":"12210","donors":1,"geo_score":0.714,"donations":35.0,"average":35.0,"id":"ag2lou8vp1e4","geo_precision":"zip"},"type":"Feature","geometry":{"type":"Point","coordinates":[-73.758115,42.683079]}},{"properties":{"zip":"12409","donors":1,"geo_score":0.714,"donations":10.0,"average":10.0,"id":"ag2loufohgz8","geo_precision":"zip"},"type":"Feature","geometry":{"type":"Point","coordinates":[-74.159309,42.06648]}},{"properties":{"zip":"12518","donors":1,"geo_score":0.714,"donations":100.0,"average":100.0,"id":"ag2loukuw7q8","geo_precision":"zip"},"type":"Feature","geometry":{"type":"Point","coordinates":[-74.135167,41.348593]}},{"properties":{"zip":"12534","donors":1,"geo_score":0.714,"donations":10.0,"average":10.0,"id":"ag2lou4rshud","geo_precision":"zip"},"type":"Feature","geometry":{"type":"Point","coordinates":[-73.768458,42.263698]}},{"properties":{"zip":"12582","donors":1,"geo_score":0.714,"donations":25.0,"average":25.0,"id":"ag2lou5jdsmt","geo_precision":"zip"},"type":"Feature","geometry":{"type":"Point","coordinates":[-73.72667,41.554509]}},{"properties":{"zip":"12590","donors":1,"geo_score":0.714,"donations":100.0,"average":100.0,"id":"ag2loufxh1tu","geo_precision":"zip"},"type":"Feature","geometry":{"type":"Point","coordinates":[-73.945138,41.588427]}},{"properties":{"zip":"12766","donors":1,"geo_score":0.714,"donations":25.0,"average":25.0,"id":"ag2lou7or8cs","geo_precision":"zip"},"type":"Feature","geometry":{"type":"Point","coordinates":[-74.995771,41.820897]}},{"properties":{"zip":"13224","donors":1,"geo_score":0.714,"donations":500.0,"average":500.0,"id":"ag2lou9os1a6","geo_precision":"zip"},"type":"Feature","geometry":{"type":"Point","coordinates":[-76.099394,43.038366]}},{"properties":{"zip":"13760","donors":1,"geo_score":0.714,"donations":25.0,"average":25.0,"id":"ag2lou4nerpb","geo_precision":"zip"},"type":"Feature","geometry":{"type":"Point","coordinates":[-76.148817,42.087575]}},{"properties":{"zip":"14203","donors":1,"geo_score":0.714,"donations":35.0,"average":35.0,"id":"ag2loua3ol5d","geo_precision":"zip"},"type":"Feature","geometry":{"type":"Point","coordinates":[-78.731418,42.734504]}},{"properties":{"zip":"14226","donors":1,"geo_score":0.714,"donations":1000.0,"average":1000.0,"id":"ag2louad3c3g","geo_precision":"zip"},"type":"Feature","geometry":{"type":"Point","coordinates":[-78.783922,42.963669]}},{"properties":{"zip":"14424","donors":1,"geo_score":0.714,"donations":10.0,"average":10.0,"id":"ag2loueept2e","geo_precision":"zip"},"type":"Feature","geometry":{"type":"Point","coordinates":[-77.221924,42.94312]}},{"properties":{"zip":"14513","donors":1,"geo_score":0.714,"donations":35.0,"average":35.0,"id":"ag2loui3rgiz","geo_precision":"zip"},"type":"Feature","geometry":{"type":"Point","coordinates":[-77.07914,43.117008]}},{"properties":{"zip":"14618","donors":1,"geo_score":0.714,"donations":10.0,"average":10.0,"id":"ag2louhbf31g","geo_precision":"zip"},"type":"Feature","geometry":{"type":"Point","coordinates":[-77.561771,43.112163]}},{"properties":{"zip":"15213","donors":1,"geo_score":0.714,"donations":10.0,"average":10.0,"id":"ag2louhi4fb8","geo_precision":"zip"},"type":"Feature","geometry":{"type":"Point","coordinates":[-79.980624,40.423069]}},{"properties":{"zip":"16057","donors":1,"geo_score":0.714,"donations":35.0,"average":35.0,"id":"ag2loudttg92","geo_precision":"zip"},"type":"Feature","geometry":{"type":"Point","coordinates":[-80.110615,41.04034]}},{"properties":{"zip":"17331","donors":1,"geo_score":0.714,"donations":10.0,"average":10.0,"id":"ag2loufiggca","geo_precision":"zip"},"type":"Feature","geometry":{"type":"Point","coordinates":[-76.973313,39.825099]}},{"properties":{"zip":"18091","donors":1,"geo_score":0.714,"donations":25.0,"average":25.0,"id":"ag2louefwu7m","geo_precision":"zip"},"type":"Feature","geometry":{"type":"Point","coordinates":[-75.310958,40.801131]}},{"properties":{"zip":"18848","donors":2,"geo_score":0.714,"donations":70.0,"average":35.0,"id":"ag2loueu9fvo","geo_precision":"zip"},"type":"Feature","geometry":{"type":"Point","coordinates":[-76.566335,41.782297]}},{"properties":{"zip":"19072","donors":1,"geo_score":0.714,"donations":1000.0,"average":1000.0,"id":"ag2loubuopzv","geo_precision":"zip"},"type":"Feature","geometry":{"type":"Point","coordinates":[-75.261293,40.018445]}},{"properties":{"zip":"19102","donors":1,"geo_score":0.714,"donations":4950.0,"average":4950.0,"id":"ag2louamz8xw","geo_precision":"zip"},"type":"Feature","geometry":{"type":"Point","coordinates":[-75.166472,39.952562]}},{"properties":{"zip":"19104","donors":1,"geo_score":0.714,"donations":10.0,"average":10.0,"id":"ag2loufbb1nf","geo_precision":"zip"},"type":"Feature","geometry":{"type":"Point","coordinates":[-75.19668,39.960912]}},{"properties":{"zip":"19355","donors":1,"geo_score":0.714,"donations":600.0,"average":600.0,"id":"ag2louaecc1t","geo_precision":"zip"},"type":"Feature","geometry":{"type":"Point","coordinates":[-75.507982,39.999831]}},{"properties":{"zip":"19971","donors":1,"geo_score":0.714,"donations":300.0,"average":300.0,"id":"ag2loujvrsav","geo_precision":"zip"},"type":"Feature","geometry":{"type":"Point","coordinates":[-75.084347,38.736223]}},{"properties":{"zip":"20001","donors":3,"geo_score":0.714,"donations":1150.0,"average":383.33,"id":"ag2lou8ddghv","geo_precision":"zip"},"type":"Feature","geometry":{"type":"Point","coordinates":[-77.011365,38.916778]}},{"properties":{"zip":"20002","donors":5,"geo_score":0.714,"donations":285.0,"average":57.0,"id":"ag2loucv27ai","geo_precision":"zip"},"type":"Feature","geometry":{"type":"Point","coordinates":[-76.982147,38.908218]}},{"properties":{"zip":"20003","donors":3,"geo_score":0.714,"donations":3500.0,"average":1166.67,"id":"ag2lou6rq0pi","geo_precision":"zip"},"type":"Feature","geometry":{"type":"Point","coordinates":[-76.988897,38.860315]}},{"properties":{"zip":"20005","donors":3,"geo_score":0.714,"donations":1135.0,"average":378.33,"id":"ag2lou7m8x70","geo_precision":"zip"},"type":"Feature","geometry":{"type":"Point","coordinates":[-77.031695,38.904011]}},{"properties":{"zip":"20007","donors":7,"geo_score":0.714,"donations":8960.0,"average":1280.0,"id":"ag2lou4izwbx","geo_precision":"zip"},"type":"Feature","geometry":{"type":"Point","coordinates":[-77.075649,38.914561]}},{"properties":{"zip":"20008","donors":3,"geo_score":0.714,"donations":1300.0,"average":433.33,"id":"ag2loukshhw0","geo_precision":"zip"},"type":"Feature","geometry":{"type":"Point","coordinates":[-77.065533,38.936222]}},{"properties":{"zip":"20009","donors":2,"geo_score":0.714,"donations":600.0,"average":300.0,"id":"ag2loufdnnx9","geo_precision":"zip"},"type":"Feature","geometry":{"type":"Point","coordinates":[-77.039798,38.919261]}},{"properties":{"zip":"20010","donors":1,"geo_score":0.714,"donations":10.0,"average":10.0,"id":"ag2louap2455","geo_precision":"zip"},"type":"Feature","geometry":{"type":"Point","coordinates":[-77.030248,38.932711]}},{"properties":{"zip":"20011","donors":3,"geo_score":0.714,"donations":570.0,"average":190.0,"id":"ag2loufyl5g2","geo_precision":"zip"},"type":"Feature","geometry":{"type":"Point","coordinates":[-77.027477,38.961222]}},{"properties":{"zip":"20012","donors":1,"geo_score":0.714,"donations":35.0,"average":35.0,"id":"ag2loufso3r3","geo_precision":"zip"},"type":"Feature","geometry":{"type":"Point","coordinates":[-77.026298,38.980231]}},{"properties":{"zip":"20016","donors":3,"geo_score":0.714,"donations":2968.0,"average":989.33,"id":"ag2loukxqeqk","geo_precision":"zip"},"type":"Feature","geometry":{"type":"Point","coordinates":[-77.091149,38.93826]}},{"properties":{"zip":"20194","donors":1,"geo_score":0.714,"donations":10.0,"average":10.0,"id":"ag2loukac98s","geo_precision":"zip"},"type":"Feature","geometry":{"type":"Point","coordinates":[-77.341878,38.980742]}},{"properties":{"zip":"20782","donors":1,"geo_score":0.714,"donations":50.0,"average":50.0,"id":"ag2louddghue","geo_precision":"zip"},"type":"Feature","geometry":{"type":"Point","coordinates":[-76.978587,38.967611]}},{"properties":{"zip":"20816","donors":1,"geo_score":0.714,"donations":250.0,"average":250.0,"id":"ag2lougohgil","geo_precision":"zip"},"type":"Feature","geometry":{"type":"Point","coordinates":[-77.13359,38.967333]}},{"properties":{"zip":"20852","donors":1,"geo_score":0.714,"donations":10.0,"average":10.0,"id":"ag2louaxll64","geo_precision":"zip"},"type":"Feature","geometry":{"type":"Point","coordinates":[-77.119424,39.062609]}},{"properties":{"zip":"20854","donors":1,"geo_score":0.714,"donations":1000.0,"average":1000.0,"id":"ag2loubzjshn","geo_precision":"zip"},"type":"Feature","geometry":{"type":"Point","coordinates":[-77.230536,39.013443]}},{"properties":{"zip":"20910","donors":2,"geo_score":0.714,"donations":50.0,"average":25.0,"id":"ag2lou9ywp1w","geo_precision":"zip"},"type":"Feature","geometry":{"type":"Point","coordinates":[-77.060533,39.022332]}},{"properties":{"zip":"21211","donors":1,"geo_score":0.714,"donations":35.0,"average":35.0,"id":"ag2loucnf6z3","geo_precision":"zip"},"type":"Feature","geometry":{"type":"Point","coordinates":[-76.649414,39.331773]}},{"properties":{"zip":"21244","donors":1,"geo_score":0.714,"donations":10.0,"average":10.0,"id":"ag2louik89s2","geo_precision":"zip"},"type":"Feature","geometry":{"type":"Point","coordinates":[-76.787474,39.356495]}},{"properties":{"zip":"21727","donors":1,"geo_score":0.714,"donations":35.0,"average":35.0,"id":"ag2loufr9x36","geo_precision":"zip"},"type":"Feature","geometry":{"type":"Point","coordinates":[-77.356098,39.676486]}},{"properties":{"zip":"21742","donors":1,"geo_score":0.714,"donations":20.0,"average":20.0,"id":"ag2loudqraib","geo_precision":"zip"},"type":"Feature","geometry":{"type":"Point","coordinates":[-77.652779,39.642995]}},{"properties":{"zip":"22041","donors":1,"geo_score":0.714,"donations":100.0,"average":100.0,"id":"ag2lou8sucq7","geo_precision":"zip"},"type":"Feature","geometry":{"type":"Point","coordinates":[-77.158869,38.838446]}},{"properties":{"zip":"22102","donors":1,"geo_score":0.714,"donations":4950.0,"average":4950.0,"id":"ag2lou94y7pz","geo_precision":"zip"},"type":"Feature","geometry":{"type":"Point","coordinates":[-77.229496,38.953033]}},{"properties":{"zip":"22202","donors":1,"geo_score":0.714,"donations":25.0,"average":25.0,"id":"ag2loud0ymsh","geo_precision":"zip"},"type":"Feature","geometry":{"type":"Point","coordinates":[-77.059721,38.854462]}},{"properties":{"zip":"22301","donors":1,"geo_score":0.714,"donations":35.0,"average":35.0,"id":"ag2lou75ccrr","geo_precision":"zip"},"type":"Feature","geometry":{"type":"Point","coordinates":[-77.079622,38.823062]}},{"properties":{"zip":"22306","donors":1,"geo_score":0.714,"donations":100.0,"average":100.0,"id":"ag2lou5lp8ez","geo_precision":"zip"},"type":"Feature","geometry":{"type":"Point","coordinates":[-77.066089,38.757336]}},{"properties":{"zip":"22310","donors":1,"geo_score":0.714,"donations":500.0,"average":500.0,"id":"ag2lou7zzq27","geo_precision":"zip"},"type":"Feature","geometry":{"type":"Point","coordinates":[-77.104701,38.789002]}},{"properties":{"zip":"23227","donors":1,"geo_score":0.714,"donations":25.0,"average":25.0,"id":"ag2loucvve6k","geo_precision":"zip"},"type":"Feature","geometry":{"type":"Point","coordinates":[-77.437483,37.633201]}},{"properties":{"zip":"27106","donors":1,"geo_score":0.714,"donations":2475.0,"average":2475.0,"id":"ag2louf0tujv","geo_precision":"zip"},"type":"Feature","geometry":{"type":"Point","coordinates":[-80.285329,36.125415]}},{"properties":{"zip":"27608","donors":1,"geo_score":0.714,"donations":500.0,"average":500.0,"id":"ag2louiw6ayz","geo_precision":"zip"},"type":"Feature","geometry":{"type":"Point","coordinates":[-78.758901,35.59599]}},{"properties":{"zip":"27613","donors":1,"geo_score":0.714,"donations":25.0,"average":25.0,"id":"ag2lou5gdecr","geo_precision":"zip"},"type":"Feature","geometry":{"type":"Point","coordinates":[-78.705465,35.86952]}},{"properties":{"zip":"27948","donors":1,"geo_score":0.714,"donations":35.0,"average":35.0,"id":"ag2louitz5f0","geo_precision":"zip"},"type":"Feature","geometry":{"type":"Point","coordinates":[-75.634892,35.772912]}},{"properties":{"zip":"28210","donors":1,"geo_score":0.714,"donations":10.0,"average":10.0,"id":"ag2lougx21eq","geo_precision":"zip"},"type":"Feature","geometry":{"type":"Point","coordinates":[-80.851319,35.156753]}},{"properties":{"zip":"28374","donors":1,"geo_score":0.714,"donations":35.0,"average":35.0,"id":"ag2loug4gkgn","geo_precision":"zip"},"type":"Feature","geometry":{"type":"Point","coordinates":[-79.485865,35.207656]}},{"properties":{"zip":"29063","donors":4,"geo_score":0.714,"donations":140.0,"average":35.0,"id":"ag2louf74u0n","geo_precision":"zip"},"type":"Feature","geometry":{"type":"Point","coordinates":[-81.131151,34.085949]}},{"properties":{"zip":"29401","donors":1,"geo_score":0.714,"donations":2475.0,"average":2475.0,"id":"ag2louigz4v8","geo_precision":"zip"},"type":"Feature","geometry":{"type":"Point","coordinates":[-79.940844,32.780326]}},{"properties":{"zip":"30327","donors":1,"geo_score":0.714,"donations":1000.0,"average":1000.0,"id":"ag2lou6s2klx","geo_precision":"zip"},"type":"Feature","geometry":{"type":"Point","coordinates":[-84.422028,33.863953]}},{"properties":{"zip":"30329","donors":1,"geo_score":0.714,"donations":50.0,"average":50.0,"id":"ag2louhwrcug","geo_precision":"zip"},"type":"Feature","geometry":{"type":"Point","coordinates":[-84.324874,33.826553]}},{"properties":{"zip":"30815","donors":1,"geo_score":0.714,"donations":10.0,"average":10.0,"id":"ag2louagzqsi","geo_precision":"zip"},"type":"Feature","geometry":{"type":"Point","coordinates":[-82.058032,33.32229]}},{"properties":{"zip":"31411","donors":1,"geo_score":0.714,"donations":25.0,"average":25.0,"id":"ag2loufgs4nc","geo_precision":"zip"},"type":"Feature","geometry":{"type":"Point","coordinates":[-81.045795,31.942645]}},{"properties":{"zip":"31602","donors":1,"geo_score":0.714,"donations":10.0,"average":10.0,"id":"ag2lou7v7gco","geo_precision":"zip"},"type":"Feature","geometry":{"type":"Point","coordinates":[-83.241263,30.933257]}},{"properties":{"zip":"32065","donors":1,"geo_score":0.714,"donations":10.0,"average":10.0,"id":"ag2loufyjpxy","geo_precision":"zip"},"type":"Feature","geometry":{"type":"Point","coordinates":[-81.883212,29.986046]}},{"properties":{"zip":"32086","donors":1,"geo_score":0.714,"donations":200.0,"average":200.0,"id":"ag2loue2d9ia","geo_precision":"zip"},"type":"Feature","geometry":{"type":"Point","coordinates":[-81.302246,29.775409]}},{"properties":{"zip":"32124","donors":2,"geo_score":0.714,"donations":20.0,"average":10.0,"id":"ag2louatcczx","geo_precision":"zip"},"type":"Feature","geometry":{"type":"Point","coordinates":[-81.140241,29.14192]}},{"properties":{"zip":"32308","donors":2,"geo_score":0.714,"donations":20.0,"average":10.0,"id":"ag2lougxe5ad","geo_precision":"zip"},"type":"Feature","geometry":{"type":"Point","coordinates":[-84.176286,30.557144]}},{"properties":{"zip":"32771","donors":1,"geo_score":0.714,"donations":175.0,"average":175.0,"id":"ag2lou89kyxp","geo_precision":"zip"},"type":"Feature","geometry":{"type":"Point","coordinates":[-81.254509,28.794993]}},{"properties":{"zip":"33040","donors":1,"geo_score":0.714,"donations":35.0,"average":35.0,"id":"ag2lou5fy5a9","geo_precision":"zip"},"type":"Feature","geometry":{"type":"Point","coordinates":[-81.738424,24.567091]}},{"properties":{"zip":"33062","donors":1,"geo_score":0.714,"donations":10.0,"average":10.0,"id":"ag2louhliqk5","geo_precision":"zip"},"type":"Feature","geometry":{"type":"Point","coordinates":[-80.144873,26.178661]}},{"properties":{"zip":"33132","donors":2,"geo_score":0.714,"donations":20.0,"average":10.0,"id":"ag2lou5r0ymw","geo_precision":"zip"},"type":"Feature","geometry":{"type":"Point","coordinates":[-80.17365,25.777024]}},{"properties":{"zip":"33134","donors":1,"geo_score":0.714,"donations":1000.0,"average":1000.0,"id":"ag2lou7pq69c","geo_precision":"zip"},"type":"Feature","geometry":{"type":"Point","coordinates":[-80.193659,25.774266]}},{"properties":{"zip":"33139","donors":1,"geo_score":0.714,"donations":4950.0,"average":4950.0,"id":"ag2loucy11sy","geo_precision":"zip"},"type":"Feature","geometry":{"type":"Point","coordinates":[-80.193659,25.774266]}},{"properties":{"zip":"33140","donors":1,"geo_score":0.714,"donations":1000.0,"average":1000.0,"id":"ag2lougeon04","geo_precision":"zip"},"type":"Feature","geometry":{"type":"Point","coordinates":[-80.131406,25.817701]}},{"properties":{"zip":"33143","donors":1,"geo_score":0.714,"donations":10.0,"average":10.0,"id":"ag2lou9bbsjk","geo_precision":"zip"},"type":"Feature","geometry":{"type":"Point","coordinates":[-80.325608,25.707602]}},{"properties":{"zip":"33160","donors":1,"geo_score":0.714,"donations":100.0,"average":100.0,"id":"ag2lou93y7vv","geo_precision":"zip"},"type":"Feature","geometry":{"type":"Point","coordinates":[-80.122267,25.965092]}},{"properties":{"zip":"33180","donors":3,"geo_score":0.714,"donations":1500.0,"average":500.0,"id":"ag2louidc0es","geo_precision":"zip"},"type":"Feature","geometry":{"type":"Point","coordinates":[-80.150601,25.948426]}},{"properties":{"zip":"33301","donors":1,"geo_score":0.714,"donations":50.0,"average":50.0,"id":"ag2loud93ouu","geo_precision":"zip"},"type":"Feature","geometry":{"type":"Point","coordinates":[-80.159317,26.085115]}},{"properties":{"zip":"33321","donors":1,"geo_score":0.714,"donations":25.0,"average":25.0,"id":"ag2lougkwlso","geo_precision":"zip"},"type":"Feature","geometry":{"type":"Point","coordinates":[-80.26052,26.144589]}},{"properties":{"zip":"33415","donors":1,"geo_score":0.714,"donations":10.0,"average":10.0,"id":"ag2louga17ct","geo_precision":"zip"},"type":"Feature","geometry":{"type":"Point","coordinates":[-80.125952,26.656044]}},{"properties":{"zip":"33437","donors":3,"geo_score":0.714,"donations":50.0,"average":16.67,"id":"ag2louktbrb3","geo_precision":"zip"},"type":"Feature","geometry":{"type":"Point","coordinates":[-80.174297,26.513629]}},{"properties":{"zip":"33444","donors":1,"geo_score":0.714,"donations":4950.0,"average":4950.0,"id":"ag2lou5f127v","geo_precision":"zip"},"type":"Feature","geometry":{"type":"Point","coordinates":[-80.081614,26.457598]}},{"properties":{"zip":"33446","donors":1,"geo_score":0.714,"donations":10.0,"average":10.0,"id":"ag2lou9u6jd8","geo_precision":"zip"},"type":"Feature","geometry":{"type":"Point","coordinates":[-80.181862,26.454017]}},{"properties":{"zip":"33467","donors":1,"geo_score":0.714,"donations":50.0,"average":50.0,"id":"ag2louju8cw3","geo_precision":"zip"},"type":"Feature","geometry":{"type":"Point","coordinates":[-80.22087,26.595867]}},{"properties":{"zip":"33480","donors":1,"geo_score":0.714,"donations":4950.0,"average":4950.0,"id":"ag2louanjxtw","geo_precision":"zip"},"type":"Feature","geometry":{"type":"Point","coordinates":[-80.038113,26.600995]}},{"properties":{"zip":"33618","donors":1,"geo_score":0.714,"donations":10.0,"average":10.0,"id":"ag2lou6yjuit","geo_precision":"zip"},"type":"Feature","geometry":{"type":"Point","coordinates":[-82.492873,28.050018]}},{"properties":{"zip":"33767","donors":1,"geo_score":0.714,"donations":1000.0,"average":1000.0,"id":"ag2loueu37bs","geo_precision":"zip"},"type":"Feature","geometry":{"type":"Point","coordinates":[-82.828625,27.959847]}},{"properties":{"zip":"33908","donors":2,"geo_score":0.714,"donations":9900.0,"average":4950.0,"id":"ag2louhpti4v","geo_precision":"zip"},"type":"Feature","geometry":{"type":"Point","coordinates":[-81.911422,26.561955]}},{"properties":{"zip":"34201","donors":1,"geo_score":0.714,"donations":25.0,"average":25.0,"id":"ag2loufkbddc","geo_precision":"zip"},"type":"Feature","geometry":{"type":"Point","coordinates":[-82.470456,27.404731]}},{"properties":{"zip":"34236","donors":1,"geo_score":0.714,"donations":50.0,"average":50.0,"id":"ag2loug8e4kj","geo_precision":"zip"},"type":"Feature","geometry":{"type":"Point","coordinates":[-82.543319,27.326863]}},{"properties":{"zip":"34746","donors":3,"geo_score":0.714,"donations":30.0,"average":10.0,"id":"ag2loui3wniv","geo_precision":"zip"},"type":"Feature","geometry":{"type":"Point","coordinates":[-81.400997,28.243011]}},{"properties":{"zip":"35201","donors":1,"geo_score":0.714,"donations":200.0,"average":200.0,"id":"ag2loubmz7vm","geo_precision":"zip"},"type":"Feature","geometry":{"type":"Point","coordinates":[-86.801904,33.456412]}},{"properties":{"zip":"35209","donors":1,"geo_score":0.714,"donations":50.0,"average":50.0,"id":"ag2lou9x73nw","geo_precision":"zip"},"type":"Feature","geometry":{"type":"Point","coordinates":[-86.800823,33.471773]}},{"properties":{"zip":"35758","donors":1,"geo_score":0.714,"donations":10.0,"average":10.0,"id":"ag2lou5pfhbl","geo_precision":"zip"},"type":"Feature","geometry":{"type":"Point","coordinates":[-86.742478,34.710815]}},{"properties":{"zip":"36117","donors":1,"geo_score":0.714,"donations":10.0,"average":10.0,"id":"ag2loubcwmny","geo_precision":"zip"},"type":"Feature","geometry":{"type":"Point","coordinates":[-86.116486,32.370048]}},{"properties":{"zip":"37043","donors":1,"geo_score":0.714,"donations":10.0,"average":10.0,"id":"ag2louku89et","geo_precision":"zip"},"type":"Feature","geometry":{"type":"Point","coordinates":[-87.218617,36.439772]}},{"properties":{"zip":"37211","donors":1,"geo_score":0.714,"donations":10.0,"average":10.0,"id":"ag2lou97i6fx","geo_precision":"zip"},"type":"Feature","geometry":{"type":"Point","coordinates":[-82.758763,36.175103]}},{"properties":{"zip":"37701","donors":3,"geo_score":0.714,"donations":300.0,"average":100.0,"id":"ag2loua8uibu","geo_precision":"zip"},"type":"Feature","geometry":{"type":"Point","coordinates":[-83.964071,35.792027]}},{"properties":{"zip":"38108","donors":1,"geo_score":0.714,"donations":2475.0,"average":2475.0,"id":"ag2louauckf4","geo_precision":"zip"},"type":"Feature","geometry":{"type":"Point","coordinates":[-89.97306,35.175239]}},{"properties":{"zip":"38305","donors":1,"geo_score":0.714,"donations":10.0,"average":10.0,"id":"ag2louas9iyn","geo_precision":"zip"},"type":"Feature","geometry":{"type":"Point","coordinates":[-88.835682,35.652446]}},{"properties":{"zip":"40014","donors":1,"geo_score":0.714,"donations":4950.0,"average":4950.0,"id":"ag2lou5df183","geo_precision":"zip"},"type":"Feature","geometry":{"type":"Point","coordinates":[-85.463015,38.353679]}},{"properties":{"zip":"40111","donors":1,"geo_score":0.714,"donations":50.0,"average":50.0,"id":"ag2lou9246kv","geo_precision":"zip"},"type":"Feature","geometry":{"type":"Point","coordinates":[-86.60165,37.720611]}},{"properties":{"zip":"40208","donors":1,"geo_score":0.714,"donations":100.0,"average":100.0,"id":"ag2loubnsuzr","geo_precision":"zip"},"type":"Feature","geometry":{"type":"Point","coordinates":[-85.763912,38.21782]}},{"properties":{"zip":"40505","donors":1,"geo_score":0.714,"donations":4950.0,"average":4950.0,"id":"ag2lou9adqhg","geo_precision":"zip"},"type":"Feature","geometry":{"type":"Point","coordinates":[-84.534941,38.149242]}},{"properties":{"zip":"43023","donors":1,"geo_score":0.714,"donations":10.0,"average":10.0,"id":"ag2loubmg8ys","geo_precision":"zip"},"type":"Feature","geometry":{"type":"Point","coordinates":[-82.539941,40.048971]}},{"properties":{"zip":"43221","donors":1,"geo_score":0.714,"donations":35.0,"average":35.0,"id":"ag2lou91fql4","geo_precision":"zip"},"type":"Feature","geometry":{"type":"Point","coordinates":[-83.062408,39.994508]}},{"properties":{"zip":"44111","donors":1,"geo_score":0.714,"donations":50.0,"average":50.0,"id":"ag2lou8reylu","geo_precision":"zip"},"type":"Feature","geometry":{"type":"Point","coordinates":[-81.787006,41.4595]}},{"properties":{"zip":"44236","donors":1,"geo_score":0.714,"donations":10.0,"average":10.0,"id":"ag2lou9bey5g","geo_precision":"zip"},"type":"Feature","geometry":{"type":"Point","coordinates":[-81.410666,41.264223]}},{"properties":{"zip":"46032","donors":1,"geo_score":0.714,"donations":250.0,"average":250.0,"id":"ag2lou5ab5d3","geo_precision":"zip"},"type":"Feature","geometry":{"type":"Point","coordinates":[-86.061652,39.961427]}},{"properties":{"zip":"46218","donors":1,"geo_score":0.714,"donations":25.0,"average":25.0,"id":"ag2louadi7eh","geo_precision":"zip"},"type":"Feature","geometry":{"type":"Point","coordinates":[-86.100535,39.806991]}},{"properties":{"zip":"46321","donors":1,"geo_score":0.714,"donations":10.0,"average":10.0,"id":"ag2louev3jud","geo_precision":"zip"},"type":"Feature","geometry":{"type":"Point","coordinates":[-87.508652,41.541424]}},{"properties":{"zip":"48033","donors":2,"geo_score":0.714,"donations":45.0,"average":22.5,"id":"ag2louj8yz5t","geo_precision":"zip"},"type":"Feature","geometry":{"type":"Point","coordinates":[-83.14993,42.605589]}},{"properties":{"zip":"48105","donors":1,"geo_score":0.714,"donations":175.0,"average":175.0,"id":"ag2lou5c0qfu","geo_precision":"zip"},"type":"Feature","geometry":{"type":"Point","coordinates":[-83.65605,42.31226]}},{"properties":{"zip":"48164","donors":1,"geo_score":0.714,"donations":35.0,"average":35.0,"id":"ag2louissnzu","geo_precision":"zip"},"type":"Feature","geometry":{"type":"Point","coordinates":[-83.390422,42.135225]}},{"properties":{"zip":"48188","donors":1,"geo_score":0.714,"donations":10.0,"average":10.0,"id":"ag2loubdtqgt","geo_precision":"zip"},"type":"Feature","geometry":{"type":"Point","coordinates":[-83.485776,42.291734]}},{"properties":{"zip":"52001","donors":1,"geo_score":0.714,"donations":20.0,"average":20.0,"id":"ag2lou75wssx","geo_precision":"zip"},"type":"Feature","geometry":{"type":"Point","coordinates":[-90.779573,42.481114]}},{"properties":{"zip":"53211","donors":1,"geo_score":0.714,"donations":10.0,"average":10.0,"id":"ag2louco9953","geo_precision":"zip"},"type":"Feature","geometry":{"type":"Point","coordinates":[-87.889534,43.082018]}},{"properties":{"zip":"53558","donors":1,"geo_score":0.714,"donations":50.0,"average":50.0,"id":"ag2loudm4qk0","geo_precision":"zip"},"type":"Feature","geometry":{"type":"Point","coordinates":[-89.363862,43.010519]}},{"properties":{"zip":"53563","donors":1,"geo_score":0.714,"donations":10.0,"average":10.0,"id":"ag2loujca6y4","geo_precision":"zip"},"type":"Feature","geometry":{"type":"Point","coordinates":[-89.041277,42.737804]}},{"properties":{"zip":"54868","donors":1,"geo_score":0.714,"donations":100.0,"average":100.0,"id":"ag2loukw1uky","geo_precision":"zip"},"type":"Feature","geometry":{"type":"Point","coordinates":[-91.65989,45.428015]}},{"properties":{"zip":"55345","donors":1,"geo_score":0.714,"donations":10.0,"average":10.0,"id":"ag2loudh74q1","geo_precision":"zip"},"type":"Feature","geometry":{"type":"Point","coordinates":[-93.481749,44.916963]}},{"properties":{"zip":"55416","donors":1,"geo_score":0.714,"donations":25.0,"average":25.0,"id":"ag2louit7pyh","geo_precision":"zip"},"type":"Feature","geometry":{"type":"Point","coordinates":[-93.337326,44.949714]}},{"properties":{"zip":"55992","donors":1,"geo_score":0.714,"donations":10.0,"average":10.0,"id":"ag2louclz5nn","geo_precision":"zip"},"type":"Feature","geometry":{"type":"Point","coordinates":[-92.640746,44.297743]}},{"properties":{"zip":"56601","donors":1,"geo_score":0.714,"donations":35.0,"average":35.0,"id":"ag2loud980y1","geo_precision":"zip"},"type":"Feature","geometry":{"type":"Point","coordinates":[-94.751653,47.587453]}},{"properties":{"zip":"60090","donors":1,"geo_score":0.714,"donations":100.0,"average":100.0,"id":"ag2lou5gelmi","geo_precision":"zip"},"type":"Feature","geometry":{"type":"Point","coordinates":[-87.933819,42.124176]}},{"properties":{"zip":"60137","donors":1,"geo_score":0.714,"donations":10.0,"average":10.0,"id":"ag2loui97y1c","geo_precision":"zip"},"type":"Feature","geometry":{"type":"Point","coordinates":[-88.063123,41.891974]}},{"properties":{"zip":"60301","donors":1,"geo_score":0.714,"donations":1000.0,"average":1000.0,"id":"ag2loujfpahx","geo_precision":"zip"},"type":"Feature","geometry":{"type":"Point","coordinates":[-87.68732,41.811929]}},{"properties":{"zip":"60302","donors":1,"geo_score":0.714,"donations":2500.0,"average":2500.0,"id":"ag2loubj9u8s","geo_precision":"zip"},"type":"Feature","geometry":{"type":"Point","coordinates":[-87.68732,41.811929]}},{"properties":{"zip":"60415","donors":1,"geo_score":0.714,"donations":10.0,"average":10.0,"id":"ag2lou4so1ue","geo_precision":"zip"},"type":"Feature","geometry":{"type":"Point","coordinates":[-87.68732,41.811929]}},{"properties":{"zip":"60491","donors":1,"geo_score":0.0,"donations":10.0,"average":10.0,"id":"ag2louc92dh7","geo_precision":"unmatched"},"type":"Feature","geometry":null},{"properties":{"zip":"60610","donors":1,"geo_score":0.714,"donations":100.0,"average":100.0,"id":"ag2loufhrqeo","geo_precision":"zip"},"type":"Feature","geometry":{"type":"Point","coordinates":[-87.68732,41.811929]}},{"properties":{"zip":"60611","donors":1,"geo_score":0.714,"donations":1000.0,"average":1000.0,"id":"ag2loujb0s0i","geo_precision":"zip"},"type":"Feature","geometry":{"type":"Point","coordinates":[-87.68732,41.811929]}},{"properties":{"zip":"60614","donors":1,"geo_score":0.714,"donations":1800.0,"average":1800.0,"id":"ag2louh1zkit","geo_precision":"zip"},"type":"Feature","geometry":{"type":"Point","coordinates":[-87.68732,41.811929]}},{"properties":{"zip":"60617","donors":1,"geo_score":0.714,"donations":10.0,"average":10.0,"id":"ag2lou4jl0o0","geo_precision":"zip"},"type":"Feature","geometry":{"type":"Point","coordinates":[-87.536434,41.722813]}},{"properties":{"zip":"63105","donors":1,"geo_score":0.714,"donations":1000.0,"average":1000.0,"id":"ag2louinxwn3","geo_precision":"zip"},"type":"Feature","geometry":{"type":"Point","coordinates":[-90.323726,38.642552]}},{"properties":{"zip":"63109","donors":1,"geo_score":0.714,"donations":4950.0,"average":4950.0,"id":"ag2lougeti4p","geo_precision":"zip"},"type":"Feature","geometry":{"type":"Point","coordinates":[-90.294714,38.581652]}},{"properties":{"zip":"63116","donors":1,"geo_score":0.714,"donations":10.0,"average":10.0,"id":"ag2louca1u6h","geo_precision":"zip"},"type":"Feature","geometry":{"type":"Point","coordinates":[-90.268563,38.581401]}},{"properties":{"zip":"63124","donors":1,"geo_score":0.714,"donations":4950.0,"average":4950.0,"id":"ag2louhm6bo9","geo_precision":"zip"},"type":"Feature","geometry":{"type":"Point","coordinates":[-90.377566,38.637201]}},{"properties":{"zip":"63126","donors":1,"geo_score":0.714,"donations":1000.0,"average":1000.0,"id":"ag2loujmy0pu","geo_precision":"zip"},"type":"Feature","geometry":{"type":"Point","coordinates":[-90.381785,38.556997]}},{"properties":{"zip":"64105","donors":1,"geo_score":0.714,"donations":10.0,"average":10.0,"id":"ag2lou7fk5wp","geo_precision":"zip"},"type":"Feature","geometry":{"type":"Point","coordinates":[-94.595033,39.102704]}},{"properties":{"zip":"66043","donors":1,"geo_score":0.714,"donations":1000.0,"average":1000.0,"id":"ag2lou9d2lfm","geo_precision":"zip"},"type":"Feature","geometry":{"type":"Point","coordinates":[-94.883026,39.233204]}},{"properties":{"zip":"66203","donors":1,"geo_score":0.714,"donations":35.0,"average":35.0,"id":"ag2louai7abs","geo_precision":"zip"},"type":"Feature","geometry":{"type":"Point","coordinates":[-94.693187,39.015629]}},{"properties":{"zip":"66604","donors":1,"geo_score":0.714,"donations":35.0,"average":35.0,"id":"ag2lou8089az","geo_precision":"zip"},"type":"Feature","geometry":{"type":"Point","coordinates":[-95.876376,39.078611]}},{"properties":{"zip":"68131","donors":1,"geo_score":0.714,"donations":500.0,"average":500.0,"id":"ag2lou5qd842","geo_precision":"zip"},"type":"Feature","geometry":{"type":"Point","coordinates":[-95.963832,41.265611]}},{"properties":{"zip":"72714","donors":1,"geo_score":0.714,"donations":10.0,"average":10.0,"id":"ag2lou54pvb8","geo_precision":"zip"},"type":"Feature","geometry":{"type":"Point","coordinates":[-94.330765,36.426659]}},{"properties":{"zip":"73118","donors":1,"geo_score":0.714,"donations":250.0,"average":250.0,"id":"ag2lou9oqz3o","geo_precision":"zip"},"type":"Feature","geometry":{"type":"Point","coordinates":[-97.523316,35.518458]}},{"properties":{"zip":"73717","donors":1,"geo_score":0.714,"donations":50.0,"average":50.0,"id":"ag2louiy5ycp","geo_precision":"zip"},"type":"Feature","geometry":{"type":"Point","coordinates":[-98.719254,36.781142]}},{"properties":{"zip":"75228","donors":1,"geo_score":0.714,"donations":35.0,"average":35.0,"id":"ag2louidwb59","geo_precision":"zip"},"type":"Feature","geometry":{"type":"Point","coordinates":[-96.682075,32.832277]}},{"properties":{"zip":"76182","donors":1,"geo_score":0.714,"donations":50.0,"average":50.0,"id":"ag2louh9ybxq","geo_precision":"zip"},"type":"Feature","geometry":{"type":"Point","coordinates":[-97.291484,32.771419]}},{"properties":{"zip":"77096","donors":1,"geo_score":0.714,"donations":10.0,"average":10.0,"id":"ag2louf1jd74","geo_precision":"zip"},"type":"Feature","geometry":{"type":"Point","coordinates":[-95.434241,29.83399]}},{"properties":{"zip":"77565","donors":1,"geo_score":0.714,"donations":10.0,"average":10.0,"id":"ag2loucl6nxn","geo_precision":"zip"},"type":"Feature","geometry":{"type":"Point","coordinates":[-95.04854,29.548563]}},{"properties":{"zip":"77586","donors":1,"geo_score":0.714,"donations":35.0,"average":35.0,"id":"ag2lou9md6b7","geo_precision":"zip"},"type":"Feature","geometry":{"type":"Point","coordinates":[-95.045207,29.563563]}},{"properties":{"zip":"77845","donors":1,"geo_score":0.714,"donations":25.0,"average":25.0,"id":"ag2lou6g9ko6","geo_precision":"zip"},"type":"Feature","geometry":{"type":"Point","coordinates":[-96.293826,30.579234]}},{"properties":{"zip":"78240","donors":1,"geo_score":0.714,"donations":35.0,"average":35.0,"id":"ag2louaqvisv","geo_precision":"zip"},"type":"Feature","geometry":{"type":"Point","coordinates":[-98.461582,29.437532]}},{"properties":{"zip":"78259","donors":1,"geo_score":0.714,"donations":50.0,"average":50.0,"id":"ag2loujhmgtq","geo_precision":"zip"},"type":"Feature","geometry":{"type":"Point","coordinates":[-98.461582,29.437532]}},{"properties":{"zip":"78748","donors":2,"geo_score":0.714,"donations":20.0,"average":10.0,"id":"ag2lou74uhg1","geo_precision":"zip"},"type":"Feature","geometry":{"type":"Point","coordinates":[-97.823854,30.16696]}},{"properties":{"zip":"79401","donors":1,"geo_score":0.714,"donations":20.0,"average":20.0,"id":"ag2lou9e5ym8","geo_precision":"zip"},"type":"Feature","geometry":{"type":"Point","coordinates":[-101.767112,33.693972]}},{"properties":{"zip":"80223","donors":1,"geo_score":0.714,"donations":10.0,"average":10.0,"id":"ag2louiccx6l","geo_precision":"zip"},"type":"Feature","geometry":{"type":"Point","coordinates":[-105.008762,39.707186]}},{"properties":{"zip":"80233","donors":1,"geo_score":0.714,"donations":10.0,"average":10.0,"id":"ag2loude14qv","geo_precision":"zip"},"type":"Feature","geometry":{"type":"Point","coordinates":[-104.987203,39.885541]}},{"properties":{"zip":"80302","donors":1,"geo_score":0.714,"donations":100.0,"average":100.0,"id":"ag2loudp802w","geo_precision":"zip"},"type":"Feature","geometry":{"type":"Point","coordinates":[-105.390027,40.063935]}},{"properties":{"zip":"80403","donors":1,"geo_score":0.714,"donations":10.0,"average":10.0,"id":"ag2lou9pevhn","geo_precision":"zip"},"type":"Feature","geometry":{"type":"Point","coordinates":[-105.270395,39.829821]}},{"properties":{"zip":"80537","donors":1,"geo_score":0.714,"donations":15.0,"average":15.0,"id":"ag2loukvu9sw","geo_precision":"zip"},"type":"Feature","geometry":{"type":"Point","coordinates":[-104.950809,40.406649]}},{"properties":{"zip":"80909","donors":1,"geo_score":0.714,"donations":100.0,"average":100.0,"id":"ag2lou79ia3p","geo_precision":"zip"},"type":"Feature","geometry":{"type":"Point","coordinates":[-104.85023,38.838268]}},{"properties":{"zip":"81050","donors":1,"geo_score":0.714,"donations":10.0,"average":10.0,"id":"ag2louc0cnmh","geo_precision":"zip"},"type":"Feature","geometry":{"type":"Point","coordinates":[-103.664437,37.954619]}},{"properties":{"zip":"81101","donors":1,"geo_score":0.714,"donations":10.0,"average":10.0,"id":"ag2louh8rm1o","geo_precision":"zip"},"type":"Feature","geometry":{"type":"Point","coordinates":[-105.924467,37.366118]}},{"properties":{"zip":"83501","donors":1,"geo_score":0.714,"donations":10.0,"average":10.0,"id":"ag2lou8rg8ka","geo_precision":"zip"},"type":"Feature","geometry":{"type":"Point","coordinates":[-116.970711,46.423218]}},{"properties":{"zip":"84010","donors":2,"geo_score":0.714,"donations":45.0,"average":22.5,"id":"ag2lou63ir9k","geo_precision":"zip"},"type":"Feature","geometry":{"type":"Point","coordinates":[-111.892993,40.855501]}},{"properties":{"zip":"84032","donors":1,"geo_score":0.714,"donations":500.0,"average":500.0,"id":"ag2louhublew","geo_precision":"zip"},"type":"Feature","geometry":{"type":"Point","coordinates":[-111.357123,40.47801]}},{"properties":{"zip":"84106","donors":1,"geo_score":0.714,"donations":150.0,"average":150.0,"id":"ag2louk4dn02","geo_precision":"zip"},"type":"Feature","geometry":{"type":"Point","coordinates":[-111.836766,40.707846]}},{"properties":{"zip":"84108","donors":1,"geo_score":0.714,"donations":175.0,"average":175.0,"id":"ag2louimtmnl","geo_precision":"zip"},"type":"Feature","geometry":{"type":"Point","coordinates":[-111.834101,40.743002]}},{"properties":{"zip":"85018","donors":1,"geo_score":0.714,"donations":500.0,"average":500.0,"id":"ag2louakw8tx","geo_precision":"zip"},"type":"Feature","geometry":{"type":"Point","coordinates":[-111.735322,33.482033]}},{"properties":{"zip":"85029","donors":2,"geo_score":0.714,"donations":10.0,"average":5.0,"id":"ag2louaxfkm8","geo_precision":"zip"},"type":"Feature","geometry":{"type":"Point","coordinates":[-112.18717,33.276539]}},{"properties":{"zip":"85284","donors":1,"geo_score":0.714,"donations":25.0,"average":25.0,"id":"ag2louivusom","geo_precision":"zip"},"type":"Feature","geometry":{"type":"Point","coordinates":[-111.914127,33.343546]}},{"properties":{"zip":"85355","donors":1,"geo_score":0.714,"donations":250.0,"average":250.0,"id":"ag2lou6lnaqc","geo_precision":"zip"},"type":"Feature","geometry":{"type":"Point","coordinates":[-112.18717,33.276539]}},{"properties":{"zip":"85395","donors":1,"geo_score":0.0,"donations":15.0,"average":15.0,"id":"ag2louaxweb9","geo_precision":"unmatched"},"type":"Feature","geometry":null},{"properties":{"zip":"87104","donors":1,"geo_score":0.714,"donations":25.0,"average":25.0,"id":"ag2loukt77r6","geo_precision":"zip"},"type":"Feature","geometry":{"type":"Point","coordinates":[-106.671831,35.104045]}},{"properties":{"zip":"88007","donors":1,"geo_score":0.714,"donations":100.0,"average":100.0,"id":"ag2louhgnxxr","geo_precision":"zip"},"type":"Feature","geometry":{"type":"Point","coordinates":[-106.944511,32.424266]}},{"properties":{"zip":"89052","donors":1,"geo_score":0.714,"donations":50.0,"average":50.0,"id":"ag2lou9ftmmn","geo_precision":"zip"},"type":"Feature","geometry":{"type":"Point","coordinates":[-115.116652,35.987798]}},{"properties":{"zip":"89128","donors":2,"geo_score":0.714,"donations":85.0,"average":42.5,"id":"ag2lougcwz5g","geo_precision":"zip"},"type":"Feature","geometry":{"type":"Point","coordinates":[-115.24018,36.119038]}},{"properties":{"zip":"90004","donors":2,"geo_score":0.714,"donations":5000.0,"average":2500.0,"id":"ag2louii74vl","geo_precision":"zip"},"type":"Feature","geometry":{"type":"Point","coordinates":[-118.298662,33.786594]}},{"properties":{"zip":"90024","donors":3,"geo_score":0.714,"donations":9935.0,"average":3311.67,"id":"ag2loudeu92y","geo_precision":"zip"},"type":"Feature","geometry":{"type":"Point","coordinates":[-118.298662,33.786594]}},{"properties":{"zip":"90025","donors":2,"geo_score":0.714,"donations":2535.0,"average":1267.5,"id":"ag2loua41it7","geo_precision":"zip"},"type":"Feature","geometry":{"type":"Point","coordinates":[-118.298662,33.786594]}},{"properties":{"zip":"90028","donors":1,"geo_score":0.714,"donations":35.0,"average":35.0,"id":"ag2lou634d8c","geo_precision":"zip"},"type":"Feature","geometry":{"type":"Point","coordinates":[-118.326743,34.098343]}},{"properties":{"zip":"90034","donors":1,"geo_score":0.714,"donations":10.0,"average":10.0,"id":"ag2lou4opjk8","geo_precision":"zip"},"type":"Feature","geometry":{"type":"Point","coordinates":[-118.405633,34.022789]}},{"properties":{"zip":"90039","donors":2,"geo_score":0.714,"donations":70.0,"average":35.0,"id":"ag2lou5qggwz","geo_precision":"zip"},"type":"Feature","geometry":{"type":"Point","coordinates":[-118.298662,33.786594]}},{"properties":{"zip":"90048","donors":3,"geo_score":0.714,"donations":30.0,"average":10.0,"id":"ag2loudnez22","geo_precision":"zip"},"type":"Feature","geometry":{"type":"Point","coordinates":[-118.298662,33.786594]}},{"properties":{"zip":"90049","donors":2,"geo_score":0.714,"donations":1500.0,"average":750.0,"id":"ag2louh89hc9","geo_precision":"zip"},"type":"Feature","geometry":{"type":"Point","coordinates":[-118.298662,33.786594]}},{"properties":{"zip":"90067","donors":3,"geo_score":0.714,"donations":9900.0,"average":3300.0,"id":"ag2loudah9pl","geo_precision":"zip"},"type":"Feature","geometry":{"type":"Point","coordinates":[-118.298662,33.786594]}},{"properties":{"zip":"90068","donors":1,"geo_score":0.714,"donations":100.0,"average":100.0,"id":"ag2louilrwsn","geo_precision":"zip"},"type":"Feature","geometry":{"type":"Point","coordinates":[-118.298662,33.786594]}},{"properties":{"zip":"90232","donors":1,"geo_score":0.714,"donations":50.0,"average":50.0,"id":"ag2lou73f3nw","geo_precision":"zip"},"type":"Feature","geometry":{"type":"Point","coordinates":[-118.298662,33.786594]}},{"properties":{"zip":"90272","donors":1,"geo_score":0.714,"donations":10.0,"average":10.0,"id":"ag2lou8wuhc3","geo_precision":"zip"},"type":"Feature","geometry":{"type":"Point","coordinates":[-118.561194,34.042509]}},{"properties":{"zip":"90401","donors":2,"geo_score":0.714,"donations":1250.0,"average":625.0,"id":"ag2lou7e8l04","geo_precision":"zip"},"type":"Feature","geometry":{"type":"Point","coordinates":[-118.298662,33.786594]}},{"properties":{"zip":"90403","donors":1,"geo_score":0.714,"donations":10.0,"average":10.0,"id":"ag2louii1hxx","geo_precision":"zip"},"type":"Feature","geometry":{"type":"Point","coordinates":[-118.298662,33.786594]}},{"properties":{"zip":"90732","donors":1,"geo_score":0.714,"donations":10.0,"average":10.0,"id":"ag2louhgxp84","geo_precision":"zip"},"type":"Feature","geometry":{"type":"Point","coordinates":[-118.298662,33.786594]}},{"properties":{"zip":"90740","donors":1,"geo_score":0.714,"donations":10.0,"average":10.0,"id":"ag2louhkdv9x","geo_precision":"zip"},"type":"Feature","geometry":{"type":"Point","coordinates":[-117.769442,33.640302]}},{"properties":{"zip":"90806","donors":1,"geo_score":0.714,"donations":150.0,"average":150.0,"id":"ag2lou7c25zx","geo_precision":"zip"},"type":"Feature","geometry":{"type":"Point","coordinates":[-118.172801,33.795016]}},{"properties":{"zip":"91001","donors":1,"geo_score":0.714,"donations":10.0,"average":10.0,"id":"ag2lou84sqnl","geo_precision":"zip"},"type":"Feature","geometry":{"type":"Point","coordinates":[-118.298662,33.786594]}},{"properties":{"zip":"91203","donors":1,"geo_score":0.714,"donations":1000.0,"average":1000.0,"id":"ag2lou88tdbj","geo_precision":"zip"},"type":"Feature","geometry":{"type":"Point","coordinates":[-118.298662,33.786594]}},{"properties":{"zip":"91411","donors":1,"geo_score":0.714,"donations":10.0,"average":10.0,"id":"ag2louiqr68g","geo_precision":"zip"},"type":"Feature","geometry":{"type":"Point","coordinates":[-118.298662,33.786594]}},{"properties":{"zip":"91602","donors":2,"geo_score":0.714,"donations":200.0,"average":100.0,"id":"ag2loub2wtrl","geo_precision":"zip"},"type":"Feature","geometry":{"type":"Point","coordinates":[-118.298662,33.786594]}},{"properties":{"zip":"91604","donors":1,"geo_score":0.714,"donations":50.0,"average":50.0,"id":"ag2loubfta0z","geo_precision":"zip"},"type":"Feature","geometry":{"type":"Point","coordinates":[-118.298662,33.786594]}},{"properties":{"zip":"92263","donors":1,"geo_score":0.714,"donations":10.0,"average":10.0,"id":"ag2lou8yo58f","geo_precision":"zip"},"type":"Feature","geometry":{"type":"Point","coordinates":[-116.535887,33.761076]}},{"properties":{"zip":"92376","donors":1,"geo_score":0.714,"donations":10.0,"average":10.0,"id":"ag2louhl7z2p","geo_precision":"zip"},"type":"Feature","geometry":{"type":"Point","coordinates":[-115.567483,34.202339]}},{"properties":{"zip":"92377","donors":1,"geo_score":0.714,"donations":10.0,"average":10.0,"id":"ag2loua09ti6","geo_precision":"zip"},"type":"Feature","geometry":{"type":"Point","coordinates":[-116.982871,34.141501]}},{"properties":{"zip":"92407","donors":1,"geo_score":0.714,"donations":10.0,"average":10.0,"id":"ag2lou5v82ax","geo_precision":"zip"},"type":"Feature","geometry":{"type":"Point","coordinates":[-116.93655,34.271173]}},{"properties":{"zip":"92596","donors":1,"geo_score":0.714,"donations":100.0,"average":100.0,"id":"ag2louj7iafe","geo_precision":"zip"},"type":"Feature","geometry":{"type":"Point","coordinates":[-116.055617,33.752886]}},{"properties":{"zip":"92625","donors":1,"geo_score":0.714,"donations":50.0,"average":50.0,"id":"ag2lou6q6irv","geo_precision":"zip"},"type":"Feature","geometry":{"type":"Point","coordinates":[-117.865325,33.599956]}},{"properties":{"zip":"92660","donors":1,"geo_score":0.714,"donations":100.0,"average":100.0,"id":"ag2lou73f67w","geo_precision":"zip"},"type":"Feature","geometry":{"type":"Point","coordinates":[-117.875189,33.637771]}},{"properties":{"zip":"93292","donors":2,"geo_score":0.714,"donations":20.0,"average":10.0,"id":"ag2lou9ymane","geo_precision":"zip"},"type":"Feature","geometry":{"type":"Point","coordinates":[-119.228324,36.19457]}},{"properties":{"zip":"93654","donors":1,"geo_score":0.714,"donations":10.0,"average":10.0,"id":"ag2louba5bfu","geo_precision":"zip"},"type":"Feature","geometry":{"type":"Point","coordinates":[-119.457904,36.676895]}},{"properties":{"zip":"93933","donors":1,"geo_score":0.714,"donations":10.0,"average":10.0,"id":"ag2louapgusf","geo_precision":"zip"},"type":"Feature","geometry":{"type":"Point","coordinates":[-121.812711,36.643259]}},{"properties":{"zip":"94025","donors":3,"geo_score":0.714,"donations":220.0,"average":73.33,"id":"ag2lou9xu7fi","geo_precision":"zip"},"type":"Feature","geometry":{"type":"Point","coordinates":[-122.159409,37.476327]}},{"properties":{"zip":"94070","donors":1,"geo_score":0.714,"donations":100.0,"average":100.0,"id":"ag2louhoxb8q","geo_precision":"zip"},"type":"Feature","geometry":{"type":"Point","coordinates":[-122.29815,37.498586]}},{"properties":{"zip":"94102","donors":2,"geo_score":0.714,"donations":20.0,"average":10.0,"id":"ag2lou6bx4s8","geo_precision":"zip"},"type":"Feature","geometry":{"type":"Point","coordinates":[-122.416582,37.779278]}},{"properties":{"zip":"94107","donors":2,"geo_score":0.714,"donations":35.0,"average":17.5,"id":"ag2louk70u16","geo_precision":"zip"},"type":"Feature","geometry":{"type":"Point","coordinates":[-122.393681,37.769029]}},{"properties":{"zip":"94109","donors":2,"geo_score":0.714,"donations":350.0,"average":175.0,"id":"ag2louhqsj0c","geo_precision":"zip"},"type":"Feature","geometry":{"type":"Point","coordinates":[-122.420782,37.795219]}},{"properties":{"zip":"94129","donors":1,"geo_score":0.714,"donations":2500.0,"average":2500.0,"id":"ag2lou7bpqgk","geo_precision":"zip"},"type":"Feature","geometry":{"type":"Point","coordinates":[-122.473583,37.801596]}},{"properties":{"zip":"94539","donors":1,"geo_score":0.714,"donations":50.0,"average":50.0,"id":"ag2loudp7crv","geo_precision":"zip"},"type":"Feature","geometry":{"type":"Point","coordinates":[-121.912568,37.520339]}},{"properties":{"zip":"94553","donors":1,"geo_score":0.714,"donations":50.0,"average":50.0,"id":"ag2loueamr51","geo_precision":"zip"},"type":"Feature","geometry":{"type":"Point","coordinates":[-122.075241,37.983533]}},{"properties":{"zip":"94607","donors":1,"geo_score":0.714,"donations":10.0,"average":10.0,"id":"ag2loujpu8nr","geo_precision":"zip"},"type":"Feature","geometry":{"type":"Point","coordinates":[-122.29878,37.807967]}},{"properties":{"zip":"94611","donors":1,"geo_score":0.714,"donations":35.0,"average":35.0,"id":"ag2loucnqooh","geo_precision":"zip"},"type":"Feature","geometry":{"type":"Point","coordinates":[-122.231635,37.824372]}},{"properties":{"zip":"94705","donors":1,"geo_score":0.714,"donations":10.0,"average":10.0,"id":"ag2louaxlsbi","geo_precision":"zip"},"type":"Feature","geometry":{"type":"Point","coordinates":[-122.242029,37.85983]}},{"properties":{"zip":"94930","donors":1,"geo_score":0.714,"donations":25.0,"average":25.0,"id":"ag2loudk6s8q","geo_precision":"zip"},"type":"Feature","geometry":{"type":"Point","coordinates":[-122.590813,37.990757]}},{"properties":{"zip":"94960","donors":1,"geo_score":0.714,"donations":10.0,"average":10.0,"id":"ag2loui396r3","geo_precision":"zip"},"type":"Feature","geometry":{"type":"Point","coordinates":[-122.59184,37.986473]}},{"properties":{"zip":"95019","donors":1,"geo_score":0.714,"donations":50.0,"average":50.0,"id":"ag2loudwefv4","geo_precision":"zip"},"type":"Feature","geometry":{"type":"Point","coordinates":[-121.780262,36.937042]}},{"properties":{"zip":"95076","donors":1,"geo_score":0.714,"donations":25.0,"average":25.0,"id":"ag2loubk5w0v","geo_precision":"zip"},"type":"Feature","geometry":{"type":"Point","coordinates":[-121.806342,36.988562]}},{"properties":{"zip":"95110","donors":1,"geo_score":0.714,"donations":10.0,"average":10.0,"id":"ag2louhioyi2","geo_precision":"zip"},"type":"Feature","geometry":{"type":"Point","coordinates":[-121.705327,37.189396]}},{"properties":{"zip":"95116","donors":1,"geo_score":0.714,"donations":10.0,"average":10.0,"id":"ag2loui4dxme","geo_precision":"zip"},"type":"Feature","geometry":{"type":"Point","coordinates":[-121.835344,37.35504]}},{"properties":{"zip":"95460","donors":1,"geo_score":0.714,"donations":100.0,"average":100.0,"id":"ag2loufd22z5","geo_precision":"zip"},"type":"Feature","geometry":{"type":"Point","coordinates":[-123.734377,39.319949]}},{"properties":{"zip":"95609","donors":2,"geo_score":0.714,"donations":20.0,"average":10.0,"id":"ag2lou714kdk","geo_precision":"zip"},"type":"Feature","geometry":{"type":"Point","coordinates":[-121.327214,38.650335]}},{"properties":{"zip":"95631","donors":1,"geo_score":0.714,"donations":10.0,"average":10.0,"id":"ag2lou92jwh3","geo_precision":"zip"},"type":"Feature","geometry":{"type":"Point","coordinates":[-120.862663,39.024453]}},{"properties":{"zip":"95648","donors":1,"geo_score":0.714,"donations":25.0,"average":25.0,"id":"ag2loue3q7wh","geo_precision":"zip"},"type":"Feature","geometry":{"type":"Point","coordinates":[-121.327143,38.929305]}},{"properties":{"zip":"95670","donors":1,"geo_score":0.714,"donations":10.0,"average":10.0,"id":"ag2lou5w17g1","geo_precision":"zip"},"type":"Feature","geometry":{"type":"Point","coordinates":[-121.246616,38.626294]}},{"properties":{"zip":"96821","donors":1,"geo_score":0.714,"donations":35.0,"average":35.0,"id":"ag2louegzyx2","geo_precision":"zip"},"type":"Feature","geometry":{"type":"Point","coordinates":[-168.021815,24.859832]}},{"properties":{"zip":"96913","donors":1,"geo_score":0.714,"donations":35.0,"average":35.0,"id":"ag2lou4mm6w3","geo_precision":"zip"},"type":"Feature","geometry":{"type":"Point","coordinates":[144.786297,13.444257]}},{"properties":{"zip":"97220","donors":1,"geo_score":0.714,"donations":10.0,"average":10.0,"id":"ag2lou5d8e5r","geo_precision":"zip"},"type":"Feature","geometry":{"type":"Point","coordinates":[-122.560371,45.552897]}},{"properties":{"zip":"98026","donors":1,"geo_score":0.714,"donations":10.0,"average":10.0,"id":"ag2louadu6vl","geo_precision":"zip"},"type":"Feature","geometry":{"type":"Point","coordinates":[-122.326981,47.835318]}},{"properties":{"zip":"98033","donors":1,"geo_score":0.714,"donations":10.0,"average":10.0,"id":"ag2lou72ui4n","geo_precision":"zip"},"type":"Feature","geometry":{"type":"Point","coordinates":[-122.187029,47.673263]}},{"properties":{"zip":"98043","donors":1,"geo_score":0.714,"donations":175.0,"average":175.0,"id":"ag2louj2tlii","geo_precision":"zip"},"type":"Feature","geometry":{"type":"Point","coordinates":[-122.30764,47.793269]}},{"properties":{"zip":"98101","donors":1,"geo_score":0.714,"donations":10.0,"average":10.0,"id":"ag2louga2tdw","geo_precision":"zip"},"type":"Feature","geometry":{"type":"Point","coordinates":[-121.803388,47.432251]}},{"properties":{"zip":"98102","donors":1,"geo_score":0.714,"donations":10.0,"average":10.0,"id":"ag2loukgzxn1","geo_precision":"zip"},"type":"Feature","geometry":{"type":"Point","coordinates":[-121.803388,47.432251]}},{"properties":{"zip":"98115","donors":1,"geo_score":0.714,"donations":10.0,"average":10.0,"id":"ag2lou5nlkfh","geo_precision":"zip"},"type":"Feature","geometry":{"type":"Point","coordinates":[-122.295682,47.686765]}},{"properties":{"zip":"98136","donors":1,"geo_score":0.714,"donations":35.0,"average":35.0,"id":"ag2loub48enz","geo_precision":"zip"},"type":"Feature","geometry":{"type":"Point","coordinates":[-121.803388,47.432251]}},{"properties":{"zip":"98166","donors":1,"geo_score":0.714,"donations":10.0,"average":10.0,"id":"ag2loukdf45f","geo_precision":"zip"},"type":"Feature","geometry":{"type":"Point","coordinates":[-121.803388,47.432251]}},{"properties":{"zip":"98225","donors":3,"geo_score":0.714,"donations":100.0,"average":33.33,"id":"ag2lou5fwr7o","geo_precision":"zip"},"type":"Feature","geometry":{"type":"Point","coordinates":[-122.580451,48.787053]}},{"properties":{"zip":"99114","donors":1,"geo_score":0.714,"donations":10.0,"average":10.0,"id":"ag2loub0ycpd","geo_precision":"zip"},"type":"Feature","geometry":{"type":"Point","coordinates":[-117.909981,48.491013]}},{"properties":{"zip":"99645","donors":1,"geo_score":0.714,"donations":100.0,"average":100.0,"id":"ag2louiisiu8","geo_precision":"zip"},"type":"Feature","geometry":{"type":"Point","coordinates":[-146.538333,62.049444]}},{"properties":{"zip":"99687","donors":1,"geo_score":0.714,"donations":10.0,"average":10.0,"id":"ag2lougkjdqg","geo_precision":"zip"},"type":"Feature","geometry":{"type":"Point","coordinates":[-149.564167,61.513333]}},{"properties":{"zip":"99712","donors":1,"geo_score":0.714,"donations":50.0,"average":50.0,"id":"ag2lougg6pdi","geo_precision":"zip"},"type":"Feature","geometry":{"type":"Point","coordinates":[-147.156588,65.036453]}}],"is_temporal":false,"author":{"url":"","metadata":"","contact_name":"","contact_address":"","source":"","contact_phone":""},"source":"","pagination":{"sort":null,"start":0,"total":561,"limit":1000000},"state":"complete","tags":"","published":"2014-08-16T14:27:23-04:00","id":381039}