{"type":"FeatureCollection","data_type":"Dataset","url_type":null,"permissions":[{"permissions":{"download":true,"view":true},"group_id":"everyone"}],"classification":null,"title":"Book2","count":264,"stream_id":381102,"contributor":{"url":"http://geocommons.com/users/78547","name":"AdamAziz"},"data_attributes":null,"calculation_params":null,"icon_link":null,"link":"http://geocommons.com/overlays/381102.json","extent":[-163.37,-54.4667,174.82,69.85],"geometry_types":["point"],"unique_name":null,"name":"Book2","feature_count":264,"description":"","next_feature":null,"is_raster":false,"short_classification":"Y","stats":{},"features":[{"properties":{"city":"Bilbao","geo_score":0.857,"country":"Spain","id":"ag3efn52pith","geo_precision":"zip"},"type":"Feature","geometry":{"type":"Point","coordinates":[-7.8166667,42.75]}},{"properties":{"city":"Chongqing","geo_score":0.857,"country":"China","id":"ag3efmv921om","geo_precision":"zip"},"type":"Feature","geometry":{"type":"Point","coordinates":[112.864642,23.263988]}},{"properties":{"city":"Chonburi","geo_score":0.857,"country":"Thailand","id":"ag3efn265683","geo_precision":"zip"},"type":"Feature","geometry":{"type":"Point","coordinates":[100.9833333,13.3666667]}},{"properties":{"city":"Chicago","geo_score":0.857,"country":"United States","id":"ag3efn6uc92x","geo_precision":"zip"},"type":"Feature","geometry":{"type":"Point","coordinates":[-163.37,64.5152778]}},{"properties":{"city":"Dakar","geo_score":0.857,"country":"Senegal","id":"ag3efmtiwnje","geo_precision":"zip"},"type":"Feature","geometry":{"type":"Point","coordinates":[-13.25,14.8833333]}},{"properties":{"city":"OAKLAND PARK","geo_score":0.857,"country":"United States","id":"ag3efn4cbfd1","geo_precision":"zip"},"type":"Feature","geometry":{"type":"Point","coordinates":[-83.399939,42.6666979]}},{"properties":{"city":"Guadalajara","geo_score":0.857,"country":"Mexico","id":"ag3efn2tu9kw","geo_precision":"zip"},"type":"Feature","geometry":{"type":"Point","coordinates":[-114.8647222,32.5441667]}},{"properties":{"city":"Incheon","geo_score":0.714,"country":"Korea, Republic of","id":"ag3efmzxfcyw","geo_precision":"zip"},"type":"Feature","geometry":{"type":"Point","coordinates":[4.3,36.8666667]}},{"properties":{"city":"Ipswitch","geo_score":0.857,"country":"United Kingdom","id":"ag3efn21425m","geo_precision":"zip"},"type":"Feature","geometry":{"type":"Point","coordinates":[1.19716644287109,52.0580321019272]}},{"properties":{"city":"SLOUGH","geo_score":0.857,"country":"United Kingdom","id":"ag3efn3gtxu9","geo_precision":"zip"},"type":"Feature","geometry":{"type":"Point","coordinates":[-1.4,60.2]}},{"properties":{"city":"Lille","geo_score":0.857,"country":"France","id":"ag3efmwe9spb","geo_precision":"zip"},"type":"Feature","geometry":{"type":"Point","coordinates":[0.7666667,44.95]}},{"properties":{"city":"Lysaker","geo_score":0.857,"country":"Norway","id":"ag3efmystmgi","geo_precision":"zip"},"type":"Feature","geometry":{"type":"Point","coordinates":[24.8666667,68.75]}},{"properties":{"city":"Skolkovo","geo_score":0.714,"country":"Russian Federation","id":"ag3efn59k7u6","geo_precision":"zip"},"type":"Feature","geometry":{"type":"Point","coordinates":[-63.248106088,58.483582476]}},{"properties":{"city":"Minsk","geo_score":0.857,"country":"Belarus","id":"ag3efn6skeus","geo_precision":"zip"},"type":"Feature","geometry":{"type":"Point","coordinates":[28.030731,53.882469]}},{"properties":{"city":"Montreal","geo_score":0.857,"country":"Canada","id":"ag3efmvr1zt7","geo_precision":"zip"},"type":"Feature","geometry":{"type":"Point","coordinates":[-73.649179482,45.516745924]}},{"properties":{"city":"Munich","geo_score":0.857,"country":"Germany","id":"ag3efmx39hio","geo_precision":"zip"},"type":"Feature","geometry":{"type":"Point","coordinates":[10.9666667,51.9666667]}},{"properties":{"city":"Mexico City","geo_score":0.857,"country":"Mexico","id":"ag3efmvy7960","geo_precision":"zip"},"type":"Feature","geometry":{"type":"Point","coordinates":[-88.625,20.625]}},{"properties":{"city":"NewDelhi","geo_score":0.857,"country":"India","id":"ag3efmurm1be","geo_precision":"zip"},"type":"Feature","geometry":{"type":"Point","coordinates":[77.2311401367188,28.6128189621009]}},{"properties":{"city":"SOUTH NETANYA","geo_score":0.857,"country":"Israel","id":"ag3efn1iglvc","geo_precision":"zip"},"type":"Feature","geometry":{"type":"Point","coordinates":[34.8577778,32.3336111]}},{"properties":{"city":"OEIRAS","geo_score":0.857,"country":"Portugal","id":"ag3efn90kcgs","geo_precision":"zip"},"type":"Feature","geometry":{"type":"Point","coordinates":[-8.3666667,41.7]}},{"properties":{"city":"Ottawa","geo_score":0.857,"country":"Canada","id":"ag3efn6j76f7","geo_precision":"zip"},"type":"Feature","geometry":{"type":"Point","coordinates":[-75.6902861595154,45.4209405046496]}},{"properties":{"city":"Padova","geo_score":0.857,"country":"Italy","id":"ag3efmvd2k9c","geo_precision":"zip"},"type":"Feature","geometry":{"type":"Point","coordinates":[11.881808,45.415194]}},{"properties":{"city":"Pewaukee","geo_score":0.857,"country":"United States","id":"ag3efn5uys79","geo_precision":"zip"},"type":"Feature","geometry":{"type":"Point","coordinates":[-155.4708333,19.8236111]}},{"properties":{"city":"Quatre-bornes","geo_score":0.857,"country":"MAURITIUS","id":"ag3efmxu5ein","geo_precision":"zip"},"type":"Feature","geometry":{"type":"Point","coordinates":[57.4666667,-20.2666667]}},{"properties":{"city":"Ricasoli","geo_score":0.0,"country":"Malta","id":"ag3efmx1mkc4","geo_precision":"unmatched"},"type":"Feature","geometry":null},{"properties":{"city":"Ridgeland","geo_score":0.857,"country":"United States","id":"ag3efmtwqkaz","geo_precision":"zip"},"type":"Feature","geometry":{"type":"Point","coordinates":[-90.1342532,32.4212541]}},{"properties":{"city":"Regina","geo_score":0.857,"country":"Canada","id":"ag3efn1vzms4","geo_precision":"zip"},"type":"Feature","geometry":{"type":"Point","coordinates":[-104.665833,50.431944]}},{"properties":{"city":"Xiamen","geo_score":0.857,"country":"China","id":"ag3efn16hvad","geo_precision":"zip"},"type":"Feature","geometry":{"type":"Point","coordinates":[118.6897222,25.6036111]}},{"properties":{"city":"Lindon","geo_score":0.857,"country":"United States","id":"ag3efmzgkobu","geo_precision":"zip"},"type":"Feature","geometry":{"type":"Point","coordinates":[-76.899133,40.9589736]}},{"properties":{"city":"San Jose","geo_score":0.857,"country":"United States","id":"ag3efmtet2nk","geo_precision":"zip"},"type":"Feature","geometry":{"type":"Point","coordinates":[-91.8159496,30.8110201]}},{"properties":{"city":"Bangalore","geo_score":0.857,"country":"India","id":"ag3efn8hieq0","geo_precision":"zip"},"type":"Feature","geometry":{"type":"Point","coordinates":[77.6032912731171,12.9762266976805]}},{"properties":{"city":"Research Triangle Pa","geo_score":0.857,"country":"United States","id":"ag3efmzm1alb","geo_precision":"zip"},"type":"Feature","geometry":{"type":"Point","coordinates":[-117.0396118,46.8151667]}},{"properties":{"city":"Chennai","geo_score":0.857,"country":"India","id":"ag3efmzyrhyr","geo_precision":"zip"},"type":"Feature","geometry":{"type":"Point","coordinates":[75.2666667,31.9]}},{"properties":{"city":"FELTHAM","geo_score":0.857,"country":"United Kingdom","id":"ag3efmvykkmg","geo_precision":"zip"},"type":"Feature","geometry":{"type":"Point","coordinates":[-3.1,50.9666667]}},{"properties":{"city":"Pune","geo_score":0.857,"country":"India","id":"ag3efn4oshgx","geo_precision":"zip"},"type":"Feature","geometry":{"type":"Point","coordinates":[82.6833333,21.6666667]}},{"properties":{"city":"Richardson","geo_score":0.857,"country":"United States","id":"ag3efmxil6g6","geo_precision":"zip"},"type":"Feature","geometry":{"type":"Point","coordinates":[-88.0644672,33.0492914]}},{"properties":{"city":"Beijing","geo_score":0.857,"country":"China","id":"ag3efmtixtn2","geo_precision":"zip"},"type":"Feature","geometry":{"type":"Point","coordinates":[108.55,23.8]}},{"properties":{"city":"Boxborough","geo_score":0.857,"country":"United States","id":"ag3efn78ldwp","geo_precision":"zip"},"type":"Feature","geometry":{"type":"Point","coordinates":[-90.6426367,44.3146838]}},{"properties":{"city":"Austin","geo_score":0.857,"country":"United States","id":"ag3efn6jqngr","geo_precision":"zip"},"type":"Feature","geometry":{"type":"Point","coordinates":[-117.0482116,46.3393265]}},{"properties":{"city":"Hyderabad","geo_score":0.857,"country":"India","id":"ag3efn1hvfvm","geo_precision":"zip"},"type":"Feature","geometry":{"type":"Point","coordinates":[80.4166667,28.05]}},{"properties":{"city":"MILPITAS","geo_score":0.857,"country":"United States","id":"ag3efn6zlje5","geo_precision":"zip"},"type":"Feature","geometry":{"type":"Point","coordinates":[-121.913291,37.4554941]}},{"properties":{"city":"SHANGHAI","geo_score":0.857,"country":"China","id":"ag3efn4vnll8","geo_precision":"zip"},"type":"Feature","geometry":{"type":"Point","coordinates":[120.4277778,28.7658333]}},{"properties":{"city":"Lawrenceville","geo_score":0.857,"country":"United States","id":"ag3efn5gp8gu","geo_precision":"zip"},"type":"Feature","geometry":{"type":"Point","coordinates":[-83.9832394,33.9778812]}},{"properties":{"city":"Singapore","geo_score":0.857,"country":"Singapore","id":"ag3efn6xxavh","geo_precision":"zip"},"type":"Feature","geometry":{"type":"Point","coordinates":[103.8558333,1.2930556]}},{"properties":{"city":"Toronto","geo_score":0.857,"country":"Canada","id":"ag3efn73kpou","geo_precision":"zip"},"type":"Feature","geometry":{"type":"Point","coordinates":[-96.981734654,49.547791028]}},{"properties":{"city":"Amsterdam","geo_score":0.857,"country":"Netherlands","id":"ag3efmwrrpdh","geo_precision":"zip"},"type":"Feature","geometry":{"type":"Point","coordinates":[4.5333333,52.3333333]}},{"properties":{"city":"Atlanta","geo_score":0.857,"country":"United States","id":"ag3efn7owzuh","geo_precision":"zip"},"type":"Feature","geometry":{"type":"Point","coordinates":[-75.6329834,38.6640032]}},{"properties":{"city":"Herndon","geo_score":0.857,"country":"United States","id":"ag3efmtz5r5u","geo_precision":"zip"},"type":"Feature","geometry":{"type":"Point","coordinates":[-96.6588822,33.197061]}},{"properties":{"city":"Oslo","geo_score":0.857,"country":"Norway","id":"ag3efmzd9swa","geo_precision":"zip"},"type":"Feature","geometry":{"type":"Point","coordinates":[10.7413673400879,59.912697157616]}},{"properties":{"city":"Issy Les Moulineaux","geo_score":0.857,"country":"France","id":"ag3efn4c70ul","geo_precision":"zip"},"type":"Feature","geometry":{"type":"Point","coordinates":[2.2731614112854,48.8242569458994]}},{"properties":{"city":"SANTA CLARA","geo_score":0.857,"country":"United States","id":"ag3efmx937vy","geo_precision":"zip"},"type":"Feature","geometry":{"type":"Point","coordinates":[-94.0585964,45.5452435]}},{"properties":{"city":"Irvine","geo_score":0.857,"country":"United States","id":"ag3efn1sbu95","geo_precision":"zip"},"type":"Feature","geometry":{"type":"Point","coordinates":[-105.3055375,42.6649679]}},{"properties":{"city":"Mumbai","geo_score":0.857,"country":"India","id":"ag3efmuq3cxi","geo_precision":"zip"},"type":"Feature","geometry":{"type":"Point","coordinates":[93.9333333,24.1]}},{"properties":{"city":"Diegem","geo_score":0.857,"country":"Belgium","id":"ag3efmu55z65","geo_precision":"zip"},"type":"Feature","geometry":{"type":"Point","coordinates":[4.4356462,50.8937763]}},{"properties":{"city":"HANGZHOU","geo_score":0.857,"country":"China","id":"ag3efn09kr6r","geo_precision":"zip"},"type":"Feature","geometry":{"type":"Point","coordinates":[111.202609,21.950227]}},{"properties":{"city":"Hong Kong","geo_score":0.857,"country":"China","id":"ag3efn9uxel0","geo_precision":"zip"},"type":"Feature","geometry":{"type":"Point","coordinates":[111.2233333,37.8002778]}},{"properties":{"city":"Reading","geo_score":0.857,"country":"United Kingdom","id":"ag3efn1vrd51","geo_precision":"zip"},"type":"Feature","geometry":{"type":"Point","coordinates":[-3.0833333,58.8333333]}},{"properties":{"city":"Moscow","geo_score":0.714,"country":"Russian Federation","id":"ag3efn7jsxvn","geo_precision":"zip"},"type":"Feature","geometry":{"type":"Point","coordinates":[17.3025,44.3027778]}},{"properties":{"city":"Seoul","geo_score":0.714,"country":"Korea, Republic of","id":"ag3efn44u95q","geo_precision":"zip"},"type":"Feature","geometry":{"type":"Point","coordinates":[26.3833333,58.9505556]}},{"properties":{"city":"Sao Paulo","geo_score":0.857,"country":"Brazil","id":"ag3efn8g5xdl","geo_precision":"zip"},"type":"Feature","geometry":{"type":"Point","coordinates":[-53.6425,-26.2011111]}},{"properties":{"city":"Hefei","geo_score":0.857,"country":"China","id":"ag3efmwn2xjh","geo_precision":"zip"},"type":"Feature","geometry":{"type":"Point","coordinates":[117.298436,31.780019]}},{"properties":{"city":"CHANDLERS FORD","geo_score":0.857,"country":"United Kingdom","id":"ag3efmyo7i1b","geo_precision":"zip"},"type":"Feature","geometry":{"type":"Point","coordinates":[-0.581245422363281,50.8224209656267]}},{"properties":{"city":"London","geo_score":0.857,"country":"United Kingdom","id":"ag3efn7paddw","geo_precision":"zip"},"type":"Feature","geometry":{"type":"Point","coordinates":[-2.8508333,51.7316667]}},{"properties":{"city":"Shenzhen","geo_score":0.857,"country":"China","id":"ag3efn15lx4v","geo_precision":"zip"},"type":"Feature","geometry":{"type":"Point","coordinates":[114.1333333,22.5666667]}},{"properties":{"city":"San Francisco","geo_score":0.857,"country":"United States","id":"ag3efmupw0d1","geo_precision":"zip"},"type":"Feature","geometry":{"type":"Point","coordinates":[-77.0299767,38.8809454]}},{"properties":{"city":"Madrid","geo_score":0.857,"country":"Spain","id":"ag3efn6z3t3r","geo_precision":"zip"},"type":"Feature","geometry":{"type":"Point","coordinates":[3.8007,40.0014]}},{"properties":{"city":"Hallbergmoos","geo_score":0.857,"country":"Germany","id":"ag3efn1qd8ty","geo_precision":"zip"},"type":"Feature","geometry":{"type":"Point","coordinates":[12.0166667,53.1666667]}},{"properties":{"city":"Dubai","geo_score":0.857,"country":"United Arab Emirates","id":"ag3efn3tqs7l","geo_precision":"zip"},"type":"Feature","geometry":{"type":"Point","coordinates":[55.28,25.2522222]}},{"properties":{"city":"Vimercate","geo_score":0.857,"country":"Italy","id":"ag3efn0jy9hw","geo_precision":"zip"},"type":"Feature","geometry":{"type":"Point","coordinates":[15.6333333,38.1833333]}},{"properties":{"city":"Dublin","geo_score":0.857,"country":"Ireland","id":"ag3efmtdu21l","geo_precision":"zip"},"type":"Feature","geometry":{"type":"Point","coordinates":[-7.5502778,52.5744444]}},{"properties":{"city":"Makati","geo_score":0.857,"country":"Philippines","id":"ag3efn60bp8d","geo_precision":"zip"},"type":"Feature","geometry":{"type":"Point","coordinates":[124.5266667,12.1755556]}},{"properties":{"city":"Warsaw","geo_score":0.857,"country":"Poland","id":"ag3efmtpz8dk","geo_precision":"zip"},"type":"Feature","geometry":{"type":"Point","coordinates":[21.0,52.25]}},{"properties":{"city":"Phoenix","geo_score":0.857,"country":"United States","id":"ag3efn4wo0wb","geo_precision":"zip"},"type":"Feature","geometry":{"type":"Point","coordinates":[-105.2474813,33.0100978]}},{"properties":{"city":"Eschborn","geo_score":0.857,"country":"Germany","id":"ag3efn2l96ve","geo_precision":"zip"},"type":"Feature","geometry":{"type":"Point","coordinates":[9.35,51.3166667]}},{"properties":{"city":"Englewood","geo_score":0.857,"country":"United States","id":"ag3efmxsbl4t","geo_precision":"zip"},"type":"Feature","geometry":{"type":"Point","coordinates":[-73.9523597,40.8853773]}},{"properties":{"city":"Suzhou","geo_score":0.857,"country":"China","id":"ag3efmz5dogc","geo_precision":"zip"},"type":"Feature","geometry":{"type":"Point","coordinates":[114.6008333,22.6733333]}},{"properties":{"city":"Kiev","geo_score":0.857,"country":"Ukraine","id":"ag3efn9cdulc","geo_precision":"zip"},"type":"Feature","geometry":{"type":"Point","coordinates":[34.1666667,44.5]}},{"properties":{"city":"Houston","geo_score":0.857,"country":"United States","id":"ag3efn23d0c5","geo_precision":"zip"},"type":"Feature","geometry":{"type":"Point","coordinates":[-74.9304496,39.3637263]}},{"properties":{"city":"Miami","geo_score":0.857,"country":"United States","id":"ag3efmufg80m","geo_precision":"zip"},"type":"Feature","geometry":{"type":"Point","coordinates":[-83.8710342,37.3936987]}},{"properties":{"city":"Sofia","geo_score":0.857,"country":"Bulgaria","id":"ag3efn1ckrac","geo_precision":"zip"},"type":"Feature","geometry":{"type":"Point","coordinates":[27.3833333,43.0333333]}},{"properties":{"city":"Monza","geo_score":0.857,"country":"Italy","id":"ag3efn6yxj04","geo_precision":"zip"},"type":"Feature","geometry":{"type":"Point","coordinates":[14.798078,37.883057]}},{"properties":{"city":"Boulder","geo_score":0.857,"country":"United States","id":"ag3efmygio7a","geo_precision":"zip"},"type":"Feature","geometry":{"type":"Point","coordinates":[-90.4939744,30.0918678]}},{"properties":{"city":"krakow","geo_score":0.857,"country":"Poland","id":"ag3efmw17tif","geo_precision":"zip"},"type":"Feature","geometry":{"type":"Point","coordinates":[20.8166667,51.0666667]}},{"properties":{"city":"KUALA LUMPUR","geo_score":0.857,"country":"Malaysia","id":"ag3efn6qcf7j","geo_precision":"zip"},"type":"Feature","geometry":{"type":"Point","coordinates":[100.4666667,4.95]}},{"properties":{"city":"Prague","geo_score":0.857,"country":"Czech Republic","id":"ag3efn8gg5xa","geo_precision":"zip"},"type":"Feature","geometry":{"type":"Point","coordinates":[15.2,49.3]}},{"properties":{"city":"Riyadh","geo_score":0.857,"country":"Saudi Arabia","id":"ag3efn6p1tad","geo_precision":"zip"},"type":"Feature","geometry":{"type":"Point","coordinates":[46.725166,24.709833]}},{"properties":{"city":"Seattle","geo_score":0.857,"country":"United States","id":"ag3efn9r94qa","geo_precision":"zip"},"type":"Feature","geometry":{"type":"Point","coordinates":[-87.9622762,41.5058651]}},{"properties":{"city":"Bellevue","geo_score":0.857,"country":"United States","id":"ag3efn4w1zt1","geo_precision":"zip"},"type":"Feature","geometry":{"type":"Point","coordinates":[-77.0574773,38.7726139]}},{"properties":{"city":"Columbia","geo_score":0.857,"country":"United States","id":"ag3efn6wa1if","geo_precision":"zip"},"type":"Feature","geometry":{"type":"Point","coordinates":[-122.5481897,47.5712079]}},{"properties":{"city":"Iselin","geo_score":0.857,"country":"United States","id":"ag3efmvxs44u","geo_precision":"zip"},"type":"Feature","geometry":{"type":"Point","coordinates":[-79.386429,40.5595104]}},{"properties":{"city":"Galway","geo_score":0.857,"country":"Ireland","id":"ag3efmwofvb5","geo_precision":"zip"},"type":"Feature","geometry":{"type":"Point","coordinates":[-8.94055366516113,53.3003125794553]}},{"properties":{"city":"Bloomington","geo_score":0.857,"country":"United States","id":"ag3efmy3hr6v","geo_precision":"zip"},"type":"Feature","geometry":{"type":"Point","coordinates":[-99.5879019,47.745281]}},{"properties":{"city":"BAYAN LEPAS","geo_score":0.857,"country":"Malaysia","id":"ag3efn9o1w03","geo_precision":"zip"},"type":"Feature","geometry":{"type":"Point","coordinates":[117.1666667,5.7333333]}},{"properties":{"city":"Johannesburg","geo_score":0.857,"country":"South Africa","id":"ag3efmwtow5r","geo_precision":"zip"},"type":"Feature","geometry":{"type":"Point","coordinates":[28.05,-26.1833333]}},{"properties":{"city":"Costa Mesa","geo_score":0.857,"country":"United States","id":"ag3efmzb84bx","geo_precision":"zip"},"type":"Feature","geometry":{"type":"Point","coordinates":[-96.8333672,36.7603141]}},{"properties":{"city":"Jacksonville","geo_score":0.0,"country":"United States","id":"ag3efn46094p","geo_precision":"unmatched"},"type":"Feature","geometry":null},{"properties":{"city":"Kortrijk","geo_score":0.857,"country":"Belgium","id":"ag3efn3hotm8","geo_precision":"zip"},"type":"Feature","geometry":{"type":"Point","coordinates":[3.26459169387817,50.8281138737036]}},{"properties":{"city":"Buenos Aires","geo_score":0.857,"country":"Argentina","id":"ag3efmxo3nuf","geo_precision":"zip"},"type":"Feature","geometry":{"type":"Point","coordinates":[-58.4088134765625,-34.5761256318848]}},{"properties":{"city":"Gurgaon","geo_score":0.857,"country":"India","id":"ag3efn5rv951","geo_precision":"zip"},"type":"Feature","geometry":{"type":"Point","coordinates":[77.05,19.9166667]}},{"properties":{"city":"Rolle","geo_score":0.857,"country":"Switzerland","id":"ag3efn5v8alm","geo_precision":"zip"},"type":"Feature","geometry":{"type":"Point","coordinates":[6.33499145507812,46.4582005030671]}},{"properties":{"city":"DUSSELDORF","geo_score":0.0,"country":"Australia","id":"ag3efn58a2ou","geo_precision":"unmatched"},"type":"Feature","geometry":null},{"properties":{"city":"Saint Petersburg","geo_score":0.714,"country":"Russian Federation","id":"ag3efn94c76k","geo_precision":"zip"},"type":"Feature","geometry":{"type":"Point","coordinates":[-96.1466375,31.9982145]}},{"properties":{"city":"Rio de Janeiro","geo_score":0.857,"country":"Brazil","id":"ag3efmx5b3tk","geo_precision":"zip"},"type":"Feature","geometry":{"type":"Point","coordinates":[-52.3666667,2.9]}},{"properties":{"city":"Guangzhou","geo_score":0.857,"country":"China","id":"ag3efn3b7g70","geo_precision":"zip"},"type":"Feature","geometry":{"type":"Point","coordinates":[117.3852778,33.9061111]}},{"properties":{"city":"Rome","geo_score":0.857,"country":"Italy","id":"ag3efn3fy6k8","geo_precision":"zip"},"type":"Feature","geometry":{"type":"Point","coordinates":[11.01857,46.441412]}},{"properties":{"city":"Richfield","geo_score":0.857,"country":"United States","id":"ag3efn5qo1zd","geo_precision":"zip"},"type":"Feature","geometry":{"type":"Point","coordinates":[-83.5591194,43.0700266]}},{"properties":{"city":"Stockholm","geo_score":0.857,"country":"Sweden","id":"ag3efn0oo6fr","geo_precision":"zip"},"type":"Feature","geometry":{"type":"Point","coordinates":[18.7772222,59.6]}},{"properties":{"city":"Los Angeles","geo_score":0.857,"country":"United States","id":"ag3efmzrmwax","geo_precision":"zip"},"type":"Feature","geometry":{"type":"Point","coordinates":[-118.2009079,34.3666648]}},{"properties":{"city":"Chesterfield","geo_score":0.857,"country":"United States","id":"ag3efn695qrm","geo_precision":"zip"},"type":"Feature","geometry":{"type":"Point","coordinates":[-80.0939528,34.7376557]}},{"properties":{"city":"Southfield","geo_score":0.857,"country":"United States","id":"ag3efn9w5ygt","geo_precision":"zip"},"type":"Feature","geometry":{"type":"Point","coordinates":[-83.2746526,42.4822574]}},{"properties":{"city":"Belgrade","geo_score":0.714,"country":"Serbia","id":"ag3efn5rhsl6","geo_precision":"zip"},"type":"Feature","geometry":{"type":"Point","coordinates":[-111.2799571,45.7796508]}},{"properties":{"city":"Malvern","geo_score":0.857,"country":"United States","id":"ag3efn07temn","geo_precision":"zip"},"type":"Feature","geometry":{"type":"Point","coordinates":[-95.7113747,38.5125129]}},{"properties":{"city":"Richmond","geo_score":0.857,"country":"United States","id":"ag3efmv4wvoe","geo_precision":"zip"},"type":"Feature","geometry":{"type":"Point","coordinates":[-80.366175,40.7139541]}},{"properties":{"city":"Denver","geo_score":0.857,"country":"United States","id":"ag3efn1r1eh5","geo_precision":"zip"},"type":"Feature","geometry":{"type":"Point","coordinates":[-73.0801072,43.544791]}},{"properties":{"city":"Taipei","geo_score":0.857,"country":"Taiwan","id":"ag3efn6g7xy2","geo_precision":"zip"},"type":"Feature","geometry":{"type":"Point","coordinates":[121.0666667,24.7]}},{"properties":{"city":"Amman","geo_score":0.857,"country":"Jordan","id":"ag3efn3cct13","geo_precision":"zip"},"type":"Feature","geometry":{"type":"Point","coordinates":[35.9333333,31.95]}},{"properties":{"city":"Bangkok","geo_score":0.857,"country":"Thailand","id":"ag3efn4tng14","geo_precision":"zip"},"type":"Feature","geometry":{"type":"Point","coordinates":[98.8333333,18.5833333]}},{"properties":{"city":"Jakarta","geo_score":0.857,"country":"Indonesia","id":"ag3efn45hyaf","geo_precision":"zip"},"type":"Feature","geometry":{"type":"Point","coordinates":[111.0379,-6.8808]}},{"properties":{"city":"Vienna","geo_score":0.857,"country":"Austria","id":"ag3efn834c3m","geo_precision":"zip"},"type":"Feature","geometry":{"type":"Point","coordinates":[16.3720750808716,48.2084877601653]}},{"properties":{"city":"Manchester","geo_score":0.857,"country":"United Kingdom","id":"ag3efn8s5qpo","geo_precision":"zip"},"type":"Feature","geometry":{"type":"Point","coordinates":[-2.23743438720703,53.4809464283615]}},{"properties":{"city":"Chengdu","geo_score":0.857,"country":"China","id":"ag3efn1i8hqy","geo_precision":"zip"},"type":"Feature","geometry":{"type":"Point","coordinates":[120.3527778,32.9611111]}},{"properties":{"city":"Istanbul","geo_score":0.857,"country":"Turkey","id":"ag3efn68dj4z","geo_precision":"zip"},"type":"Feature","geometry":{"type":"Point","coordinates":[28.9496612548828,41.0138429552247]}},{"properties":{"city":"Overland Park","geo_score":0.857,"country":"United States","id":"ag3efmufljsh","geo_precision":"zip"},"type":"Feature","geometry":{"type":"Point","coordinates":[-103.6435546,41.8588564]}},{"properties":{"city":"Pleasanton","geo_score":0.857,"country":"United States","id":"ag3efmtg0qyu","geo_precision":"zip"},"type":"Feature","geometry":{"type":"Point","coordinates":[-117.2763236,47.7304493]}},{"properties":{"city":"Boston","geo_score":0.857,"country":"United States","id":"ag3efn79lxfm","geo_precision":"zip"},"type":"Feature","geometry":{"type":"Point","coordinates":[-96.1319649,41.2611099]}},{"properties":{"city":"Charlotte","geo_score":0.857,"country":"United States","id":"ag3efmwcg5fd","geo_precision":"zip"},"type":"Feature","geometry":{"type":"Point","coordinates":[-73.2609586,44.3097741]}},{"properties":{"city":"Vancouver","geo_score":0.857,"country":"Canada","id":"ag3efmz9cqdf","geo_precision":"zip"},"type":"Feature","geometry":{"type":"Point","coordinates":[-123.184444,49.193889]}},{"properties":{"city":"Bogota","geo_score":0.714,"country":"Colombia","id":"ag3efn1qash7","geo_precision":"zip"},"type":"Feature","geometry":{"type":"Point","coordinates":[26.25,2.9666667]}},{"properties":{"city":"Berlin","geo_score":0.857,"country":"Germany","id":"ag3efmy5b6it","geo_precision":"zip"},"type":"Feature","geometry":{"type":"Point","coordinates":[7.8166667,51.4]}},{"properties":{"city":"Budapest","geo_score":0.857,"country":"Hungary","id":"ag3efmws8ldj","geo_precision":"zip"},"type":"Feature","geometry":{"type":"Point","coordinates":[19.1006326675415,47.5117804685792]}},{"properties":{"city":"Stuttgart","geo_score":0.857,"country":"Germany","id":"ag3efn2elyl9","geo_precision":"zip"},"type":"Feature","geometry":{"type":"Point","coordinates":[9.1775,48.776667]}},{"properties":{"city":"Lake Oswego","geo_score":0.857,"country":"United States","id":"ag3efn1rvpg7","geo_precision":"zip"},"type":"Feature","geometry":{"type":"Point","coordinates":[-90.3918,44.3749623]}},{"properties":{"city":"Santiago","geo_score":0.857,"country":"Chile","id":"ag3efn49pz02","geo_precision":"zip"},"type":"Feature","geometry":{"type":"Point","coordinates":[-71.1,-54.4666667]}},{"properties":{"city":"Cairo","geo_score":0.857,"country":"Egypt","id":"ag3efn77n2q8","geo_precision":"zip"},"type":"Feature","geometry":{"type":"Point","coordinates":[31.25,30.05]}},{"properties":{"city":"Espoo","geo_score":0.857,"country":"Finland","id":"ag3efn7xajs8","geo_precision":"zip"},"type":"Feature","geometry":{"type":"Point","coordinates":[24.6666667,60.25]}},{"properties":{"city":"Bratislava","geo_score":0.714,"country":"SLOVAKIA","id":"ag3efn5tiq89","geo_precision":"zip"},"type":"Feature","geometry":{"type":"Point","coordinates":[-163.1236111,-18.05]}},{"properties":{"city":"Moorestown","geo_score":0.857,"country":"United States","id":"ag3efn9j90en","geo_precision":"zip"},"type":"Feature","geometry":{"type":"Point","coordinates":[-87.110843,35.3175783]}},{"properties":{"city":"Cincinnati","geo_score":0.857,"country":"United States","id":"ag3efn4n53l7","geo_precision":"zip"},"type":"Feature","geometry":{"type":"Point","coordinates":[-94.5099406,36.0334147]}},{"properties":{"city":"Carmel","geo_score":0.857,"country":"United States","id":"ag3efn22grox","geo_precision":"zip"},"type":"Feature","geometry":{"type":"Point","coordinates":[-80.0889681,38.9723236]}},{"properties":{"city":"Montvale","geo_score":0.857,"country":"United States","id":"ag3efn8lpv45","geo_precision":"zip"},"type":"Feature","geometry":{"type":"Point","coordinates":[-86.0308069,34.2450936]}},{"properties":{"city":"Hamburg","geo_score":0.857,"country":"Germany","id":"ag3efmzzdoc7","geo_precision":"zip"},"type":"Feature","geometry":{"type":"Point","coordinates":[7.1166667,49.65]}},{"properties":{"city":"Edinburgh","geo_score":0.857,"country":"United Kingdom","id":"ag3efmz941kp","geo_precision":"zip"},"type":"Feature","geometry":{"type":"Point","coordinates":[-3.3725,55.95]}},{"properties":{"city":"Gold River","geo_score":0.857,"country":"United States","id":"ag3efn5kss7i","geo_precision":"zip"},"type":"Feature","geometry":{"type":"Point","coordinates":[-86.0333019,33.261225]}},{"properties":{"city":"Wallisellen","geo_score":0.857,"country":"Switzerland","id":"ag3efn0sh44b","geo_precision":"zip"},"type":"Feature","geometry":{"type":"Point","coordinates":[8.5858637187898,47.4190586895668]}},{"properties":{"city":"Irving","geo_score":0.857,"country":"United States","id":"ag3efn8idnyk","geo_precision":"zip"},"type":"Feature","geometry":{"type":"Point","coordinates":[-74.234035,40.7284346]}},{"properties":{"city":"Orlando","geo_score":0.857,"country":"United States","id":"ag3efn5om0sd","geo_precision":"zip"},"type":"Feature","geometry":{"type":"Point","coordinates":[-81.3247908,28.5544459]}},{"properties":{"city":"Allentown","geo_score":0.857,"country":"United States","id":"ag3efmz706gy","geo_precision":"zip"},"type":"Feature","geometry":{"type":"Point","coordinates":[-85.4576998,30.0315923]}},{"properties":{"city":"Washington","geo_score":0.857,"country":"United States","id":"ag3efmwe3iai","geo_precision":"zip"},"type":"Feature","geometry":{"type":"Point","coordinates":[-88.5226141,44.018873]}},{"properties":{"city":"Pittsburgh","geo_score":0.857,"country":"United States","id":"ag3efmus0g2a","geo_precision":"zip"},"type":"Feature","geometry":{"type":"Point","coordinates":[-87.8155699,33.1806758]}},{"properties":{"city":"Las Vegas","geo_score":0.857,"country":"United States","id":"ag3efn8f39ss","geo_precision":"zip"},"type":"Feature","geometry":{"type":"Point","coordinates":[-85.1911111,42.4930923]}},{"properties":{"city":"Barcelona","geo_score":0.857,"country":"Spain","id":"ag3efmzuduk4","geo_precision":"zip"},"type":"Feature","geometry":{"type":"Point","coordinates":[2.18067348003387,41.3823411670067]}},{"properties":{"city":"Calgary","geo_score":0.857,"country":"Canada","id":"ag3efmzf4u6f","geo_precision":"zip"},"type":"Feature","geometry":{"type":"Point","coordinates":[-78.232834774,46.783413713]}},{"properties":{"city":"Athens","geo_score":0.857,"country":"Greece","id":"ag3efn1uqyp1","geo_precision":"zip"},"type":"Feature","geometry":{"type":"Point","coordinates":[23.7333333,37.9833333]}},{"properties":{"city":"Lima","geo_score":0.857,"country":"Peru","id":"ag3efn52c1rt","geo_precision":"zip"},"type":"Feature","geometry":{"type":"Point","coordinates":[-75.8166667,-13.2333333]}},{"properties":{"city":"Melville","geo_score":0.857,"country":"United States","id":"ag3efn5lcifi","geo_precision":"zip"},"type":"Feature","geometry":{"type":"Point","coordinates":[-90.3123383,38.4983865]}},{"properties":{"city":"Farmington","geo_score":0.857,"country":"United States","id":"ag3efn34aexd","geo_precision":"zip"},"type":"Feature","geometry":{"type":"Point","coordinates":[-82.4473447,34.9295614]}},{"properties":{"city":"Madison","geo_score":0.857,"country":"United States","id":"ag3efn8ufcf7","geo_precision":"zip"},"type":"Feature","geometry":{"type":"Point","coordinates":[-97.0736768,48.6894277]}},{"properties":{"city":"El Paso","geo_score":0.857,"country":"United States","id":"ag3efn42st07","geo_precision":"zip"},"type":"Feature","geometry":{"type":"Point","coordinates":[-83.3907115,35.4495415]}},{"properties":{"city":"Greenville","geo_score":0.857,"country":"United States","id":"ag3efn65frj6","geo_precision":"zip"},"type":"Feature","geometry":{"type":"Point","coordinates":[-77.3596873,35.6479383]}},{"properties":{"city":"Pittsford","geo_score":0.857,"country":"United States","id":"ag3efn75m3w7","geo_precision":"zip"},"type":"Feature","geometry":{"type":"Point","coordinates":[-85.6596982,40.0939311]}},{"properties":{"city":"Albany","geo_score":0.857,"country":"United States","id":"ag3efmwoo0ew","geo_precision":"zip"},"type":"Feature","geometry":{"type":"Point","coordinates":[-74.3704267,42.1167564]}},{"properties":{"city":"RENO","geo_score":0.857,"country":"United States","id":"ag3efn2kwp1b","geo_precision":"zip"},"type":"Feature","geometry":{"type":"Point","coordinates":[-83.1907337,38.4150794]}},{"properties":{"city":"Karachi","geo_score":0.857,"country":"Pakistan","id":"ag3efn1krq73","geo_precision":"zip"},"type":"Feature","geometry":{"type":"Point","coordinates":[68.0166667,24.2]}},{"properties":{"city":"Omaha","geo_score":0.857,"country":"United States","id":"ag3efn7g1i2c","geo_precision":"zip"},"type":"Feature","geometry":{"type":"Point","coordinates":[-95.9308475,41.2513875]}},{"properties":{"city":"Ho Chi Minh City","geo_score":0.714,"country":"Viet nam","id":"ag3efmzggeuv","geo_precision":"zip"},"type":"Feature","geometry":{"type":"Point","coordinates":[-69.45,-17.6666667]}},{"properties":{"city":"Wuhan","geo_score":0.857,"country":"China","id":"ag3efn26fn3n","geo_precision":"zip"},"type":"Feature","geometry":{"type":"Point","coordinates":[117.7333333,33.45]}},{"properties":{"city":"Gellainville","geo_score":0.857,"country":"France","id":"ag3efn1l8bkb","geo_precision":"zip"},"type":"Feature","geometry":{"type":"Point","coordinates":[1.5333333,48.4]}},{"properties":{"city":"Nairobi","geo_score":0.857,"country":"Kenya","id":"ag3efn59wri8","geo_precision":"zip"},"type":"Feature","geometry":{"type":"Point","coordinates":[37.0166667,-0.4]}},{"properties":{"city":"Lagos","geo_score":0.857,"country":"Nigeria","id":"ag3efn3d4eez","geo_precision":"zip"},"type":"Feature","geometry":{"type":"Point","coordinates":[3.3958333,6.4530556]}},{"properties":{"city":"Mougins","geo_score":0.857,"country":"France","id":"ag3efn13e3la","geo_precision":"zip"},"type":"Feature","geometry":{"type":"Point","coordinates":[2.0573,42.7302]}},{"properties":{"city":"Auckland","geo_score":0.857,"country":"New Zealand","id":"ag3efmzpdo3j","geo_precision":"zip"},"type":"Feature","geometry":{"type":"Point","coordinates":[172.720130135,-43.758335012]}},{"properties":{"city":"Colorado Springs","geo_score":0.857,"country":"United States","id":"ag3efmtgsnrj","geo_precision":"zip"},"type":"Feature","geometry":{"type":"Point","coordinates":[-74.8765402,42.8289619]}},{"properties":{"city":"Doha","geo_score":0.857,"country":"Qatar","id":"ag3efn2a72cr","geo_precision":"zip"},"type":"Feature","geometry":{"type":"Point","coordinates":[51.5333333,25.2866667]}},{"properties":{"city":"Ratingen","geo_score":0.857,"country":"Germany","id":"ag3efmyr894o","geo_precision":"zip"},"type":"Feature","geometry":{"type":"Point","coordinates":[10.0166667,52.9166667]}},{"properties":{"city":"Boise","geo_score":0.857,"country":"United States","id":"ag3efn1g74nz","geo_precision":"zip"},"type":"Feature","geometry":{"type":"Point","coordinates":[-88.6547585,31.747659]}},{"properties":{"city":"Caracas","geo_score":0.714,"country":"VENEZUELA, BOLIVARIAN REPUBLIC OF","id":"ag3efmzfit3k","geo_precision":"zip"},"type":"Feature","geometry":{"type":"Point","coordinates":[-44.2333333,-19.7833333]}},{"properties":{"city":"Hanoi","geo_score":0.714,"country":"Viet nam","id":"ag3efn66zvty","geo_precision":"zip"},"type":"Feature","geometry":{"type":"Point","coordinates":[12.3276042938232,48.2328489341095]}},{"properties":{"city":"Casablanca","geo_score":0.857,"country":"Morocco","id":"ag3efmv4k7eh","geo_precision":"zip"},"type":"Feature","geometry":{"type":"Point","coordinates":[-7.61,33.6]}},{"properties":{"city":"Zagreb","geo_score":0.714,"country":"Croatia","id":"ag3efn21g9ds","geo_precision":"zip"},"type":"Feature","geometry":{"type":"Point","coordinates":[17.7166667,59.2333333]}},{"properties":{"city":"Victoria","geo_score":0.857,"country":"Canada","id":"ag3efmz7nj9p","geo_precision":"zip"},"type":"Feature","geometry":{"type":"Point","coordinates":[-107.034455912,53.500103479]}},{"properties":{"city":"Edmonton","geo_score":0.857,"country":"Canada","id":"ag3efmyb19yd","geo_precision":"zip"},"type":"Feature","geometry":{"type":"Point","coordinates":[-124.535165901,56.093728141]}},{"properties":{"city":"Ankara","geo_score":0.857,"country":"Turkey","id":"ag3efn40u8hc","geo_precision":"zip"},"type":"Feature","geometry":{"type":"Point","coordinates":[32.8644444,39.9272222]}},{"properties":{"city":"Bentonville","geo_score":0.857,"country":"United States","id":"ag3efn6m8dwf","geo_precision":"zip"},"type":"Feature","geometry":{"type":"Point","coordinates":[-78.3175035,38.8312256]}},{"properties":{"city":"Holytown","geo_score":0.857,"country":"United Kingdom","id":"ag3efn066me0","geo_precision":"zip"},"type":"Feature","geometry":{"type":"Point","coordinates":[-6.1333333,54.2]}},{"properties":{"city":"San Juan","geo_score":0.857,"country":"Puerto Rico","id":"ag3efmx6ir3y","geo_precision":"zip"},"type":"Feature","geometry":{"type":"Point","coordinates":[-65.7859956,18.1857925]}},{"properties":{"city":"Beaverton","geo_score":0.857,"country":"United States","id":"ag3efn78y4w0","geo_precision":"zip"},"type":"Feature","geometry":{"type":"Point","coordinates":[-85.7390343,46.5716591]}},{"properties":{"city":"Honolulu","geo_score":0.857,"country":"United States","id":"ag3efmug84mp","geo_precision":"zip"},"type":"Feature","geometry":{"type":"Point","coordinates":[-149.5719444,63.0625]}},{"properties":{"city":"Louisville","geo_score":0.857,"country":"United States","id":"ag3efmxzdhyl","geo_precision":"zip"},"type":"Feature","geometry":{"type":"Point","coordinates":[-77.3444302,40.3656391]}},{"properties":{"city":"Brasilia","geo_score":0.857,"country":"Brazil","id":"ag3efmvvjf6r","geo_precision":"zip"},"type":"Feature","geometry":{"type":"Point","coordinates":[-68.74805556,-11.01611111]}},{"properties":{"city":"Cordova","geo_score":0.857,"country":"United States","id":"ag3efn9n9m2l","geo_precision":"zip"},"type":"Feature","geometry":{"type":"Point","coordinates":[-78.0380533,38.5323462]}},{"properties":{"city":"Montgomery","geo_score":0.857,"country":"United States","id":"ag3efmv2duwn","geo_precision":"zip"},"type":"Feature","geometry":{"type":"Point","coordinates":[-85.8208083,34.967582]}},{"properties":{"city":"Almaty","geo_score":0.857,"country":"KAZAKHSTAN","id":"ag3efmy43ay3","geo_precision":"zip"},"type":"Feature","geometry":{"type":"Point","coordinates":[66.9569444,48.7233333]}},{"properties":{"city":"Beirut","geo_score":0.857,"country":"Lebanon","id":"ag3efn1s0ujc","geo_precision":"zip"},"type":"Feature","geometry":{"type":"Point","coordinates":[35.5163889,33.8391667]}},{"properties":{"city":"Ljubljana","geo_score":0.857,"country":"Slovenia","id":"ag3efn6dpaug","geo_precision":"zip"},"type":"Feature","geometry":{"type":"Point","coordinates":[14.615421295166,46.0596231340107]}},{"properties":{"city":"Mountain View","geo_score":0.857,"country":"United States","id":"ag3efn3ea88v","geo_precision":"zip"},"type":"Feature","geometry":{"type":"Point","coordinates":[-84.3927039,33.644276]}},{"properties":{"city":"Shenyang","geo_score":0.857,"country":"China","id":"ag3efmy4x4ug","geo_precision":"zip"},"type":"Feature","geometry":{"type":"Point","coordinates":[123.1369444,42.1822222]}},{"properties":{"city":"Bonn","geo_score":0.857,"country":"Germany","id":"ag3efmxy5333","geo_precision":"zip"},"type":"Feature","geometry":{"type":"Point","coordinates":[9.3,51.5833333]}},{"properties":{"city":"Quito","geo_score":0.857,"country":"Ecuador","id":"ag3efn6rvelq","geo_precision":"zip"},"type":"Feature","geometry":{"type":"Point","coordinates":[-78.5,-0.2166667]}},{"properties":{"city":"Wellington","geo_score":0.857,"country":"New Zealand","id":"ag3efmu0gaon","geo_precision":"zip"},"type":"Feature","geometry":{"type":"Point","coordinates":[174.820191387,-36.57819173]}},{"properties":{"city":"Albuquerque","geo_score":0.857,"country":"United States","id":"ag3efmthe4cj","geo_precision":"zip"},"type":"Feature","geometry":{"type":"Point","coordinates":[-90.1801096,38.9033813]}},{"properties":{"city":"Cape Town","geo_score":0.857,"country":"South Africa","id":"ag3efmyzpms2","geo_precision":"zip"},"type":"Feature","geometry":{"type":"Point","coordinates":[23.2166667,-30.0666667]}},{"properties":{"city":"GOTEBORG","geo_score":0.857,"country":"Sweden","id":"ag3efmww6dzg","geo_precision":"zip"},"type":"Feature","geometry":{"type":"Point","coordinates":[22.1666667,66.7333333]}},{"properties":{"city":"Greensboro","geo_score":0.857,"country":"United States","id":"ag3efmv7jbtx","geo_precision":"zip"},"type":"Feature","geometry":{"type":"Point","coordinates":[-87.6005621,32.7026309]}},{"properties":{"city":"Metairie","geo_score":0.857,"country":"United States","id":"ag3efmwo1wsr","geo_precision":"zip"},"type":"Feature","geometry":{"type":"Point","coordinates":[-79.4730984,40.6420094]}},{"properties":{"city":"Cedar Rapids","geo_score":0.857,"country":"United States","id":"ag3efmz780ed","geo_precision":"zip"},"type":"Feature","geometry":{"type":"Point","coordinates":[-117.2971241,44.2784941]}},{"properties":{"city":"Xi'an","geo_score":0.857,"country":"China","id":"ag3efmw67kfi","geo_precision":"zip"},"type":"Feature","geometry":{"type":"Point","coordinates":[103.6166667,30.2666667]}},{"properties":{"city":"Birmingham","geo_score":0.857,"country":"United States","id":"ag3efn9dxsgm","geo_precision":"zip"},"type":"Feature","geometry":{"type":"Point","coordinates":[-86.7583217,33.4667731]}},{"properties":{"city":"Islamabad","geo_score":0.857,"country":"Pakistan","id":"ag3efmvsj98a","geo_precision":"zip"},"type":"Feature","geometry":{"type":"Point","coordinates":[73.7041667,31.5222222]}},{"properties":{"city":"Kuwait City","geo_score":0.857,"country":"Kuwait","id":"ag3efmxm40rn","geo_precision":"zip"},"type":"Feature","geometry":{"type":"Point","coordinates":[47.9783333,29.3697222]}},{"properties":{"city":"WEST DES MOINES","geo_score":0.857,"country":"United States","id":"ag3efmwpgmt8","geo_precision":"zip"},"type":"Feature","geometry":{"type":"Point","coordinates":[-94.7474605,39.0875044]}},{"properties":{"city":"Camp Hill","geo_score":0.857,"country":"United States","id":"ag3efn7gp9t4","geo_precision":"zip"},"type":"Feature","geometry":{"type":"Point","coordinates":[-92.1462461,32.830967]}},{"properties":{"city":"SOEBORG","geo_score":0.857,"country":"Denmark","id":"ag3efn2fhfde","geo_precision":"zip"},"type":"Feature","geometry":{"type":"Point","coordinates":[12.5166667,55.7333333]}},{"properties":{"city":"Destin","geo_score":0.857,"country":"United States","id":"ag3efmvyh37g","geo_precision":"zip"},"type":"Feature","geometry":{"type":"Point","coordinates":[-88.8923354,44.1627584]}},{"properties":{"city":"Gerlingen","geo_score":0.857,"country":"Germany","id":"ag3efn7jh01a","geo_precision":"zip"},"type":"Feature","geometry":{"type":"Point","coordinates":[7.8333333,50.9833333]}},{"properties":{"city":"Lyon","geo_score":0.857,"country":"France","id":"ag3efn3cazse","geo_precision":"zip"},"type":"Feature","geometry":{"type":"Point","coordinates":[4.82711791992188,45.7750664537845]}},{"properties":{"city":"Baton Rouge","geo_score":0.857,"country":"United States","id":"ag3efn7ypyxr","geo_precision":"zip"},"type":"Feature","geometry":{"type":"Point","coordinates":[-122.5781479,45.4587309]}},{"properties":{"city":"Nanjing","geo_score":0.857,"country":"China","id":"ag3efmy4a3tx","geo_precision":"zip"},"type":"Feature","geometry":{"type":"Point","coordinates":[118.4833333,31.1]}},{"properties":{"city":"AABYHOJ","geo_score":0.857,"country":"Denmark","id":"ag3efmwkbrfp","geo_precision":"zip"},"type":"Feature","geometry":{"type":"Point","coordinates":[10.1652717590332,56.1562585675595]}},{"properties":{"city":"Amherst","geo_score":0.857,"country":"United States","id":"ag3efn5wb8iy","geo_precision":"zip"},"type":"Feature","geometry":{"type":"Point","coordinates":[-79.250308,37.616804]}},{"properties":{"city":"Bern","geo_score":0.857,"country":"Switzerland","id":"ag3efn5ofso4","geo_precision":"zip"},"type":"Feature","geometry":{"type":"Point","coordinates":[8.9833333,46.3666667]}},{"properties":{"city":"FUZHOU","geo_score":0.857,"country":"China","id":"ag3efmxcre4l","geo_precision":"zip"},"type":"Feature","geometry":{"type":"Point","coordinates":[111.207027,21.982146]}},{"properties":{"city":"Little Rock","geo_score":0.857,"country":"United States","id":"ag3efn9mcrzv","geo_precision":"zip"},"type":"Feature","geometry":{"type":"Point","coordinates":[-85.817468,34.1806509]}},{"properties":{"city":"MUSCAT","geo_score":0.857,"country":"OMAN","id":"ag3efn28f9ta","geo_precision":"zip"},"type":"Feature","geometry":{"type":"Point","coordinates":[58.5933333,23.6133333]}},{"properties":{"city":"Novosibirsk","geo_score":0.714,"country":"Russian Federation","id":"ag3efn72z2kk","geo_precision":"zip"},"type":"Feature","geometry":{"type":"Point","coordinates":[141.9666667,47.4833333]}},{"properties":{"city":"Pretoria","geo_score":0.857,"country":"South Africa","id":"ag3efn5v4kp7","geo_precision":"zip"},"type":"Feature","geometry":{"type":"Point","coordinates":[25.2,-33.8]}},{"properties":{"city":"Colombo","geo_score":0.857,"country":"Sri Lanka","id":"ag3efn95bfa7","geo_precision":"zip"},"type":"Feature","geometry":{"type":"Point","coordinates":[80.7666667,7.1]}},{"properties":{"city":"Anchorage","geo_score":0.857,"country":"United States","id":"ag3efn39wljm","geo_precision":"zip"},"type":"Feature","geometry":{"type":"Point","coordinates":[-76.6621832,38.5087337]}},{"properties":{"city":"Cesson Sevigne","geo_score":0.857,"country":"France","id":"ag3efn81k8e8","geo_precision":"zip"},"type":"Feature","geometry":{"type":"Point","coordinates":[1.4333333,43.0333333]}},{"properties":{"city":"Dhaka","geo_score":0.857,"country":"Bangladesh","id":"ag3efn4yvzwn","geo_precision":"zip"},"type":"Feature","geometry":{"type":"Point","coordinates":[90.382689,23.778783]}},{"properties":{"city":"Jinan","geo_score":0.857,"country":"China","id":"ag3efmtvqey0","geo_precision":"zip"},"type":"Feature","geometry":{"type":"Point","coordinates":[113.151984,22.7053043]}},{"properties":{"city":"Naperville","geo_score":0.857,"country":"United States","id":"ag3efmxl8k78","geo_precision":"zip"},"type":"Feature","geometry":{"type":"Point","coordinates":[-88.1155556,41.7527778]}},{"properties":{"city":"Vilnius","geo_score":0.857,"country":"Lithuania","id":"ag3efn3w85um","geo_precision":"zip"},"type":"Feature","geometry":{"type":"Point","coordinates":[25.285767,54.634133]}},{"properties":{"city":"Kazan","geo_score":0.714,"country":"Russian Federation","id":"ag3efn4oaexb","geo_precision":"zip"},"type":"Feature","geometry":{"type":"Point","coordinates":[121.8469444,13.3222222]}},{"properties":{"city":"Panama","geo_score":0.857,"country":"Panama","id":"ag3efn4kueuf","geo_precision":"zip"},"type":"Feature","geometry":{"type":"Point","coordinates":[-79.5333333,8.9666667]}},{"properties":{"city":"Urumqi","geo_score":0.857,"country":"China","id":"ag3efn35u0ue","geo_precision":"zip"},"type":"Feature","geometry":{"type":"Point","coordinates":[87.5833333,43.8]}},{"properties":{"city":"Abu Dhabi","geo_score":0.857,"country":"UNITED ARAB EMIRATES","id":"ag3efmxeyg9h","geo_precision":"zip"},"type":"Feature","geometry":{"type":"Point","coordinates":[54.458084,24.428333]}},{"properties":{"city":"Grand Rapids","geo_score":0.857,"country":"United States","id":"ag3efn8mzi25","geo_precision":"zip"},"type":"Feature","geometry":{"type":"Point","coordinates":[-76.7338622,39.3906616]}},{"properties":{"city":"Jefferson City","geo_score":0.857,"country":"United States","id":"ag3efmwefpsd","geo_precision":"zip"},"type":"Feature","geometry":{"type":"Point","coordinates":[-92.7998902,36.1964604]}},{"properties":{"city":"DHAHRAN","geo_score":0.857,"country":"Saudi Arabia","id":"ag3efmwyutd7","geo_precision":"zip"},"type":"Feature","geometry":{"type":"Point","coordinates":[50.1325,26.3041667]}},{"properties":{"city":"Jeddah","geo_score":0.857,"country":"Saudi Arabia","id":"ag3efn3wm8tq","geo_precision":"zip"},"type":"Feature","geometry":{"type":"Point","coordinates":[48.8327778,25.8583333]}},{"properties":{"city":"Medellin","geo_score":0.857,"country":"United States","id":"ag3efmxvan36","geo_precision":"zip"},"type":"Feature","geometry":{"type":"Point","coordinates":[-85.8974634,38.0597927]}},{"properties":{"city":"El Salvado","geo_score":0.857,"country":"El Salvador","id":"ag3efmze9nl9","geo_precision":"zip"},"type":"Feature","geometry":{"type":"Point","coordinates":[-89.270035,13.66845]}},{"properties":{"city":"Santo Domingo","geo_score":0.857,"country":"Dominican Republic","id":"ag3efn7rg03o","geo_precision":"zip"},"type":"Feature","geometry":{"type":"Point","coordinates":[-69.15,18.6166667]}},{"properties":{"city":"Sarajevo","geo_score":0.857,"country":"BOSNIA AND HERZEGOVINA","id":"ag3efn6z2k5t","geo_precision":"zip"},"type":"Feature","geometry":{"type":"Point","coordinates":[18.331467,43.824583]}},{"properties":{"city":"Skopje","geo_score":0.714,"country":"Macedonia, The Former Yugoslav Republic of","id":"ag3efn8vy24q","geo_precision":"zip"},"type":"Feature","geometry":{"type":"Point","coordinates":[-3.3166667,59.1333333]}},{"properties":{"city":"Salzburg","geo_score":0.857,"country":"Austria","id":"ag3efmvskklv","geo_precision":"zip"},"type":"Feature","geometry":{"type":"Point","coordinates":[13.0280556,47.9269444]}},{"properties":{"city":"Daejon","geo_score":0.714,"country":"Korea, Republic of","id":"ag3efmwyu8rr","geo_precision":"zip"},"type":"Feature","geometry":{"type":"Point","coordinates":[-7.85,8.1333333]}},{"properties":{"city":"Lubbock","geo_score":0.857,"country":"United States","id":"ag3efmthk5q8","geo_precision":"zip"},"type":"Feature","geometry":{"type":"Point","coordinates":[-87.0891643,33.6095515]}},{"properties":{"city":"Libya","geo_score":0.714,"country":"LIBYAN ARAB JAMAHIRIYA","id":"ag3efmz3gy0h","geo_precision":"zip"},"type":"Feature","geometry":{"type":"Point","coordinates":[-4.6,43.15]}},{"properties":{"city":"Astana","geo_score":0.857,"country":"KAZAKHSTAN","id":"ag3efmwl2b10","geo_precision":"zip"},"type":"Feature","geometry":{"type":"Point","coordinates":[71.466944,51.022222]}},{"properties":{"city":"Fargo","geo_score":0.857,"country":"United States","id":"ag3efn8zhfbw","geo_precision":"zip"},"type":"Feature","geometry":{"type":"Point","coordinates":[-85.2982949,36.6661745]}},{"properties":{"city":"Franklin","geo_score":0.857,"country":"United States","id":"ag3efn0c6idk","geo_precision":"zip"},"type":"Feature","geometry":{"type":"Point","coordinates":[-76.4810757,39.5514951]}},{"properties":{"city":"Mannheim","geo_score":0.857,"country":"Germany","id":"ag3efn3e6t4w","geo_precision":"zip"},"type":"Feature","geometry":{"type":"Point","coordinates":[12.55,48.2166667]}},{"properties":{"city":"Olympia","geo_score":0.857,"country":"United States","id":"ag3efn63227u","geo_precision":"zip"},"type":"Feature","geometry":{"type":"Point","coordinates":[-122.0585743,37.0696702]}},{"properties":{"city":"Tashkent","geo_score":0.857,"country":"Uzbekistan","id":"ag3efmzjg0of","geo_precision":"zip"},"type":"Feature","geometry":{"type":"Point","coordinates":[69.3177778,40.9680556]}},{"properties":{"city":"Trondheim","geo_score":0.857,"country":"Norway","id":"ag3efn99j11k","geo_precision":"zip"},"type":"Feature","geometry":{"type":"Point","coordinates":[30.1333333,69.85]}},{"properties":{"city":"Baku","geo_score":0.857,"country":"Azerbaijan","id":"ag3efn9t37r8","geo_precision":"zip"},"type":"Feature","geometry":{"type":"Point","coordinates":[49.8822222,40.3952778]}},{"properties":{"city":"Pusan","geo_score":0.714,"country":"Korea, Republic of","id":"ag3efmuf7sc4","geo_precision":"zip"},"type":"Feature","geometry":{"type":"Point","coordinates":[42.493507,37.042097]}},{"properties":{"city":"Riga","geo_score":0.857,"country":"Latvia","id":"ag3efmz67txz","geo_precision":"zip"},"type":"Feature","geometry":{"type":"Point","coordinates":[23.8513889,56.4944444]}},{"properties":{"city":"Sevilla","geo_score":0.857,"country":"Spain","id":"ag3efn3bfsv9","geo_precision":"zip"},"type":"Feature","geometry":{"type":"Point","coordinates":[-2.3833333,37.3333333]}},{"properties":{"city":"Strasbourg","geo_score":0.857,"country":"France","id":"ag3efmtzpxhw","geo_precision":"zip"},"type":"Feature","geometry":{"type":"Point","coordinates":[7.75,48.5833333]}},{"properties":{"city":"Fresno","geo_score":0.857,"country":"Canada","id":"ag3efn500siz","geo_precision":"zip"},"type":"Feature","geometry":{"type":"Point","coordinates":[-58.748210046,51.300121117]}},{"properties":{"city":"ECUBLENS","geo_score":0.857,"country":"Switzerland","id":"ag3efn0swezc","geo_precision":"zip"},"type":"Feature","geometry":{"type":"Point","coordinates":[6.8089485168457,46.6073513768935]}},{"properties":{"city":"Reykjavik","geo_score":0.857,"country":"Iceland","id":"ag3efn0qe7wc","geo_precision":"zip"},"type":"Feature","geometry":{"type":"Point","coordinates":[-21.8579864501953,64.1183962828304]}}],"is_temporal":false,"author":{"url":"","metadata":"","contact_name":"","contact_address":"","source":"","contact_phone":""},"source":"","pagination":{"sort":null,"start":0,"total":264,"limit":1000000},"state":"complete","tags":"","published":"2014-08-16T14:36:43-04:00","id":381102}