{"type":"FeatureCollection","data_type":"Dataset","url_type":null,"permissions":[{"permissions":{"download":true,"view":true},"group_id":"everyone"}],"classification":null,"title":"areas","count":355,"stream_id":381244,"contributor":{"url":"http://geocommons.com/users/78601","name":"antara"},"data_attributes":null,"calculation_params":null,"icon_link":null,"link":"http://geocommons.com/overlays/381244.json","extent":[121.871,5.6968,125.298,8.21848],"geometry_types":["point"],"unique_name":null,"name":"areas","feature_count":355,"description":"","next_feature":null,"is_raster":false,"short_classification":"Y","stats":{"latitude":{"max":8.2184843,"variance":0.386430001893407,"mean":7.17811841651429,"stdev":0.621634942625821,"median":7.11741254,"min":5.696797},"longitude":{"max":125.298013,"variance":0.496548423924818,"mean":124.224165091429,"stdev":0.704661921721912,"median":124.2718726,"min":121.8712025}},"features":[{"properties":{"latitude":6.6567913,"municipality":"LAMITAN","longitude":122.1396362,"id":"ag3noqp72ft2","barangay":"MATATAG","province":"BASILAN"},"type":"Feature","geometry":{"type":"Point","coordinates":[122.1396362,6.6567913]}},{"properties":{"latitude":6.9184937,"municipality":"LAMITAN","longitude":122.0455201,"id":"ag3noqfh87aj","barangay":"MALAKAS","province":"BASILAN"},"type":"Feature","geometry":{"type":"Point","coordinates":[122.0455201,6.9184937]}},{"properties":{"latitude":6.66113097,"municipality":"LAMITAN","longitude":122.1428157,"id":"ag3noqpmv87w","barangay":"MAGANDA","province":"BASILAN"},"type":"Feature","geometry":{"type":"Point","coordinates":[122.1428157,6.66113097]}},{"properties":{"latitude":6.66370702,"municipality":"LAMITAN","longitude":122.13752,"id":"ag3noqh70rul","barangay":"MATIBAY","province":"BASILAN"},"type":"Feature","geometry":{"type":"Point","coordinates":[122.13752,6.66370702]}},{"properties":{"latitude":6.7047314,"municipality":"LAMITAN","longitude":121.9713873,"id":"ag3noqgjf9ru","barangay":"PARANGBASAK","province":"BASILAN"},"type":"Feature","geometry":{"type":"Point","coordinates":[121.9713873,6.7047314]}},{"properties":{"latitude":6.7047314,"municipality":"LAMITAN","longitude":121.9713873,"id":"ag3noqgamwlb","barangay":"BAAS","province":"BASILAN"},"type":"Feature","geometry":{"type":"Point","coordinates":[121.9713873,6.7047314]}},{"properties":{"latitude":6.613105,"municipality":"LAMITAN","longitude":122.1727243,"id":"ag3noqm1t0az","barangay":"CAMPO UNO","province":"BASILAN"},"type":"Feature","geometry":{"type":"Point","coordinates":[122.1727243,6.613105]}},{"properties":{"latitude":6.59065971,"municipality":"LAMITAN","longitude":122.1581566,"id":"ag3noqfp2awp","barangay":"BOHEIBU","province":"BASILAN"},"type":"Feature","geometry":{"type":"Point","coordinates":[122.1581566,6.59065971]}},{"properties":{"latitude":6.6578064,"municipality":"LAMITAN","longitude":122.1384808,"id":"ag3noqtfhqro","barangay":"BULINGAN","province":"BASILAN"},"type":"Feature","geometry":{"type":"Point","coordinates":[122.1384808,6.6578064]}},{"properties":{"latitude":6.74856436,"municipality":"LAMITAN","longitude":122.0754238,"id":"ag3noqtplaio","barangay":"TANDUNG AHAS","province":"BASILAN"},"type":"Feature","geometry":{"type":"Point","coordinates":[122.0754238,6.74856436]}},{"properties":{"latitude":6.54684421,"municipality":"MALUSO","longitude":121.8712025,"id":"ag3noqi8bx72","barangay":"LOWER PORT HOLLAND","province":"BASILAN"},"type":"Feature","geometry":{"type":"Point","coordinates":[121.8712025,6.54684421]}},{"properties":{"latitude":null,"municipality":"MALUSO","longitude":null,"id":"ag3noqjfqvv8","barangay":"SOUTH GAUNAN","province":"BASILAN"},"type":"Feature","geometry":null},{"properties":{"latitude":6.9027409,"municipality":"MALUSO","longitude":122.0732961,"id":"ag3noqm24gdk","barangay":"NORTH GAUNAN","province":"BASILAN"},"type":"Feature","geometry":{"type":"Point","coordinates":[122.0732961,6.9027409]}},{"properties":{"latitude":6.45650796,"municipality":"MALUSO","longitude":121.9136022,"id":"ag3noqiswg1c","barangay":"CALANG CANAS","province":"BASILAN"},"type":"Feature","geometry":{"type":"Point","coordinates":[121.9136022,6.45650796]}},{"properties":{"latitude":6.7104932,"municipality":"MALUSO","longitude":121.9773223,"id":"ag3noqsqxo9k","barangay":"MUSLIM AREA","province":"BASILAN"},"type":"Feature","geometry":{"type":"Point","coordinates":[121.9773223,6.7104932]}},{"properties":{"latitude":6.52797404,"municipality":"MALUSO","longitude":121.9206792,"id":"ag3noqp69vl2","barangay":"UPPER MAHAYAHAY","province":"BASILAN"},"type":"Feature","geometry":{"type":"Point","coordinates":[121.9206792,6.52797404]}},{"properties":{"latitude":6.90113044,"municipality":"MALUSO","longitude":122.0780666,"id":"ag3noqrma93e","barangay":"FUENTE MALUSO","province":"BASILAN"},"type":"Feature","geometry":{"type":"Point","coordinates":[122.0780666,6.90113044]}},{"properties":{"latitude":6.7091837,"municipality":"LANTAWAN","longitude":121.976212,"id":"ag3noqt1cx8y","barangay":"Atong-atong","province":"BASILAN"},"type":"Feature","geometry":{"type":"Point","coordinates":[121.976212,6.7091837]}},{"properties":{"latitude":6.67158377,"municipality":"LANTAWAN","longitude":121.902556,"id":"ag3noqj2i3xb","barangay":"Matikang","province":"BASILAN"},"type":"Feature","geometry":{"type":"Point","coordinates":[121.902556,6.67158377]}},{"properties":{"latitude":6.7009605,"municipality":"LANTAWAN","longitude":121.9686022,"id":"ag3noqoeax1o","barangay":"Lawi-lawi","province":"BASILAN"},"type":"Feature","geometry":{"type":"Point","coordinates":[121.9686022,6.7009605]}},{"properties":{"latitude":6.7091837,"municipality":"LANTAWAN","longitude":121.976212,"id":"ag3noqrjk2lb","barangay":"Calayan","province":"BASILAN"},"type":"Feature","geometry":{"type":"Point","coordinates":[121.976212,6.7091837]}},{"properties":{"latitude":6.64804702,"municipality":"LANTAWAN","longitude":121.8746297,"id":"ag3noqp9nju2","barangay":"Bulanza","province":"BASILAN"},"type":"Feature","geometry":{"type":"Point","coordinates":[121.8746297,6.64804702]}},{"properties":{"latitude":6.64804702,"municipality":"LANTAWAN","longitude":121.8746297,"id":"ag3noqna238k","barangay":"Upper Manggas","province":"BASILAN"},"type":"Feature","geometry":{"type":"Point","coordinates":[121.8746297,6.64804702]}},{"properties":{"latitude":6.710482,"municipality":"LANTAWAN","longitude":121.9772941,"id":"ag3noqehmp84","barangay":"Baungis","province":"BASILAN"},"type":"Feature","geometry":{"type":"Point","coordinates":[121.9772941,6.710482]}},{"properties":{"latitude":6.710482,"municipality":"LANTAWAN","longitude":121.9772941,"id":"ag3noqix1btp","barangay":"Lantawan Proper (Pob.)","province":"BASILAN"},"type":"Feature","geometry":{"type":"Point","coordinates":[121.9772941,6.710482]}},{"properties":{"latitude":6.7091837,"municipality":"LANTAWAN","longitude":121.976212,"id":"ag3noqo4plem","barangay":"Canibungan","province":"BASILAN"},"type":"Feature","geometry":{"type":"Point","coordinates":[121.976212,6.7091837]}},{"properties":{"latitude":6.5508378,"municipality":"LANTAWAN","longitude":121.8757585,"id":"ag3noqs79cm0","barangay":"Lawila","province":"BASILAN"},"type":"Feature","geometry":{"type":"Point","coordinates":[121.8757585,6.5508378]}},{"properties":{"latitude":6.5508378,"municipality":"LANTAWAN","longitude":121.8757585,"id":"ag3noqlhpxus","barangay":"Bagbagon","province":"BASILAN"},"type":"Feature","geometry":{"type":"Point","coordinates":[121.8757585,6.5508378]}},{"properties":{"latitude":8.1898047,"municipality":"KAUSWAGAN","longitude":124.0795435,"id":"ag3noqdcg43e","barangay":"POBLACION","province":"LANAO DEL NORTE"},"type":"Feature","geometry":{"type":"Point","coordinates":[124.0795435,8.1898047]}},{"properties":{"latitude":8.1899932,"municipality":"KAUSWAGAN","longitude":124.0805607,"id":"ag3noqt0v5p2","barangay":"BAGUMBAYAN","province":"LANAO DEL NORTE"},"type":"Feature","geometry":{"type":"Point","coordinates":[124.0805607,8.1899932]}},{"properties":{"latitude":8.1899932,"municipality":"KAUSWAGAN","longitude":124.0805607,"id":"ag3noqhytsf7","barangay":"KAWIT OCCIDENTAL","province":"LANAO DEL NORTE"},"type":"Feature","geometry":{"type":"Point","coordinates":[124.0805607,8.1899932]}},{"properties":{"latitude":8.19067503,"municipality":"KAUSWAGAN","longitude":124.0714111,"id":"ag3noqomh1jp","barangay":"KAWIT ORIENTAL","province":"LANAO DEL NORTE"},"type":"Feature","geometry":{"type":"Point","coordinates":[124.0714111,8.19067503]}},{"properties":{"latitude":8.01811815,"municipality":"KAUSWAGAN","longitude":123.8608652,"id":"ag3noqjgkn7x","barangay":"TUGAR","province":"LANAO DEL NORTE"},"type":"Feature","geometry":{"type":"Point","coordinates":[123.8608652,8.01811815]}},{"properties":{"latitude":8.18858237,"municipality":"KAUSWAGAN","longitude":124.0804644,"id":"ag3noqeielxa","barangay":"TACUB","province":"LANAO DEL NORTE"},"type":"Feature","geometry":{"type":"Point","coordinates":[124.0804644,8.18858237]}},{"properties":{"latitude":8.15598836,"municipality":"KAUSWAGAN","longitude":124.1290163,"id":"ag3noqq694oj","barangay":"TINGINTINGIN","province":"LANAO DEL NORTE"},"type":"Feature","geometry":{"type":"Point","coordinates":[124.1290163,8.15598836]}},{"properties":{"latitude":8.15598836,"municipality":"KAUSWAGAN","longitude":124.1290163,"id":"ag3noqi22oc3","barangay":"BARA-ASON","province":"LANAO DEL NORTE"},"type":"Feature","geometry":{"type":"Point","coordinates":[124.1290163,8.15598836]}},{"properties":{"latitude":8.05867691,"municipality":"PANTAO RAGAT","longitude":124.1842088,"id":"ag3noqtfv4cd","barangay":"POBLACION EAST","province":"LANAO DEL NORTE"},"type":"Feature","geometry":{"type":"Point","coordinates":[124.1842088,8.05867691]}},{"properties":{"latitude":8.05866066,"municipality":"PANTAO RAGAT","longitude":124.1853051,"id":"ag3noqka982o","barangay":"NATANGCOPAN","province":"LANAO DEL NORTE"},"type":"Feature","geometry":{"type":"Point","coordinates":[124.1853051,8.05866066]}},{"properties":{"latitude":8.06185216,"municipality":"KAUSWAGAN","longitude":124.1870845,"id":"ag3noqjlbb7z","barangay":"LIBERTAD","province":"LANAO DEL NORTE"},"type":"Feature","geometry":{"type":"Point","coordinates":[124.1870845,8.06185216]}},{"properties":{"latitude":8.05864134,"municipality":"PANTAO RAGAT","longitude":124.1843409,"id":"ag3noqdkz20f","barangay":"CULUBUN","province":"LANAO DEL NORTE"},"type":"Feature","geometry":{"type":"Point","coordinates":[124.1843409,8.05864134]}},{"properties":{"latitude":8.0597817,"municipality":"PANTAO RAGAT","longitude":124.1833167,"id":"ag3noqnbv3g8","barangay":"CABASAGAN","province":"LANAO DEL NORTE"},"type":"Feature","geometry":{"type":"Point","coordinates":[124.1833167,8.0597817]}},{"properties":{"latitude":8.0597817,"municipality":"PANTAO RAGAT","longitude":124.1833167,"id":"ag3noqr4vjxl","barangay":"MALIWANAG","province":"LANAO DEL NORTE"},"type":"Feature","geometry":{"type":"Point","coordinates":[124.1833167,8.0597817]}},{"properties":{"latitude":8.0988772,"municipality":"PANTAO RAGAT","longitude":124.1980365,"id":"ag3noqhtciq8","barangay":"TONGCOPAN","province":"LANAO DEL NORTE"},"type":"Feature","geometry":{"type":"Point","coordinates":[124.1980365,8.0988772]}},{"properties":{"latitude":8.0488555,"municipality":"PANTAO RAGAT","longitude":124.256483,"id":"ag3noqr2w72o","barangay":"BOBONGA PANTAO RAGAT","province":"LANAO DEL NORTE"},"type":"Feature","geometry":{"type":"Point","coordinates":[124.256483,8.0488555]}},{"properties":{"latitude":8.0447163,"municipality":"PANTAO RAGAT","longitude":124.2593954,"id":"ag3noqfgyw1m","barangay":"MATAMPAY","province":"LANAO DEL NORTE"},"type":"Feature","geometry":{"type":"Point","coordinates":[124.2593954,8.0447163]}},{"properties":{"latitude":8.0447163,"municipality":"PANTAO RAGAT","longitude":124.2593954,"id":"ag3noqmjfur6","barangay":"BOBONGA RADAPAN","province":"LANAO DEL NORTE"},"type":"Feature","geometry":{"type":"Point","coordinates":[124.2593954,8.0447163]}},{"properties":{"latitude":8.0405772,"municipality":"PANTAO RAGAT","longitude":124.262308,"id":"ag3noqi26c9p","barangay":"CALAWE","province":"LANAO DEL NORTE"},"type":"Feature","geometry":{"type":"Point","coordinates":[124.262308,8.0405772]}},{"properties":{"latitude":8.0405772,"municipality":"PANTAO RAGAT","longitude":124.262308,"id":"ag3noqfhgveh","barangay":"MADAYA","province":"LANAO DEL NORTE"},"type":"Feature","geometry":{"type":"Point","coordinates":[124.262308,8.0405772]}},{"properties":{"latitude":8.05821579,"municipality":"PANTAO RAGAT","longitude":124.1843907,"id":"ag3noqehzj4g","barangay":"LOMIDONG","province":"LANAO DEL NORTE"},"type":"Feature","geometry":{"type":"Point","coordinates":[124.1843907,8.05821579]}},{"properties":{"latitude":8.05840647,"municipality":"PANTAO RAGAT","longitude":124.1845418,"id":"ag3noqnda6yv","barangay":"DILIMBAYAN","province":"LANAO DEL NORTE"},"type":"Feature","geometry":{"type":"Point","coordinates":[124.1845418,8.05840647]}},{"properties":{"latitude":8.05840647,"municipality":"PANTAO RAGAT","longitude":124.1845418,"id":"ag3noqgsvuff","barangay":"ALOON","province":"LANAO DEL NORTE"},"type":"Feature","geometry":{"type":"Point","coordinates":[124.1845418,8.05840647]}},{"properties":{"latitude":8.05840647,"municipality":"PANTAO RAGAT","longitude":124.1845418,"id":"ag3noqqgrjs7","barangay":"PANTAO MARUG","province":"LANAO DEL NORTE"},"type":"Feature","geometry":{"type":"Point","coordinates":[124.1845418,8.05840647]}},{"properties":{"latitude":8.06010419,"municipality":"PANTAO RAGAT","longitude":124.1821143,"id":"ag3noqrlzt1n","barangay":"BANDAY","province":"LANAO DEL NORTE"},"type":"Feature","geometry":{"type":"Point","coordinates":[124.1821143,8.06010419]}},{"properties":{"latitude":8.06010419,"municipality":"PANTAO RAGAT","longitude":124.1821143,"id":"ag3noqo4c1i8","barangay":"TANGCAL","province":"LANAO DEL NORTE"},"type":"Feature","geometry":{"type":"Point","coordinates":[124.1821143,8.06010419]}},{"properties":{"latitude":8.21843701,"municipality":"PANTAO RAGAT","longitude":124.2363925,"id":"ag3noqsd01zj","barangay":"PANSOR","province":"LANAO DEL NORTE"},"type":"Feature","geometry":{"type":"Point","coordinates":[124.2363925,8.21843701]}},{"properties":{"latitude":8.21843701,"municipality":"PANTAO RAGAT","longitude":124.2363925,"id":"ag3noqjjjrg6","barangay":"DIMAYON","province":"LANAO DEL NORTE"},"type":"Feature","geometry":{"type":"Point","coordinates":[124.2363925,8.21843701]}},{"properties":{"latitude":8.13414384,"municipality":"MATUNGAO","longitude":124.1675931,"id":"ag3noqts52yj","barangay":"BANGCO","province":"LANAO DEL NORTE"},"type":"Feature","geometry":{"type":"Point","coordinates":[124.1675931,8.13414384]}},{"properties":{"latitude":8.09548808,"municipality":"MATUNGAO","longitude":124.1604272,"id":"ag3noqjpw500","barangay":"BOBONGA RADAPAN","province":"LANAO DEL NORTE"},"type":"Feature","geometry":{"type":"Point","coordinates":[124.1604272,8.09548808]}},{"properties":{"latitude":8.10474181,"municipality":"MATUNGAO","longitude":124.1659633,"id":"ag3noqibsdc1","barangay":"BATAL","province":"LANAO DEL NORTE"},"type":"Feature","geometry":{"type":"Point","coordinates":[124.1659633,8.10474181]}},{"properties":{"latitude":8.10474181,"municipality":"MATUNGAO","longitude":124.1659633,"id":"ag3noqngkvhu","barangay":"BATANGAN","province":"LANAO DEL NORTE"},"type":"Feature","geometry":{"type":"Point","coordinates":[124.1659633,8.10474181]}},{"properties":{"latitude":8.2184843,"municipality":"MATUNGAO","longitude":124.2338376,"id":"ag3noqjmd6po","barangay":"PASAYANON","province":"LANAO DEL NORTE"},"type":"Feature","geometry":{"type":"Point","coordinates":[124.2338376,8.2184843]}},{"properties":{"latitude":8.09597685,"municipality":"MATUNGAO","longitude":124.1564259,"id":"ag3noqddqu26","barangay":"CADAYONAN","province":"LANAO DEL NORTE"},"type":"Feature","geometry":{"type":"Point","coordinates":[124.1564259,8.09597685]}},{"properties":{"latitude":8.09585043,"municipality":"MATUNGAO","longitude":124.1560524,"id":"ag3noqdyum7o","barangay":"SOMIORANG","province":"LANAO DEL NORTE"},"type":"Feature","geometry":{"type":"Point","coordinates":[124.1560524,8.09585043]}},{"properties":{"latitude":8.12938511,"municipality":"MATUNGAO","longitude":124.1884317,"id":"ag3noqj9usgb","barangay":"MATAMPAY","province":"LANAO DEL NORTE"},"type":"Feature","geometry":{"type":"Point","coordinates":[124.1884317,8.12938511]}},{"properties":{"latitude":8.2184759,"municipality":"MATUNGAO","longitude":124.2338252,"id":"ag3noqg7ovjb","barangay":"PANGI","province":"LANAO DEL NORTE"},"type":"Feature","geometry":{"type":"Point","coordinates":[124.2338252,8.2184759]}},{"properties":{"latitude":8.1222747,"municipality":"MATUNGAO","longitude":124.2163611,"id":"ag3noqkf00q5","barangay":"POBLACION","province":"LANAO DEL NORTE"},"type":"Feature","geometry":{"type":"Point","coordinates":[124.2163611,8.1222747]}},{"properties":{"latitude":8.09031664,"municipality":"BALOI","longitude":124.2178184,"id":"ag3noqkwmq12","barangay":"LUMBAC","province":"LANAO DEL NORTE"},"type":"Feature","geometry":{"type":"Point","coordinates":[124.2178184,8.09031664]}},{"properties":{"latitude":8.08015203,"municipality":"BALOI","longitude":124.2149157,"id":"ag3noqipj4jk","barangay":"MAMAANUN","province":"LANAO DEL NORTE"},"type":"Feature","geometry":{"type":"Point","coordinates":[124.2149157,8.08015203]}},{"properties":{"latitude":8.07377872,"municipality":"BALOI","longitude":124.217026,"id":"ag3noqikuqz3","barangay":"ANGAYEN (BALUT)","province":"LANAO DEL NORTE"},"type":"Feature","geometry":{"type":"Point","coordinates":[124.217026,8.07377872]}},{"properties":{"latitude":8.07377872,"municipality":"BALOI","longitude":124.217026,"id":"ag3noqh4o31g","barangay":"BASAGAD","province":"LANAO DEL NORTE"},"type":"Feature","geometry":{"type":"Point","coordinates":[124.217026,8.07377872]}},{"properties":{"latitude":8.07377872,"municipality":"BALOI","longitude":124.217026,"id":"ag3noqmngthf","barangay":"PACALUNDO","province":"LANAO DEL NORTE"},"type":"Feature","geometry":{"type":"Point","coordinates":[124.217026,8.07377872]}},{"properties":{"latitude":8.11529666,"municipality":"BALOI","longitude":124.2582357,"id":"ag3noqs9lz5k","barangay":"LANDA (GADONGAN)","province":"LANAO DEL NORTE"},"type":"Feature","geometry":{"type":"Point","coordinates":[124.2582357,8.11529666]}},{"properties":{"latitude":8.09451476,"municipality":"BALOI","longitude":124.228866,"id":"ag3noqhzvsgg","barangay":"ADAPUN-ALI (DARIAT)","province":"LANAO DEL NORTE"},"type":"Feature","geometry":{"type":"Point","coordinates":[124.228866,8.09451476]}},{"properties":{"latitude":8.09451476,"municipality":"BALOI","longitude":124.228866,"id":"ag3noqs0jujc","barangay":"CADAYONAN","province":"LANAO DEL NORTE"},"type":"Feature","geometry":{"type":"Point","coordinates":[124.228866,8.09451476]}},{"properties":{"latitude":8.11430686,"municipality":"BALOI","longitude":124.2229306,"id":"ag3noqoe7r02","barangay":"MARIA-CRISTINA","province":"LANAO DEL NORTE"},"type":"Feature","geometry":{"type":"Point","coordinates":[124.2229306,8.11430686]}},{"properties":{"latitude":8.115402,"municipality":"BALOI","longitude":124.2205574,"id":"ag3noqlnqwuj","barangay":"Sandor (Daduan)","province":"LANAO DEL NORTE"},"type":"Feature","geometry":{"type":"Point","coordinates":[124.2205574,8.115402]}},{"properties":{"latitude":8.115402,"municipality":"BALOI","longitude":124.2205574,"id":"ag3noqklj6dr","barangay":"Bangco","province":"LANAO DEL NORTE"},"type":"Feature","geometry":{"type":"Point","coordinates":[124.2205574,8.115402]}},{"properties":{"latitude":8.115402,"municipality":"BALOI","longitude":124.2205574,"id":"ag3noqr3e25v","barangay":"Angandog (Bulao)","province":"LANAO DEL NORTE"},"type":"Feature","geometry":{"type":"Point","coordinates":[124.2205574,8.115402]}},{"properties":{"latitude":8.14036216,"municipality":"BALOI","longitude":124.2353231,"id":"ag3noqoom7eq","barangay":"Buenavista","province":"LANAO DEL NORTE"},"type":"Feature","geometry":{"type":"Point","coordinates":[124.2353231,8.14036216]}},{"properties":{"latitude":8.14036216,"municipality":"BALOI","longitude":124.2353231,"id":"ag3noqp6ikub","barangay":"Sigayan","province":"LANAO DEL NORTE"},"type":"Feature","geometry":{"type":"Point","coordinates":[124.2353231,8.14036216]}},{"properties":{"latitude":8.14036216,"municipality":"BALOI","longitude":124.2353231,"id":"ag3noqeimfs7","barangay":"Matampay","province":"LANAO DEL NORTE"},"type":"Feature","geometry":{"type":"Point","coordinates":[124.2353231,8.14036216]}},{"properties":{"latitude":8.12909256,"municipality":"POONA PIAGAPO","longitude":124.1231809,"id":"ag3noqs7r9s8","barangay":"Pindolonan","province":"LANAO DEL NORTE"},"type":"Feature","geometry":{"type":"Point","coordinates":[124.1231809,8.12909256]}},{"properties":{"latitude":8.12909256,"municipality":"POONA PIAGAPO","longitude":124.1231809,"id":"ag3noqj1cgur","barangay":"Dinaig","province":"LANAO DEL NORTE"},"type":"Feature","geometry":{"type":"Point","coordinates":[124.1231809,8.12909256]}},{"properties":{"latitude":8.13371409,"municipality":"POONA PIAGAPO","longitude":124.1128323,"id":"ag3noqhvezcb","barangay":"ALOWIN","province":"LANAO DEL NORTE"},"type":"Feature","geometry":{"type":"Point","coordinates":[124.1128323,8.13371409]}},{"properties":{"latitude":8.08951965,"municipality":"POONA PIAGAPO","longitude":124.1339785,"id":"ag3noqkjvl8l","barangay":"Nunang","province":"LANAO DEL NORTE"},"type":"Feature","geometry":{"type":"Point","coordinates":[124.1339785,8.08951965]}},{"properties":{"latitude":8.08951965,"municipality":"POONA PIAGAPO","longitude":124.1339785,"id":"ag3noqre4y1n","barangay":"Madamba","province":"LANAO DEL NORTE"},"type":"Feature","geometry":{"type":"Point","coordinates":[124.1339785,8.08951965]}},{"properties":{"latitude":8.09032899,"municipality":"POONA PIAGAPO","longitude":124.1343547,"id":"ag3noqioa063","barangay":"Bubong-Dinaig","province":"LANAO DEL NORTE"},"type":"Feature","geometry":{"type":"Point","coordinates":[124.1343547,8.09032899]}},{"properties":{"latitude":7.50947472,"municipality":"BALABAGAN","longitude":124.1369744,"id":"ag3noqtlzqxw","barangay":"NARRA","province":"LANAO DEL SUR"},"type":"Feature","geometry":{"type":"Point","coordinates":[124.1369744,7.50947472]}},{"properties":{"latitude":7.5118685,"municipality":"BALABAGAN","longitude":124.1375985,"id":"ag3noqonp7qv","barangay":"MAGULALUNG OCCIDENTAL","province":"LANAO DEL SUR"},"type":"Feature","geometry":{"type":"Point","coordinates":[124.1375985,7.5118685]}},{"properties":{"latitude":8.0018127,"municipality":"BALABAGAN","longitude":124.2931623,"id":"ag3noqhazq3z","barangay":"UPPER ITIL","province":"LANAO DEL SUR"},"type":"Feature","geometry":{"type":"Point","coordinates":[124.2931623,8.0018127]}},{"properties":{"latitude":8.0018127,"municipality":"BALABAGAN","longitude":124.2931623,"id":"ag3noqsy1xym","barangay":"LOWER ITIL","province":"LANAO DEL SUR"},"type":"Feature","geometry":{"type":"Point","coordinates":[124.2931623,8.0018127]}},{"properties":{"latitude":7.52891668,"municipality":"BALABAGAN","longitude":124.1625006,"id":"ag3noqow4wc6","barangay":"PLASAN","province":"LANAO DEL SUR"},"type":"Feature","geometry":{"type":"Point","coordinates":[124.1625006,7.52891668]}},{"properties":{"latitude":8.0018127,"municipality":"BALABAGAN","longitude":124.2931623,"id":"ag3noqmn907y","barangay":"MACAO","province":"LANAO DEL SUR"},"type":"Feature","geometry":{"type":"Point","coordinates":[124.2931623,8.0018127]}},{"properties":{"latitude":7.55250515,"municipality":"BALABAGAN","longitude":124.0981701,"id":"ag3noqro1842","barangay":"MATAMPAY","province":"LANAO DEL SUR"},"type":"Feature","geometry":{"type":"Point","coordinates":[124.0981701,7.55250515]}},{"properties":{"latitude":7.53536282,"municipality":"BALABAGAN","longitude":124.1066482,"id":"ag3noqk3cibe","barangay":"MOLIMOC","province":"LANAO DEL SUR"},"type":"Feature","geometry":{"type":"Point","coordinates":[124.1066482,7.53536282]}},{"properties":{"latitude":8.0061122,"municipality":"BALABAGAN","longitude":124.2802962,"id":"ag3noqobrl0t","barangay":"BARORAO","province":"LANAO DEL SUR"},"type":"Feature","geometry":{"type":"Point","coordinates":[124.2802962,8.0061122]}},{"properties":{"latitude":7.55045384,"municipality":"BALABAGAN","longitude":124.1071938,"id":"ag3noqnjgmh6","barangay":"PURAKAN","province":"LANAO DEL SUR"},"type":"Feature","geometry":{"type":"Point","coordinates":[124.1071938,7.55045384]}},{"properties":{"latitude":7.55658458,"municipality":"BALABAGAN","longitude":124.124416,"id":"ag3noqkqo7i8","barangay":"MATANOG","province":"LANAO DEL SUR"},"type":"Feature","geometry":{"type":"Point","coordinates":[124.124416,7.55658458]}},{"properties":{"latitude":7.55617778,"municipality":"BALABAGAN","longitude":124.1338666,"id":"ag3noqm45h7f","barangay":"MAGULALUNG ORIENTAL","province":"LANAO DEL SUR"},"type":"Feature","geometry":{"type":"Point","coordinates":[124.1338666,7.55617778]}},{"properties":{"latitude":null,"municipality":"BALABAGAN","longitude":null,"id":"ag3noqikfv72","barangay":"ILIAN","province":"LANAO DEL SUR"},"type":"Feature","geometry":null},{"properties":{"latitude":7.56671781,"municipality":"BALABAGAN","longitude":124.1442799,"id":"ag3noqo9qlys","barangay":"PINDOLONAN","province":"LANAO DEL SUR"},"type":"Feature","geometry":{"type":"Point","coordinates":[124.1442799,7.56671781]}},{"properties":{"latitude":7.55638983,"municipality":"BALABAGAN","longitude":124.1331454,"id":"ag3noqj8yck8","barangay":"LUMBAC","province":"LANAO DEL SUR"},"type":"Feature","geometry":{"type":"Point","coordinates":[124.1331454,7.55638983]}},{"properties":{"latitude":7.55134211,"municipality":"BALABAGAN","longitude":124.1088927,"id":"ag3noqip47oj","barangay":"BUENAVISTA","province":"LANAO DEL SUR"},"type":"Feature","geometry":{"type":"Point","coordinates":[124.1088927,7.55134211]}},{"properties":{"latitude":7.5028213,"municipality":"BALABAGAN","longitude":124.1253509,"id":"ag3noqqxcf3b","barangay":"BAGOAINGUD","province":"LANAO DEL SUR"},"type":"Feature","geometry":{"type":"Point","coordinates":[124.1253509,7.5028213]}},{"properties":{"latitude":7.55129727,"municipality":"BALABAGAN","longitude":124.1090165,"id":"ag3noqnm4tl8","barangay":"BUISAN (BENGABENG)","province":"LANAO DEL SUR"},"type":"Feature","geometry":{"type":"Point","coordinates":[124.1090165,7.55129727]}},{"properties":{"latitude":7.5028213,"municipality":"BALABAGAN","longitude":124.1253509,"id":"ag3noqi6kq44","barangay":"TATAYA","province":"LANAO DEL SUR"},"type":"Feature","geometry":{"type":"Point","coordinates":[124.1253509,7.5028213]}},{"properties":{"latitude":7.5028213,"municipality":"BALABAGAN","longitude":124.1253509,"id":"ag3noqlnsp8t","barangay":"BATUAN","province":"LANAO DEL SUR"},"type":"Feature","geometry":{"type":"Point","coordinates":[124.1253509,7.5028213]}},{"properties":{"latitude":7.5895952,"municipality":"BALABAGAN","longitude":124.0707978,"id":"ag3noqokh6dq","barangay":"IGABAY","province":"LANAO DEL SUR"},"type":"Feature","geometry":{"type":"Point","coordinates":[124.0707978,7.5895952]}},{"properties":{"latitude":null,"municipality":"BALABAGAN","longitude":null,"id":"ag3noqjplieq","barangay":"CALILANGAN","province":"LANAO DEL SUR"},"type":"Feature","geometry":null},{"properties":{"latitude":7.54495288,"municipality":"BALABAGAN","longitude":124.1852271,"id":"ag3noqlf1bgp","barangay":"LALABUAN","province":"LANAO DEL SUR"},"type":"Feature","geometry":{"type":"Point","coordinates":[124.1852271,7.54495288]}},{"properties":{"latitude":7.89857046,"municipality":"BALINDONG (WATU)","longitude":124.2078198,"id":"ag3noqir0yn0","barangay":"INGUD","province":"LANAO DEL SUR"},"type":"Feature","geometry":{"type":"Point","coordinates":[124.2078198,7.89857046]}},{"properties":{"latitude":7.9150447,"municipality":"BALINDONG (WATU)","longitude":124.2114475,"id":"ag3noqg0yz3e","barangay":"MALAIG","province":"LANAO DEL SUR"},"type":"Feature","geometry":{"type":"Point","coordinates":[124.2114475,7.9150447]}},{"properties":{"latitude":7.9152356,"municipality":"BALINDONG (WATU)","longitude":124.2044184,"id":"ag3noqrpoh4n","barangay":"LUMBAYAO","province":"LANAO DEL SUR"},"type":"Feature","geometry":{"type":"Point","coordinates":[124.2044184,7.9152356]}},{"properties":{"latitude":7.9349936,"municipality":"BALINDONG (WATU)","longitude":124.2261967,"id":"ag3noqipkoqi","barangay":"PADILA","province":"LANAO DEL SUR"},"type":"Feature","geometry":{"type":"Point","coordinates":[124.2261967,7.9349936]}},{"properties":{"latitude":8.0000363,"municipality":"BALINDONG (WATU)","longitude":124.2922271,"id":"ag3noqnkrhok","barangay":"RAYA","province":"LANAO DEL SUR"},"type":"Feature","geometry":{"type":"Point","coordinates":[124.2922271,8.0000363]}},{"properties":{"latitude":7.588154,"municipality":"MALABANG","longitude":124.0676106,"id":"ag3noqlkf2i2","barangay":"BANDAY","province":"LANAO DEL SUR"},"type":"Feature","geometry":{"type":"Point","coordinates":[124.0676106,7.588154]}},{"properties":{"latitude":7.59283528,"municipality":"MALABANG","longitude":124.0685087,"id":"ag3noqn4zqyb","barangay":"BADAK","province":"LANAO DEL SUR"},"type":"Feature","geometry":{"type":"Point","coordinates":[124.0685087,7.59283528]}},{"properties":{"latitude":7.59338882,"municipality":"MALABANG","longitude":124.0692496,"id":"ag3noqohvjxq","barangay":"BADAK LUMAO","province":"LANAO DEL SUR"},"type":"Feature","geometry":{"type":"Point","coordinates":[124.0692496,7.59338882]}},{"properties":{"latitude":7.56518355,"municipality":"MALABANG","longitude":124.0803401,"id":"ag3noqhyttv5","barangay":"DIAMARO","province":"LANAO DEL SUR"},"type":"Feature","geometry":{"type":"Point","coordinates":[124.0803401,7.56518355]}},{"properties":{"latitude":8.0000483,"municipality":"MARAWI CITY (CAPITAL)","longitude":124.2924541,"id":"ag3noqhqkaju","barangay":"SANGCAY DANSALAN","province":"LANAO DEL SUR"},"type":"Feature","geometry":{"type":"Point","coordinates":[124.2924541,8.0000483]}},{"properties":{"latitude":8.0000483,"municipality":"MARAWI CITY (CAPITAL)","longitude":124.2924541,"id":"ag3noqn86l7d","barangay":"DANSALAN","province":"LANAO DEL SUR"},"type":"Feature","geometry":{"type":"Point","coordinates":[124.2924541,8.0000483]}},{"properties":{"latitude":7.9963583,"municipality":"MARAWI CITY (CAPITAL)","longitude":124.2770052,"id":"ag3noqn3pepx","barangay":"SABALA MANAO","province":"LANAO DEL SUR"},"type":"Feature","geometry":{"type":"Point","coordinates":[124.2770052,7.9963583]}},{"properties":{"latitude":8.0000483,"municipality":"MARAWI CITY (CAPITAL)","longitude":124.2924541,"id":"ag3noqmwwynk","barangay":"MONCADO KADINGILAN","province":"LANAO DEL SUR"},"type":"Feature","geometry":{"type":"Point","coordinates":[124.2924541,8.0000483]}},{"properties":{"latitude":7.99920708,"municipality":"MARAWI CITY (CAPITAL)","longitude":124.2995726,"id":"ag3noqktemyk","barangay":"TIMBANGALAN","province":"LANAO DEL SUR"},"type":"Feature","geometry":{"type":"Point","coordinates":[124.2995726,7.99920708]}},{"properties":{"latitude":7.85423558,"municipality":"MADALUM","longitude":124.1094309,"id":"ag3noqfc810z","barangay":"Punud","province":"LANAO DEL SUR"},"type":"Feature","geometry":{"type":"Point","coordinates":[124.1094309,7.85423558]}},{"properties":{"latitude":7.85423558,"municipality":"MADALUM","longitude":124.1094309,"id":"ag3noqtiwg5w","barangay":"Linuk","province":"LANAO DEL SUR"},"type":"Feature","geometry":{"type":"Point","coordinates":[124.1094309,7.85423558]}},{"properties":{"latitude":7.85361286,"municipality":"MADALUM","longitude":124.1136603,"id":"ag3noqhezsna","barangay":"Dilausan","province":"LANAO DEL SUR"},"type":"Feature","geometry":{"type":"Point","coordinates":[124.1136603,7.85361286]}},{"properties":{"latitude":7.85259465,"municipality":"MADALUM","longitude":124.1231033,"id":"ag3noqobkcc3","barangay":"Kormatan","province":"LANAO DEL SUR"},"type":"Feature","geometry":{"type":"Point","coordinates":[124.1231033,7.85259465]}},{"properties":{"latitude":7.8470048,"municipality":"MADALUM","longitude":124.139812,"id":"ag3noqjbu5qd","barangay":"Linao","province":"LANAO DEL SUR"},"type":"Feature","geometry":{"type":"Point","coordinates":[124.139812,7.8470048]}},{"properties":{"latitude":7.85140996,"municipality":"MADALUM","longitude":124.1202195,"id":"ag3noqf5rvkm","barangay":"Bato","province":"LANAO DEL SUR"},"type":"Feature","geometry":{"type":"Point","coordinates":[124.1202195,7.85140996]}},{"properties":{"latitude":6.86528973,"municipality":"SHARIFF AGUAK","longitude":124.4630511,"id":"ag3noql8xjcq","barangay":"TIMBANGAN","province":"MAGUINDANAO"},"type":"Feature","geometry":{"type":"Point","coordinates":[124.4630511,6.86528973]}},{"properties":{"latitude":7.2772626,"municipality":"SULTAN KUDARAT","longitude":124.3062272,"id":"ag3noqgsk9kf","barangay":"CROSSING SIMUAY","province":"MAGUINDANAO"},"type":"Feature","geometry":{"type":"Point","coordinates":[124.3062272,7.2772626]}},{"properties":{"latitude":7.2005735,"municipality":"TALAYAN","longitude":124.2442412,"id":"ag3noqrwwk60","barangay":"LANTING","province":"MAGUINDANAO"},"type":"Feature","geometry":{"type":"Point","coordinates":[124.2442412,7.2005735]}},{"properties":{"latitude":6.97819672,"municipality":"GUINDULUNGAN","longitude":124.3850088,"id":"ag3noqsvjswd","barangay":"TAMBUNAN II","province":"MAGUINDANAO"},"type":"Feature","geometry":{"type":"Point","coordinates":[124.3850088,6.97819672]}},{"properties":{"latitude":6.97778982,"municipality":"GUINDULUNGAN","longitude":124.3840687,"id":"ag3noqg7z7n2","barangay":"MUTI","province":"MAGUINDANAO"},"type":"Feature","geometry":{"type":"Point","coordinates":[124.3840687,6.97778982]}},{"properties":{"latitude":6.86528973,"municipality":"SHARIFF AGUAK","longitude":124.4630511,"id":"ag3noqo0jv8i","barangay":"KULOY","province":"MAGUINDANAO"},"type":"Feature","geometry":{"type":"Point","coordinates":[124.4630511,6.86528973]}},{"properties":{"latitude":7.2005735,"municipality":"TALAYAN","longitude":124.2442412,"id":"ag3noqs32abt","barangay":"MARADER","province":"MAGUINDANAO"},"type":"Feature","geometry":{"type":"Point","coordinates":[124.2442412,7.2005735]}},{"properties":{"latitude":7.27121308,"municipality":"SULTAN KUDARAT","longitude":124.2917138,"id":"ag3noqpba4w9","barangay":"MAKAGUILING","province":"MAGUINDANAO"},"type":"Feature","geometry":{"type":"Point","coordinates":[124.2917138,7.27121308]}},{"properties":{"latitude":7.2176435,"municipality":"SULTAN KUDARAT","longitude":124.2506207,"id":"ag3noqiuirf6","barangay":"GANG","province":"MAGUINDANAO"},"type":"Feature","geometry":{"type":"Point","coordinates":[124.2506207,7.2176435]}},{"properties":{"latitude":6.89850584,"municipality":"SHARIFF AGUAK","longitude":124.4580299,"id":"ag3noqtdpf9o","barangay":"BAGONG","province":"MAGUINDANAO"},"type":"Feature","geometry":{"type":"Point","coordinates":[124.4580299,6.89850584]}},{"properties":{"latitude":6.98867913,"municipality":"GUINDULUNGAN","longitude":124.4036139,"id":"ag3noqqe3tbs","barangay":"SAMPAO","province":"MAGUINDANAO"},"type":"Feature","geometry":{"type":"Point","coordinates":[124.4036139,6.98867913]}},{"properties":{"latitude":6.90381956,"municipality":"TALAYAN","longitude":124.3007451,"id":"ag3noqhrpo6x","barangay":"FUKOL","province":"MAGUINDANAO"},"type":"Feature","geometry":{"type":"Point","coordinates":[124.3007451,6.90381956]}},{"properties":{"latitude":7.2298197,"municipality":"SULTAN KUDARAT","longitude":124.2429215,"id":"ag3noqjogfg6","barangay":"KATULI","province":"MAGUINDANAO"},"type":"Feature","geometry":{"type":"Point","coordinates":[124.2429215,7.2298197]}},{"properties":{"latitude":6.8607901,"municipality":"SHARIFF AGUAK","longitude":124.4580401,"id":"ag3noqdinpnn","barangay":"LAPOK (LEPOK)","province":"MAGUINDANAO"},"type":"Feature","geometry":{"type":"Point","coordinates":[124.4580401,6.8607901]}},{"properties":{"latitude":7.1091594,"municipality":"TALAYAN","longitude":124.474383,"id":"ag3noqrha1za","barangay":"BOBOGUIRON","province":"MAGUINDANAO"},"type":"Feature","geometry":{"type":"Point","coordinates":[124.474383,7.1091594]}},{"properties":{"latitude":6.90371137,"municipality":"TALAYAN","longitude":124.3007022,"id":"ag3noqnyuwez","barangay":"FUGOTAN","province":"MAGUINDANAO"},"type":"Feature","geometry":{"type":"Point","coordinates":[124.3007022,6.90371137]}},{"properties":{"latitude":7.25842042,"municipality":"SULTAN KUDARAT","longitude":124.2793646,"id":"ag3noqij9qfu","barangay":"REBUKEN","province":"MAGUINDANAO"},"type":"Feature","geometry":{"type":"Point","coordinates":[124.2793646,7.25842042]}},{"properties":{"latitude":null,"municipality":"SHARIFF AGUAK","longitude":null,"id":"ag3noqol1was","barangay":"BIALONG","province":"MAGUINDANAO"},"type":"Feature","geometry":null},{"properties":{"latitude":6.95950437,"municipality":"GUINDULUNGAN","longitude":124.396928,"id":"ag3noqesbuwb","barangay":"MACASAMPEN","province":"MAGUINDANAO"},"type":"Feature","geometry":{"type":"Point","coordinates":[124.396928,6.95950437]}},{"properties":{"latitude":7.25850666,"municipality":"SULTAN KUDARAT","longitude":124.2793357,"id":"ag3noqqwluau","barangay":"MULAUG","province":"MAGUINDANAO"},"type":"Feature","geometry":{"type":"Point","coordinates":[124.2793357,7.25850666]}},{"properties":{"latitude":7.2113865,"municipality":"SULTAN KUDARAT","longitude":124.326668,"id":"ag3noqt0rzks","barangay":"NARRA","province":"MAGUINDANAO"},"type":"Feature","geometry":{"type":"Point","coordinates":[124.326668,7.2113865]}},{"properties":{"latitude":6.92469393,"municipality":"SHARIFF AGUAK","longitude":124.47064,"id":"ag3noqkpo0wc","barangay":"MALINGAO","province":"MAGUINDANAO"},"type":"Feature","geometry":{"type":"Point","coordinates":[124.47064,6.92469393]}},{"properties":{"latitude":7.2113865,"municipality":"SULTAN KUDARAT","longitude":124.326668,"id":"ag3noqni9qim","barangay":"PIGKELEGAN (IBOTEGEN)","province":"MAGUINDANAO"},"type":"Feature","geometry":{"type":"Point","coordinates":[124.326668,7.2113865]}},{"properties":{"latitude":7.02083889,"municipality":"TALAYAN","longitude":124.4047672,"id":"ag3noqfko5xt","barangay":"LINAMUNAN","province":"MAGUINDANAO"},"type":"Feature","geometry":{"type":"Point","coordinates":[124.4047672,7.02083889]}},{"properties":{"latitude":7.2260595,"municipality":"SHARIFF AGUAK","longitude":124.2335703,"id":"ag3noqlzea3e","barangay":"TINA","province":"MAGUINDANAO"},"type":"Feature","geometry":{"type":"Point","coordinates":[124.2335703,7.2260595]}},{"properties":{"latitude":7.21720309,"municipality":"GUINDULUNGAN","longitude":124.2524021,"id":"ag3noqt3mnoc","barangay":"BAGAN","province":"MAGUINDANAO"},"type":"Feature","geometry":{"type":"Point","coordinates":[124.2524021,7.21720309]}},{"properties":{"latitude":7.2172248,"municipality":"GUINDULUNGAN","longitude":124.2496106,"id":"ag3noqt7tgmk","barangay":"MUSLIM","province":"MAGUINDANAO"},"type":"Feature","geometry":{"type":"Point","coordinates":[124.2496106,7.2172248]}},{"properties":{"latitude":7.27109708,"municipality":"SULTAN KUDARAT","longitude":124.2915423,"id":"ag3noqgcin6s","barangay":"DAMANIOG","province":"MAGUINDANAO"},"type":"Feature","geometry":{"type":"Point","coordinates":[124.2915423,7.27109708]}},{"properties":{"latitude":7.18492647,"municipality":"SHARIFF AGUAK","longitude":124.2264683,"id":"ag3noqq3n4y2","barangay":"SATAN","province":"MAGUINDANAO"},"type":"Feature","geometry":{"type":"Point","coordinates":[124.2264683,7.18492647]}},{"properties":{"latitude":7.2159149,"municipality":"TALAYAN","longitude":124.2467699,"id":"ag3noqrmz7pf","barangay":"DAMABLAC","province":"MAGUINDANAO"},"type":"Feature","geometry":{"type":"Point","coordinates":[124.2467699,7.2159149]}},{"properties":{"latitude":7.27109708,"municipality":"SULTAN KUDARAT","longitude":124.2915423,"id":"ag3noqpnug32","barangay":"PANATAN","province":"MAGUINDANAO"},"type":"Feature","geometry":{"type":"Point","coordinates":[124.2915423,7.27109708]}},{"properties":{"latitude":6.8587148,"municipality":"SHARIFF AGUAK","longitude":124.4484641,"id":"ag3noqqo8lmy","barangay":"LABU-LABU","province":"MAGUINDANAO"},"type":"Feature","geometry":{"type":"Point","coordinates":[124.4484641,6.8587148]}},{"properties":{"latitude":7.2159149,"municipality":"TALAYAN","longitude":124.2467699,"id":"ag3noqexzesw","barangay":"KATIBPUAN","province":"MAGUINDANAO"},"type":"Feature","geometry":{"type":"Point","coordinates":[124.2467699,7.2159149]}},{"properties":{"latitude":6.9831768,"municipality":"GUINDULUNGAN","longitude":124.3676049,"id":"ag3noqemaf4t","barangay":"LAMBAYAO","province":"MAGUINDANAO"},"type":"Feature","geometry":{"type":"Point","coordinates":[124.3676049,6.9831768]}},{"properties":{"latitude":6.957623,"municipality":"GUINDULUNGAN","longitude":124.3350588,"id":"ag3noqdppzif","barangay":"AHAN","province":"MAGUINDANAO"},"type":"Feature","geometry":{"type":"Point","coordinates":[124.3350588,6.957623]}},{"properties":{"latitude":6.73155396,"municipality":"BULUAN","longitude":124.8260394,"id":"ag3noqi1sroh","barangay":"DIGAL","province":"MAGUINDANAO"},"type":"Feature","geometry":{"type":"Point","coordinates":[124.8260394,6.73155396]}},{"properties":{"latitude":7.27097295,"municipality":"SULTAN KUDARAT","longitude":124.2915871,"id":"ag3noqpamym3","barangay":"NEKITAN","province":"MAGUINDANAO"},"type":"Feature","geometry":{"type":"Point","coordinates":[124.2915871,7.27097295]}},{"properties":{"latitude":7.26350608,"municipality":"SULTAN KUDARAT","longitude":124.3537752,"id":"ag3noqmvilfw","barangay":"PIGCALAGAN","province":"MAGUINDANAO"},"type":"Feature","geometry":{"type":"Point","coordinates":[124.3537752,7.26350608]}},{"properties":{"latitude":7.2247057,"municipality":"GUINDULUNGAN","longitude":124.2441024,"id":"ag3noqodf8kl","barangay":"KATEMAN","province":"MAGUINDANAO"},"type":"Feature","geometry":{"type":"Point","coordinates":[124.2441024,7.2247057]}},{"properties":{"latitude":7.21134829,"municipality":"SULTAN KUDARAT","longitude":124.2718386,"id":"ag3noqkws49l","barangay":"NALINAN","province":"MAGUINDANAO"},"type":"Feature","geometry":{"type":"Point","coordinates":[124.2718386,7.21134829]}},{"properties":{"latitude":7.21261692,"municipality":"BULUAN","longitude":124.2535757,"id":"ag3noqoau64m","barangay":"UPPER SILING","province":"MAGUINDANAO"},"type":"Feature","geometry":{"type":"Point","coordinates":[124.2535757,7.21261692]}},{"properties":{"latitude":7.21119993,"municipality":"SULTAN KUDARAT","longitude":124.2718726,"id":"ag3noqg31j6f","barangay":"BULIBOD","province":"MAGUINDANAO"},"type":"Feature","geometry":{"type":"Point","coordinates":[124.2718726,7.21119993]}},{"properties":{"latitude":7.33969459,"municipality":"SULTAN KUDARAT","longitude":124.3571771,"id":"ag3noqjm5581","barangay":"PINGPING","province":"MAGUINDANAO"},"type":"Feature","geometry":{"type":"Point","coordinates":[124.3571771,7.33969459]}},{"properties":{"latitude":6.8606752,"municipality":"SOUTH UPI","longitude":124.1436946,"id":"ag3noqq7ov8b","barangay":"ROMANGAOB (POB.)","province":"MAGUINDANAO"},"type":"Feature","geometry":{"type":"Point","coordinates":[124.1436946,6.8606752]}},{"properties":{"latitude":6.96748809,"municipality":"GUINDULUNGAN","longitude":124.3818847,"id":"ag3noqfbtsba","barangay":"DATALPANDAN","province":"MAGUINDANAO"},"type":"Feature","geometry":{"type":"Point","coordinates":[124.3818847,6.96748809]}},{"properties":{"latitude":6.71986562,"municipality":"BULUAN","longitude":124.7980045,"id":"ag3noql6a6h9","barangay":"LOWER SILING","province":"MAGUINDANAO"},"type":"Feature","geometry":{"type":"Point","coordinates":[124.7980045,6.71986562]}},{"properties":{"latitude":7.33969459,"municipality":"SULTAN KUDARAT","longitude":124.3571771,"id":"ag3noqqiujpd","barangay":"DARAPANAN","province":"MAGUINDANAO"},"type":"Feature","geometry":{"type":"Point","coordinates":[124.3571771,7.33969459]}},{"properties":{"latitude":6.71107768,"municipality":"BULUAN","longitude":124.7976717,"id":"ag3noql9y80z","barangay":"POBLACION","province":"MAGUINDANAO"},"type":"Feature","geometry":{"type":"Point","coordinates":[124.7976717,6.71107768]}},{"properties":{"latitude":6.8606752,"municipality":"SOUTH UPI","longitude":124.1436946,"id":"ag3noql48kho","barangay":"BONGO","province":"MAGUINDANAO"},"type":"Feature","geometry":{"type":"Point","coordinates":[124.1436946,6.8606752]}},{"properties":{"latitude":7.22164992,"municipality":"PARANG","longitude":124.2469169,"id":"ag3noqe4365k","barangay":"BARANGAY POBLACION 2","province":"MAGUINDANAO"},"type":"Feature","geometry":{"type":"Point","coordinates":[124.2469169,7.22164992]}},{"properties":{"latitude":7.0437616,"municipality":"DATU PIANG","longitude":124.5230384,"id":"ag3noqswy56q","barangay":"BUAYAN","province":"MAGUINDANAO"},"type":"Feature","geometry":{"type":"Point","coordinates":[124.5230384,7.0437616]}},{"properties":{"latitude":6.8606752,"municipality":"SOUTH UPI","longitude":124.1436946,"id":"ag3noqov6jyq","barangay":"BIARONG","province":"MAGUINDANAO"},"type":"Feature","geometry":{"type":"Point","coordinates":[124.1436946,6.8606752]}},{"properties":{"latitude":6.6847765,"municipality":"BULUAN","longitude":124.6740998,"id":"ag3noqhx6zb9","barangay":"POPOL","province":"MAGUINDANAO"},"type":"Feature","geometry":{"type":"Point","coordinates":[124.6740998,6.6847765]}},{"properties":{"latitude":7.02672907,"municipality":"DATU PIANG","longitude":124.5025935,"id":"ag3noqdym7s0","barangay":"BALANAKAN","province":"MAGUINDANAO"},"type":"Feature","geometry":{"type":"Point","coordinates":[124.5025935,7.02672907]}},{"properties":{"latitude":6.67453204,"municipality":"BULUAN","longitude":124.8078677,"id":"ag3noqru23o4","barangay":"MASLABENG","province":"MAGUINDANAO"},"type":"Feature","geometry":{"type":"Point","coordinates":[124.8078677,6.67453204]}},{"properties":{"latitude":7.2216247,"municipality":"SOUTH UPI","longitude":124.2450783,"id":"ag3noqjulmnf","barangay":"PANDAN","province":"MAGUINDANAO"},"type":"Feature","geometry":{"type":"Point","coordinates":[124.2450783,7.2216247]}},{"properties":{"latitude":7.21730361,"municipality":"DATU PIANG","longitude":124.2522366,"id":"ag3noqg54g97","barangay":"MAGASLONG","province":"MAGUINDANAO"},"type":"Feature","geometry":{"type":"Point","coordinates":[124.2522366,7.21730361]}},{"properties":{"latitude":7.03674792,"municipality":"UPI","longitude":124.1710821,"id":"ag3noqnh8y2t","barangay":"MIRAB","province":"MAGUINDANAO"},"type":"Feature","geometry":{"type":"Point","coordinates":[124.1710821,7.03674792]}},{"properties":{"latitude":6.1191225,"municipality":"DATU PIANG","longitude":125.1834001,"id":"ag3noqe3u3f2","barangay":"LIONG","province":"MAGUINDANAO"},"type":"Feature","geometry":{"type":"Point","coordinates":[125.1834001,6.1191225]}},{"properties":{"latitude":6.5640548,"municipality":"BULUAN","longitude":124.769872,"id":"ag3noqftsksd","barangay":"TALITAY","province":"MAGUINDANAO"},"type":"Feature","geometry":{"type":"Point","coordinates":[124.769872,6.5640548]}},{"properties":{"latitude":7.02809078,"municipality":"DATU ODIN SINSUAT","longitude":124.3129343,"id":"ag3noqka1y4j","barangay":"MAKIR","province":"MAGUINDANAO"},"type":"Feature","geometry":{"type":"Point","coordinates":[124.3129343,7.02809078]}},{"properties":{"latitude":7.214844,"municipality":"MAMASAPANO","longitude":124.2523803,"id":"ag3noqiqp84m","barangay":"LIBUTAN","province":"MAGUINDANAO"},"type":"Feature","geometry":{"type":"Point","coordinates":[124.2523803,7.214844]}},{"properties":{"latitude":7.02302303,"municipality":"DATU ODIN SINSUAT","longitude":124.3154163,"id":"ag3noqi419b6","barangay":"KURINTEM","province":"MAGUINDANAO"},"type":"Feature","geometry":{"type":"Point","coordinates":[124.3154163,7.02302303]}},{"properties":{"latitude":7.09723475,"municipality":"DATU ODIN SINSUAT","longitude":124.3142333,"id":"ag3noqgz9oo8","barangay":"BAKA","province":"MAGUINDANAO"},"type":"Feature","geometry":{"type":"Point","coordinates":[124.3142333,7.09723475]}},{"properties":{"latitude":7.21730774,"municipality":"DATU PIANG","longitude":124.2522281,"id":"ag3noqfzlii8","barangay":"DADO","province":"MAGUINDANAO"},"type":"Feature","geometry":{"type":"Point","coordinates":[124.2522281,7.21730774]}},{"properties":{"latitude":7.03672452,"municipality":"SHARIFF AGUAK","longitude":124.1712795,"id":"ag3noqtm37t6","barangay":"TAPIKAN","province":"MAGUINDANAO"},"type":"Feature","geometry":{"type":"Point","coordinates":[124.1712795,7.03672452]}},{"properties":{"latitude":7.1247446,"municipality":"DATU ODIN SINSUAT","longitude":124.3046283,"id":"ag3noqp84lgp","barangay":"BITU","province":"MAGUINDANAO"},"type":"Feature","geometry":{"type":"Point","coordinates":[124.3046283,7.1247446]}},{"properties":{"latitude":7.37212238,"municipality":"PARANG","longitude":124.314987,"id":"ag3noqsv4rln","barangay":"SAMBEREN","province":"MAGUINDANAO"},"type":"Feature","geometry":{"type":"Point","coordinates":[124.314987,7.37212238]}},{"properties":{"latitude":7.02631191,"municipality":"DATU PIANG","longitude":124.503537,"id":"ag3noqtbjtck","barangay":"BALONG","province":"MAGUINDANAO"},"type":"Feature","geometry":{"type":"Point","coordinates":[124.503537,7.02631191]}},{"properties":{"latitude":7.2131157,"municipality":"SOUTH UPI","longitude":124.2414241,"id":"ag3noqmhl2wm","barangay":"ITAW","province":"MAGUINDANAO"},"type":"Feature","geometry":{"type":"Point","coordinates":[124.2414241,7.2131157]}},{"properties":{"latitude":7.02631191,"municipality":"DATU PIANG","longitude":124.503537,"id":"ag3noqp8sevd","barangay":"MONTAY","province":"MAGUINDANAO"},"type":"Feature","geometry":{"type":"Point","coordinates":[124.503537,7.02631191]}},{"properties":{"latitude":7.02631191,"municipality":"DATU PIANG","longitude":124.503537,"id":"ag3noqe7j9o7","barangay":"DAMABALAS","province":"MAGUINDANAO"},"type":"Feature","geometry":{"type":"Point","coordinates":[124.503537,7.02631191]}},{"properties":{"latitude":7.36236585,"municipality":"PARANG","longitude":124.3425572,"id":"ag3noqspytjf","barangay":"KABUAN","province":"MAGUINDANAO"},"type":"Feature","geometry":{"type":"Point","coordinates":[124.3425572,7.36236585]}},{"properties":{"latitude":7.2131157,"municipality":"SOUTH UPI","longitude":124.2414241,"id":"ag3noqeie6e1","barangay":"KIGAN","province":"MAGUINDANAO"},"type":"Feature","geometry":{"type":"Point","coordinates":[124.2414241,7.2131157]}},{"properties":{"latitude":7.02757528,"municipality":"DATU PIANG","longitude":124.4998104,"id":"ag3noqiqfq37","barangay":"REINA REGENTE","province":"MAGUINDANAO"},"type":"Feature","geometry":{"type":"Point","coordinates":[124.4998104,7.02757528]}},{"properties":{"latitude":7.02774221,"municipality":"DATU PIANG","longitude":124.4995995,"id":"ag3noqrbha89","barangay":"AMBADAO","province":"MAGUINDANAO"},"type":"Feature","geometry":{"type":"Point","coordinates":[124.4995995,7.02774221]}},{"properties":{"latitude":7.08907422,"municipality":"DATU PIANG","longitude":124.4408399,"id":"ag3noqon9wtt","barangay":"DUAMINANGA","province":"MAGUINDANAO"},"type":"Feature","geometry":{"type":"Point","coordinates":[124.4408399,7.08907422]}},{"properties":{"latitude":7.38864786,"municipality":"PARANG","longitude":124.2950234,"id":"ag3noqdq96j7","barangay":"MANION","province":"MAGUINDANAO"},"type":"Feature","geometry":{"type":"Point","coordinates":[124.2950234,7.38864786]}},{"properties":{"latitude":6.87147556,"municipality":"UPI","longitude":124.2550262,"id":"ag3noqmcudut","barangay":"GANASI","province":"MAGUINDANAO"},"type":"Feature","geometry":{"type":"Point","coordinates":[124.2550262,6.87147556]}},{"properties":{"latitude":7.2293008,"municipality":"PARANG","longitude":124.2564533,"id":"ag3noqh7mbdt","barangay":"GUMAGADONG CALAWAG","province":"MAGUINDANAO"},"type":"Feature","geometry":{"type":"Point","coordinates":[124.2564533,7.2293008]}},{"properties":{"latitude":6.88104718,"municipality":"DATU PIANG","longitude":124.4346518,"id":"ag3noqk2ytpw","barangay":"MASIGAY","province":"MAGUINDANAO"},"type":"Feature","geometry":{"type":"Point","coordinates":[124.4346518,6.88104718]}},{"properties":{"latitude":6.88104718,"municipality":"DATU UNSAY","longitude":124.4346518,"id":"ag3noqll741q","barangay":"META","province":"MAGUINDANAO"},"type":"Feature","geometry":{"type":"Point","coordinates":[124.4346518,6.88104718]}},{"properties":{"latitude":6.8607901,"municipality":"MAMASAPANO","longitude":124.4580401,"id":"ag3noqrdpdll","barangay":"LUSAY","province":"MAGUINDANAO"},"type":"Feature","geometry":{"type":"Point","coordinates":[124.4580401,6.8607901]}},{"properties":{"latitude":6.93078378,"municipality":"MAMASAPANO","longitude":124.5112364,"id":"ag3noqewtpbt","barangay":"PIMBALAKAN","province":"MAGUINDANAO"},"type":"Feature","geometry":{"type":"Point","coordinates":[124.5112364,6.93078378]}},{"properties":{"latitude":6.9547851,"municipality":"MAMASAPANO","longitude":124.4977922,"id":"ag3noqnnvsui","barangay":"BAGUMBONG","province":"MAGUINDANAO"},"type":"Feature","geometry":{"type":"Point","coordinates":[124.4977922,6.9547851]}},{"properties":{"latitude":6.8607901,"municipality":"MAMASAPANO","longitude":124.4580401,"id":"ag3noqh9orpo","barangay":"SAPAKAN (POB.)","province":"MAGUINDANAO"},"type":"Feature","geometry":{"type":"Point","coordinates":[124.4580401,6.8607901]}},{"properties":{"latitude":7.21594023,"municipality":"UPI","longitude":124.2469226,"id":"ag3noqknt9fm","barangay":"KIBLEG","province":"MAGUINDANAO"},"type":"Feature","geometry":{"type":"Point","coordinates":[124.2469226,7.21594023]}},{"properties":{"latitude":6.8607901,"municipality":"MAMASAPANO","longitude":124.4580401,"id":"ag3noqkfph8o","barangay":"PIDSANDAWAN","province":"MAGUINDANAO"},"type":"Feature","geometry":{"type":"Point","coordinates":[124.4580401,6.8607901]}},{"properties":{"latitude":7.38202199,"municipality":"PARANG","longitude":124.3370591,"id":"ag3noqkzw1nt","barangay":"ORANDANG","province":"MAGUINDANAO"},"type":"Feature","geometry":{"type":"Point","coordinates":[124.3370591,7.38202199]}},{"properties":{"latitude":6.9547851,"municipality":"MAMASAPANO","longitude":124.4977922,"id":"ag3noqov4y31","barangay":"DALADAP","province":"MAGUINDANAO"},"type":"Feature","geometry":{"type":"Point","coordinates":[124.4977922,6.9547851]}},{"properties":{"latitude":7.21594023,"municipality":"UPI","longitude":124.2469226,"id":"ag3noqkvz9kj","barangay":"KIBUCAY","province":"MAGUINDANAO"},"type":"Feature","geometry":{"type":"Point","coordinates":[124.2469226,7.21594023]}},{"properties":{"latitude":6.90174648,"municipality":"MAMASAPANO","longitude":124.5207746,"id":"ag3noqdlmtj8","barangay":"MAMASAPANO","province":"MAGUINDANAO"},"type":"Feature","geometry":{"type":"Point","coordinates":[124.5207746,6.90174648]}},{"properties":{"latitude":6.9090723,"municipality":"MAMASAPANO","longitude":124.533377,"id":"ag3noqqxuffg","barangay":"TUKA","province":"MAGUINDANAO"},"type":"Feature","geometry":{"type":"Point","coordinates":[124.533377,6.9090723]}},{"properties":{"latitude":6.92488941,"municipality":"MAMASAPANO","longitude":124.512403,"id":"ag3noqso8af7","barangay":"TUKANALIPAO","province":"MAGUINDANAO"},"type":"Feature","geometry":{"type":"Point","coordinates":[124.512403,6.92488941]}},{"properties":{"latitude":7.07093866,"municipality":"DATU ODIN SINSUAT","longitude":124.3228645,"id":"ag3noqn87y1e","barangay":"SAPALAN","province":"MAGUINDANAO"},"type":"Feature","geometry":{"type":"Point","coordinates":[124.3228645,7.07093866]}},{"properties":{"latitude":6.95744595,"municipality":"MAMASAPANO","longitude":124.5015704,"id":"ag3noqruxjbg","barangay":"LIAB","province":"MAGUINDANAO"},"type":"Feature","geometry":{"type":"Point","coordinates":[124.5015704,6.95744595]}},{"properties":{"latitude":7.06337624,"municipality":"MAMASAPANO","longitude":124.3135281,"id":"ag3noqigoas4","barangay":"DASIKIL","province":"MAGUINDANAO"},"type":"Feature","geometry":{"type":"Point","coordinates":[124.3135281,7.06337624]}},{"properties":{"latitude":7.21598308,"municipality":"DATU ODIN SINSUAT","longitude":124.2466384,"id":"ag3noqksyduv","barangay":"BUGAWAS","province":"MAGUINDANAO"},"type":"Feature","geometry":{"type":"Point","coordinates":[124.2466384,7.21598308]}},{"properties":{"latitude":6.95901493,"municipality":"MAMASAPANO","longitude":124.4929132,"id":"ag3noqtlgd5u","barangay":"DABENAYAN","province":"MAGUINDANAO"},"type":"Feature","geometry":{"type":"Point","coordinates":[124.4929132,6.95901493]}},{"properties":{"latitude":7.2156901,"municipality":"DATU ODIN SINSUAT","longitude":124.2523468,"id":"ag3noqi62bn4","barangay":"LABUNGAN","province":"MAGUINDANAO"},"type":"Feature","geometry":{"type":"Point","coordinates":[124.2523468,7.2156901]}},{"properties":{"latitude":7.01978009,"municipality":"DATU ODIN SINSUAT","longitude":124.2619411,"id":"ag3noqs8kxol","barangay":"SIBUTO","province":"MAGUINDANAO"},"type":"Feature","geometry":{"type":"Point","coordinates":[124.2619411,7.01978009]}},{"properties":{"latitude":7.1621869,"municipality":"DATU ODIN SINSUAT","longitude":124.2170162,"id":"ag3noqs4okh7","barangay":"SIFAREN (SIFARAN)","province":"MAGUINDANAO"},"type":"Feature","geometry":{"type":"Point","coordinates":[124.2170162,7.1621869]}},{"properties":{"latitude":7.2156901,"municipality":"DATU ODIN SINSUAT","longitude":124.2523468,"id":"ag3noqdcd4l6","barangay":"SEMBA","province":"MAGUINDANAO"},"type":"Feature","geometry":{"type":"Point","coordinates":[124.2523468,7.2156901]}},{"properties":{"latitude":7.01978009,"municipality":"DATU ODIN SINSUAT","longitude":124.2619411,"id":"ag3noqoicf0p","barangay":"KENEBEKA","province":"MAGUINDANAO"},"type":"Feature","geometry":{"type":"Point","coordinates":[124.2619411,7.01978009]}},{"properties":{"latitude":7.21730179,"municipality":"TALITAY","longitude":124.2522507,"id":"ag3noqrww4ja","barangay":"GADUNGAN","province":"MAGUINDANAO"},"type":"Feature","geometry":{"type":"Point","coordinates":[124.2522507,7.21730179]}},{"properties":{"latitude":7.04427377,"municipality":"TALITAY","longitude":124.3876987,"id":"ag3noqsvelyx","barangay":"PAGEDA","province":"MAGUINDANAO"},"type":"Feature","geometry":{"type":"Point","coordinates":[124.3876987,7.04427377]}},{"properties":{"latitude":7.02320142,"municipality":"TALITAY","longitude":124.3790522,"id":"ag3noqmbh4mi","barangay":"KILADAP","province":"MAGUINDANAO"},"type":"Feature","geometry":{"type":"Point","coordinates":[124.3790522,7.02320142]}},{"properties":{"latitude":7.01521557,"municipality":"TALITAY","longitude":124.3881372,"id":"ag3noqru2ook","barangay":"MAKADAYON","province":"MAGUINDANAO"},"type":"Feature","geometry":{"type":"Point","coordinates":[124.3881372,7.01521557]}},{"properties":{"latitude":7.03520965,"municipality":"TALITAY","longitude":124.3743549,"id":"ag3noqrubrn8","barangay":"MANGGAY","province":"MAGUINDANAO"},"type":"Feature","geometry":{"type":"Point","coordinates":[124.3743549,7.03520965]}},{"properties":{"latitude":6.90307031,"municipality":"DATU UNSAY","longitude":124.4250105,"id":"ag3noqh4q0m7","barangay":"IGANAGAMPONG","province":"MAGUINDANAO"},"type":"Feature","geometry":{"type":"Point","coordinates":[124.4250105,6.90307031]}},{"properties":{"latitude":6.88163697,"municipality":"DATU UNSAY","longitude":124.4357649,"id":"ag3noqkkb5ad","barangay":"MAITUMAIG","province":"MAGUINDANAO"},"type":"Feature","geometry":{"type":"Point","coordinates":[124.4357649,6.88163697]}},{"properties":{"latitude":7.14859207,"municipality":"DATU SAUDI-AMPATUAN","longitude":124.279583,"id":"ag3noqmygp9a","barangay":"KITANGO","province":"MAGUINDANAO"},"type":"Feature","geometry":{"type":"Point","coordinates":[124.279583,7.14859207]}},{"properties":{"latitude":6.92901842,"municipality":"DATU SAUDI-AMPATUAN","longitude":124.4133168,"id":"ag3noqolhgx1","barangay":"SALBU","province":"MAGUINDANAO"},"type":"Feature","geometry":{"type":"Point","coordinates":[124.4133168,6.92901842]}},{"properties":{"latitude":6.96407096,"municipality":"DATU SAUDI-AMPATUAN","longitude":124.4645503,"id":"ag3noqlolv43","barangay":"MADIA","province":"MAGUINDANAO"},"type":"Feature","geometry":{"type":"Point","coordinates":[124.4645503,6.96407096]}},{"properties":{"latitude":6.90307031,"municipality":"DATU SAUDI-AMPATUAN","longitude":124.4250105,"id":"ag3noqiphmfv","barangay":"KABENGI","province":"MAGUINDANAO"},"type":"Feature","geometry":{"type":"Point","coordinates":[124.4250105,6.90307031]}},{"properties":{"latitude":6.96304509,"municipality":"DATU SAUDI-AMPATUAN","longitude":124.4653225,"id":"ag3noqivmkk8","barangay":"DAPIAWAN","province":"MAGUINDANAO"},"type":"Feature","geometry":{"type":"Point","coordinates":[124.4653225,6.96304509]}},{"properties":{"latitude":6.96618757,"municipality":"DATU SAUDI-AMPATUAN","longitude":124.4629751,"id":"ag3noqsss9l8","barangay":"ELIAN","province":"MAGUINDANAO"},"type":"Feature","geometry":{"type":"Point","coordinates":[124.4629751,6.96618757]}},{"properties":{"latitude":7.07087273,"municipality":"DATU PIANG","longitude":124.4559677,"id":"ag3noqexm6bt","barangay":"KALIPAPA","province":"MAGUINDANAO"},"type":"Feature","geometry":{"type":"Point","coordinates":[124.4559677,7.07087273]}},{"properties":{"latitude":6.9632449,"municipality":"DATU SAUDI-AMPATUAN","longitude":124.4645723,"id":"ag3noqt2yr8w","barangay":"KITAPOK","province":"MAGUINDANAO"},"type":"Feature","geometry":{"type":"Point","coordinates":[124.4645723,6.9632449]}},{"properties":{"latitude":7.2006823,"municipality":"DATU SAUDI-AMPATUAN","longitude":124.2443009,"id":"ag3noqridzjb","barangay":"GAWANG","province":"MAGUINDANAO"},"type":"Feature","geometry":{"type":"Point","coordinates":[124.2443009,7.2006823]}},{"properties":{"latitude":6.9872389,"municipality":"DATU SALIBO","longitude":124.4852165,"id":"ag3noqs1sjx6","barangay":"SAMBULAWAN","province":"MAGUINDANAO"},"type":"Feature","geometry":{"type":"Point","coordinates":[124.4852165,6.9872389]}},{"properties":{"latitude":6.98392686,"municipality":"DATU SAUDI-AMPATUAN","longitude":124.5031095,"id":"ag3noqi5o0d1","barangay":"PENDITEN","province":"MAGUINDANAO"},"type":"Feature","geometry":{"type":"Point","coordinates":[124.5031095,6.98392686]}},{"properties":{"latitude":6.90299009,"municipality":"RAJAH BUAYAN","longitude":124.5646728,"id":"ag3noqdww0kr","barangay":"GAUNAN","province":"MAGUINDANAO"},"type":"Feature","geometry":{"type":"Point","coordinates":[124.5646728,6.90299009]}},{"properties":{"latitude":6.90299009,"municipality":"RAJAH BUAYAN","longitude":124.5646728,"id":"ag3noqjf7a9k","barangay":"BAITAL","province":"MAGUINDANAO"},"type":"Feature","geometry":{"type":"Point","coordinates":[124.5646728,6.90299009]}},{"properties":{"latitude":6.90299009,"municipality":"RAJAH BUAYAN","longitude":124.5646728,"id":"ag3noqie597j","barangay":"MILEB","province":"MAGUINDANAO"},"type":"Feature","geometry":{"type":"Point","coordinates":[124.5646728,6.90299009]}},{"properties":{"latitude":7.05205578,"municipality":"TALITAY","longitude":124.3908506,"id":"ag3noqfvb7tj","barangay":"BINTAN (BENTAN)","province":"MAGUINDANAO"},"type":"Feature","geometry":{"type":"Point","coordinates":[124.3908506,7.05205578]}},{"properties":{"latitude":7.09086938,"municipality":"TALITAY","longitude":124.1932831,"id":"ag3noqjkrhfq","barangay":"POBLACION","province":"MAGUINDANAO"},"type":"Feature","geometry":{"type":"Point","coordinates":[124.1932831,7.09086938]}},{"properties":{"latitude":7.03195714,"municipality":"PAGALUNGAN","longitude":124.7130904,"id":"ag3noqkle56m","barangay":"KUDAL","province":"MAGUINDANAO"},"type":"Feature","geometry":{"type":"Point","coordinates":[124.7130904,7.03195714]}},{"properties":{"latitude":7.03152399,"municipality":"PAGALUNGAN","longitude":124.7133072,"id":"ag3noqt04ymy","barangay":"BAGOENGED","province":"MAGUINDANAO"},"type":"Feature","geometry":{"type":"Point","coordinates":[124.7133072,7.03152399]}},{"properties":{"latitude":7.059264,"municipality":"PAGALUNGAN","longitude":124.6962084,"id":"ag3noqe6rlkf","barangay":"INUG-UG","province":"MAGUINDANAO"},"type":"Feature","geometry":{"type":"Point","coordinates":[124.6962084,7.059264]}},{"properties":{"latitude":6.97431288,"municipality":"PAGALUNGAN","longitude":124.6899091,"id":"ag3noqldebhm","barangay":"BULIOK","province":"MAGUINDANAO"},"type":"Feature","geometry":{"type":"Point","coordinates":[124.6899091,6.97431288]}},{"properties":{"latitude":6.94695791,"municipality":"PAGALUNGAN","longitude":124.6802814,"id":"ag3noqhfcthd","barangay":"KALBUGAN","province":"MAGUINDANAO"},"type":"Feature","geometry":{"type":"Point","coordinates":[124.6802814,6.94695791]}},{"properties":{"latitude":7.20205371,"municipality":"RAJAH BUAYAN","longitude":124.2395974,"id":"ag3noqjbhx0q","barangay":"SAMPAO","province":"MAGUINDANAO"},"type":"Feature","geometry":{"type":"Point","coordinates":[124.2395974,7.20205371]}},{"properties":{"latitude":7.05586027,"municipality":"NORTHERN KABUNTALAN","longitude":124.6844625,"id":"ag3noqj1945d","barangay":"PAULINO LABIO","province":"MAGUINDANAO"},"type":"Feature","geometry":{"type":"Point","coordinates":[124.6844625,7.05586027]}},{"properties":{"latitude":7.20210204,"municipality":"NORTHERN KABUNTALAN","longitude":124.4752534,"id":"ag3noqlhevtd","barangay":"GAYONGA","province":"MAGUINDANAO"},"type":"Feature","geometry":{"type":"Point","coordinates":[124.4752534,7.20210204]}},{"properties":{"latitude":7.19657287,"municipality":"NORTHERN KABUNTALAN","longitude":124.4579405,"id":"ag3noqiudm09","barangay":"DAMATOG","province":"MAGUINDANAO"},"type":"Feature","geometry":{"type":"Point","coordinates":[124.4579405,7.19657287]}},{"properties":{"latitude":7.19657094,"municipality":"NORTHERN KABUNTALAN","longitude":124.4579646,"id":"ag3noqfpmj51","barangay":"INDATUAN","province":"MAGUINDANAO"},"type":"Feature","geometry":{"type":"Point","coordinates":[124.4579646,7.19657094]}},{"properties":{"latitude":7.16499566,"municipality":"NORTHERN KABUNTALAN","longitude":124.3528008,"id":"ag3noqs8ryp2","barangay":"LIBUNGAN","province":"MAGUINDANAO"},"type":"Feature","geometry":{"type":"Point","coordinates":[124.3528008,7.16499566]}},{"properties":{"latitude":7.10102586,"municipality":"NORTHERN KABUNTALAN","longitude":124.4306713,"id":"ag3noqhqavfw","barangay":"MONTAY","province":"MAGUINDANAO"},"type":"Feature","geometry":{"type":"Point","coordinates":[124.4306713,7.10102586]}},{"properties":{"latitude":7.11785907,"municipality":"KABUNTALAN (TUMBAO)","longitude":124.3636687,"id":"ag3noqgvhfv3","barangay":"BAGUMBAYAN","province":"MAGUINDANAO"},"type":"Feature","geometry":{"type":"Point","coordinates":[124.3636687,7.11785907]}},{"properties":{"latitude":7.12465819,"municipality":"KABUNTALAN (TUMBAO)","longitude":124.337429,"id":"ag3noqniu9tb","barangay":"UPPER TAVIRAN","province":"MAGUINDANAO"},"type":"Feature","geometry":{"type":"Point","coordinates":[124.337429,7.12465819]}},{"properties":{"latitude":7.11581102,"municipality":"KABUNTALAN (TUMBAO)","longitude":124.4005625,"id":"ag3noqdzj109","barangay":"MAITONG","province":"MAGUINDANAO"},"type":"Feature","geometry":{"type":"Point","coordinates":[124.4005625,7.11581102]}},{"properties":{"latitude":7.1172469,"municipality":"KABUNTALAN (TUMBAO)","longitude":124.3661649,"id":"ag3noqgjkit0","barangay":"GAMBAR","province":"MAGUINDANAO"},"type":"Feature","geometry":{"type":"Point","coordinates":[124.3661649,7.1172469]}},{"properties":{"latitude":7.46595934,"municipality":"MATANOG","longitude":124.2590334,"id":"ag3noqoxvh4w","barangay":"BUGASAN SUR (POB.)","province":"MAGUINDANAO"},"type":"Feature","geometry":{"type":"Point","coordinates":[124.2590334,7.46595934]}},{"properties":{"latitude":7.46685377,"municipality":"MATANOG","longitude":124.2587331,"id":"ag3noqka4tcp","barangay":"BUGASAN NORTE","province":"MAGUINDANAO"},"type":"Feature","geometry":{"type":"Point","coordinates":[124.2587331,7.46685377]}},{"properties":{"latitude":7.48160113,"municipality":"MATANOG","longitude":124.2542193,"id":"ag3noqfsh8p3","barangay":"BAYANGA SUR","province":"MAGUINDANAO"},"type":"Feature","geometry":{"type":"Point","coordinates":[124.2542193,7.48160113]}},{"properties":{"latitude":7.48174549,"municipality":"MATANOG","longitude":124.2541013,"id":"ag3noqfom4mu","barangay":"SAPAD","province":"MAGUINDANAO"},"type":"Feature","geometry":{"type":"Point","coordinates":[124.2541013,7.48174549]}},{"properties":{"latitude":7.49905041,"municipality":"MATANOG","longitude":124.2518912,"id":"ag3noqomxdmv","barangay":"LANGCO","province":"MAGUINDANAO"},"type":"Feature","geometry":{"type":"Point","coordinates":[124.2518912,7.49905041]}},{"properties":{"latitude":7.5310919,"municipality":"MATANOG","longitude":124.2426314,"id":"ag3noqmiet4y","barangay":"LANGKONG","province":"MAGUINDANAO"},"type":"Feature","geometry":{"type":"Point","coordinates":[124.2426314,7.5310919]}},{"properties":{"latitude":7.37614559,"municipality":"BARIRA","longitude":124.2675887,"id":"ag3noqmy4blp","barangay":"TUGAIG","province":"MAGUINDANAO"},"type":"Feature","geometry":{"type":"Point","coordinates":[124.2675887,7.37614559]}},{"properties":{"latitude":7.37614559,"municipality":"BARIRA","longitude":124.2675887,"id":"ag3noqe6v5rp","barangay":"BARIRA (POB.)","province":"MAGUINDANAO"},"type":"Feature","geometry":{"type":"Point","coordinates":[124.2675887,7.37614559]}},{"properties":{"latitude":7.2149853,"municipality":"BARIRA","longitude":124.2546235,"id":"ag3noqicp2g2","barangay":"NABALAWAG","province":"MAGUINDANAO"},"type":"Feature","geometry":{"type":"Point","coordinates":[124.2546235,7.2149853]}},{"properties":{"latitude":7.2156211,"municipality":"BARIRA","longitude":124.2520098,"id":"ag3noqr48udq","barangay":"LAMIN","province":"MAGUINDANAO"},"type":"Feature","geometry":{"type":"Point","coordinates":[124.2520098,7.2156211]}},{"properties":{"latitude":7.2156211,"municipality":"BARIRA","longitude":124.2520098,"id":"ag3noqqexncv","barangay":"MINABAY","province":"MAGUINDANAO"},"type":"Feature","geometry":{"type":"Point","coordinates":[124.2520098,7.2156211]}},{"properties":{"latitude":7.2156211,"municipality":"BARIRA","longitude":124.2520098,"id":"ag3noqgmfjab","barangay":"MARANG","province":"MAGUINDANAO"},"type":"Feature","geometry":{"type":"Point","coordinates":[124.2520098,7.2156211]}},{"properties":{"latitude":7.2156211,"municipality":"BARIRA","longitude":124.2520098,"id":"ag3noqn2cu27","barangay":"LIONG","province":"MAGUINDANAO"},"type":"Feature","geometry":{"type":"Point","coordinates":[124.2520098,7.2156211]}},{"properties":{"latitude":7.2160956,"municipality":"BARIRA","longitude":124.2400369,"id":"ag3noqdstc30","barangay":"LIPAWAN","province":"MAGUINDANAO"},"type":"Feature","geometry":{"type":"Point","coordinates":[124.2400369,7.2160956]}},{"properties":{"latitude":7.37641768,"municipality":"BARIRA","longitude":124.267588,"id":"ag3noqnj6ulk","barangay":"PANGGAO","province":"MAGUINDANAO"},"type":"Feature","geometry":{"type":"Point","coordinates":[124.267588,7.37641768]}},{"properties":{"latitude":7.37641768,"municipality":"BARIRA","longitude":124.267588,"id":"ag3noqhgdue9","barangay":"LIPA","province":"MAGUINDANAO"},"type":"Feature","geometry":{"type":"Point","coordinates":[124.267588,7.37641768]}},{"properties":{"latitude":7.37641768,"municipality":"BARIRA","longitude":124.267588,"id":"ag3noqfx1qtz","barangay":"ROMINIMBANG","province":"MAGUINDANAO"},"type":"Feature","geometry":{"type":"Point","coordinates":[124.267588,7.37641768]}},{"properties":{"latitude":7.37641768,"municipality":"BARIRA","longitude":124.267588,"id":"ag3noqp6xhvq","barangay":"BUALAN","province":"MAGUINDANAO"},"type":"Feature","geometry":{"type":"Point","coordinates":[124.267588,7.37641768]}},{"properties":{"latitude":6.7879459,"municipality":"DATU ABDULLAH SANGKI","longitude":124.6166162,"id":"ag3noqnjh35w","barangay":"Tukanolocong (Tukanologong)","province":"MAGUINDANAO"},"type":"Feature","geometry":{"type":"Point","coordinates":[124.6166162,6.7879459]}},{"properties":{"latitude":6.79694263,"municipality":"DATU ABDULLAH SANGKI","longitude":124.5343664,"id":"ag3noqopp1r5","barangay":"Sugadol","province":"MAGUINDANAO"},"type":"Feature","geometry":{"type":"Point","coordinates":[124.5343664,6.79694263]}},{"properties":{"latitude":6.79694263,"municipality":"DATU ABDULLAH SANGKI","longitude":124.5343664,"id":"ag3noqkj5u6j","barangay":"Banaba","province":"MAGUINDANAO"},"type":"Feature","geometry":{"type":"Point","coordinates":[124.5343664,6.79694263]}},{"properties":{"latitude":7.2156797,"municipality":"DATU ABDULLAH SANGKI","longitude":124.2402198,"id":"ag3noqrfblze","barangay":"Talisawa","province":"MAGUINDANAO"},"type":"Feature","geometry":{"type":"Point","coordinates":[124.2402198,7.2156797]}},{"properties":{"latitude":6.75660734,"municipality":"DATU ABDULLAH SANGKI","longitude":124.5007858,"id":"ag3noqn07421","barangay":"Mao","province":"MAGUINDANAO"},"type":"Feature","geometry":{"type":"Point","coordinates":[124.5007858,6.75660734]}},{"properties":{"latitude":6.82058605,"municipality":"DATU ABDULLAH SANGKI","longitude":124.5122737,"id":"ag3noqimg1co","barangay":"Guinibon","province":"MAGUINDANAO"},"type":"Feature","geometry":{"type":"Point","coordinates":[124.5122737,6.82058605]}},{"properties":{"latitude":7.00622892,"municipality":"PIKIT","longitude":124.7030983,"id":"ag3noqrj97tm","barangay":"RAJAH MUDA","province":"NORTH COTABATO"},"type":"Feature","geometry":{"type":"Point","coordinates":[124.7030983,7.00622892]}},{"properties":{"latitude":6.99319051,"municipality":"PIKIT","longitude":124.703356,"id":"ag3noqqyns39","barangay":"BAGOAINGUD (BAGOINGED)","province":"NORTH COTABATO"},"type":"Feature","geometry":{"type":"Point","coordinates":[124.703356,6.99319051]}},{"properties":{"latitude":7.11282114,"municipality":"PIKIT","longitude":124.6406514,"id":"ag3noqjvpcb0","barangay":"KALACACAN","province":"NORTH COTABATO"},"type":"Feature","geometry":{"type":"Point","coordinates":[124.6406514,7.11282114]}},{"properties":{"latitude":7.11265166,"municipality":"PIKIT","longitude":124.6400545,"id":"ag3noql89m2j","barangay":"BALUNGIS","province":"NORTH COTABATO"},"type":"Feature","geometry":{"type":"Point","coordinates":[124.6400545,7.11265166]}},{"properties":{"latitude":7.05140849,"municipality":"PIKIT","longitude":124.6241608,"id":"ag3noqsmtsau","barangay":"LAGUNDE","province":"NORTH COTABATO"},"type":"Feature","geometry":{"type":"Point","coordinates":[124.6241608,7.05140849]}},{"properties":{"latitude":7.05117869,"municipality":"PIKIT","longitude":124.6239125,"id":"ag3noqrd7b74","barangay":"LANGAYEN","province":"NORTH COTABATO"},"type":"Feature","geometry":{"type":"Point","coordinates":[124.6239125,7.05117869]}},{"properties":{"latitude":7.04488904,"municipality":"PIKIT","longitude":124.6170159,"id":"ag3noqdou5jc","barangay":"MANAULANAN","province":"NORTH COTABATO"},"type":"Feature","geometry":{"type":"Point","coordinates":[124.6170159,7.04488904]}},{"properties":{"latitude":6.97846688,"municipality":"PIKIT","longitude":124.6968196,"id":"ag3noqggknxh","barangay":"BULIOK","province":"NORTH COTABATO"},"type":"Feature","geometry":{"type":"Point","coordinates":[124.6968196,6.97846688]}},{"properties":{"latitude":7.05558759,"municipality":"PIKIT","longitude":124.6845474,"id":"ag3noqmn112g","barangay":"NALAPAAN","province":"NORTH COTABATO"},"type":"Feature","geometry":{"type":"Point","coordinates":[124.6845474,7.05558759]}},{"properties":{"latitude":7.0386191,"municipality":"PIKIT","longitude":124.5091067,"id":"ag3noqt08295","barangay":"DAMALASAK","province":"NORTH COTABATO"},"type":"Feature","geometry":{"type":"Point","coordinates":[124.5091067,7.0386191]}},{"properties":{"latitude":7.03844349,"municipality":"PIKIT","longitude":124.5380641,"id":"ag3noqe75gav","barangay":"MACASENDEG","province":"NORTH COTABATO"},"type":"Feature","geometry":{"type":"Point","coordinates":[124.5380641,7.03844349]}},{"properties":{"latitude":7.01861671,"municipality":"PIKIT","longitude":124.5610943,"id":"ag3noqn5y0ze","barangay":"PAIDU PULANGI","province":"NORTH COTABATO"},"type":"Feature","geometry":{"type":"Point","coordinates":[124.5610943,7.01861671]}},{"properties":{"latitude":7.05558759,"municipality":"PIKIT","longitude":124.6845474,"id":"ag3noqkngwto","barangay":"PANICUPAN","province":"NORTH COTABATO"},"type":"Feature","geometry":{"type":"Point","coordinates":[124.6845474,7.05558759]}},{"properties":{"latitude":6.9749782,"municipality":"PIKIT","longitude":124.6296464,"id":"ag3noqkc7r5y","barangay":"KABASALAN","province":"NORTH COTABATO"},"type":"Feature","geometry":{"type":"Point","coordinates":[124.6296464,6.9749782]}},{"properties":{"latitude":7.11723186,"municipality":"PIKIT","longitude":124.6938688,"id":"ag3noqmdz6aq","barangay":"NUNGUAN","province":"NORTH COTABATO"},"type":"Feature","geometry":{"type":"Point","coordinates":[124.6938688,7.11723186]}},{"properties":{"latitude":7.11741254,"municipality":"PIKIT","longitude":124.6939464,"id":"ag3noqikry5l","barangay":"BATULAWAN","province":"NORTH COTABATO"},"type":"Feature","geometry":{"type":"Point","coordinates":[124.6939464,7.11741254]}},{"properties":{"latitude":7.03644064,"municipality":"PIKIT","longitude":124.6002716,"id":"ag3noqii9ri3","barangay":"SILIK","province":"NORTH COTABATO"},"type":"Feature","geometry":{"type":"Point","coordinates":[124.6002716,7.03644064]}},{"properties":{"latitude":5.970886,"municipality":"MALAPATAN","longitude":125.2855351,"id":"ag3noqhw2ety","barangay":"LIBI","province":"SARANGANI"},"type":"Feature","geometry":{"type":"Point","coordinates":[125.2855351,5.970886]}},{"properties":{"latitude":5.970886,"municipality":"MALAPATAN","longitude":125.2855351,"id":"ag3noqftgraz","barangay":"POBLACION","province":"SARANGANI"},"type":"Feature","geometry":{"type":"Point","coordinates":[125.2855351,5.970886]}},{"properties":{"latitude":5.86231443,"municipality":"MAASIM","longitude":124.9970052,"id":"ag3noql4iwst","barangay":"DALIAO","province":"SARANGANI"},"type":"Feature","geometry":{"type":"Point","coordinates":[124.9970052,5.86231443]}},{"properties":{"latitude":5.8605146,"municipality":"MAASIM","longitude":124.932803,"id":"ag3noqil0z7j","barangay":"LUMATIL","province":"SARANGANI"},"type":"Feature","geometry":{"type":"Point","coordinates":[124.932803,5.8605146]}},{"properties":{"latitude":5.91779606,"municipality":"MALAPATAN","longitude":125.2738862,"id":"ag3noqmxv024","barangay":"SAPU MASLA","province":"SARANGANI"},"type":"Feature","geometry":{"type":"Point","coordinates":[125.2738862,5.91779606]}},{"properties":{"latitude":5.9135849,"municipality":"MALAPATAN","longitude":125.2659001,"id":"ag3noqhmf1a3","barangay":"SAPU PADIDU","province":"SARANGANI"},"type":"Feature","geometry":{"type":"Point","coordinates":[125.2659001,5.9135849]}},{"properties":{"latitude":6.03822598,"municipality":"MALAPATAN","longitude":125.2948569,"id":"ag3noqedtyw7","barangay":"LUN PADIDU","province":"SARANGANI"},"type":"Feature","geometry":{"type":"Point","coordinates":[125.2948569,6.03822598]}},{"properties":{"latitude":6.03693024,"municipality":"MALAPATAN","longitude":125.2951794,"id":"ag3noqgyoqik","barangay":"TUYAN","province":"SARANGANI"},"type":"Feature","geometry":{"type":"Point","coordinates":[125.2951794,6.03693024]}},{"properties":{"latitude":null,"municipality":"GLAN","longitude":null,"id":"ag3noqpi1kxa","barangay":"KAPATAN","province":"SARANGANI"},"type":"Feature","geometry":null},{"properties":{"latitude":6.02223444,"municipality":"MALAPATAN","longitude":125.298013,"id":"ag3noqgmet4t","barangay":"LUN MASLA","province":"SARANGANI"},"type":"Feature","geometry":{"type":"Point","coordinates":[125.298013,6.02223444]}},{"properties":{"latitude":5.74722067,"municipality":"GLAN","longitude":125.2374285,"id":"ag3noqes3f0z","barangay":"BALITON","province":"SARANGANI"},"type":"Feature","geometry":{"type":"Point","coordinates":[125.2374285,5.74722067]}},{"properties":{"latitude":5.696797,"municipality":"GLAN","longitude":125.2890489,"id":"ag3noqqw3m1w","barangay":"PANGYAN","province":"SARANGANI"},"type":"Feature","geometry":{"type":"Point","coordinates":[125.2890489,5.696797]}},{"properties":{"latitude":5.71061534,"municipality":"GLAN","longitude":125.2564862,"id":"ag3noqp4lcid","barangay":"BURIAS","province":"SARANGANI"},"type":"Feature","geometry":{"type":"Point","coordinates":[125.2564862,5.71061534]}},{"properties":{"latitude":5.88467712,"municipality":"MAASIM","longitude":124.8597677,"id":"ag3noqmj4mc2","barangay":"PANANAG","province":"SARANGANI"},"type":"Feature","geometry":{"type":"Point","coordinates":[124.8597677,5.88467712]}},{"properties":{"latitude":5.87281528,"municipality":"MAASIM","longitude":124.9005084,"id":"ag3noqtowohq","barangay":"KANALO","province":"SARANGANI"},"type":"Feature","geometry":{"type":"Point","coordinates":[124.9005084,5.87281528]}},{"properties":{"latitude":6.1067697,"municipality":"MAASIM","longitude":125.2900587,"id":"ag3noqm9beii","barangay":"LUMASAL","province":"SARANGANI"},"type":"Feature","geometry":{"type":"Point","coordinates":[125.2900587,6.1067697]}},{"properties":{"latitude":6.1128077,"municipality":"KIAMBA","longitude":125.1664276,"id":"ag3noqjb4v1o","barangay":"DATU DANI","province":"SARANGANI"},"type":"Feature","geometry":{"type":"Point","coordinates":[125.1664276,6.1128077]}},{"properties":{"latitude":6.1028867,"municipality":"KIAMBA","longitude":125.1416632,"id":"ag3noqofzaqb","barangay":"LAGUNDI","province":"SARANGANI"},"type":"Feature","geometry":{"type":"Point","coordinates":[125.1416632,6.1028867]}},{"properties":{"latitude":6.1069123,"municipality":"KIAMBA","longitude":125.2900274,"id":"ag3noql25gy0","barangay":"TAMBILIL","province":"SARANGANI"},"type":"Feature","geometry":{"type":"Point","coordinates":[125.2900274,6.1069123]}},{"properties":{"latitude":5.98130207,"municipality":"KIAMBA","longitude":124.6665695,"id":"ag3noqpyscxs","barangay":"KAPATE","province":"SARANGANI"},"type":"Feature","geometry":{"type":"Point","coordinates":[124.6665695,5.98130207]}},{"properties":{"latitude":5.92962247,"municipality":"KIAMBA","longitude":124.742652,"id":"ag3noqdlq21h","barangay":"KLING (LUMIT)","province":"SARANGANI"},"type":"Feature","geometry":{"type":"Point","coordinates":[124.742652,5.92962247]}},{"properties":{"latitude":5.92965786,"municipality":"KIAMBA","longitude":124.7524098,"id":"ag3noqpghjql","barangay":"KAYUPO","province":"SARANGANI"},"type":"Feature","geometry":{"type":"Point","coordinates":[124.7524098,5.92965786]}},{"properties":{"latitude":5.9228092,"municipality":"KIAMBA","longitude":124.765753,"id":"ag3noqpp31xa","barangay":"KATUBAO","province":"SARANGANI"},"type":"Feature","geometry":{"type":"Point","coordinates":[124.765753,5.9228092]}},{"properties":{"latitude":5.91614472,"municipality":"KIAMBA","longitude":124.7991924,"id":"ag3noqj6w2gq","barangay":"LOMUYON","province":"SARANGANI"},"type":"Feature","geometry":{"type":"Point","coordinates":[124.7991924,5.91614472]}},{"properties":{"latitude":6.0724928,"municipality":"KIAMBA","longitude":125.1385074,"id":"ag3noqp0eas1","barangay":"GASI","province":"SARANGANI"},"type":"Feature","geometry":{"type":"Point","coordinates":[125.1385074,6.0724928]}},{"properties":{"latitude":6.06117209,"municipality":"MAITUM","longitude":124.4955047,"id":"ag3noqktr553","barangay":"Pinol","province":"SARANGANI"},"type":"Feature","geometry":{"type":"Point","coordinates":[124.4955047,6.06117209]}},{"properties":{"latitude":6.06117209,"municipality":"MAITUM","longitude":124.4955047,"id":"ag3noqrhlcaw","barangay":"Maguling","province":"SARANGANI"},"type":"Feature","geometry":{"type":"Point","coordinates":[124.4955047,6.06117209]}},{"properties":{"latitude":6.14055046,"municipality":"MAITUM","longitude":124.4640922,"id":"ag3noqn1y5dt","barangay":"UPO","province":"SARANGANI"},"type":"Feature","geometry":{"type":"Point","coordinates":[124.4640922,6.14055046]}},{"properties":{"latitude":6.10964294,"municipality":"MAITUM","longitude":124.4648976,"id":"ag3noqsc4can","barangay":"Tuanadatu","province":"SARANGANI"},"type":"Feature","geometry":{"type":"Point","coordinates":[124.4648976,6.10964294]}},{"properties":{"latitude":6.08362694,"municipality":"MAITUM","longitude":124.422238,"id":"ag3noqizgw13","barangay":"Mindupok","province":"SARANGANI"},"type":"Feature","geometry":{"type":"Point","coordinates":[124.422238,6.08362694]}},{"properties":{"latitude":6.1204265,"municipality":"POLOMOLOK","longitude":125.1730521,"id":"ag3noqjhunqd","barangay":"BENTUNG","province":"SOUTH COTABATO"},"type":"Feature","geometry":{"type":"Point","coordinates":[125.1730521,6.1204265]}},{"properties":{"latitude":6.23406187,"municipality":"POLOMOLOK","longitude":125.022219,"id":"ag3noqjzjegm","barangay":"SULIT","province":"SOUTH COTABATO"},"type":"Feature","geometry":{"type":"Point","coordinates":[125.022219,6.23406187]}},{"properties":{"latitude":6.3919631,"municipality":"TUPI","longitude":124.8980321,"id":"ag3noqh7hp5h","barangay":"PALIAN","province":"SOUTH COTABATO"},"type":"Feature","geometry":{"type":"Point","coordinates":[124.8980321,6.3919631]}},{"properties":{"latitude":6.3355206,"municipality":"TUPI","longitude":124.947269,"id":"ag3noqf309x0","barangay":"BUNAO","province":"SOUTH COTABATO"},"type":"Feature","geometry":{"type":"Point","coordinates":[124.947269,6.3355206]}},{"properties":{"latitude":6.27227019,"municipality":"TUPI","longitude":124.9701343,"id":"ag3noqoip689","barangay":"POLONULING","province":"SOUTH COTABATO"},"type":"Feature","geometry":{"type":"Point","coordinates":[124.9701343,6.27227019]}},{"properties":{"latitude":6.1128931,"municipality":"POLOMOLOK","longitude":125.1648357,"id":"ag3noqe4r02y","barangay":"KORONADAL PROPER","province":"SOUTH COTABATO"},"type":"Feature","geometry":{"type":"Point","coordinates":[125.1648357,6.1128931]}},{"properties":{"latitude":6.25488276,"municipality":"POLOMOLOK","longitude":124.9752337,"id":"ag3noqop2wum","barangay":"SUMBAKIL","province":"SOUTH COTABATO"},"type":"Feature","geometry":{"type":"Point","coordinates":[124.9752337,6.25488276]}},{"properties":{"latitude":6.15138092,"municipality":"GENERAL SANTOS CITY","longitude":125.1728596,"id":"ag3noqmhgzgi","barangay":"San Isidro","province":"SOUTH COTABATO"},"type":"Feature","geometry":{"type":"Point","coordinates":[125.1728596,6.15138092]}},{"properties":{"latitude":6.07537524,"municipality":"GENERAL SANTOS CITY","longitude":125.1430476,"id":"ag3noqksoekw","barangay":"Buayan","province":"SOUTH COTABATO"},"type":"Feature","geometry":{"type":"Point","coordinates":[125.1430476,6.07537524]}},{"properties":{"latitude":6.0814487,"municipality":"GENERAL SANTOS CITY","longitude":125.1484096,"id":"ag3noqhv9ccg","barangay":"Calumpang","province":"SOUTH COTABATO"},"type":"Feature","geometry":{"type":"Point","coordinates":[125.1484096,6.0814487]}},{"properties":{"latitude":6.0814487,"municipality":"GENERAL SANTOS CITY","longitude":125.1484096,"id":"ag3noqlmbqk1","barangay":"Labangal","province":"SOUTH COTABATO"},"type":"Feature","geometry":{"type":"Point","coordinates":[125.1484096,6.0814487]}}],"is_temporal":false,"author":{"url":"","metadata":null,"contact_name":null,"contact_address":null,"source":null,"contact_phone":null},"source":"","pagination":{"sort":null,"start":0,"total":355,"limit":1000000},"state":"complete","tags":"","published":"2014-08-16T14:44:14-04:00","id":381244}