{"type":"FeatureCollection","data_type":"Dataset","url_type":null,"permissions":[{"permissions":{"download":true,"view":true},"group_id":"everyone"}],"classification":null,"title":"130729_covered_areas","count":337,"stream_id":381235,"contributor":{"url":"http://geocommons.com/users/78601","name":"antara"},"data_attributes":null,"calculation_params":null,"icon_link":null,"link":"http://geocommons.com/overlays/381235.json","extent":[0.0,0.0,0.0,0.0],"geometry_types":[],"unique_name":null,"name":"130729_covered_areas","feature_count":337,"description":"","next_feature":null,"is_raster":false,"short_classification":"Y","stats":{},"features":[{"properties":{"geo_score":0.0,"municipality":"LAMITAN","id":"ag3nfi7xdyt2","province":"BASILAN","barangay":"BAAS","geo_precision":"unmatched"},"type":"Feature","geometry":null},{"properties":{"geo_score":0.0,"municipality":"LAMITAN","id":"ag3nfi0nynyl","province":"BASILAN","barangay":"BOHEIBU","geo_precision":"unmatched"},"type":"Feature","geometry":null},{"properties":{"geo_score":0.0,"municipality":"LAMITAN","id":"ag3nfi716c5i","province":"BASILAN","barangay":"BULINGAN","geo_precision":"unmatched"},"type":"Feature","geometry":null},{"properties":{"geo_score":0.0,"municipality":"LAMITAN","id":"ag3nfi5bjbmr","province":"BASILAN","barangay":"CAMPO UNO","geo_precision":"unmatched"},"type":"Feature","geometry":null},{"properties":{"geo_score":0.0,"municipality":"LAMITAN","id":"ag3nfhs9xcd2","province":"BASILAN","barangay":"MAGANDA","geo_precision":"unmatched"},"type":"Feature","geometry":null},{"properties":{"geo_score":0.0,"municipality":"LAMITAN","id":"ag3nfi0kgzfr","province":"BASILAN","barangay":"MALAKAS","geo_precision":"unmatched"},"type":"Feature","geometry":null},{"properties":{"geo_score":0.0,"municipality":"LAMITAN","id":"ag3nfi39i1cj","province":"BASILAN","barangay":"MATATAG","geo_precision":"unmatched"},"type":"Feature","geometry":null},{"properties":{"geo_score":0.0,"municipality":"LAMITAN","id":"ag3nfi4hwkhe","province":"BASILAN","barangay":"MATIBAY","geo_precision":"unmatched"},"type":"Feature","geometry":null},{"properties":{"geo_score":0.0,"municipality":"LAMITAN","id":"ag3nfhvqajnx","province":"BASILAN","barangay":"PARANGBASAK","geo_precision":"unmatched"},"type":"Feature","geometry":null},{"properties":{"geo_score":0.0,"municipality":"LAMITAN","id":"ag3nfi5fxjqa","province":"BASILAN","barangay":"TANDUNG AHAS","geo_precision":"unmatched"},"type":"Feature","geometry":null},{"properties":{"geo_score":0.0,"municipality":"LANTAWAN","id":"ag3nfhsnhcl5","province":"BASILAN","barangay":"Atong-atong","geo_precision":"unmatched"},"type":"Feature","geometry":null},{"properties":{"geo_score":0.0,"municipality":"LANTAWAN","id":"ag3nfi5tgs5u","province":"BASILAN","barangay":"Bagbagon","geo_precision":"unmatched"},"type":"Feature","geometry":null},{"properties":{"geo_score":0.0,"municipality":"LANTAWAN","id":"ag3nfi6q5225","province":"BASILAN","barangay":"Baungis","geo_precision":"unmatched"},"type":"Feature","geometry":null},{"properties":{"geo_score":0.0,"municipality":"LANTAWAN","id":"ag3nfi3kmlve","province":"BASILAN","barangay":"Bulanza","geo_precision":"unmatched"},"type":"Feature","geometry":null},{"properties":{"geo_score":0.0,"municipality":"LANTAWAN","id":"ag3nfhy2pe2y","province":"BASILAN","barangay":"Calayan","geo_precision":"unmatched"},"type":"Feature","geometry":null},{"properties":{"geo_score":0.0,"municipality":"LANTAWAN","id":"ag3nfhwgmjwc","province":"BASILAN","barangay":"Canibungan","geo_precision":"unmatched"},"type":"Feature","geometry":null},{"properties":{"geo_score":0.0,"municipality":"LANTAWAN","id":"ag3nfhzqc75l","province":"BASILAN","barangay":"Lantawan Proper (Pob.)","geo_precision":"unmatched"},"type":"Feature","geometry":null},{"properties":{"geo_score":0.0,"municipality":"LANTAWAN","id":"ag3nfhu5sf0x","province":"BASILAN","barangay":"Lawi-lawi","geo_precision":"unmatched"},"type":"Feature","geometry":null},{"properties":{"geo_score":0.0,"municipality":"LANTAWAN","id":"ag3nfi02o5x9","province":"BASILAN","barangay":"Lawila","geo_precision":"unmatched"},"type":"Feature","geometry":null},{"properties":{"geo_score":0.0,"municipality":"LANTAWAN","id":"ag3nfi1qtl7v","province":"BASILAN","barangay":"Matikang","geo_precision":"unmatched"},"type":"Feature","geometry":null},{"properties":{"geo_score":0.0,"municipality":"LANTAWAN","id":"ag3nfhzf2c11","province":"BASILAN","barangay":"Upper Manggas","geo_precision":"unmatched"},"type":"Feature","geometry":null},{"properties":{"geo_score":0.0,"municipality":"MALUSO","id":"ag3nfi2l2lby","province":"BASILAN","barangay":"CALANG CANAS","geo_precision":"unmatched"},"type":"Feature","geometry":null},{"properties":{"geo_score":0.0,"municipality":"MALUSO","id":"ag3nfi19o4k9","province":"BASILAN","barangay":"FUENTE MALUSO","geo_precision":"unmatched"},"type":"Feature","geometry":null},{"properties":{"geo_score":0.0,"municipality":"MALUSO","id":"ag3nfi2vwcug","province":"BASILAN","barangay":"LOWER PORT HOLLAND","geo_precision":"unmatched"},"type":"Feature","geometry":null},{"properties":{"geo_score":0.0,"municipality":"MALUSO","id":"ag3nfhunv12x","province":"BASILAN","barangay":"MUSLIM AREA","geo_precision":"unmatched"},"type":"Feature","geometry":null},{"properties":{"geo_score":0.0,"municipality":"MALUSO","id":"ag3nfi66q5ql","province":"BASILAN","barangay":"NORTH GAUNAN","geo_precision":"unmatched"},"type":"Feature","geometry":null},{"properties":{"geo_score":0.0,"municipality":"MALUSO","id":"ag3nfhy4z4ni","province":"BASILAN","barangay":"SOUTH GAUNAN","geo_precision":"unmatched"},"type":"Feature","geometry":null},{"properties":{"geo_score":0.0,"municipality":"MALUSO","id":"ag3nfhz2j7rd","province":"BASILAN","barangay":"UPPER MAHAYAHAY","geo_precision":"unmatched"},"type":"Feature","geometry":null},{"properties":{"geo_score":0.0,"municipality":"BALOI","id":"ag3nfi22ngv7","province":"LANAO DEL NORTE","barangay":"ADAPUN-ALI (DARIAT)","geo_precision":"unmatched"},"type":"Feature","geometry":null},{"properties":{"geo_score":0.0,"municipality":"BALOI","id":"ag3nfi04kbq2","province":"LANAO DEL NORTE","barangay":"ANGAYEN (BALUT)","geo_precision":"unmatched"},"type":"Feature","geometry":null},{"properties":{"geo_score":0.0,"municipality":"BALOI","id":"ag3nfht9llie","province":"LANAO DEL NORTE","barangay":"Angandog (Bulao)","geo_precision":"unmatched"},"type":"Feature","geometry":null},{"properties":{"geo_score":0.0,"municipality":"BALOI","id":"ag3nfhs068ev","province":"LANAO DEL NORTE","barangay":"BASAGAD","geo_precision":"unmatched"},"type":"Feature","geometry":null},{"properties":{"geo_score":0.0,"municipality":"BALOI","id":"ag3nfhs38rd7","province":"LANAO DEL NORTE","barangay":"Bangco","geo_precision":"unmatched"},"type":"Feature","geometry":null},{"properties":{"geo_score":0.0,"municipality":"BALOI","id":"ag3nfhyxvnli","province":"LANAO DEL NORTE","barangay":"Buenavista","geo_precision":"unmatched"},"type":"Feature","geometry":null},{"properties":{"geo_score":0.0,"municipality":"BALOI","id":"ag3nfi7yax32","province":"LANAO DEL NORTE","barangay":"CADAYONAN","geo_precision":"unmatched"},"type":"Feature","geometry":null},{"properties":{"geo_score":0.0,"municipality":"BALOI","id":"ag3nfhub0g91","province":"LANAO DEL NORTE","barangay":"LANDA (GADONGAN)","geo_precision":"unmatched"},"type":"Feature","geometry":null},{"properties":{"geo_score":0.0,"municipality":"BALOI","id":"ag3nfhrob7kr","province":"LANAO DEL NORTE","barangay":"LUMBAC","geo_precision":"unmatched"},"type":"Feature","geometry":null},{"properties":{"geo_score":0.0,"municipality":"BALOI","id":"ag3nfhzuaoh7","province":"LANAO DEL NORTE","barangay":"MAMAANUN","geo_precision":"unmatched"},"type":"Feature","geometry":null},{"properties":{"geo_score":0.0,"municipality":"BALOI","id":"ag3nfi618ukh","province":"LANAO DEL NORTE","barangay":"MARIA-CRISTINA","geo_precision":"unmatched"},"type":"Feature","geometry":null},{"properties":{"geo_score":0.0,"municipality":"BALOI","id":"ag3nfi0zmo3t","province":"LANAO DEL NORTE","barangay":"Matampay","geo_precision":"unmatched"},"type":"Feature","geometry":null},{"properties":{"geo_score":0.0,"municipality":"BALOI","id":"ag3nfhzrwd8g","province":"LANAO DEL NORTE","barangay":"PACALUNDO","geo_precision":"unmatched"},"type":"Feature","geometry":null},{"properties":{"geo_score":0.0,"municipality":"BALOI","id":"ag3nfhzon91h","province":"LANAO DEL NORTE","barangay":"Sandor (Daduan)","geo_precision":"unmatched"},"type":"Feature","geometry":null},{"properties":{"geo_score":0.0,"municipality":"BALOI","id":"ag3nfhrwa1jq","province":"LANAO DEL NORTE","barangay":"Sigayan","geo_precision":"unmatched"},"type":"Feature","geometry":null},{"properties":{"geo_score":0.0,"municipality":"KAUSWAGAN","id":"ag3nfi3ro7zb","province":"LANAO DEL NORTE","barangay":"BAGUMBAYAN","geo_precision":"unmatched"},"type":"Feature","geometry":null},{"properties":{"geo_score":0.0,"municipality":"KAUSWAGAN","id":"ag3nfhww6e9x","province":"LANAO DEL NORTE","barangay":"BARA-ASON","geo_precision":"unmatched"},"type":"Feature","geometry":null},{"properties":{"geo_score":0.0,"municipality":"KAUSWAGAN","id":"ag3nfht1yut5","province":"LANAO DEL NORTE","barangay":"KAWIT OCCIDENTAL","geo_precision":"unmatched"},"type":"Feature","geometry":null},{"properties":{"geo_score":0.0,"municipality":"KAUSWAGAN","id":"ag3nfi73b2hq","province":"LANAO DEL NORTE","barangay":"KAWIT ORIENTAL","geo_precision":"unmatched"},"type":"Feature","geometry":null},{"properties":{"geo_score":0.0,"municipality":"KAUSWAGAN","id":"ag3nfhw4vjkj","province":"LANAO DEL NORTE","barangay":"LIBERTAD","geo_precision":"unmatched"},"type":"Feature","geometry":null},{"properties":{"geo_score":0.0,"municipality":"KAUSWAGAN","id":"ag3nfhv53siy","province":"LANAO DEL NORTE","barangay":"POBLACION","geo_precision":"unmatched"},"type":"Feature","geometry":null},{"properties":{"geo_score":0.0,"municipality":"KAUSWAGAN","id":"ag3nfi5kirbe","province":"LANAO DEL NORTE","barangay":"TACUB","geo_precision":"unmatched"},"type":"Feature","geometry":null},{"properties":{"geo_score":0.0,"municipality":"KAUSWAGAN","id":"ag3nfhuofnja","province":"LANAO DEL NORTE","barangay":"TINGINTINGIN","geo_precision":"unmatched"},"type":"Feature","geometry":null},{"properties":{"geo_score":0.0,"municipality":"KAUSWAGAN","id":"ag3nfhy3vkxg","province":"LANAO DEL NORTE","barangay":"TUGAR","geo_precision":"unmatched"},"type":"Feature","geometry":null},{"properties":{"geo_score":0.0,"municipality":"MATUNGAO","id":"ag3nfi3tri00","province":"LANAO DEL NORTE","barangay":"BANGCO","geo_precision":"unmatched"},"type":"Feature","geometry":null},{"properties":{"geo_score":0.0,"municipality":"MATUNGAO","id":"ag3nfhtlt0wv","province":"LANAO DEL NORTE","barangay":"BATAL","geo_precision":"unmatched"},"type":"Feature","geometry":null},{"properties":{"geo_score":0.0,"municipality":"MATUNGAO","id":"ag3nfhxzjxwk","province":"LANAO DEL NORTE","barangay":"BATANGAN","geo_precision":"unmatched"},"type":"Feature","geometry":null},{"properties":{"geo_score":0.0,"municipality":"MATUNGAO","id":"ag3nfhx6ostq","province":"LANAO DEL NORTE","barangay":"BOBONGA RADAPAN","geo_precision":"unmatched"},"type":"Feature","geometry":null},{"properties":{"geo_score":0.0,"municipality":"MATUNGAO","id":"ag3nfi4bo4mt","province":"LANAO DEL NORTE","barangay":"CADAYONAN","geo_precision":"unmatched"},"type":"Feature","geometry":null},{"properties":{"geo_score":0.0,"municipality":"MATUNGAO","id":"ag3nfi5k375d","province":"LANAO DEL NORTE","barangay":"MATAMPAY","geo_precision":"unmatched"},"type":"Feature","geometry":null},{"properties":{"geo_score":0.0,"municipality":"MATUNGAO","id":"ag3nfi4bfu6h","province":"LANAO DEL NORTE","barangay":"PANGI","geo_precision":"unmatched"},"type":"Feature","geometry":null},{"properties":{"geo_score":0.0,"municipality":"MATUNGAO","id":"ag3nfi0eg9ix","province":"LANAO DEL NORTE","barangay":"PASAYANON","geo_precision":"unmatched"},"type":"Feature","geometry":null},{"properties":{"geo_score":0.0,"municipality":"MATUNGAO","id":"ag3nfhys8q4r","province":"LANAO DEL NORTE","barangay":"POBLACION","geo_precision":"unmatched"},"type":"Feature","geometry":null},{"properties":{"geo_score":0.0,"municipality":"MATUNGAO","id":"ag3nfi75juh2","province":"LANAO DEL NORTE","barangay":"SOMIORANG","geo_precision":"unmatched"},"type":"Feature","geometry":null},{"properties":{"geo_score":0.0,"municipality":"PANTAO RAGAT","id":"ag3nfi7y40o5","province":"LANAO DEL NORTE","barangay":"ALOON","geo_precision":"unmatched"},"type":"Feature","geometry":null},{"properties":{"geo_score":0.0,"municipality":"PANTAO RAGAT","id":"ag3nfhtvfiqd","province":"LANAO DEL NORTE","barangay":"BANDAY","geo_precision":"unmatched"},"type":"Feature","geometry":null},{"properties":{"geo_score":0.0,"municipality":"PANTAO RAGAT","id":"ag3nfi5lrfwc","province":"LANAO DEL NORTE","barangay":"BOBONGA PANTAO RAGAT","geo_precision":"unmatched"},"type":"Feature","geometry":null},{"properties":{"geo_score":0.0,"municipality":"PANTAO RAGAT","id":"ag3nfhu3q6n5","province":"LANAO DEL NORTE","barangay":"BOBONGA RADAPAN","geo_precision":"unmatched"},"type":"Feature","geometry":null},{"properties":{"geo_score":0.0,"municipality":"PANTAO RAGAT","id":"ag3nfi5xjnec","province":"LANAO DEL NORTE","barangay":"CABASAGAN","geo_precision":"unmatched"},"type":"Feature","geometry":null},{"properties":{"geo_score":0.0,"municipality":"PANTAO RAGAT","id":"ag3nfi29yc3t","province":"LANAO DEL NORTE","barangay":"CALAWE","geo_precision":"unmatched"},"type":"Feature","geometry":null},{"properties":{"geo_score":0.0,"municipality":"PANTAO RAGAT","id":"ag3nfhxkeh71","province":"LANAO DEL NORTE","barangay":"CULUBUN","geo_precision":"unmatched"},"type":"Feature","geometry":null},{"properties":{"geo_score":0.0,"municipality":"PANTAO RAGAT","id":"ag3nfi0etshj","province":"LANAO DEL NORTE","barangay":"DILIMBAYAN","geo_precision":"unmatched"},"type":"Feature","geometry":null},{"properties":{"geo_score":0.0,"municipality":"PANTAO RAGAT","id":"ag3nfhzeiwgc","province":"LANAO DEL NORTE","barangay":"DIMAYON","geo_precision":"unmatched"},"type":"Feature","geometry":null},{"properties":{"geo_score":0.0,"municipality":"PANTAO RAGAT","id":"ag3nfi11nrvc","province":"LANAO DEL NORTE","barangay":"LOMIDONG","geo_precision":"unmatched"},"type":"Feature","geometry":null},{"properties":{"geo_score":0.0,"municipality":"PANTAO RAGAT","id":"ag3nfhsk6tvs","province":"LANAO DEL NORTE","barangay":"MADAYA","geo_precision":"unmatched"},"type":"Feature","geometry":null},{"properties":{"geo_score":0.0,"municipality":"PANTAO RAGAT","id":"ag3nfht1bjgo","province":"LANAO DEL NORTE","barangay":"MALIWANAG","geo_precision":"unmatched"},"type":"Feature","geometry":null},{"properties":{"geo_score":0.0,"municipality":"PANTAO RAGAT","id":"ag3nfi3xr8r9","province":"LANAO DEL NORTE","barangay":"MATAMPAY","geo_precision":"unmatched"},"type":"Feature","geometry":null},{"properties":{"geo_score":0.0,"municipality":"PANTAO RAGAT","id":"ag3nfhruqoor","province":"LANAO DEL NORTE","barangay":"NATANGCOPAN","geo_precision":"unmatched"},"type":"Feature","geometry":null},{"properties":{"geo_score":0.0,"municipality":"PANTAO RAGAT","id":"ag3nfhxsb7ca","province":"LANAO DEL NORTE","barangay":"PANSOR","geo_precision":"unmatched"},"type":"Feature","geometry":null},{"properties":{"geo_score":0.0,"municipality":"PANTAO RAGAT","id":"ag3nfhvmk8xe","province":"LANAO DEL NORTE","barangay":"PANTAO MARUG","geo_precision":"unmatched"},"type":"Feature","geometry":null},{"properties":{"geo_score":0.0,"municipality":"PANTAO RAGAT","id":"ag3nfi4o7vq3","province":"LANAO DEL NORTE","barangay":"POBLACION EAST","geo_precision":"unmatched"},"type":"Feature","geometry":null},{"properties":{"geo_score":0.0,"municipality":"PANTAO RAGAT","id":"ag3nfi0q2bdh","province":"LANAO DEL NORTE","barangay":"TANGCAL","geo_precision":"unmatched"},"type":"Feature","geometry":null},{"properties":{"geo_score":0.0,"municipality":"PANTAO RAGAT","id":"ag3nfi2mssks","province":"LANAO DEL NORTE","barangay":"TONGCOPAN","geo_precision":"unmatched"},"type":"Feature","geometry":null},{"properties":{"geo_score":0.0,"municipality":"POONA PIAGAPO","id":"ag3nfi2m6ufv","province":"LANAO DEL NORTE","barangay":"ALOWIN","geo_precision":"unmatched"},"type":"Feature","geometry":null},{"properties":{"geo_score":0.0,"municipality":"POONA PIAGAPO","id":"ag3nfi0pcqi7","province":"LANAO DEL NORTE","barangay":"Bubong-Dinaig","geo_precision":"unmatched"},"type":"Feature","geometry":null},{"properties":{"geo_score":0.0,"municipality":"POONA PIAGAPO","id":"ag3nfhu5j7vp","province":"LANAO DEL NORTE","barangay":"Dinaig","geo_precision":"unmatched"},"type":"Feature","geometry":null},{"properties":{"geo_score":0.0,"municipality":"POONA PIAGAPO","id":"ag3nfhz47r9w","province":"LANAO DEL NORTE","barangay":"Madamba","geo_precision":"unmatched"},"type":"Feature","geometry":null},{"properties":{"geo_score":0.0,"municipality":"POONA PIAGAPO","id":"ag3nfhukvsn0","province":"LANAO DEL NORTE","barangay":"Nunang","geo_precision":"unmatched"},"type":"Feature","geometry":null},{"properties":{"geo_score":0.0,"municipality":"POONA PIAGAPO","id":"ag3nfhubcdew","province":"LANAO DEL NORTE","barangay":"Pindolonan","geo_precision":"unmatched"},"type":"Feature","geometry":null},{"properties":{"geo_score":0.0,"municipality":"BALABAGAN","id":"ag3nfi84t26o","province":"LANAO DEL SUR","barangay":"BAGOAINGUD","geo_precision":"unmatched"},"type":"Feature","geometry":null},{"properties":{"geo_score":0.0,"municipality":"BALABAGAN","id":"ag3nfhsn8run","province":"LANAO DEL SUR","barangay":"BARORAO","geo_precision":"unmatched"},"type":"Feature","geometry":null},{"properties":{"geo_score":0.0,"municipality":"BALABAGAN","id":"ag3nfhrophye","province":"LANAO DEL SUR","barangay":"BATUAN","geo_precision":"unmatched"},"type":"Feature","geometry":null},{"properties":{"geo_score":0.0,"municipality":"BALABAGAN","id":"ag3nfi5cxmpi","province":"LANAO DEL SUR","barangay":"BUENAVISTA","geo_precision":"unmatched"},"type":"Feature","geometry":null},{"properties":{"geo_score":0.0,"municipality":"BALABAGAN","id":"ag3nfi6nergw","province":"LANAO DEL SUR","barangay":"BUISAN (BENGABENG)","geo_precision":"unmatched"},"type":"Feature","geometry":null},{"properties":{"geo_score":0.0,"municipality":"BALABAGAN","id":"ag3nfhujfop3","province":"LANAO DEL SUR","barangay":"CALILANGAN","geo_precision":"unmatched"},"type":"Feature","geometry":null},{"properties":{"geo_score":0.0,"municipality":"BALABAGAN","id":"ag3nfhvvchca","province":"LANAO DEL SUR","barangay":"IGABAY","geo_precision":"unmatched"},"type":"Feature","geometry":null},{"properties":{"geo_score":0.0,"municipality":"BALABAGAN","id":"ag3nfhvk5n2r","province":"LANAO DEL SUR","barangay":"ILIAN","geo_precision":"unmatched"},"type":"Feature","geometry":null},{"properties":{"geo_score":0.0,"municipality":"BALABAGAN","id":"ag3nfhxi79t9","province":"LANAO DEL SUR","barangay":"LALABUAN","geo_precision":"unmatched"},"type":"Feature","geometry":null},{"properties":{"geo_score":0.0,"municipality":"BALABAGAN","id":"ag3nfi2zbu11","province":"LANAO DEL SUR","barangay":"LOWER ITIL","geo_precision":"unmatched"},"type":"Feature","geometry":null},{"properties":{"geo_score":0.0,"municipality":"BALABAGAN","id":"ag3nfi5w3rgp","province":"LANAO DEL SUR","barangay":"LUMBAC","geo_precision":"unmatched"},"type":"Feature","geometry":null},{"properties":{"geo_score":0.0,"municipality":"BALABAGAN","id":"ag3nfhu6gcn7","province":"LANAO DEL SUR","barangay":"MACAO","geo_precision":"unmatched"},"type":"Feature","geometry":null},{"properties":{"geo_score":0.0,"municipality":"BALABAGAN","id":"ag3nfhx1zkmz","province":"LANAO DEL SUR","barangay":"MAGULALUNG OCCIDENTAL","geo_precision":"unmatched"},"type":"Feature","geometry":null},{"properties":{"geo_score":0.0,"municipality":"BALABAGAN","id":"ag3nfi29v2hz","province":"LANAO DEL SUR","barangay":"MAGULALUNG ORIENTAL","geo_precision":"unmatched"},"type":"Feature","geometry":null},{"properties":{"geo_score":0.0,"municipality":"BALABAGAN","id":"ag3nfhw4uxdq","province":"LANAO DEL SUR","barangay":"MATAMPAY","geo_precision":"unmatched"},"type":"Feature","geometry":null},{"properties":{"geo_score":0.0,"municipality":"BALABAGAN","id":"ag3nfhxp33wx","province":"LANAO DEL SUR","barangay":"MATANOG","geo_precision":"unmatched"},"type":"Feature","geometry":null},{"properties":{"geo_score":0.0,"municipality":"BALABAGAN","id":"ag3nfi4aud6r","province":"LANAO DEL SUR","barangay":"MOLIMOC","geo_precision":"unmatched"},"type":"Feature","geometry":null},{"properties":{"geo_score":0.0,"municipality":"BALABAGAN","id":"ag3nfhwpug0i","province":"LANAO DEL SUR","barangay":"NARRA","geo_precision":"unmatched"},"type":"Feature","geometry":null},{"properties":{"geo_score":0.0,"municipality":"BALABAGAN","id":"ag3nfhxrwxhz","province":"LANAO DEL SUR","barangay":"PINDOLONAN","geo_precision":"unmatched"},"type":"Feature","geometry":null},{"properties":{"geo_score":0.0,"municipality":"BALABAGAN","id":"ag3nfhvfcdmr","province":"LANAO DEL SUR","barangay":"PLASAN","geo_precision":"unmatched"},"type":"Feature","geometry":null},{"properties":{"geo_score":0.0,"municipality":"BALABAGAN","id":"ag3nfhrt5sr1","province":"LANAO DEL SUR","barangay":"PURAKAN","geo_precision":"unmatched"},"type":"Feature","geometry":null},{"properties":{"geo_score":0.0,"municipality":"BALABAGAN","id":"ag3nfi066jd5","province":"LANAO DEL SUR","barangay":"TATAYA","geo_precision":"unmatched"},"type":"Feature","geometry":null},{"properties":{"geo_score":0.0,"municipality":"BALABAGAN","id":"ag3nfhym90gs","province":"LANAO DEL SUR","barangay":"UPPER ITIL","geo_precision":"unmatched"},"type":"Feature","geometry":null},{"properties":{"geo_score":0.0,"municipality":"BALINDONG (WATU)","id":"ag3nfhs9nzjt","province":"LANAO DEL SUR","barangay":"INGUD","geo_precision":"unmatched"},"type":"Feature","geometry":null},{"properties":{"geo_score":0.0,"municipality":"BALINDONG (WATU)","id":"ag3nfhttzd7e","province":"LANAO DEL SUR","barangay":"LUMBAYAO","geo_precision":"unmatched"},"type":"Feature","geometry":null},{"properties":{"geo_score":0.0,"municipality":"BALINDONG (WATU)","id":"ag3nfi05e8e7","province":"LANAO DEL SUR","barangay":"MALAIG","geo_precision":"unmatched"},"type":"Feature","geometry":null},{"properties":{"geo_score":0.0,"municipality":"BALINDONG (WATU)","id":"ag3nfi5h83ep","province":"LANAO DEL SUR","barangay":"PADILA","geo_precision":"unmatched"},"type":"Feature","geometry":null},{"properties":{"geo_score":0.0,"municipality":"BALINDONG (WATU)","id":"ag3nfi2hisnl","province":"LANAO DEL SUR","barangay":"RAYA","geo_precision":"unmatched"},"type":"Feature","geometry":null},{"properties":{"geo_score":0.0,"municipality":"MADALUM","id":"ag3nfhuobxck","province":"LANAO DEL SUR","barangay":"Bato","geo_precision":"unmatched"},"type":"Feature","geometry":null},{"properties":{"geo_score":0.0,"municipality":"MADALUM","id":"ag3nfhy63hf3","province":"LANAO DEL SUR","barangay":"Dilausan","geo_precision":"unmatched"},"type":"Feature","geometry":null},{"properties":{"geo_score":0.0,"municipality":"MADALUM","id":"ag3nfi6iq0nx","province":"LANAO DEL SUR","barangay":"Kormatan","geo_precision":"unmatched"},"type":"Feature","geometry":null},{"properties":{"geo_score":0.0,"municipality":"MADALUM","id":"ag3nfhtva39g","province":"LANAO DEL SUR","barangay":"Linao","geo_precision":"unmatched"},"type":"Feature","geometry":null},{"properties":{"geo_score":0.0,"municipality":"MADALUM","id":"ag3nfhxm4jpz","province":"LANAO DEL SUR","barangay":"Linuk","geo_precision":"unmatched"},"type":"Feature","geometry":null},{"properties":{"geo_score":0.0,"municipality":"MADALUM","id":"ag3nfhx8dugd","province":"LANAO DEL SUR","barangay":"Punud","geo_precision":"unmatched"},"type":"Feature","geometry":null},{"properties":{"geo_score":0.0,"municipality":"MALABANG","id":"ag3nfi7coq26","province":"LANAO DEL SUR","barangay":"BADAK","geo_precision":"unmatched"},"type":"Feature","geometry":null},{"properties":{"geo_score":0.0,"municipality":"MALABANG","id":"ag3nfi00zzmi","province":"LANAO DEL SUR","barangay":"BANDAY","geo_precision":"unmatched"},"type":"Feature","geometry":null},{"properties":{"geo_score":0.0,"municipality":"MALABANG","id":"ag3nfi70jjxl","province":"LANAO DEL SUR","barangay":"DIAMARO","geo_precision":"unmatched"},"type":"Feature","geometry":null},{"properties":{"geo_score":0.0,"municipality":"MARAWI CITY (CAPITAL)","id":"ag3nfhstsxoq","province":"LANAO DEL SUR","barangay":"DANSALAN","geo_precision":"unmatched"},"type":"Feature","geometry":null},{"properties":{"geo_score":0.0,"municipality":"MARAWI CITY (CAPITAL)","id":"ag3nfhsvpsal","province":"LANAO DEL SUR","barangay":"MONCADO KADINGILAN","geo_precision":"unmatched"},"type":"Feature","geometry":null},{"properties":{"geo_score":0.0,"municipality":"MARAWI CITY (CAPITAL)","id":"ag3nfi0k9bng","province":"LANAO DEL SUR","barangay":"SABALA MANAO","geo_precision":"unmatched"},"type":"Feature","geometry":null},{"properties":{"geo_score":0.0,"municipality":"MARAWI CITY (CAPITAL)","id":"ag3nfhx6mcmx","province":"LANAO DEL SUR","barangay":"SANGCAY DANSALAN","geo_precision":"unmatched"},"type":"Feature","geometry":null},{"properties":{"geo_score":0.0,"municipality":"MARAWI CITY (CAPITAL)","id":"ag3nfi7fj2js","province":"LANAO DEL SUR","barangay":"TIMBANGALAN","geo_precision":"unmatched"},"type":"Feature","geometry":null},{"properties":{"geo_score":0.0,"municipality":"BARIRA","id":"ag3nfhrnd052","province":"MAGUINDANAO","barangay":"BARIRA (POB.)","geo_precision":"unmatched"},"type":"Feature","geometry":null},{"properties":{"geo_score":0.0,"municipality":"BARIRA","id":"ag3nfhtw959i","province":"MAGUINDANAO","barangay":"BUALAN","geo_precision":"unmatched"},"type":"Feature","geometry":null},{"properties":{"geo_score":0.0,"municipality":"BARIRA","id":"ag3nfhuyuwea","province":"MAGUINDANAO","barangay":"LAMIN","geo_precision":"unmatched"},"type":"Feature","geometry":null},{"properties":{"geo_score":0.0,"municipality":"BARIRA","id":"ag3nfhtqim11","province":"MAGUINDANAO","barangay":"LIONG","geo_precision":"unmatched"},"type":"Feature","geometry":null},{"properties":{"geo_score":0.0,"municipality":"BARIRA","id":"ag3nfhuk7kog","province":"MAGUINDANAO","barangay":"LIPA","geo_precision":"unmatched"},"type":"Feature","geometry":null},{"properties":{"geo_score":0.0,"municipality":"BARIRA","id":"ag3nfi637wsu","province":"MAGUINDANAO","barangay":"LIPAWAN","geo_precision":"unmatched"},"type":"Feature","geometry":null},{"properties":{"geo_score":0.0,"municipality":"BARIRA","id":"ag3nfhy0gjjh","province":"MAGUINDANAO","barangay":"MARANG","geo_precision":"unmatched"},"type":"Feature","geometry":null},{"properties":{"geo_score":0.0,"municipality":"BARIRA","id":"ag3nfhyp1e8q","province":"MAGUINDANAO","barangay":"MINABAY","geo_precision":"unmatched"},"type":"Feature","geometry":null},{"properties":{"geo_score":0.0,"municipality":"BARIRA","id":"ag3nfi2rjnl7","province":"MAGUINDANAO","barangay":"NABALAWAG","geo_precision":"unmatched"},"type":"Feature","geometry":null},{"properties":{"geo_score":0.0,"municipality":"BARIRA","id":"ag3nfi37jdu9","province":"MAGUINDANAO","barangay":"PANGGAO","geo_precision":"unmatched"},"type":"Feature","geometry":null},{"properties":{"geo_score":0.0,"municipality":"BARIRA","id":"ag3nfhz4sy0k","province":"MAGUINDANAO","barangay":"ROMINIMBANG","geo_precision":"unmatched"},"type":"Feature","geometry":null},{"properties":{"geo_score":0.0,"municipality":"BARIRA","id":"ag3nfi3dpsre","province":"MAGUINDANAO","barangay":"TUGAIG","geo_precision":"unmatched"},"type":"Feature","geometry":null},{"properties":{"geo_score":0.0,"municipality":"BULUAN","id":"ag3nfi45z2vw","province":"MAGUINDANAO","barangay":"DIGAL","geo_precision":"unmatched"},"type":"Feature","geometry":null},{"properties":{"geo_score":0.0,"municipality":"BULUAN","id":"ag3nfi5vtpdg","province":"MAGUINDANAO","barangay":"LOWER SILING","geo_precision":"unmatched"},"type":"Feature","geometry":null},{"properties":{"geo_score":0.0,"municipality":"BULUAN","id":"ag3nfhw51dho","province":"MAGUINDANAO","barangay":"MASLABENG","geo_precision":"unmatched"},"type":"Feature","geometry":null},{"properties":{"geo_score":0.0,"municipality":"BULUAN","id":"ag3nfi0az8pf","province":"MAGUINDANAO","barangay":"POBLACION","geo_precision":"unmatched"},"type":"Feature","geometry":null},{"properties":{"geo_score":0.0,"municipality":"BULUAN","id":"ag3nfi28g2i4","province":"MAGUINDANAO","barangay":"POPOL","geo_precision":"unmatched"},"type":"Feature","geometry":null},{"properties":{"geo_score":0.0,"municipality":"BULUAN","id":"ag3nfhrnd0vf","province":"MAGUINDANAO","barangay":"TALITAY","geo_precision":"unmatched"},"type":"Feature","geometry":null},{"properties":{"geo_score":0.0,"municipality":"BULUAN","id":"ag3nfi0bnywr","province":"MAGUINDANAO","barangay":"UPPER SILING","geo_precision":"unmatched"},"type":"Feature","geometry":null},{"properties":{"geo_score":0.0,"municipality":"DATU ABDULLAH SANGKI","id":"ag3nfi1od1x0","province":"MAGUINDANAO","barangay":"Banaba","geo_precision":"unmatched"},"type":"Feature","geometry":null},{"properties":{"geo_score":0.0,"municipality":"DATU ABDULLAH SANGKI","id":"ag3nfhy8jogn","province":"MAGUINDANAO","barangay":"Guinibon","geo_precision":"unmatched"},"type":"Feature","geometry":null},{"properties":{"geo_score":0.0,"municipality":"DATU ABDULLAH SANGKI","id":"ag3nfi7sivio","province":"MAGUINDANAO","barangay":"Mao","geo_precision":"unmatched"},"type":"Feature","geometry":null},{"properties":{"geo_score":0.0,"municipality":"DATU ABDULLAH SANGKI","id":"ag3nfi4azy7j","province":"MAGUINDANAO","barangay":"Sugadol","geo_precision":"unmatched"},"type":"Feature","geometry":null},{"properties":{"geo_score":0.0,"municipality":"DATU ABDULLAH SANGKI","id":"ag3nfhtb17xf","province":"MAGUINDANAO","barangay":"Talisawa","geo_precision":"unmatched"},"type":"Feature","geometry":null},{"properties":{"geo_score":0.0,"municipality":"DATU ABDULLAH SANGKI","id":"ag3nfhxg0ih7","province":"MAGUINDANAO","barangay":"Tukanolocong (Tukanologong)","geo_precision":"unmatched"},"type":"Feature","geometry":null},{"properties":{"geo_score":0.0,"municipality":"DATU ODIN SINSUAT","id":"ag3nfhzmy7ve","province":"MAGUINDANAO","barangay":"BAKA","geo_precision":"unmatched"},"type":"Feature","geometry":null},{"properties":{"geo_score":0.0,"municipality":"DATU ODIN SINSUAT","id":"ag3nfhulmtik","province":"MAGUINDANAO","barangay":"BITU","geo_precision":"unmatched"},"type":"Feature","geometry":null},{"properties":{"geo_score":0.0,"municipality":"DATU ODIN SINSUAT","id":"ag3nfhrs4j4c","province":"MAGUINDANAO","barangay":"BUGAWAS","geo_precision":"unmatched"},"type":"Feature","geometry":null},{"properties":{"geo_score":0.0,"municipality":"DATU ODIN SINSUAT","id":"ag3nfi51rg6e","province":"MAGUINDANAO","barangay":"KENEBEKA","geo_precision":"unmatched"},"type":"Feature","geometry":null},{"properties":{"geo_score":0.0,"municipality":"DATU ODIN SINSUAT","id":"ag3nfhzmo7dn","province":"MAGUINDANAO","barangay":"KURINTEM","geo_precision":"unmatched"},"type":"Feature","geometry":null},{"properties":{"geo_score":0.0,"municipality":"DATU ODIN SINSUAT","id":"ag3nfhyawyr9","province":"MAGUINDANAO","barangay":"LABUNGAN","geo_precision":"unmatched"},"type":"Feature","geometry":null},{"properties":{"geo_score":0.0,"municipality":"DATU ODIN SINSUAT","id":"ag3nfi0pq7fd","province":"MAGUINDANAO","barangay":"MAKIR","geo_precision":"unmatched"},"type":"Feature","geometry":null},{"properties":{"geo_score":0.0,"municipality":"DATU ODIN SINSUAT","id":"ag3nfi41b2jd","province":"MAGUINDANAO","barangay":"SAPALAN","geo_precision":"unmatched"},"type":"Feature","geometry":null},{"properties":{"geo_score":0.0,"municipality":"DATU ODIN SINSUAT","id":"ag3nfi0bzizb","province":"MAGUINDANAO","barangay":"SEMBA","geo_precision":"unmatched"},"type":"Feature","geometry":null},{"properties":{"geo_score":0.0,"municipality":"DATU ODIN SINSUAT","id":"ag3nfhvmpsyk","province":"MAGUINDANAO","barangay":"SIBUTO","geo_precision":"unmatched"},"type":"Feature","geometry":null},{"properties":{"geo_score":0.0,"municipality":"DATU ODIN SINSUAT","id":"ag3nfi0jq682","province":"MAGUINDANAO","barangay":"SIFAREN (SIFARAN)","geo_precision":"unmatched"},"type":"Feature","geometry":null},{"properties":{"geo_score":0.0,"municipality":"DATU PIANG","id":"ag3nfhvwx6yq","province":"MAGUINDANAO","barangay":"AMBADAO","geo_precision":"unmatched"},"type":"Feature","geometry":null},{"properties":{"geo_score":0.0,"municipality":"DATU PIANG","id":"ag3nfi7c33qo","province":"MAGUINDANAO","barangay":"BALANAKAN","geo_precision":"unmatched"},"type":"Feature","geometry":null},{"properties":{"geo_score":0.0,"municipality":"DATU PIANG","id":"ag3nfhyxxs8f","province":"MAGUINDANAO","barangay":"BALONG","geo_precision":"unmatched"},"type":"Feature","geometry":null},{"properties":{"geo_score":0.0,"municipality":"DATU PIANG","id":"ag3nfhs2evq2","province":"MAGUINDANAO","barangay":"BUAYAN","geo_precision":"unmatched"},"type":"Feature","geometry":null},{"properties":{"geo_score":0.0,"municipality":"DATU PIANG","id":"ag3nfi7bexys","province":"MAGUINDANAO","barangay":"DADO","geo_precision":"unmatched"},"type":"Feature","geometry":null},{"properties":{"geo_score":0.0,"municipality":"DATU PIANG","id":"ag3nfi7nld6e","province":"MAGUINDANAO","barangay":"DAMABALAS","geo_precision":"unmatched"},"type":"Feature","geometry":null},{"properties":{"geo_score":0.0,"municipality":"DATU PIANG","id":"ag3nfhu78bf5","province":"MAGUINDANAO","barangay":"DUAMINANGA","geo_precision":"unmatched"},"type":"Feature","geometry":null},{"properties":{"geo_score":0.0,"municipality":"DATU PIANG","id":"ag3nfhybu711","province":"MAGUINDANAO","barangay":"KALIPAPA","geo_precision":"unmatched"},"type":"Feature","geometry":null},{"properties":{"geo_score":0.0,"municipality":"DATU PIANG","id":"ag3nfhy9fplw","province":"MAGUINDANAO","barangay":"LIONG","geo_precision":"unmatched"},"type":"Feature","geometry":null},{"properties":{"geo_score":0.0,"municipality":"DATU PIANG","id":"ag3nfhyvs75y","province":"MAGUINDANAO","barangay":"MAGASLONG","geo_precision":"unmatched"},"type":"Feature","geometry":null},{"properties":{"geo_score":0.0,"municipality":"DATU PIANG","id":"ag3nfi3vhbqy","province":"MAGUINDANAO","barangay":"MASIGAY","geo_precision":"unmatched"},"type":"Feature","geometry":null},{"properties":{"geo_score":0.0,"municipality":"DATU PIANG","id":"ag3nfhsmy2l0","province":"MAGUINDANAO","barangay":"MONTAY","geo_precision":"unmatched"},"type":"Feature","geometry":null},{"properties":{"geo_score":0.0,"municipality":"DATU PIANG","id":"ag3nfhyozjid","province":"MAGUINDANAO","barangay":"REINA REGENTE","geo_precision":"unmatched"},"type":"Feature","geometry":null},{"properties":{"geo_score":0.0,"municipality":"DATU SALIBO","id":"ag3nfi5vr91k","province":"MAGUINDANAO","barangay":"SAMBULAWAN","geo_precision":"unmatched"},"type":"Feature","geometry":null},{"properties":{"geo_score":0.0,"municipality":"DATU SAUDI-AMPATUAN","id":"ag3nfi4rnaeu","province":"MAGUINDANAO","barangay":"DAPIAWAN","geo_precision":"unmatched"},"type":"Feature","geometry":null},{"properties":{"geo_score":0.0,"municipality":"DATU SAUDI-AMPATUAN","id":"ag3nfi3g8dub","province":"MAGUINDANAO","barangay":"ELIAN","geo_precision":"unmatched"},"type":"Feature","geometry":null},{"properties":{"geo_score":0.0,"municipality":"DATU SAUDI-AMPATUAN","id":"ag3nfi72jnu1","province":"MAGUINDANAO","barangay":"GAWANG","geo_precision":"unmatched"},"type":"Feature","geometry":null},{"properties":{"geo_score":0.0,"municipality":"DATU SAUDI-AMPATUAN","id":"ag3nfi5pkxko","province":"MAGUINDANAO","barangay":"KABENGI","geo_precision":"unmatched"},"type":"Feature","geometry":null},{"properties":{"geo_score":0.0,"municipality":"DATU SAUDI-AMPATUAN","id":"ag3nfhtxuei1","province":"MAGUINDANAO","barangay":"KITANGO","geo_precision":"unmatched"},"type":"Feature","geometry":null},{"properties":{"geo_score":0.0,"municipality":"DATU SAUDI-AMPATUAN","id":"ag3nfi3422z4","province":"MAGUINDANAO","barangay":"KITAPOK","geo_precision":"unmatched"},"type":"Feature","geometry":null},{"properties":{"geo_score":0.0,"municipality":"DATU SAUDI-AMPATUAN","id":"ag3nfhtik8rh","province":"MAGUINDANAO","barangay":"MADIA","geo_precision":"unmatched"},"type":"Feature","geometry":null},{"properties":{"geo_score":0.0,"municipality":"DATU SAUDI-AMPATUAN","id":"ag3nfhwh3bjy","province":"MAGUINDANAO","barangay":"PENDITEN","geo_precision":"unmatched"},"type":"Feature","geometry":null},{"properties":{"geo_score":0.0,"municipality":"DATU SAUDI-AMPATUAN","id":"ag3nfi4dsa2g","province":"MAGUINDANAO","barangay":"SALBU","geo_precision":"unmatched"},"type":"Feature","geometry":null},{"properties":{"geo_score":0.0,"municipality":"DATU UNSAY","id":"ag3nfi40wais","province":"MAGUINDANAO","barangay":"IGANAGAMPONG","geo_precision":"unmatched"},"type":"Feature","geometry":null},{"properties":{"geo_score":0.0,"municipality":"DATU UNSAY","id":"ag3nfi82vst7","province":"MAGUINDANAO","barangay":"MAITUMAIG","geo_precision":"unmatched"},"type":"Feature","geometry":null},{"properties":{"geo_score":0.0,"municipality":"DATU UNSAY","id":"ag3nfhsnafeu","province":"MAGUINDANAO","barangay":"META","geo_precision":"unmatched"},"type":"Feature","geometry":null},{"properties":{"geo_score":0.0,"municipality":"GUINDULUNGAN","id":"ag3nfi6ahhgw","province":"MAGUINDANAO","barangay":"AHAN","geo_precision":"unmatched"},"type":"Feature","geometry":null},{"properties":{"geo_score":0.0,"municipality":"GUINDULUNGAN","id":"ag3nfhzohniy","province":"MAGUINDANAO","barangay":"BAGAN","geo_precision":"unmatched"},"type":"Feature","geometry":null},{"properties":{"geo_score":0.0,"municipality":"GUINDULUNGAN","id":"ag3nfhvse1n9","province":"MAGUINDANAO","barangay":"DATALPANDAN","geo_precision":"unmatched"},"type":"Feature","geometry":null},{"properties":{"geo_score":0.0,"municipality":"GUINDULUNGAN","id":"ag3nfhtn0k9n","province":"MAGUINDANAO","barangay":"KATEMAN","geo_precision":"unmatched"},"type":"Feature","geometry":null},{"properties":{"geo_score":0.0,"municipality":"GUINDULUNGAN","id":"ag3nfi7s5feg","province":"MAGUINDANAO","barangay":"LAMBAYAO","geo_precision":"unmatched"},"type":"Feature","geometry":null},{"properties":{"geo_score":0.0,"municipality":"GUINDULUNGAN","id":"ag3nfi4reamn","province":"MAGUINDANAO","barangay":"MACASAMPEN","geo_precision":"unmatched"},"type":"Feature","geometry":null},{"properties":{"geo_score":0.0,"municipality":"GUINDULUNGAN","id":"ag3nfi5ir1sm","province":"MAGUINDANAO","barangay":"MUSLIM","geo_precision":"unmatched"},"type":"Feature","geometry":null},{"properties":{"geo_score":0.0,"municipality":"GUINDULUNGAN","id":"ag3nfi4qb2wo","province":"MAGUINDANAO","barangay":"MUTI","geo_precision":"unmatched"},"type":"Feature","geometry":null},{"properties":{"geo_score":0.0,"municipality":"GUINDULUNGAN","id":"ag3nfi7vclwd","province":"MAGUINDANAO","barangay":"SAMPAO","geo_precision":"unmatched"},"type":"Feature","geometry":null},{"properties":{"geo_score":0.0,"municipality":"GUINDULUNGAN","id":"ag3nfhsuyupe","province":"MAGUINDANAO","barangay":"TAMBUNAN II","geo_precision":"unmatched"},"type":"Feature","geometry":null},{"properties":{"geo_score":0.0,"municipality":"KABUNTALAN (TUMBAO)","id":"ag3nfi5p3vec","province":"MAGUINDANAO","barangay":"BAGUMBAYAN","geo_precision":"unmatched"},"type":"Feature","geometry":null},{"properties":{"geo_score":0.0,"municipality":"KABUNTALAN (TUMBAO)","id":"ag3nfhrwbhfc","province":"MAGUINDANAO","barangay":"GAMBAR","geo_precision":"unmatched"},"type":"Feature","geometry":null},{"properties":{"geo_score":0.0,"municipality":"KABUNTALAN (TUMBAO)","id":"ag3nfi4ur5of","province":"MAGUINDANAO","barangay":"MAITONG","geo_precision":"unmatched"},"type":"Feature","geometry":null},{"properties":{"geo_score":0.0,"municipality":"KABUNTALAN (TUMBAO)","id":"ag3nfhvekaj9","province":"MAGUINDANAO","barangay":"UPPER TAVIRAN","geo_precision":"unmatched"},"type":"Feature","geometry":null},{"properties":{"geo_score":0.0,"municipality":"MAMASAPANO","id":"ag3nfi2hlb9j","province":"MAGUINDANAO","barangay":"BAGUMBONG","geo_precision":"unmatched"},"type":"Feature","geometry":null},{"properties":{"geo_score":0.0,"municipality":"MAMASAPANO","id":"ag3nfi6ueauq","province":"MAGUINDANAO","barangay":"DABENAYAN","geo_precision":"unmatched"},"type":"Feature","geometry":null},{"properties":{"geo_score":0.0,"municipality":"MAMASAPANO","id":"ag3nfhwn1yhj","province":"MAGUINDANAO","barangay":"DALADAP","geo_precision":"unmatched"},"type":"Feature","geometry":null},{"properties":{"geo_score":0.0,"municipality":"MAMASAPANO","id":"ag3nfhzkyqc0","province":"MAGUINDANAO","barangay":"DASIKIL","geo_precision":"unmatched"},"type":"Feature","geometry":null},{"properties":{"geo_score":0.0,"municipality":"MAMASAPANO","id":"ag3nfhxeitc0","province":"MAGUINDANAO","barangay":"LIAB","geo_precision":"unmatched"},"type":"Feature","geometry":null},{"properties":{"geo_score":0.0,"municipality":"MAMASAPANO","id":"ag3nfhukig4t","province":"MAGUINDANAO","barangay":"LIBUTAN","geo_precision":"unmatched"},"type":"Feature","geometry":null},{"properties":{"geo_score":0.0,"municipality":"MAMASAPANO","id":"ag3nfi2b1pen","province":"MAGUINDANAO","barangay":"LUSAY","geo_precision":"unmatched"},"type":"Feature","geometry":null},{"properties":{"geo_score":0.0,"municipality":"MAMASAPANO","id":"ag3nfi4vad80","province":"MAGUINDANAO","barangay":"MAMASAPANO","geo_precision":"unmatched"},"type":"Feature","geometry":null},{"properties":{"geo_score":0.0,"municipality":"MAMASAPANO","id":"ag3nfi7sendm","province":"MAGUINDANAO","barangay":"PIDSANDAWAN","geo_precision":"unmatched"},"type":"Feature","geometry":null},{"properties":{"geo_score":0.0,"municipality":"MAMASAPANO","id":"ag3nfhvtcoti","province":"MAGUINDANAO","barangay":"PIMBALAKAN","geo_precision":"unmatched"},"type":"Feature","geometry":null},{"properties":{"geo_score":0.0,"municipality":"MAMASAPANO","id":"ag3nfhsv8jns","province":"MAGUINDANAO","barangay":"SAPAKAN (POB.)","geo_precision":"unmatched"},"type":"Feature","geometry":null},{"properties":{"geo_score":0.0,"municipality":"MAMASAPANO","id":"ag3nfhy7h6id","province":"MAGUINDANAO","barangay":"TUKA","geo_precision":"unmatched"},"type":"Feature","geometry":null},{"properties":{"geo_score":0.0,"municipality":"MAMASAPANO","id":"ag3nfhtkbe0y","province":"MAGUINDANAO","barangay":"TUKANALIPAO","geo_precision":"unmatched"},"type":"Feature","geometry":null},{"properties":{"geo_score":0.0,"municipality":"MATANOG","id":"ag3nfi1jmbsh","province":"MAGUINDANAO","barangay":"BAYANGA SUR","geo_precision":"unmatched"},"type":"Feature","geometry":null},{"properties":{"geo_score":0.0,"municipality":"MATANOG","id":"ag3nfi6xlold","province":"MAGUINDANAO","barangay":"BUGASAN NORTE","geo_precision":"unmatched"},"type":"Feature","geometry":null},{"properties":{"geo_score":0.0,"municipality":"MATANOG","id":"ag3nfi085b0n","province":"MAGUINDANAO","barangay":"BUGASAN SUR (POB.)","geo_precision":"unmatched"},"type":"Feature","geometry":null},{"properties":{"geo_score":0.0,"municipality":"MATANOG","id":"ag3nfhze4q8y","province":"MAGUINDANAO","barangay":"LANGCO","geo_precision":"unmatched"},"type":"Feature","geometry":null},{"properties":{"geo_score":0.0,"municipality":"MATANOG","id":"ag3nfi0x099v","province":"MAGUINDANAO","barangay":"LANGKONG","geo_precision":"unmatched"},"type":"Feature","geometry":null},{"properties":{"geo_score":0.0,"municipality":"MATANOG","id":"ag3nfhz01msg","province":"MAGUINDANAO","barangay":"SAPAD","geo_precision":"unmatched"},"type":"Feature","geometry":null},{"properties":{"geo_score":0.0,"municipality":"NORTHERN KABUNTALAN","id":"ag3nfi3afi1l","province":"MAGUINDANAO","barangay":"DAMATOG","geo_precision":"unmatched"},"type":"Feature","geometry":null},{"properties":{"geo_score":0.0,"municipality":"NORTHERN KABUNTALAN","id":"ag3nfhzqpt3t","province":"MAGUINDANAO","barangay":"GAYONGA","geo_precision":"unmatched"},"type":"Feature","geometry":null},{"properties":{"geo_score":0.0,"municipality":"NORTHERN KABUNTALAN","id":"ag3nfhwrlk16","province":"MAGUINDANAO","barangay":"INDATUAN","geo_precision":"unmatched"},"type":"Feature","geometry":null},{"properties":{"geo_score":0.0,"municipality":"NORTHERN KABUNTALAN","id":"ag3nfi5pfo5e","province":"MAGUINDANAO","barangay":"LIBUNGAN","geo_precision":"unmatched"},"type":"Feature","geometry":null},{"properties":{"geo_score":0.0,"municipality":"NORTHERN KABUNTALAN","id":"ag3nfhywazxl","province":"MAGUINDANAO","barangay":"MONTAY","geo_precision":"unmatched"},"type":"Feature","geometry":null},{"properties":{"geo_score":0.0,"municipality":"NORTHERN KABUNTALAN","id":"ag3nfi72kw5m","province":"MAGUINDANAO","barangay":"PAULINO LABIO","geo_precision":"unmatched"},"type":"Feature","geometry":null},{"properties":{"geo_score":0.0,"municipality":"PAGALUNGAN","id":"ag3nfi58mi6s","province":"MAGUINDANAO","barangay":"BAGOENGED","geo_precision":"unmatched"},"type":"Feature","geometry":null},{"properties":{"geo_score":0.0,"municipality":"PAGALUNGAN","id":"ag3nfhsky4zh","province":"MAGUINDANAO","barangay":"BULIOK","geo_precision":"unmatched"},"type":"Feature","geometry":null},{"properties":{"geo_score":0.0,"municipality":"PAGALUNGAN","id":"ag3nfi7ncbjm","province":"MAGUINDANAO","barangay":"INUG-UG","geo_precision":"unmatched"},"type":"Feature","geometry":null},{"properties":{"geo_score":0.0,"municipality":"PAGALUNGAN","id":"ag3nfi5symn6","province":"MAGUINDANAO","barangay":"KALBUGAN","geo_precision":"unmatched"},"type":"Feature","geometry":null},{"properties":{"geo_score":0.0,"municipality":"PAGALUNGAN","id":"ag3nfi6asq1w","province":"MAGUINDANAO","barangay":"KUDAL","geo_precision":"unmatched"},"type":"Feature","geometry":null},{"properties":{"geo_score":0.0,"municipality":"PARANG","id":"ag3nfhww5mem","province":"MAGUINDANAO","barangay":"BARANGAY POBLACION 2","geo_precision":"unmatched"},"type":"Feature","geometry":null},{"properties":{"geo_score":0.0,"municipality":"PARANG","id":"ag3nfhte4p76","province":"MAGUINDANAO","barangay":"GUMAGADONG CALAWAG","geo_precision":"unmatched"},"type":"Feature","geometry":null},{"properties":{"geo_score":0.0,"municipality":"PARANG","id":"ag3nfi272bqv","province":"MAGUINDANAO","barangay":"KABUAN","geo_precision":"unmatched"},"type":"Feature","geometry":null},{"properties":{"geo_score":0.0,"municipality":"PARANG","id":"ag3nfi7e2coa","province":"MAGUINDANAO","barangay":"MANION","geo_precision":"unmatched"},"type":"Feature","geometry":null},{"properties":{"geo_score":0.0,"municipality":"PARANG","id":"ag3nfhw4wx9g","province":"MAGUINDANAO","barangay":"ORANDANG","geo_precision":"unmatched"},"type":"Feature","geometry":null},{"properties":{"geo_score":0.0,"municipality":"PARANG","id":"ag3nfhuobox7","province":"MAGUINDANAO","barangay":"SAMBEREN","geo_precision":"unmatched"},"type":"Feature","geometry":null},{"properties":{"geo_score":0.0,"municipality":"RAJAH BUAYAN","id":"ag3nfhzwlgww","province":"MAGUINDANAO","barangay":"BAITAL","geo_precision":"unmatched"},"type":"Feature","geometry":null},{"properties":{"geo_score":0.0,"municipality":"RAJAH BUAYAN","id":"ag3nfhz2oa7d","province":"MAGUINDANAO","barangay":"GAUNAN","geo_precision":"unmatched"},"type":"Feature","geometry":null},{"properties":{"geo_score":0.0,"municipality":"RAJAH BUAYAN","id":"ag3nfi5e9iwo","province":"MAGUINDANAO","barangay":"MILEB","geo_precision":"unmatched"},"type":"Feature","geometry":null},{"properties":{"geo_score":0.0,"municipality":"RAJAH BUAYAN","id":"ag3nfhw4moq8","province":"MAGUINDANAO","barangay":"SAMPAO","geo_precision":"unmatched"},"type":"Feature","geometry":null},{"properties":{"geo_score":0.0,"municipality":"SHARIFF AGUAK","id":"ag3nfi3fca72","province":"MAGUINDANAO","barangay":"BAGONG","geo_precision":"unmatched"},"type":"Feature","geometry":null},{"properties":{"geo_score":0.0,"municipality":"SHARIFF AGUAK","id":"ag3nfhzis8c4","province":"MAGUINDANAO","barangay":"BIALONG","geo_precision":"unmatched"},"type":"Feature","geometry":null},{"properties":{"geo_score":0.0,"municipality":"SHARIFF AGUAK","id":"ag3nfi65gbym","province":"MAGUINDANAO","barangay":"KULOY","geo_precision":"unmatched"},"type":"Feature","geometry":null},{"properties":{"geo_score":0.0,"municipality":"SHARIFF AGUAK","id":"ag3nfi5jtxph","province":"MAGUINDANAO","barangay":"LABU-LABU","geo_precision":"unmatched"},"type":"Feature","geometry":null},{"properties":{"geo_score":0.0,"municipality":"SHARIFF AGUAK","id":"ag3nfi3lycg1","province":"MAGUINDANAO","barangay":"LAPOK (LEPOK)","geo_precision":"unmatched"},"type":"Feature","geometry":null},{"properties":{"geo_score":0.0,"municipality":"SHARIFF AGUAK","id":"ag3nfi3th7fq","province":"MAGUINDANAO","barangay":"MALINGAO","geo_precision":"unmatched"},"type":"Feature","geometry":null},{"properties":{"geo_score":0.0,"municipality":"SHARIFF AGUAK","id":"ag3nfhttr187","province":"MAGUINDANAO","barangay":"SATAN","geo_precision":"unmatched"},"type":"Feature","geometry":null},{"properties":{"geo_score":0.0,"municipality":"SHARIFF AGUAK","id":"ag3nfhwoj438","province":"MAGUINDANAO","barangay":"TAPIKAN","geo_precision":"unmatched"},"type":"Feature","geometry":null},{"properties":{"geo_score":0.0,"municipality":"SHARIFF AGUAK","id":"ag3nfhsgue6j","province":"MAGUINDANAO","barangay":"TIMBANGAN","geo_precision":"unmatched"},"type":"Feature","geometry":null},{"properties":{"geo_score":0.0,"municipality":"SHARIFF AGUAK","id":"ag3nfi0di94k","province":"MAGUINDANAO","barangay":"TINA","geo_precision":"unmatched"},"type":"Feature","geometry":null},{"properties":{"geo_score":0.0,"municipality":"SOUTH UPI","id":"ag3nfhtp3fv2","province":"MAGUINDANAO","barangay":"BIARONG","geo_precision":"unmatched"},"type":"Feature","geometry":null},{"properties":{"geo_score":0.0,"municipality":"SOUTH UPI","id":"ag3nfhyd4jmz","province":"MAGUINDANAO","barangay":"BONGO","geo_precision":"unmatched"},"type":"Feature","geometry":null},{"properties":{"geo_score":0.0,"municipality":"SOUTH UPI","id":"ag3nfhu3nt1b","province":"MAGUINDANAO","barangay":"ITAW","geo_precision":"unmatched"},"type":"Feature","geometry":null},{"properties":{"geo_score":0.0,"municipality":"SOUTH UPI","id":"ag3nfhuqxp4d","province":"MAGUINDANAO","barangay":"KIGAN","geo_precision":"unmatched"},"type":"Feature","geometry":null},{"properties":{"geo_score":0.0,"municipality":"SOUTH UPI","id":"ag3nfi7r7mr2","province":"MAGUINDANAO","barangay":"PANDAN","geo_precision":"unmatched"},"type":"Feature","geometry":null},{"properties":{"geo_score":0.0,"municipality":"SOUTH UPI","id":"ag3nfhw8ntq6","province":"MAGUINDANAO","barangay":"ROMANGAOB (POB.)","geo_precision":"unmatched"},"type":"Feature","geometry":null},{"properties":{"geo_score":0.0,"municipality":"SULTAN KUDARAT","id":"ag3nfhu60j74","province":"MAGUINDANAO","barangay":"BULIBOD","geo_precision":"unmatched"},"type":"Feature","geometry":null},{"properties":{"geo_score":0.0,"municipality":"SULTAN KUDARAT","id":"ag3nfhymf1qq","province":"MAGUINDANAO","barangay":"CROSSING SIMUAY","geo_precision":"unmatched"},"type":"Feature","geometry":null},{"properties":{"geo_score":0.0,"municipality":"SULTAN KUDARAT","id":"ag3nfi6xgdqq","province":"MAGUINDANAO","barangay":"DAMANIOG","geo_precision":"unmatched"},"type":"Feature","geometry":null},{"properties":{"geo_score":0.0,"municipality":"SULTAN KUDARAT","id":"ag3nfi7y3gyi","province":"MAGUINDANAO","barangay":"DARAPANAN","geo_precision":"unmatched"},"type":"Feature","geometry":null},{"properties":{"geo_score":0.0,"municipality":"SULTAN KUDARAT","id":"ag3nfi5kajpi","province":"MAGUINDANAO","barangay":"GANG","geo_precision":"unmatched"},"type":"Feature","geometry":null},{"properties":{"geo_score":0.0,"municipality":"SULTAN KUDARAT","id":"ag3nfi3ymjnj","province":"MAGUINDANAO","barangay":"KATULI","geo_precision":"unmatched"},"type":"Feature","geometry":null},{"properties":{"geo_score":0.0,"municipality":"SULTAN KUDARAT","id":"ag3nfhueljgk","province":"MAGUINDANAO","barangay":"MAKAGUILING","geo_precision":"unmatched"},"type":"Feature","geometry":null},{"properties":{"geo_score":0.0,"municipality":"SULTAN KUDARAT","id":"ag3nfht9nf9h","province":"MAGUINDANAO","barangay":"MULAUG","geo_precision":"unmatched"},"type":"Feature","geometry":null},{"properties":{"geo_score":0.0,"municipality":"SULTAN KUDARAT","id":"ag3nfhwzqeqh","province":"MAGUINDANAO","barangay":"NALINAN","geo_precision":"unmatched"},"type":"Feature","geometry":null},{"properties":{"geo_score":0.0,"municipality":"SULTAN KUDARAT","id":"ag3nfi2f5u43","province":"MAGUINDANAO","barangay":"NARRA","geo_precision":"unmatched"},"type":"Feature","geometry":null},{"properties":{"geo_score":0.0,"municipality":"SULTAN KUDARAT","id":"ag3nfhunmmlk","province":"MAGUINDANAO","barangay":"NEKITAN","geo_precision":"unmatched"},"type":"Feature","geometry":null},{"properties":{"geo_score":0.0,"municipality":"SULTAN KUDARAT","id":"ag3nfhwpik7x","province":"MAGUINDANAO","barangay":"PANATAN","geo_precision":"unmatched"},"type":"Feature","geometry":null},{"properties":{"geo_score":0.0,"municipality":"SULTAN KUDARAT","id":"ag3nfi1kdojl","province":"MAGUINDANAO","barangay":"PIGCALAGAN","geo_precision":"unmatched"},"type":"Feature","geometry":null},{"properties":{"geo_score":0.0,"municipality":"SULTAN KUDARAT","id":"ag3nfi4llgbe","province":"MAGUINDANAO","barangay":"PIGKELEGAN (IBOTEGEN)","geo_precision":"unmatched"},"type":"Feature","geometry":null},{"properties":{"geo_score":0.0,"municipality":"SULTAN KUDARAT","id":"ag3nfhwvzdpa","province":"MAGUINDANAO","barangay":"PINGPING","geo_precision":"unmatched"},"type":"Feature","geometry":null},{"properties":{"geo_score":0.0,"municipality":"SULTAN KUDARAT","id":"ag3nfhy1cs2l","province":"MAGUINDANAO","barangay":"REBUKEN","geo_precision":"unmatched"},"type":"Feature","geometry":null},{"properties":{"geo_score":0.0,"municipality":"TALAYAN","id":"ag3nfhtwwsm9","province":"MAGUINDANAO","barangay":"BOBOGUIRON","geo_precision":"unmatched"},"type":"Feature","geometry":null},{"properties":{"geo_score":0.0,"municipality":"TALAYAN","id":"ag3nfi7hrx0r","province":"MAGUINDANAO","barangay":"DAMABLAC","geo_precision":"unmatched"},"type":"Feature","geometry":null},{"properties":{"geo_score":0.0,"municipality":"TALAYAN","id":"ag3nfhxsheen","province":"MAGUINDANAO","barangay":"FUGOTAN","geo_precision":"unmatched"},"type":"Feature","geometry":null},{"properties":{"geo_score":0.0,"municipality":"TALAYAN","id":"ag3nfhrx455z","province":"MAGUINDANAO","barangay":"FUKOL","geo_precision":"unmatched"},"type":"Feature","geometry":null},{"properties":{"geo_score":0.0,"municipality":"TALAYAN","id":"ag3nfhz6wu72","province":"MAGUINDANAO","barangay":"KATIBPUAN","geo_precision":"unmatched"},"type":"Feature","geometry":null},{"properties":{"geo_score":0.0,"municipality":"TALAYAN","id":"ag3nfi6mstf5","province":"MAGUINDANAO","barangay":"LANTING","geo_precision":"unmatched"},"type":"Feature","geometry":null},{"properties":{"geo_score":0.0,"municipality":"TALAYAN","id":"ag3nfhwox9uc","province":"MAGUINDANAO","barangay":"LINAMUNAN","geo_precision":"unmatched"},"type":"Feature","geometry":null},{"properties":{"geo_score":0.0,"municipality":"TALAYAN","id":"ag3nfi129ykq","province":"MAGUINDANAO","barangay":"MARADER","geo_precision":"unmatched"},"type":"Feature","geometry":null},{"properties":{"geo_score":0.0,"municipality":"TALITAY","id":"ag3nfhw4hgpz","province":"MAGUINDANAO","barangay":"BINTAN (BENTAN)","geo_precision":"unmatched"},"type":"Feature","geometry":null},{"properties":{"geo_score":0.0,"municipality":"TALITAY","id":"ag3nfi4c0eqm","province":"MAGUINDANAO","barangay":"GADUNGAN","geo_precision":"unmatched"},"type":"Feature","geometry":null},{"properties":{"geo_score":0.0,"municipality":"TALITAY","id":"ag3nfi378xed","province":"MAGUINDANAO","barangay":"KILADAP","geo_precision":"unmatched"},"type":"Feature","geometry":null},{"properties":{"geo_score":0.0,"municipality":"TALITAY","id":"ag3nfi6awvd4","province":"MAGUINDANAO","barangay":"MAKADAYON","geo_precision":"unmatched"},"type":"Feature","geometry":null},{"properties":{"geo_score":0.0,"municipality":"TALITAY","id":"ag3nfi69y8mb","province":"MAGUINDANAO","barangay":"MANGGAY","geo_precision":"unmatched"},"type":"Feature","geometry":null},{"properties":{"geo_score":0.0,"municipality":"TALITAY","id":"ag3nfi514yoh","province":"MAGUINDANAO","barangay":"PAGEDA","geo_precision":"unmatched"},"type":"Feature","geometry":null},{"properties":{"geo_score":0.0,"municipality":"TALITAY","id":"ag3nfhxi6yar","province":"MAGUINDANAO","barangay":"POBLACION","geo_precision":"unmatched"},"type":"Feature","geometry":null},{"properties":{"geo_score":0.0,"municipality":"UPI","id":"ag3nfi1f0bfm","province":"MAGUINDANAO","barangay":"GANASI","geo_precision":"unmatched"},"type":"Feature","geometry":null},{"properties":{"geo_score":0.0,"municipality":"UPI","id":"ag3nfhvwrrlp","province":"MAGUINDANAO","barangay":"KIBLEG","geo_precision":"unmatched"},"type":"Feature","geometry":null},{"properties":{"geo_score":0.0,"municipality":"UPI","id":"ag3nfhrxnhdx","province":"MAGUINDANAO","barangay":"KIBUCAY","geo_precision":"unmatched"},"type":"Feature","geometry":null},{"properties":{"geo_score":0.0,"municipality":"UPI","id":"ag3nfi6fot6l","province":"MAGUINDANAO","barangay":"MIRAB","geo_precision":"unmatched"},"type":"Feature","geometry":null},{"properties":{"geo_score":0.0,"municipality":"GLAN","id":"ag3nfi2ipbr8","province":"SARANGANI","barangay":"BALITON","geo_precision":"unmatched"},"type":"Feature","geometry":null},{"properties":{"geo_score":0.0,"municipality":"GLAN","id":"ag3nfi1zyyzj","province":"SARANGANI","barangay":"BURIAS","geo_precision":"unmatched"},"type":"Feature","geometry":null},{"properties":{"geo_score":0.0,"municipality":"GLAN","id":"ag3nfhv1tpi9","province":"SARANGANI","barangay":"KAPATAN","geo_precision":"unmatched"},"type":"Feature","geometry":null},{"properties":{"geo_score":0.0,"municipality":"GLAN","id":"ag3nfhtgoo55","province":"SARANGANI","barangay":"PANGYAN","geo_precision":"unmatched"},"type":"Feature","geometry":null},{"properties":{"geo_score":0.0,"municipality":"KIAMBA","id":"ag3nfi3og0a4","province":"SARANGANI","barangay":"DATU DANI","geo_precision":"unmatched"},"type":"Feature","geometry":null},{"properties":{"geo_score":0.0,"municipality":"KIAMBA","id":"ag3nfi1inomi","province":"SARANGANI","barangay":"GASI","geo_precision":"unmatched"},"type":"Feature","geometry":null},{"properties":{"geo_score":0.0,"municipality":"KIAMBA","id":"ag3nfhvsq4zw","province":"SARANGANI","barangay":"KAPATE","geo_precision":"unmatched"},"type":"Feature","geometry":null},{"properties":{"geo_score":0.0,"municipality":"KIAMBA","id":"ag3nfi5sy7rz","province":"SARANGANI","barangay":"KATUBAO","geo_precision":"unmatched"},"type":"Feature","geometry":null},{"properties":{"geo_score":0.0,"municipality":"KIAMBA","id":"ag3nfhyegngl","province":"SARANGANI","barangay":"KAYUPO","geo_precision":"unmatched"},"type":"Feature","geometry":null},{"properties":{"geo_score":0.0,"municipality":"KIAMBA","id":"ag3nfhu8o614","province":"SARANGANI","barangay":"KLING (LUMIT)","geo_precision":"unmatched"},"type":"Feature","geometry":null},{"properties":{"geo_score":0.0,"municipality":"KIAMBA","id":"ag3nfhvgg3wc","province":"SARANGANI","barangay":"LAGUNDI","geo_precision":"unmatched"},"type":"Feature","geometry":null},{"properties":{"geo_score":0.0,"municipality":"KIAMBA","id":"ag3nfhtyybsj","province":"SARANGANI","barangay":"LOMUYON","geo_precision":"unmatched"},"type":"Feature","geometry":null},{"properties":{"geo_score":0.0,"municipality":"KIAMBA","id":"ag3nfi08jwnn","province":"SARANGANI","barangay":"TAMBILIL","geo_precision":"unmatched"},"type":"Feature","geometry":null},{"properties":{"geo_score":0.0,"municipality":"MAASIM","id":"ag3nfi5ae1sd","province":"SARANGANI","barangay":"DALIAO","geo_precision":"unmatched"},"type":"Feature","geometry":null},{"properties":{"geo_score":0.0,"municipality":"MAASIM","id":"ag3nfi2idblv","province":"SARANGANI","barangay":"KANALO","geo_precision":"unmatched"},"type":"Feature","geometry":null},{"properties":{"geo_score":0.0,"municipality":"MAASIM","id":"ag3nfhvai32x","province":"SARANGANI","barangay":"LUMASAL","geo_precision":"unmatched"},"type":"Feature","geometry":null},{"properties":{"geo_score":0.0,"municipality":"MAASIM","id":"ag3nfhrup630","province":"SARANGANI","barangay":"LUMATIL","geo_precision":"unmatched"},"type":"Feature","geometry":null},{"properties":{"geo_score":0.0,"municipality":"MAASIM","id":"ag3nfi4z9vd1","province":"SARANGANI","barangay":"PANANAG","geo_precision":"unmatched"},"type":"Feature","geometry":null},{"properties":{"geo_score":0.0,"municipality":"MAITUM","id":"ag3nfhsc3tkc","province":"SARANGANI","barangay":"Maguling","geo_precision":"unmatched"},"type":"Feature","geometry":null},{"properties":{"geo_score":0.0,"municipality":"MAITUM","id":"ag3nfi0akuec","province":"SARANGANI","barangay":"Mindupok","geo_precision":"unmatched"},"type":"Feature","geometry":null},{"properties":{"geo_score":0.0,"municipality":"MAITUM","id":"ag3nfhz0r1jt","province":"SARANGANI","barangay":"Pinol","geo_precision":"unmatched"},"type":"Feature","geometry":null},{"properties":{"geo_score":0.0,"municipality":"MAITUM","id":"ag3nfhsygidf","province":"SARANGANI","barangay":"Tuanadatu","geo_precision":"unmatched"},"type":"Feature","geometry":null},{"properties":{"geo_score":0.0,"municipality":"MAITUM","id":"ag3nfi46u0mk","province":"SARANGANI","barangay":"UPO","geo_precision":"unmatched"},"type":"Feature","geometry":null},{"properties":{"geo_score":0.0,"municipality":"MALAPATAN","id":"ag3nfhv2mnjy","province":"SARANGANI","barangay":"LIBI","geo_precision":"unmatched"},"type":"Feature","geometry":null},{"properties":{"geo_score":0.0,"municipality":"MALAPATAN","id":"ag3nfi2802qf","province":"SARANGANI","barangay":"LUN MASLA","geo_precision":"unmatched"},"type":"Feature","geometry":null},{"properties":{"geo_score":0.0,"municipality":"MALAPATAN","id":"ag3nfhxzfr2p","province":"SARANGANI","barangay":"LUN PADIDU","geo_precision":"unmatched"},"type":"Feature","geometry":null},{"properties":{"geo_score":0.0,"municipality":"MALAPATAN","id":"ag3nfhrvxzt7","province":"SARANGANI","barangay":"POBLACION","geo_precision":"unmatched"},"type":"Feature","geometry":null},{"properties":{"geo_score":0.0,"municipality":"MALAPATAN","id":"ag3nfi3c4kbp","province":"SARANGANI","barangay":"SAPU MASLA","geo_precision":"unmatched"},"type":"Feature","geometry":null},{"properties":{"geo_score":0.0,"municipality":"MALAPATAN","id":"ag3nfhv2tc48","province":"SARANGANI","barangay":"SAPU PADIDU","geo_precision":"unmatched"},"type":"Feature","geometry":null},{"properties":{"geo_score":0.0,"municipality":"MALAPATAN","id":"ag3nfi6hxbg4","province":"SARANGANI","barangay":"TUYAN","geo_precision":"unmatched"},"type":"Feature","geometry":null},{"properties":{"geo_score":0.0,"municipality":"GENERAL SANTOS CITY","id":"ag3nfi4kvbwe","province":"SOUTH COTABATO","barangay":"Buayan","geo_precision":"unmatched"},"type":"Feature","geometry":null},{"properties":{"geo_score":0.0,"municipality":"GENERAL SANTOS CITY","id":"ag3nfhzwfylc","province":"SOUTH COTABATO","barangay":"Calumpang","geo_precision":"unmatched"},"type":"Feature","geometry":null},{"properties":{"geo_score":0.0,"municipality":"GENERAL SANTOS CITY","id":"ag3nfi0vlall","province":"SOUTH COTABATO","barangay":"Labangal","geo_precision":"unmatched"},"type":"Feature","geometry":null},{"properties":{"geo_score":0.0,"municipality":"GENERAL SANTOS CITY","id":"ag3nfhy63kw4","province":"SOUTH COTABATO","barangay":"San Isidro","geo_precision":"unmatched"},"type":"Feature","geometry":null},{"properties":{"geo_score":0.0,"municipality":"POLOMOLOK","id":"ag3nfhwckfdk","province":"SOUTH COTABATO","barangay":"BENTUNG","geo_precision":"unmatched"},"type":"Feature","geometry":null},{"properties":{"geo_score":0.0,"municipality":"POLOMOLOK","id":"ag3nfi5mry4p","province":"SOUTH COTABATO","barangay":"KORONADAL PROPER","geo_precision":"unmatched"},"type":"Feature","geometry":null},{"properties":{"geo_score":0.0,"municipality":"POLOMOLOK","id":"ag3nfi60i0hr","province":"SOUTH COTABATO","barangay":"SULIT","geo_precision":"unmatched"},"type":"Feature","geometry":null},{"properties":{"geo_score":0.0,"municipality":"POLOMOLOK","id":"ag3nfhvddu63","province":"SOUTH COTABATO","barangay":"SUMBAKIL","geo_precision":"unmatched"},"type":"Feature","geometry":null},{"properties":{"geo_score":0.0,"municipality":"TUPI","id":"ag3nfi068170","province":"SOUTH COTABATO","barangay":"BUNAO","geo_precision":"unmatched"},"type":"Feature","geometry":null},{"properties":{"geo_score":0.0,"municipality":"TUPI","id":"ag3nfhw0phoo","province":"SOUTH COTABATO","barangay":"PALIAN","geo_precision":"unmatched"},"type":"Feature","geometry":null},{"properties":{"geo_score":0.0,"municipality":"TUPI","id":"ag3nfi2ahbvx","province":"SOUTH COTABATO","barangay":"POLONULING","geo_precision":"unmatched"},"type":"Feature","geometry":null}],"is_temporal":false,"author":{"url":"","metadata":null,"contact_name":null,"contact_address":null,"source":null,"contact_phone":null},"source":"","pagination":{"sort":null,"start":0,"total":337,"limit":1000000},"state":"complete","tags":"","published":"2014-08-16T14:43:28-04:00","id":381235}