{"type":"FeatureCollection","data_type":"Dataset","url_type":null,"permissions":[{"permissions":{"download":true,"view":true},"group_id":"everyone"}],"classification":null,"title":"130731 Public JHS CARAGA","count":273,"stream_id":382146,"contributor":{"url":"http://geocommons.com/users/78315","name":"marianiban"},"data_attributes":null,"calculation_params":null,"icon_link":null,"link":"http://geocommons.com/overlays/382146.json","extent":[125.248,7.97362,126.434,10.4309],"geometry_types":["point"],"unique_name":null,"name":"130731 Public JHS CARAGA","feature_count":273,"description":"","next_feature":null,"is_raster":false,"short_classification":"Y","stats":{"agri":{"max":1,"variance":0.0109082094376212,"mean":0.010989010989011,"stdev":0.104442373764776,"min":0,"median":0},"latitude":{"max":10.430944,"variance":0.402902336930207,"mean":9.0266995054945,"stdev":0.634745883744201,"min":7.973616,"median":8.945885},"id 2":{"max":1532,"variance":490616.404115492,"mean":848.534798534798,"stdev":700.440150273735,"min":28,"median":1493},"arts&trade":{"max":1,"variance":0.0215740142210731,"mean":0.021978021978022,"stdev":0.146880952546861,"min":0,"median":0},"w.bld":{"max":1,"variance":0.0180456798103857,"mean":0.981684981684982,"stdev":0.134334209382367,"min":0,"median":1},"sp.s&t":{"max":1,"variance":0.0834949364361126,"mean":0.0915750915750916,"stdev":0.288954903810461,"min":0,"median":0},"sp.arts":{"max":1,"variance":0.0354180133591899,"mean":0.0366300366300366,"stdev":0.188196741096093,"min":0,"median":0},"sp.fl":{"max":1,"variance":0.00366300366300366,"mean":0.00366300366300366,"stdev":0.0605227532668802,"min":0,"median":0},"sp.journ":{"max":1,"variance":0.00729907347554405,"mean":0.00732600732600733,"stdev":0.0854346152068589,"min":0,"median":0},"enrtotal":{"max":8976,"variance":601048.411953243,"mean":495.410256410256,"stdev":775.273120876277,"min":36,"median":290},"fish":{"max":1,"variance":0.00729907347554406,"mean":0.00732600732600733,"stdev":0.085434615206859,"min":0,"median":0},"sch.id":{"max":324406,"variance":35081652.8144258,"mean":308131.904761905,"stdev":5922.97668528467,"min":304673,"median":304851},"longitude":{"max":126.433596,"variance":0.0911570544724032,"mean":125.832227545788,"stdev":0.301922265612199,"min":125.247742,"median":125.793907},"shs?1":{"max":1,"variance":0.0144904115492351,"mean":0.0146520146520147,"stdev":0.12037612532905,"min":0,"median":0},"sp.sports":{"max":1,"variance":0.0250754147812971,"mean":0.0256410256410256,"stdev":0.15835218590628,"min":0,"median":0},"sp.prog1":{"max":1,"variance":0.0952919629390222,"mean":0.106227106227106,"stdev":0.308693963237091,"min":0,"median":0}},"features":[{"properties":{"agri":0,"school name":"Agay NHS","shs?":"NO","tech-voc":"NO","latitude":9.050892,"region":"CARAGA","id 2":38,"w.bld":1,"arts&trade":0,"division.2012":"Agusan del Norte","sp.prog":"YES","enrtotal":1213,"sp.journ":0,"sp.fl":0,"sp.arts":0,"sp.s&t":1,"sch.id":304673,"municipality":"REMEDIOS T. ROMUALDEZ","fish":0,"sp.program":"Sci &amp; Tech","longitude":125.58408,"id":"ag4rx5xfh8dq","province":"AGUSAN DEL NORTE","sp.sports":0,"shs?1":0,"sp.prog1":1},"type":"Feature","geometry":{"type":"Point","coordinates":[125.58408,9.050892]}},{"properties":{"agri":0,"school name":"Buenavista NHS","shs?":"NO","tech-voc":"NO","latitude":8.977007,"region":"CARAGA","id 2":28,"w.bld":1,"arts&trade":0,"division.2012":"Agusan del Norte","sp.prog":"NO","enrtotal":1080,"sp.journ":0,"sp.fl":0,"sp.arts":0,"sp.s&t":0,"sch.id":304674,"municipality":"BUENAVISTA","fish":0,"sp.program":null,"longitude":125.409005,"id":"ag4rx69drcb2","province":"AGUSAN DEL NORTE","sp.sports":0,"shs?1":0,"sp.prog1":0},"type":"Feature","geometry":{"type":"Point","coordinates":[125.409005,8.977007]}},{"properties":{"agri":0,"school name":"Cabadbaran City NHS","shs?":"NO","tech-voc":"NO","latitude":9.116675,"region":"CARAGA","id 2":30,"w.bld":1,"arts&trade":0,"division.2012":"Agusan del Norte","sp.prog":"NO","enrtotal":1492,"sp.journ":0,"sp.fl":0,"sp.arts":0,"sp.s&t":0,"sch.id":304699,"municipality":"CITY OF CABADBARAN","fish":0,"sp.program":null,"longitude":125.533339,"id":"ag4rx62v3cne","province":"AGUSAN DEL NORTE","sp.sports":0,"shs?1":0,"sp.prog1":0},"type":"Feature","geometry":{"type":"Point","coordinates":[125.533339,9.116675]}},{"properties":{"agri":0,"school name":"Calamba NHS","shs?":"NO","tech-voc":"NO","latitude":9.098145,"region":"CARAGA","id 2":30,"w.bld":1,"arts&trade":0,"division.2012":"Agusan del Norte","sp.prog":"NO","enrtotal":424,"sp.journ":0,"sp.fl":0,"sp.arts":0,"sp.s&t":0,"sch.id":304676,"municipality":"CITY OF CABADBARAN","fish":0,"sp.program":null,"longitude":125.603729,"id":"ag4rx5wpbb2c","province":"AGUSAN DEL NORTE","sp.sports":0,"shs?1":0,"sp.prog1":0},"type":"Feature","geometry":{"type":"Point","coordinates":[125.603729,9.098145]}},{"properties":{"agri":0,"school name":"Carmen NHS","shs?":"NO","tech-voc":"NO","latitude":8.938942,"region":"CARAGA","id 2":31,"w.bld":1,"arts&trade":0,"division.2012":"Agusan del Norte","sp.prog":"YES","enrtotal":744,"sp.journ":0,"sp.fl":0,"sp.arts":0,"sp.s&t":1,"sch.id":304677,"municipality":"CARMEN","fish":0,"sp.program":"Sci &amp; Tech","longitude":125.247742,"id":"ag4rx65xazn8","province":"AGUSAN DEL NORTE","sp.sports":0,"shs?1":0,"sp.prog1":1},"type":"Feature","geometry":{"type":"Point","coordinates":[125.247742,8.938942]}},{"properties":{"agri":0,"school name":"Culit NHS (Nasipit NHS Annex)","shs?":"NO","tech-voc":"NO","latitude":8.969009,"region":"CARAGA","id 2":37,"w.bld":1,"arts&trade":0,"division.2012":"Agusan del Norte","sp.prog":"NO","enrtotal":236,"sp.journ":0,"sp.fl":0,"sp.arts":0,"sp.s&t":0,"sch.id":317308,"municipality":"NASIPIT","fish":0,"sp.program":null,"longitude":125.295008,"id":"ag4rx661968b","province":"AGUSAN DEL NORTE","sp.sports":0,"shs?1":0,"sp.prog1":0},"type":"Feature","geometry":{"type":"Point","coordinates":[125.295008,8.969009]}},{"properties":{"agri":0,"school name":"Del Pilar NHS (Cabadbaran NHS Annex)","shs?":"NO","tech-voc":"NO","latitude":9.152954,"region":"CARAGA","id 2":30,"w.bld":1,"arts&trade":0,"division.2012":"Agusan del Norte","sp.prog":"NO","enrtotal":301,"sp.journ":0,"sp.fl":0,"sp.arts":0,"sp.s&t":0,"sch.id":317307,"municipality":"CITY OF CABADBARAN","fish":0,"sp.program":null,"longitude":125.58445,"id":"ag4rx68vwj20","province":"AGUSAN DEL NORTE","sp.sports":0,"shs?1":0,"sp.prog1":0},"type":"Feature","geometry":{"type":"Point","coordinates":[125.58445,9.152954]}},{"properties":{"agri":0,"school name":"Jaliobong NHS","shs?":"NO","tech-voc":"NO","latitude":9.450006,"region":"CARAGA","id 2":33,"w.bld":1,"arts&trade":0,"division.2012":"Agusan del Norte","sp.prog":"NO","enrtotal":458,"sp.journ":0,"sp.fl":0,"sp.arts":0,"sp.s&t":0,"sch.id":304687,"municipality":"KITCHARAO","fish":0,"sp.program":null,"longitude":125.566673,"id":"ag4rx68gl5qx","province":"AGUSAN DEL NORTE","sp.sports":0,"shs?1":0,"sp.prog1":0},"type":"Feature","geometry":{"type":"Point","coordinates":[125.566673,9.450006]}},{"properties":{"agri":0,"school name":"Kitcharao NHS","shs?":"NO","tech-voc":"NO","latitude":9.44981,"region":"CARAGA","id 2":33,"w.bld":1,"arts&trade":0,"division.2012":"Agusan del Norte","sp.prog":"NO","enrtotal":617,"sp.journ":0,"sp.fl":0,"sp.arts":0,"sp.s&t":0,"sch.id":304688,"municipality":"KITCHARAO","fish":0,"sp.program":null,"longitude":125.574848,"id":"ag4rx611giko","province":"AGUSAN DEL NORTE","sp.sports":0,"shs?1":0,"sp.prog1":0},"type":"Feature","geometry":{"type":"Point","coordinates":[125.574848,9.44981]}},{"properties":{"agri":0,"school name":"La Union NHS (Calamba NHS Annex)","shs?":"NO","tech-voc":"NO","latitude":9.083973,"region":"CARAGA","id 2":30,"w.bld":1,"arts&trade":0,"division.2012":"Agusan del Norte","sp.prog":"NO","enrtotal":370,"sp.journ":0,"sp.fl":0,"sp.arts":0,"sp.s&t":0,"sch.id":317312,"municipality":"CITY OF CABADBARAN","fish":0,"sp.program":null,"longitude":125.538216,"id":"ag4rx5ykkxu2","province":"AGUSAN DEL NORTE","sp.sports":0,"shs?1":0,"sp.prog1":0},"type":"Feature","geometry":{"type":"Point","coordinates":[125.538216,9.083973]}},{"properties":{"agri":0,"school name":"Lekda NHS (Guinabsan NHS Annex)","shs?":"NO","tech-voc":"NO","latitude":8.861666,"region":"CARAGA","id 2":28,"w.bld":1,"arts&trade":0,"division.2012":"Agusan del Norte","sp.prog":"NO","enrtotal":100,"sp.journ":0,"sp.fl":0,"sp.arts":0,"sp.s&t":0,"sch.id":317305,"municipality":"BUENAVISTA","fish":0,"sp.program":null,"longitude":125.336151,"id":"ag4rx67p86hj","province":"AGUSAN DEL NORTE","sp.sports":0,"shs?1":0,"sp.prog1":0},"type":"Feature","geometry":{"type":"Point","coordinates":[125.336151,8.861666]}},{"properties":{"agri":0,"school name":"Magallanes NHS","shs?":"NO","tech-voc":"NO","latitude":9.033283,"region":"CARAGA","id 2":35,"w.bld":1,"arts&trade":0,"division.2012":"Agusan del Norte","sp.prog":"YES","enrtotal":1234,"sp.journ":0,"sp.fl":0,"sp.arts":1,"sp.s&t":1,"sch.id":304691,"municipality":"MAGALLANES","fish":0,"sp.program":"Arts, Sci &amp; Tech","longitude":125.52217,"id":"ag4rx5uhu2ck","province":"AGUSAN DEL NORTE","sp.sports":0,"shs?1":0,"sp.prog1":1},"type":"Feature","geometry":{"type":"Point","coordinates":[125.52217,9.033283]}},{"properties":{"agri":0,"school name":"Manoligao NHS","shs?":"NO","tech-voc":"NO","latitude":8.95,"region":"CARAGA","id 2":31,"w.bld":1,"arts&trade":0,"division.2012":"Agusan del Norte","sp.prog":"NO","enrtotal":133,"sp.journ":0,"sp.fl":0,"sp.arts":0,"sp.s&t":0,"sch.id":317306,"municipality":"CARMEN","fish":0,"sp.program":null,"longitude":125.533333,"id":"ag4rx67alvzg","province":"AGUSAN DEL NORTE","sp.sports":0,"shs?1":0,"sp.prog1":0},"type":"Feature","geometry":{"type":"Point","coordinates":[125.533333,8.95]}},{"properties":{"agri":0,"school name":"Nasipit NHS","shs?":"NO","tech-voc":"NO","latitude":8.969009,"region":"CARAGA","id 2":37,"w.bld":1,"arts&trade":0,"division.2012":"Agusan del Norte","sp.prog":"NO","enrtotal":389,"sp.journ":0,"sp.fl":0,"sp.arts":0,"sp.s&t":0,"sch.id":317302,"municipality":"NASIPIT","fish":0,"sp.program":null,"longitude":125.295008,"id":"ag4rx681slpi","province":"AGUSAN DEL NORTE","sp.sports":0,"shs?1":0,"sp.prog1":0},"type":"Feature","geometry":{"type":"Point","coordinates":[125.295008,8.969009]}},{"properties":{"agri":0,"school name":"NORCACES ISS (Evening Opportunity HS)","shs?":"NO","tech-voc":"NO","latitude":9.120903,"region":"CARAGA","id 2":30,"w.bld":1,"arts&trade":0,"division.2012":"Agusan del Norte","sp.prog":"NO","enrtotal":198,"sp.journ":0,"sp.fl":0,"sp.arts":0,"sp.s&t":0,"sch.id":317313,"municipality":"CITY OF CABADBARAN","fish":0,"sp.program":null,"longitude":125.536148,"id":"ag4rx6074b70","province":"AGUSAN DEL NORTE","sp.sports":0,"shs?1":0,"sp.prog1":0},"type":"Feature","geometry":{"type":"Point","coordinates":[125.536148,9.120903]}},{"properties":{"agri":0,"school name":"Rizal ISS","shs?":"NO","tech-voc":"NO","latitude":8.935101,"region":"CARAGA","id 2":28,"w.bld":1,"arts&trade":0,"division.2012":"Agusan del Norte","sp.prog":"NO","enrtotal":208,"sp.journ":0,"sp.fl":0,"sp.arts":0,"sp.s&t":0,"sch.id":317317,"municipality":"BUENAVISTA","fish":0,"sp.program":null,"longitude":125.394341,"id":"ag4rx6ako4bb","province":"AGUSAN DEL NORTE","sp.sports":0,"shs?1":0,"sp.prog1":0},"type":"Feature","geometry":{"type":"Point","coordinates":[125.394341,8.935101]}},{"properties":{"agri":0,"school name":"Sangay NHS-Guinabsan NHS Annex","shs?":"NO","tech-voc":"NO","latitude":8.90873,"region":"CARAGA","id 2":28,"w.bld":1,"arts&trade":0,"division.2012":"Agusan del Norte","sp.prog":"NO","enrtotal":233,"sp.journ":0,"sp.fl":0,"sp.arts":0,"sp.s&t":0,"sch.id":317301,"municipality":"BUENAVISTA","fish":0,"sp.program":null,"longitude":125.404732,"id":"ag4rx663eoh9","province":"AGUSAN DEL NORTE","sp.sports":0,"shs?1":0,"sp.prog1":0},"type":"Feature","geometry":{"type":"Point","coordinates":[125.404732,8.90873]}},{"properties":{"agri":0,"school name":"Santiago NHS","shs?":"NO","tech-voc":"NO","latitude":9.266,"region":"CARAGA","id 2":39,"w.bld":1,"arts&trade":0,"division.2012":"Agusan del Norte","sp.prog":"YES","enrtotal":663,"sp.journ":0,"sp.fl":0,"sp.arts":0,"sp.s&t":1,"sch.id":304698,"municipality":"SANTIAGO","fish":0,"sp.program":"Sci &amp; Tech","longitude":125.558998,"id":"ag4rx5x350in","province":"AGUSAN DEL NORTE","sp.sports":0,"shs?1":0,"sp.prog1":1},"type":"Feature","geometry":{"type":"Point","coordinates":[125.558998,9.266]}},{"properties":{"agri":0,"school name":"Simbalan NHS - Guinabsan NHS Annex","shs?":"NO","tech-voc":"NO","latitude":8.874132,"region":"CARAGA","id 2":28,"w.bld":1,"arts&trade":0,"division.2012":"Agusan del Norte","sp.prog":"NO","enrtotal":240,"sp.journ":0,"sp.fl":0,"sp.arts":0,"sp.s&t":0,"sch.id":304683,"municipality":"BUENAVISTA","fish":0,"sp.program":null,"longitude":125.400436,"id":"ag4rx62ed7bf","province":"AGUSAN DEL NORTE","sp.sports":0,"shs?1":0,"sp.prog1":0},"type":"Feature","geometry":{"type":"Point","coordinates":[125.400436,8.874132]}},{"properties":{"agri":0,"school name":"Vinapor NHS","shs?":"NO","tech-voc":"NO","latitude":8.95,"region":"CARAGA","id 2":31,"w.bld":1,"arts&trade":0,"division.2012":"Agusan del Norte","sp.prog":"NO","enrtotal":356,"sp.journ":0,"sp.fl":0,"sp.arts":0,"sp.s&t":0,"sch.id":304702,"municipality":"CARMEN","fish":0,"sp.program":null,"longitude":125.533,"id":"ag4rx5zfh5uu","province":"AGUSAN DEL NORTE","sp.sports":0,"shs?1":0,"sp.prog1":0},"type":"Feature","geometry":{"type":"Point","coordinates":[125.533,8.95]}},{"properties":{"agri":0,"school name":"Agusan del Sur National Science HS","shs?":"YES","tech-voc":"NO","latitude":8.553197,"region":"CARAGA","id 2":46,"w.bld":1,"arts&trade":0,"division.2012":"Agusan del Sur","sp.prog":"YES","enrtotal":202,"sp.journ":0,"sp.fl":0,"sp.arts":0,"sp.s&t":1,"sch.id":304704,"municipality":"PROSPERIDAD (Capital)","fish":0,"sp.program":"Sci &amp; Tech","longitude":125.94056,"id":"ag4rx68wwahs","province":"AGUSAN DEL SUR","sp.sports":0,"shs?1":1,"sp.prog1":1},"type":"Feature","geometry":{"type":"Point","coordinates":[125.94056,8.553197]}},{"properties":{"agri":0,"school name":"Agusan del Sur NHS","shs?":"NO","tech-voc":"NO","latitude":8.504193,"region":"CARAGA","id 2":48,"w.bld":1,"arts&trade":0,"division.2012":"Agusan del Sur","sp.prog":"YES","enrtotal":3613,"sp.journ":0,"sp.fl":0,"sp.arts":1,"sp.s&t":1,"sch.id":304703,"municipality":"SAN FRANCISCO","fish":0,"sp.program":"Sports, Arts, Sci &amp; Tech","longitude":125.98212,"id":"ag4rx67jf0tr","province":"AGUSAN DEL SUR","sp.sports":1,"shs?1":0,"sp.prog1":1},"type":"Feature","geometry":{"type":"Point","coordinates":[125.98212,8.504193]}},{"properties":{"agri":0,"school name":"Anislagan NHS","shs?":"NO","tech-voc":"NO","latitude":8.602191,"region":"CARAGA","id 2":49,"w.bld":1,"arts&trade":0,"division.2012":"Agusan del Sur","sp.prog":"NO","enrtotal":232,"sp.journ":0,"sp.fl":0,"sp.arts":0,"sp.s&t":0,"sch.id":304737,"municipality":"SAN LUIS","fish":0,"sp.program":null,"longitude":125.793907,"id":"ag4rx60d358t","province":"AGUSAN DEL SUR","sp.sports":0,"shs?1":0,"sp.prog1":0},"type":"Feature","geometry":{"type":"Point","coordinates":[125.793907,8.602191]}},{"properties":{"agri":0,"school name":"Bayugan II National High School","shs?":"NO","tech-voc":"NO","latitude":8.454808,"region":"CARAGA","id 2":48,"w.bld":1,"arts&trade":0,"division.2012":"Agusan del Sur","sp.prog":"NO","enrtotal":207,"sp.journ":0,"sp.fl":0,"sp.arts":0,"sp.s&t":0,"sch.id":317402,"municipality":"SAN FRANCISCO","fish":0,"sp.program":null,"longitude":125.969612,"id":"ag4rx631n3o2","province":"AGUSAN DEL SUR","sp.sports":0,"shs?1":0,"sp.prog1":0},"type":"Feature","geometry":{"type":"Point","coordinates":[125.969612,8.454808]}},{"properties":{"agri":0,"school name":"Bayugan III NHS","shs?":"NO","tech-voc":"NO","latitude":8.31668,"region":"CARAGA","id 2":47,"w.bld":1,"arts&trade":0,"division.2012":"Agusan del Sur","sp.prog":"NO","enrtotal":360,"sp.journ":0,"sp.fl":0,"sp.arts":0,"sp.s&t":0,"sch.id":304745,"municipality":"ROSARIO","fish":0,"sp.program":null,"longitude":126.00207,"id":"ag4rx5ui1ze1","province":"AGUSAN DEL SUR","sp.sports":0,"shs?1":0,"sp.prog1":0},"type":"Feature","geometry":{"type":"Point","coordinates":[126.00207,8.31668]}},{"properties":{"agri":0,"school name":"Bayugan NCHS","shs?":"NO","tech-voc":"NO","latitude":8.714286,"region":"CARAGA","id 2":41,"w.bld":1,"arts&trade":0,"division.2012":"Agusan del Sur","sp.prog":"YES","enrtotal":5785,"sp.journ":1,"sp.fl":0,"sp.arts":1,"sp.s&t":1,"sch.id":304707,"municipality":"CITY OF BAYUGAN","fish":0,"sp.program":"Journalism, Sports, Arts, Sci &amp; Tech","longitude":125.750908,"id":"ag4rx69hdjia","province":"AGUSAN DEL SUR","sp.sports":1,"shs?1":0,"sp.prog1":1},"type":"Feature","geometry":{"type":"Point","coordinates":[125.750908,8.714286]}},{"properties":{"agri":0,"school name":"Bayugan NCHS - Magkiangkang Annex","shs?":"NO","tech-voc":"NO","latitude":8.707965,"region":"CARAGA","id 2":41,"w.bld":1,"arts&trade":0,"division.2012":"Agusan del Sur","sp.prog":"NO","enrtotal":143,"sp.journ":0,"sp.fl":0,"sp.arts":0,"sp.s&t":0,"sch.id":317420,"municipality":"CITY OF BAYUGAN","fish":0,"sp.program":null,"longitude":125.846329,"id":"ag4rx61rbuxw","province":"AGUSAN DEL SUR","sp.sports":0,"shs?1":0,"sp.prog1":0},"type":"Feature","geometry":{"type":"Point","coordinates":[125.846329,8.707965]}},{"properties":{"agri":0,"school name":"Binucayan NHS","shs?":"NO","tech-voc":"NO","latitude":8.012361,"region":"CARAGA","id 2":45,"w.bld":1,"arts&trade":0,"division.2012":"Agusan del Sur","sp.prog":"NO","enrtotal":351,"sp.journ":0,"sp.fl":0,"sp.arts":0,"sp.s&t":0,"sch.id":304708,"municipality":"LORETO","fish":0,"sp.program":null,"longitude":125.815889,"id":"ag4rx5wt3cak","province":"AGUSAN DEL SUR","sp.sports":0,"shs?1":0,"sp.prog1":0},"type":"Feature","geometry":{"type":"Point","coordinates":[125.815889,8.012361]}},{"properties":{"agri":0,"school name":"Binucayan NHS - Johnson Annex","shs?":"NO","tech-voc":"NO","latitude":8.114188,"region":"CARAGA","id 2":45,"w.bld":1,"arts&trade":0,"division.2012":"Agusan del Sur","sp.prog":"NO","enrtotal":130,"sp.journ":0,"sp.fl":0,"sp.arts":0,"sp.s&t":0,"sch.id":317421,"municipality":"LORETO","fish":0,"sp.program":null,"longitude":125.609538,"id":"ag4rx68gpezw","province":"AGUSAN DEL SUR","sp.sports":0,"shs?1":0,"sp.prog1":0},"type":"Feature","geometry":{"type":"Point","coordinates":[125.609538,8.114188]}},{"properties":{"agri":0,"school name":"Bunawan National High School","shs?":"NO","tech-voc":"NO","latitude":8.182286,"region":"CARAGA","id 2":42,"w.bld":1,"arts&trade":0,"division.2012":"Agusan del Sur","sp.prog":"NO","enrtotal":1438,"sp.journ":0,"sp.fl":0,"sp.arts":0,"sp.s&t":0,"sch.id":304709,"municipality":"BUNAWAN","fish":0,"sp.program":null,"longitude":125.995459,"id":"ag4rx5zxhg1u","province":"AGUSAN DEL SUR","sp.sports":0,"shs?1":0,"sp.prog1":0},"type":"Feature","geometry":{"type":"Point","coordinates":[125.995459,8.182286]}},{"properties":{"agri":0,"school name":"Cecilia NHS","shs?":"NO","tech-voc":"NO","latitude":8.527994,"region":"CARAGA","id 2":49,"w.bld":1,"arts&trade":0,"division.2012":"Agusan del Sur","sp.prog":"NO","enrtotal":180,"sp.journ":0,"sp.fl":0,"sp.arts":0,"sp.s&t":0,"sch.id":304738,"municipality":"SAN LUIS","fish":0,"sp.program":null,"longitude":125.768348,"id":"ag4rx68d41l8","province":"AGUSAN DEL SUR","sp.sports":0,"shs?1":0,"sp.prog1":0},"type":"Feature","geometry":{"type":"Point","coordinates":[125.768348,8.527994]}},{"properties":{"agri":0,"school name":"Datu Lipus Makapandong NHS","shs?":"NO","tech-voc":"NO","latitude":8.389138,"region":"CARAGA","id 2":47,"w.bld":1,"arts&trade":0,"division.2012":"Agusan del Sur","sp.prog":"YES","enrtotal":663,"sp.journ":0,"sp.fl":0,"sp.arts":0,"sp.s&t":1,"sch.id":304747,"municipality":"ROSARIO","fish":0,"sp.program":"Sci &amp; Tech","longitude":126.007339,"id":"ag4rx60ftrlg","province":"AGUSAN DEL SUR","sp.sports":0,"shs?1":0,"sp.prog1":1},"type":"Feature","geometry":{"type":"Point","coordinates":[126.007339,8.389138]}},{"properties":{"agri":0,"school name":"Del Monte NHS","shs?":"NO","tech-voc":"NO","latitude":8.486754,"region":"CARAGA","id 2":52,"w.bld":1,"arts&trade":0,"division.2012":"Agusan del Sur","sp.prog":"NO","enrtotal":919,"sp.journ":0,"sp.fl":0,"sp.arts":0,"sp.s&t":0,"sch.id":304710,"municipality":"TALACOGON","fish":0,"sp.program":null,"longitude":125.845984,"id":"ag4rx5zi9aw3","province":"AGUSAN DEL SUR","sp.sports":0,"shs?1":0,"sp.prog1":0},"type":"Feature","geometry":{"type":"Point","coordinates":[125.845984,8.486754]}},{"properties":{"agri":0,"school name":"Del Monte NHS - Corpuz Annex","shs?":"NO","tech-voc":"NO","latitude":8.335853,"region":"CARAGA","id 2":52,"w.bld":1,"arts&trade":0,"division.2012":"Agusan del Sur","sp.prog":"NO","enrtotal":97,"sp.journ":0,"sp.fl":0,"sp.arts":0,"sp.s&t":0,"sch.id":317422,"municipality":"TALACOGON","fish":0,"sp.program":null,"longitude":125.821802,"id":"ag4rx5wwa0ej","province":"AGUSAN DEL SUR","sp.sports":0,"shs?1":0,"sp.prog1":0},"type":"Feature","geometry":{"type":"Point","coordinates":[125.821802,8.335853]}},{"properties":{"agri":0,"school name":"Democrito O. Plaza MHS","shs?":"NO","tech-voc":"NO","latitude":8.486971,"region":"CARAGA","id 2":48,"w.bld":1,"arts&trade":0,"division.2012":"Agusan del Sur","sp.prog":"NO","enrtotal":238,"sp.journ":0,"sp.fl":0,"sp.arts":0,"sp.s&t":0,"sch.id":304711,"municipality":"SAN FRANCISCO","fish":0,"sp.program":null,"longitude":125.894267,"id":"ag4rx664yjvz","province":"AGUSAN DEL SUR","sp.sports":0,"shs?1":0,"sp.prog1":0},"type":"Feature","geometry":{"type":"Point","coordinates":[125.894267,8.486971]}},{"properties":{"agri":0,"school name":"Esperanza NHS","shs?":"NO","tech-voc":"NO","latitude":8.678313,"region":"CARAGA","id 2":43,"w.bld":1,"arts&trade":0,"division.2012":"Agusan del Sur","sp.prog":"NO","enrtotal":991,"sp.journ":0,"sp.fl":0,"sp.arts":0,"sp.s&t":0,"sch.id":304712,"municipality":"ESPERANZA","fish":0,"sp.program":null,"longitude":125.648573,"id":"ag4rx6as0i6x","province":"AGUSAN DEL SUR","sp.sports":0,"shs?1":0,"sp.prog1":0},"type":"Feature","geometry":{"type":"Point","coordinates":[125.648573,8.678313]}},{"properties":{"agri":0,"school name":"Guadalupe NHS","shs?":"NO","tech-voc":"NO","latitude":8.58167,"region":"CARAGA","id 2":43,"w.bld":1,"arts&trade":0,"division.2012":"Agusan del Sur","sp.prog":"NO","enrtotal":410,"sp.journ":0,"sp.fl":0,"sp.arts":0,"sp.s&t":0,"sch.id":304713,"municipality":"ESPERANZA","fish":0,"sp.program":null,"longitude":125.71205,"id":"ag4rx5yyq4qa","province":"AGUSAN DEL SUR","sp.sports":0,"shs?1":0,"sp.prog1":0},"type":"Feature","geometry":{"type":"Point","coordinates":[125.71205,8.58167]}},{"properties":{"agri":0,"school name":"Guadalupe NHS - Duangan HS Ext.","shs?":"NO","tech-voc":"NO","latitude":8.565511,"region":"CARAGA","id 2":43,"w.bld":1,"arts&trade":0,"division.2012":"Agusan del Sur","sp.prog":"NO","enrtotal":125,"sp.journ":0,"sp.fl":0,"sp.arts":0,"sp.s&t":0,"sch.id":317424,"municipality":"ESPERANZA","fish":0,"sp.program":null,"longitude":125.522003,"id":"ag4rx66ed6i6","province":"AGUSAN DEL SUR","sp.sports":0,"shs?1":0,"sp.prog1":0},"type":"Feature","geometry":{"type":"Point","coordinates":[125.522003,8.565511]}},{"properties":{"agri":0,"school name":"Kasapa NHS","shs?":"NO","tech-voc":"NO","latitude":8.149141,"region":"CARAGA","id 2":45,"w.bld":1,"arts&trade":0,"division.2012":"Agusan del Sur","sp.prog":"NO","enrtotal":66,"sp.journ":0,"sp.fl":0,"sp.arts":0,"sp.s&t":0,"sch.id":304714,"municipality":"LORETO","fish":0,"sp.program":null,"longitude":125.637364,"id":"ag4rx62c4cad","province":"AGUSAN DEL SUR","sp.sports":0,"shs?1":0,"sp.prog1":0},"type":"Feature","geometry":{"type":"Point","coordinates":[125.637364,8.149141]}},{"properties":{"agri":0,"school name":"Kasapa NHS - Waloe NHS Annex","shs?":"NO","tech-voc":"NO","latitude":8.18287,"region":"CARAGA","id 2":45,"w.bld":1,"arts&trade":0,"division.2012":"Agusan del Sur","sp.prog":"NO","enrtotal":109,"sp.journ":0,"sp.fl":0,"sp.arts":0,"sp.s&t":0,"sch.id":304715,"municipality":"LORETO","fish":0,"sp.program":null,"longitude":125.737639,"id":"ag4rx64a6l1a","province":"AGUSAN DEL SUR","sp.sports":0,"shs?1":0,"sp.prog1":0},"type":"Feature","geometry":{"type":"Point","coordinates":[125.737639,8.18287]}},{"properties":{"agri":0,"school name":"La Fortuna NHS","shs?":"NO","tech-voc":"NO","latitude":8.021944,"region":"CARAGA","id 2":54,"w.bld":1,"arts&trade":0,"division.2012":"Agusan del Sur","sp.prog":"NO","enrtotal":504,"sp.journ":0,"sp.fl":0,"sp.arts":0,"sp.s&t":0,"sch.id":317406,"municipality":"VERUELA","fish":0,"sp.program":null,"longitude":125.913254,"id":"ag4rx62r0mq4","province":"AGUSAN DEL SUR","sp.sports":0,"shs?1":0,"sp.prog1":0},"type":"Feature","geometry":{"type":"Point","coordinates":[125.913254,8.021944]}},{"properties":{"agri":0,"school name":"La Paz NHS","shs?":"NO","tech-voc":"NO","latitude":8.282866,"region":"CARAGA","id 2":44,"w.bld":1,"arts&trade":0,"division.2012":"Agusan del Sur","sp.prog":"NO","enrtotal":578,"sp.journ":0,"sp.fl":0,"sp.arts":0,"sp.s&t":0,"sch.id":304716,"municipality":"LA PAZ","fish":0,"sp.program":null,"longitude":125.814962,"id":"ag4rx5zihia4","province":"AGUSAN DEL SUR","sp.sports":0,"shs?1":0,"sp.prog1":0},"type":"Feature","geometry":{"type":"Point","coordinates":[125.814962,8.282866]}},{"properties":{"agri":0,"school name":"Laminga NHS","shs?":"NO","tech-voc":"NO","latitude":8.444411,"region":"CARAGA","id 2":49,"w.bld":1,"arts&trade":0,"division.2012":"Agusan del Sur","sp.prog":"NO","enrtotal":225,"sp.journ":0,"sp.fl":0,"sp.arts":0,"sp.s&t":0,"sch.id":304739,"municipality":"SAN LUIS","fish":0,"sp.program":null,"longitude":125.721537,"id":"ag4rx688jg2y","province":"AGUSAN DEL SUR","sp.sports":0,"shs?1":0,"sp.prog1":0},"type":"Feature","geometry":{"type":"Point","coordinates":[125.721537,8.444411]}},{"properties":{"agri":0,"school name":"Lapinigan NHS","shs?":"NO","tech-voc":"NO","latitude":8.43104,"region":"CARAGA","id 2":48,"w.bld":1,"arts&trade":0,"division.2012":"Agusan del Sur","sp.prog":"YES","enrtotal":785,"sp.journ":0,"sp.fl":0,"sp.arts":0,"sp.s&t":1,"sch.id":304717,"municipality":"SAN FRANCISCO","fish":0,"sp.program":"Sci &amp; Tech","longitude":125.984169,"id":"ag4rx65fywed","province":"AGUSAN DEL SUR","sp.sports":0,"shs?1":0,"sp.prog1":1},"type":"Feature","geometry":{"type":"Point","coordinates":[125.984169,8.43104]}},{"properties":{"agri":0,"school name":"Lapinigan NHS - New Visayas Ext.","shs?":"NO","tech-voc":"NO","latitude":8.509129,"region":"CARAGA","id 2":48,"w.bld":1,"arts&trade":0,"division.2012":"Agusan del Sur","sp.prog":"NO","enrtotal":86,"sp.journ":0,"sp.fl":0,"sp.arts":0,"sp.s&t":0,"sch.id":317403,"municipality":"SAN FRANCISCO","fish":0,"sp.program":null,"longitude":125.969659,"id":"ag4rx5wgyhla","province":"AGUSAN DEL SUR","sp.sports":0,"shs?1":0,"sp.prog1":0},"type":"Feature","geometry":{"type":"Point","coordinates":[125.969659,8.509129]}},{"properties":{"agri":0,"school name":"Libertad NHS","shs?":"NO","tech-voc":"NO","latitude":8.109038,"region":"CARAGA","id 2":42,"w.bld":1,"arts&trade":0,"division.2012":"Agusan del Sur","sp.prog":"NO","enrtotal":474,"sp.journ":0,"sp.fl":0,"sp.arts":0,"sp.s&t":0,"sch.id":304718,"municipality":"BUNAWAN","fish":0,"sp.program":null,"longitude":126.023416,"id":"ag4rx683lh2u","province":"AGUSAN DEL SUR","sp.sports":0,"shs?1":0,"sp.prog1":0},"type":"Feature","geometry":{"type":"Point","coordinates":[126.023416,8.109038]}},{"properties":{"agri":0,"school name":"Loreto NHS","shs?":"NO","tech-voc":"NO","latitude":8.18796,"region":"CARAGA","id 2":45,"w.bld":1,"arts&trade":0,"division.2012":"Agusan del Sur","sp.prog":"YES","enrtotal":609,"sp.journ":0,"sp.fl":0,"sp.arts":0,"sp.s&t":1,"sch.id":304719,"municipality":"LORETO","fish":0,"sp.program":"Sci &amp; Tech","longitude":125.849666,"id":"ag4rx68xoxhi","province":"AGUSAN DEL SUR","sp.sports":0,"shs?1":0,"sp.prog1":1},"type":"Feature","geometry":{"type":"Point","coordinates":[125.849666,8.18796]}},{"properties":{"agri":0,"school name":"Los Arcos NHS","shs?":"NO","tech-voc":"NO","latitude":8.634538,"region":"CARAGA","id 2":46,"w.bld":1,"arts&trade":0,"division.2012":"Agusan del Sur","sp.prog":"NO","enrtotal":356,"sp.journ":0,"sp.fl":0,"sp.arts":0,"sp.s&t":0,"sch.id":304720,"municipality":"PROSPERIDAD (Capital)","fish":0,"sp.program":null,"longitude":125.988204,"id":"ag4rx5xmwete","province":"AGUSAN DEL SUR","sp.sports":0,"shs?1":0,"sp.prog1":0},"type":"Feature","geometry":{"type":"Point","coordinates":[125.988204,8.634538]}},{"properties":{"agri":0,"school name":"Lucena NHS","shs?":"NO","tech-voc":"NO","latitude":8.565528,"region":"CARAGA","id 2":46,"w.bld":1,"arts&trade":0,"division.2012":"Agusan del Sur","sp.prog":"NO","enrtotal":436,"sp.journ":0,"sp.fl":0,"sp.arts":0,"sp.s&t":0,"sch.id":304722,"municipality":"PROSPERIDAD (Capital)","fish":0,"sp.program":null,"longitude":125.872651,"id":"ag4rx5xojhyg","province":"AGUSAN DEL SUR","sp.sports":0,"shs?1":0,"sp.prog1":0},"type":"Feature","geometry":{"type":"Point","coordinates":[125.872651,8.565528]}},{"properties":{"agri":0,"school name":"Mabuhay National High School","shs?":"NO","tech-voc":"NO","latitude":8.667787,"region":"CARAGA","id 2":46,"w.bld":1,"arts&trade":0,"division.2012":"Agusan del Sur","sp.prog":"NO","enrtotal":146,"sp.journ":0,"sp.fl":0,"sp.arts":0,"sp.s&t":0,"sch.id":304721,"municipality":"PROSPERIDAD (Capital)","fish":0,"sp.program":null,"longitude":125.963862,"id":"ag4rx697rdo2","province":"AGUSAN DEL SUR","sp.sports":0,"shs?1":0,"sp.prog1":0},"type":"Feature","geometry":{"type":"Point","coordinates":[125.963862,8.667787]}},{"properties":{"agri":0,"school name":"Manat NHS","shs?":"NO","tech-voc":"NO","latitude":8.05,"region":"CARAGA","id 2":53,"w.bld":1,"arts&trade":0,"division.2012":"Agusan del Sur","sp.prog":"NO","enrtotal":178,"sp.journ":0,"sp.fl":0,"sp.arts":0,"sp.s&t":0,"sch.id":317407,"municipality":"TRENTO","fish":0,"sp.program":null,"longitude":126.066672,"id":"ag4rx624xnh5","province":"AGUSAN DEL SUR","sp.sports":0,"shs?1":0,"sp.prog1":0},"type":"Feature","geometry":{"type":"Point","coordinates":[126.066672,8.05]}},{"properties":{"agri":0,"school name":"Marcelina NHS","shs?":"NO","tech-voc":"NO","latitude":8.659061,"region":"CARAGA","id 2":41,"w.bld":1,"arts&trade":0,"division.2012":"Agusan del Sur","sp.prog":"NO","enrtotal":428,"sp.journ":0,"sp.fl":0,"sp.arts":0,"sp.s&t":0,"sch.id":304723,"municipality":"CITY OF BAYUGAN","fish":0,"sp.program":null,"longitude":125.785112,"id":"ag4rx68fqbhy","province":"AGUSAN DEL SUR","sp.sports":0,"shs?1":0,"sp.prog1":0},"type":"Feature","geometry":{"type":"Point","coordinates":[125.785112,8.659061]}},{"properties":{"agri":0,"school name":"Marfil NHS","shs?":"NO","tech-voc":"NO","latitude":8.363531,"region":"CARAGA","id 2":47,"w.bld":1,"arts&trade":0,"division.2012":"Agusan del Sur","sp.prog":"NO","enrtotal":152,"sp.journ":0,"sp.fl":0,"sp.arts":0,"sp.s&t":0,"sch.id":304748,"municipality":"ROSARIO","fish":0,"sp.program":null,"longitude":126.039273,"id":"ag4rx63oyu0z","province":"AGUSAN DEL SUR","sp.sports":0,"shs?1":0,"sp.prog1":0},"type":"Feature","geometry":{"type":"Point","coordinates":[126.039273,8.363531]}},{"properties":{"agri":0,"school name":"Mount Olive National High School","shs?":"NO","tech-voc":"NO","latitude":8.799954,"region":"CARAGA","id 2":41,"w.bld":1,"arts&trade":0,"division.2012":"Agusan del Sur","sp.prog":"NO","enrtotal":68,"sp.journ":0,"sp.fl":0,"sp.arts":0,"sp.s&t":0,"sch.id":304724,"municipality":"CITY OF BAYUGAN","fish":0,"sp.program":null,"longitude":125.813093,"id":"ag4rx5zbw1cl","province":"AGUSAN DEL SUR","sp.sports":0,"shs?1":0,"sp.prog1":0},"type":"Feature","geometry":{"type":"Point","coordinates":[125.813093,8.799954]}},{"properties":{"agri":0,"school name":"Mt. Carmel NHS","shs?":"NO","tech-voc":"NO","latitude":8.789047,"region":"CARAGA","id 2":41,"w.bld":1,"arts&trade":0,"division.2012":"Agusan del Sur","sp.prog":"NO","enrtotal":176,"sp.journ":0,"sp.fl":0,"sp.arts":0,"sp.s&t":0,"sch.id":304725,"municipality":"CITY OF BAYUGAN","fish":0,"sp.program":null,"longitude":125.831213,"id":"ag4rx62vlfvp","province":"AGUSAN DEL SUR","sp.sports":0,"shs?1":0,"sp.prog1":0},"type":"Feature","geometry":{"type":"Point","coordinates":[125.831213,8.789047]}},{"properties":{"agri":0,"school name":"New Tubigon HS of Home Ind.","shs?":"NO","tech-voc":"NO","latitude":8.920566,"region":"CARAGA","id 2":51,"w.bld":1,"arts&trade":0,"division.2012":"Agusan del Sur","sp.prog":"NO","enrtotal":71,"sp.journ":0,"sp.fl":0,"sp.arts":0,"sp.s&t":0,"sch.id":304726,"municipality":"SIBAGAT","fish":0,"sp.program":null,"longitude":125.814125,"id":"ag4rx60obqw8","province":"AGUSAN DEL SUR","sp.sports":0,"shs?1":0,"sp.prog1":0},"type":"Feature","geometry":{"type":"Point","coordinates":[125.814125,8.920566]}},{"properties":{"agri":0,"school name":"Noli NHS","shs?":"NO","tech-voc":"NO","latitude":8.743834,"region":"CARAGA","id 2":41,"w.bld":1,"arts&trade":0,"division.2012":"Agusan del Sur","sp.prog":"NO","enrtotal":664,"sp.journ":0,"sp.fl":0,"sp.arts":0,"sp.s&t":0,"sch.id":304728,"municipality":"CITY OF BAYUGAN","fish":0,"sp.program":null,"longitude":125.722455,"id":"ag4rx6aikjjy","province":"AGUSAN DEL SUR","sp.sports":0,"shs?1":0,"sp.prog1":0},"type":"Feature","geometry":{"type":"Point","coordinates":[125.722455,8.743834]}},{"properties":{"agri":0,"school name":"Noli NHS - Calaitan NHS Annex","shs?":"NO","tech-voc":"NO","latitude":8.787346,"region":"CARAGA","id 2":41,"w.bld":1,"arts&trade":0,"division.2012":"Agusan del Sur","sp.prog":"NO","enrtotal":178,"sp.journ":0,"sp.fl":0,"sp.arts":0,"sp.s&t":0,"sch.id":304729,"municipality":"CITY OF BAYUGAN","fish":0,"sp.program":null,"longitude":125.777894,"id":"ag4rx65usjht","province":"AGUSAN DEL SUR","sp.sports":0,"shs?1":0,"sp.prog1":0},"type":"Feature","geometry":{"type":"Point","coordinates":[125.777894,8.787346]}},{"properties":{"agri":0,"school name":"Patin-ay HS","shs?":"NO","tech-voc":"Arts and Trade","latitude":8.54958,"region":"CARAGA","id 2":46,"w.bld":1,"arts&trade":1,"division.2012":"Agusan del Sur","sp.prog":"NO","enrtotal":520,"sp.journ":0,"sp.fl":0,"sp.arts":0,"sp.s&t":0,"sch.id":304730,"municipality":"PROSPERIDAD (Capital)","fish":0,"sp.program":null,"longitude":125.938583,"id":"ag4rx5vvgsxk","province":"AGUSAN DEL SUR","sp.sports":0,"shs?1":0,"sp.prog1":0},"type":"Feature","geometry":{"type":"Point","coordinates":[125.938583,8.54958]}},{"properties":{"agri":0,"school name":"Prosperidad NHS","shs?":"NO","tech-voc":"NO","latitude":8.598463,"region":"CARAGA","id 2":46,"w.bld":1,"arts&trade":0,"division.2012":"Agusan del Sur","sp.prog":"YES","enrtotal":1098,"sp.journ":1,"sp.fl":0,"sp.arts":1,"sp.s&t":0,"sch.id":304731,"municipality":"PROSPERIDAD (Capital)","fish":0,"sp.program":"Journalism, Sports, Arts","longitude":125.913445,"id":"ag4rx60ye219","province":"AGUSAN DEL SUR","sp.sports":1,"shs?1":0,"sp.prog1":1},"type":"Feature","geometry":{"type":"Point","coordinates":[125.913445,8.598463]}},{"properties":{"agri":0,"school name":"Salvacion NHS","shs?":"NO","tech-voc":"NO","latitude":8.68529,"region":"CARAGA","id 2":41,"w.bld":1,"arts&trade":0,"division.2012":"Agusan del Sur","sp.prog":"NO","enrtotal":401,"sp.journ":0,"sp.fl":0,"sp.arts":0,"sp.s&t":0,"sch.id":304732,"municipality":"CITY OF BAYUGAN","fish":0,"sp.program":null,"longitude":125.715373,"id":"ag4rx663mxoi","province":"AGUSAN DEL SUR","sp.sports":0,"shs?1":0,"sp.prog1":0},"type":"Feature","geometry":{"type":"Point","coordinates":[125.715373,8.68529]}},{"properties":{"agri":0,"school name":"Sampaguita NHS","shs?":"NO","tech-voc":"NO","latitude":8.016893,"region":"CARAGA","id 2":54,"w.bld":1,"arts&trade":0,"division.2012":"Agusan del Sur","sp.prog":"NO","enrtotal":539,"sp.journ":0,"sp.fl":0,"sp.arts":0,"sp.s&t":0,"sch.id":304733,"municipality":"VERUELA","fish":0,"sp.program":null,"longitude":125.949802,"id":"ag4rx5y8bz0o","province":"AGUSAN DEL SUR","sp.sports":0,"shs?1":0,"sp.prog1":0},"type":"Feature","geometry":{"type":"Point","coordinates":[125.949802,8.016893]}},{"properties":{"agri":0,"school name":"San Isidro NHS","shs?":"NO","tech-voc":"NO","latitude":8.047608,"region":"CARAGA","id 2":45,"w.bld":1,"arts&trade":0,"division.2012":"Agusan del Sur","sp.prog":"NO","enrtotal":315,"sp.journ":0,"sp.fl":0,"sp.arts":0,"sp.s&t":0,"sch.id":304734,"municipality":"LORETO","fish":0,"sp.program":null,"longitude":125.811292,"id":"ag4rx66u4cwb","province":"AGUSAN DEL SUR","sp.sports":0,"shs?1":0,"sp.prog1":0},"type":"Feature","geometry":{"type":"Point","coordinates":[125.811292,8.047608]}},{"properties":{"agri":0,"school name":"San Isidro NHS - San Vicente HS Annex","shs?":"NO","tech-voc":"NO","latitude":8.114206,"region":"CARAGA","id 2":45,"w.bld":1,"arts&trade":0,"division.2012":"Agusan del Sur","sp.prog":"NO","enrtotal":167,"sp.journ":0,"sp.fl":0,"sp.arts":0,"sp.s&t":0,"sch.id":317446,"municipality":"LORETO","fish":0,"sp.program":null,"longitude":125.609532,"id":"ag4rx6aws1w6","province":"AGUSAN DEL SUR","sp.sports":0,"shs?1":0,"sp.prog1":0},"type":"Feature","geometry":{"type":"Point","coordinates":[125.609532,8.114206]}},{"properties":{"agri":0,"school name":"SAN JUAN NATIONAL HIGH SCHOOL","shs?":"NO","tech-voc":"NO","latitude":8.854424,"region":"CARAGA","id 2":41,"w.bld":1,"arts&trade":0,"division.2012":"Agusan del Sur","sp.prog":"NO","enrtotal":148,"sp.journ":0,"sp.fl":0,"sp.arts":0,"sp.s&t":0,"sch.id":304735,"municipality":"CITY OF BAYUGAN","fish":0,"sp.program":null,"longitude":125.845166,"id":"ag4rx67kp5q3","province":"AGUSAN DEL SUR","sp.sports":0,"shs?1":0,"sp.prog1":0},"type":"Feature","geometry":{"type":"Point","coordinates":[125.845166,8.854424]}},{"properties":{"agri":0,"school name":"San Juan NHS - Berseba NHS Annex","shs?":"NO","tech-voc":"NO","latitude":8.832661,"region":"CARAGA","id 2":41,"w.bld":1,"arts&trade":0,"division.2012":"Agusan del Sur","sp.prog":"NO","enrtotal":136,"sp.journ":0,"sp.fl":0,"sp.arts":0,"sp.s&t":0,"sch.id":317417,"municipality":"CITY OF BAYUGAN","fish":0,"sp.program":null,"longitude":125.81337,"id":"ag4rx601qprs","province":"AGUSAN DEL SUR","sp.sports":0,"shs?1":0,"sp.prog1":0},"type":"Feature","geometry":{"type":"Point","coordinates":[125.81337,8.832661]}},{"properties":{"agri":0,"school name":"San Luis NHS","shs?":"NO","tech-voc":"NO","latitude":8.500257,"region":"CARAGA","id 2":49,"w.bld":1,"arts&trade":0,"division.2012":"Agusan del Sur","sp.prog":"NO","enrtotal":905,"sp.journ":0,"sp.fl":0,"sp.arts":0,"sp.s&t":0,"sch.id":304736,"municipality":"SAN LUIS","fish":0,"sp.program":null,"longitude":125.737647,"id":"ag4rx62fupg6","province":"AGUSAN DEL SUR","sp.sports":0,"shs?1":0,"sp.prog1":0},"type":"Feature","geometry":{"type":"Point","coordinates":[125.737647,8.500257]}},{"properties":{"agri":0,"school name":"San Vicente NHS","shs?":"NO","tech-voc":"NO","latitude":8.50554,"region":"CARAGA","id 2":46,"w.bld":1,"arts&trade":0,"division.2012":"Agusan del Sur","sp.prog":"NO","enrtotal":274,"sp.journ":0,"sp.fl":0,"sp.arts":0,"sp.s&t":0,"sch.id":317404,"municipality":"PROSPERIDAD (Capital)","fish":0,"sp.program":null,"longitude":125.741,"id":"ag4rx65z58yv","province":"AGUSAN DEL SUR","sp.sports":0,"shs?1":0,"sp.prog1":0},"type":"Feature","geometry":{"type":"Point","coordinates":[125.741,8.50554]}},{"properties":{"agri":0,"school name":"SIBAGAT NATIONAL HIGH SCHOOL OF HOME INDUSTRIES","shs?":"NO","tech-voc":"Arts and Trade","latitude":8.824723,"region":"CARAGA","id 2":51,"w.bld":1,"arts&trade":1,"division.2012":"Agusan del Sur","sp.prog":"NO","enrtotal":897,"sp.journ":0,"sp.fl":0,"sp.arts":0,"sp.s&t":0,"sch.id":304740,"municipality":"SIBAGAT","fish":0,"sp.program":null,"longitude":125.689802,"id":"ag4rx63ac1eq","province":"AGUSAN DEL SUR","sp.sports":0,"shs?1":0,"sp.prog1":0},"type":"Feature","geometry":{"type":"Point","coordinates":[125.689802,8.824723]}},{"properties":{"agri":0,"school name":"Sibagat NHS - Magsaysay Extension","shs?":"NO","tech-voc":"NO","latitude":8.898123,"region":"CARAGA","id 2":51,"w.bld":1,"arts&trade":0,"division.2012":"Agusan del Sur","sp.prog":"NO","enrtotal":130,"sp.journ":0,"sp.fl":0,"sp.arts":0,"sp.s&t":0,"sch.id":304741,"municipality":"SIBAGAT","fish":0,"sp.program":null,"longitude":125.734737,"id":"ag4rx5ws47qh","province":"AGUSAN DEL SUR","sp.sports":0,"shs?1":0,"sp.prog1":0},"type":"Feature","geometry":{"type":"Point","coordinates":[125.734737,8.898123]}},{"properties":{"agri":0,"school name":"Sibagat NHS - Padiay Extension","shs?":"NO","tech-voc":"NO","latitude":8.971679,"region":"CARAGA","id 2":51,"w.bld":1,"arts&trade":0,"division.2012":"Agusan del Sur","sp.prog":"NO","enrtotal":142,"sp.journ":0,"sp.fl":0,"sp.arts":0,"sp.s&t":0,"sch.id":304743,"municipality":"SIBAGAT","fish":0,"sp.program":null,"longitude":125.743167,"id":"ag4rx647ipim","province":"AGUSAN DEL SUR","sp.sports":0,"shs?1":0,"sp.prog1":0},"type":"Feature","geometry":{"type":"Point","coordinates":[125.743167,8.971679]}},{"properties":{"agri":0,"school name":"Sinobong NHS","shs?":"NO","tech-voc":"NO","latitude":8.035083,"region":"CARAGA","id 2":54,"w.bld":1,"arts&trade":0,"division.2012":"Agusan del Sur","sp.prog":"NO","enrtotal":388,"sp.journ":0,"sp.fl":0,"sp.arts":0,"sp.s&t":0,"sch.id":317408,"municipality":"VERUELA","fish":0,"sp.program":null,"longitude":125.849808,"id":"ag4rx65q2tap","province":"AGUSAN DEL SUR","sp.sports":0,"shs?1":0,"sp.prog1":0},"type":"Feature","geometry":{"type":"Point","coordinates":[125.849808,8.035083]}},{"properties":{"agri":0,"school name":"Sta. Cruz NHS","shs?":"NO","tech-voc":"NO","latitude":8.357591,"region":"CARAGA","id 2":47,"w.bld":1,"arts&trade":0,"division.2012":"Agusan del Sur","sp.prog":"NO","enrtotal":433,"sp.journ":0,"sp.fl":0,"sp.arts":0,"sp.s&t":0,"sch.id":304744,"municipality":"ROSARIO","fish":0,"sp.program":null,"longitude":126.016863,"id":"ag4rx5w1ln6z","province":"AGUSAN DEL SUR","sp.sports":0,"shs?1":0,"sp.prog1":0},"type":"Feature","geometry":{"type":"Point","coordinates":[126.016863,8.357591]}},{"properties":{"agri":0,"school name":"Sta. Irene NHS","shs?":"NO","tech-voc":"NO","latitude":8.670118,"region":"CARAGA","id 2":46,"w.bld":1,"arts&trade":0,"division.2012":"Agusan del Sur","sp.prog":"NO","enrtotal":647,"sp.journ":0,"sp.fl":0,"sp.arts":0,"sp.s&t":0,"sch.id":304749,"municipality":"PROSPERIDAD (Capital)","fish":0,"sp.program":null,"longitude":125.880792,"id":"ag4rx64p5cic","province":"AGUSAN DEL SUR","sp.sports":0,"shs?1":0,"sp.prog1":0},"type":"Feature","geometry":{"type":"Point","coordinates":[125.880792,8.670118]}},{"properties":{"agri":0,"school name":"Sta. Josefa NHS","shs?":"NO","tech-voc":"NO","latitude":7.988563,"region":"CARAGA","id 2":50,"w.bld":1,"arts&trade":0,"division.2012":"Agusan del Sur","sp.prog":"NO","enrtotal":1394,"sp.journ":0,"sp.fl":0,"sp.arts":0,"sp.s&t":0,"sch.id":304750,"municipality":"SANTA JOSEFA","fish":0,"sp.program":null,"longitude":126.025139,"id":"ag4rx5w9bcuj","province":"AGUSAN DEL SUR","sp.sports":0,"shs?1":0,"sp.prog1":0},"type":"Feature","geometry":{"type":"Point","coordinates":[126.025139,7.988563]}},{"properties":{"agri":0,"school name":"Sta. Josefa NHS - Sayon Brgy. HS","shs?":"NO","tech-voc":"NO","latitude":7.983603,"region":"CARAGA","id 2":50,"w.bld":1,"arts&trade":0,"division.2012":"Agusan del Sur","sp.prog":"NO","enrtotal":209,"sp.journ":0,"sp.fl":0,"sp.arts":0,"sp.s&t":0,"sch.id":317419,"municipality":"SANTA JOSEFA","fish":0,"sp.program":null,"longitude":126.033318,"id":"ag4rx5vhzcx7","province":"AGUSAN DEL SUR","sp.sports":0,"shs?1":0,"sp.prog1":0},"type":"Feature","geometry":{"type":"Point","coordinates":[126.033318,7.983603]}},{"properties":{"agri":0,"school name":"Sta. Maria NHS","shs?":"NO","tech-voc":"NO","latitude":8.019437,"region":"CARAGA","id 2":53,"w.bld":1,"arts&trade":0,"division.2012":"Agusan del Sur","sp.prog":"NO","enrtotal":362,"sp.journ":0,"sp.fl":0,"sp.arts":0,"sp.s&t":0,"sch.id":304705,"municipality":"TRENTO","fish":0,"sp.program":null,"longitude":126.161383,"id":"ag4rx5zg83qw","province":"AGUSAN DEL SUR","sp.sports":0,"shs?1":0,"sp.prog1":0},"type":"Feature","geometry":{"type":"Point","coordinates":[126.161383,8.019437]}},{"properties":{"agri":0,"school name":"Sto. Tomas NHS","shs?":"NO","tech-voc":"NO","latitude":8.185133,"region":"CARAGA","id 2":45,"w.bld":1,"arts&trade":0,"division.2012":"Agusan del Sur","sp.prog":"NO","enrtotal":380,"sp.journ":0,"sp.fl":0,"sp.arts":0,"sp.s&t":0,"sch.id":304751,"municipality":"LORETO","fish":0,"sp.program":null,"longitude":125.801419,"id":"ag4rx640578d","province":"AGUSAN DEL SUR","sp.sports":0,"shs?1":0,"sp.prog1":0},"type":"Feature","geometry":{"type":"Point","coordinates":[125.801419,8.185133]}},{"properties":{"agri":0,"school name":"Talacogon National High School - Labnig Annex","shs?":"NO","tech-voc":"NO","latitude":8.336071,"region":"CARAGA","id 2":52,"w.bld":1,"arts&trade":0,"division.2012":"Agusan del Sur","sp.prog":"NO","enrtotal":124,"sp.journ":0,"sp.fl":0,"sp.arts":0,"sp.s&t":0,"sch.id":317432,"municipality":"TALACOGON","fish":0,"sp.program":null,"longitude":125.823248,"id":"ag4rx62gj6vo","province":"AGUSAN DEL SUR","sp.sports":0,"shs?1":0,"sp.prog1":0},"type":"Feature","geometry":{"type":"Point","coordinates":[125.823248,8.336071]}},{"properties":{"agri":0,"school name":"Talacogon NHS","shs?":"NO","tech-voc":"NO","latitude":8.458087,"region":"CARAGA","id 2":52,"w.bld":1,"arts&trade":0,"division.2012":"Agusan del Sur","sp.prog":"NO","enrtotal":725,"sp.journ":0,"sp.fl":0,"sp.arts":0,"sp.s&t":0,"sch.id":304752,"municipality":"TALACOGON","fish":0,"sp.program":null,"longitude":125.782286,"id":"ag4rx5y8507t","province":"AGUSAN DEL SUR","sp.sports":0,"shs?1":0,"sp.prog1":0},"type":"Feature","geometry":{"type":"Point","coordinates":[125.782286,8.458087]}},{"properties":{"agri":0,"school name":"Trento NHS","shs?":"NO","tech-voc":"NO","latitude":8.044922,"region":"CARAGA","id 2":53,"w.bld":1,"arts&trade":0,"division.2012":"Agusan del Sur","sp.prog":"NO","enrtotal":1996,"sp.journ":0,"sp.fl":0,"sp.arts":0,"sp.s&t":0,"sch.id":304753,"municipality":"TRENTO","fish":0,"sp.program":null,"longitude":126.061684,"id":"ag4rx5wx418v","province":"AGUSAN DEL SUR","sp.sports":0,"shs?1":0,"sp.prog1":0},"type":"Feature","geometry":{"type":"Point","coordinates":[126.061684,8.044922]}},{"properties":{"agri":0,"school name":"Veruela NHS","shs?":"NO","tech-voc":"NO","latitude":8.072229,"region":"CARAGA","id 2":54,"w.bld":1,"arts&trade":0,"division.2012":"Agusan del Sur","sp.prog":"NO","enrtotal":454,"sp.journ":0,"sp.fl":0,"sp.arts":0,"sp.s&t":0,"sch.id":304754,"municipality":"VERUELA","fish":0,"sp.program":null,"longitude":125.953744,"id":"ag4rx6294t6i","province":"AGUSAN DEL SUR","sp.sports":0,"shs?1":0,"sp.prog1":0},"type":"Feature","geometry":{"type":"Point","coordinates":[125.953744,8.072229]}},{"properties":{"agri":0,"school name":"Zillovia NHS","shs?":"NO","tech-voc":"NO","latitude":8.427216,"region":"CARAGA","id 2":52,"w.bld":1,"arts&trade":0,"division.2012":"Agusan del Sur","sp.prog":"NO","enrtotal":617,"sp.journ":0,"sp.fl":0,"sp.arts":0,"sp.s&t":0,"sch.id":304755,"municipality":"TALACOGON","fish":0,"sp.program":null,"longitude":125.742519,"id":"ag4rx5vnvq5d","province":"AGUSAN DEL SUR","sp.sports":0,"shs?1":0,"sp.prog1":0},"type":"Feature","geometry":{"type":"Point","coordinates":[125.742519,8.427216]}},{"properties":{"agri":0,"school name":"Bislig City NHS","shs?":"NO","tech-voc":"NO","latitude":8.207357,"region":"CARAGA","id 2":1516,"w.bld":1,"arts&trade":0,"division.2012":"Bislig City","sp.prog":"YES","enrtotal":967,"sp.journ":0,"sp.fl":0,"sp.arts":0,"sp.s&t":1,"sch.id":304865,"municipality":"CITY OF BISLIG","fish":0,"sp.program":"Sci &amp; Tech","longitude":126.319261,"id":"ag4rx67b0r43","province":"SURIGAO DEL SUR","sp.sports":0,"shs?1":0,"sp.prog1":1},"type":"Feature","geometry":{"type":"Point","coordinates":[126.319261,8.207357]}},{"properties":{"agri":0,"school name":"Bislig City NHS Coleto Annex","shs?":"NO","tech-voc":"NO","latitude":8.213136,"region":"CARAGA","id 2":1516,"w.bld":1,"arts&trade":0,"division.2012":"Bislig City","sp.prog":"NO","enrtotal":166,"sp.journ":0,"sp.fl":0,"sp.arts":0,"sp.s&t":0,"sch.id":322506,"municipality":"CITY OF BISLIG","fish":0,"sp.program":null,"longitude":126.315941,"id":"ag4rx61fz62x","province":"SURIGAO DEL SUR","sp.sports":0,"shs?1":0,"sp.prog1":0},"type":"Feature","geometry":{"type":"Point","coordinates":[126.315941,8.213136]}},{"properties":{"agri":0,"school name":"Bucto NHS","shs?":"NO","tech-voc":"NO","latitude":8.259204,"region":"CARAGA","id 2":1516,"w.bld":1,"arts&trade":0,"division.2012":"Bislig City","sp.prog":"NO","enrtotal":129,"sp.journ":0,"sp.fl":0,"sp.arts":0,"sp.s&t":0,"sch.id":322503,"municipality":"CITY OF BISLIG","fish":0,"sp.program":null,"longitude":126.333459,"id":"ag4rx68oegb0","province":"SURIGAO DEL SUR","sp.sports":0,"shs?1":0,"sp.prog1":0},"type":"Feature","geometry":{"type":"Point","coordinates":[126.333459,8.259204]}},{"properties":{"agri":0,"school name":"Danipas NHS","shs?":"NO","tech-voc":"NO","latitude":8.213385,"region":"CARAGA","id 2":1516,"w.bld":1,"arts&trade":0,"division.2012":"Bislig City","sp.prog":"NO","enrtotal":101,"sp.journ":0,"sp.fl":0,"sp.arts":0,"sp.s&t":0,"sch.id":304918,"municipality":"CITY OF BISLIG","fish":0,"sp.program":null,"longitude":126.315999,"id":"ag4rx623oolf","province":"SURIGAO DEL SUR","sp.sports":0,"shs?1":0,"sp.prog1":0},"type":"Feature","geometry":{"type":"Point","coordinates":[126.315999,8.213385]}},{"properties":{"agri":0,"school name":"Lawigan NHS","shs?":"NO","tech-voc":"NO","latitude":8.235277,"region":"CARAGA","id 2":1516,"w.bld":1,"arts&trade":0,"division.2012":"Bislig City","sp.prog":"NO","enrtotal":233,"sp.journ":0,"sp.fl":0,"sp.arts":0,"sp.s&t":0,"sch.id":304894,"municipality":"CITY OF BISLIG","fish":0,"sp.program":null,"longitude":126.433596,"id":"ag4rx68c7n0u","province":"SURIGAO DEL SUR","sp.sports":0,"shs?1":0,"sp.prog1":0},"type":"Feature","geometry":{"type":"Point","coordinates":[126.433596,8.235277]}},{"properties":{"agri":0,"school name":"Maharlika NHS","shs?":"NO","tech-voc":"NO","latitude":8.248533,"region":"CARAGA","id 2":1516,"w.bld":1,"arts&trade":0,"division.2012":"Bislig City","sp.prog":"NO","enrtotal":424,"sp.journ":0,"sp.fl":0,"sp.arts":0,"sp.s&t":0,"sch.id":304866,"municipality":"CITY OF BISLIG","fish":0,"sp.program":null,"longitude":126.28114,"id":"ag4rx66ofm0o","province":"SURIGAO DEL SUR","sp.sports":0,"shs?1":0,"sp.prog1":0},"type":"Feature","geometry":{"type":"Point","coordinates":[126.28114,8.248533]}},{"properties":{"agri":0,"school name":"Mangagoy NHS","shs?":"NO","tech-voc":"NO","latitude":8.176116,"region":"CARAGA","id 2":1516,"w.bld":1,"arts&trade":0,"division.2012":"Bislig City","sp.prog":"YES","enrtotal":402,"sp.journ":0,"sp.fl":0,"sp.arts":0,"sp.s&t":1,"sch.id":304919,"municipality":"CITY OF BISLIG","fish":0,"sp.program":"Sci &amp; Tech","longitude":126.349652,"id":"ag4rx5vfllq2","province":"SURIGAO DEL SUR","sp.sports":0,"shs?1":0,"sp.prog1":1},"type":"Feature","geometry":{"type":"Point","coordinates":[126.349652,8.176116]}},{"properties":{"agri":0,"school name":"Mone NHS","shs?":"NO","tech-voc":"NO","latitude":8.164634,"region":"CARAGA","id 2":1516,"w.bld":1,"arts&trade":0,"division.2012":"Bislig City","sp.prog":"NO","enrtotal":187,"sp.journ":0,"sp.fl":0,"sp.arts":0,"sp.s&t":0,"sch.id":304867,"municipality":"CITY OF BISLIG","fish":0,"sp.program":null,"longitude":126.267991,"id":"ag4rx69m6y7o","province":"SURIGAO DEL SUR","sp.sports":0,"shs?1":0,"sp.prog1":0},"type":"Feature","geometry":{"type":"Point","coordinates":[126.267991,8.164634]}},{"properties":{"agri":0,"school name":"San Vicente NHS","shs?":"NO","tech-voc":"NO","latitude":8.287145,"region":"CARAGA","id 2":1516,"w.bld":1,"arts&trade":0,"division.2012":"Bislig City","sp.prog":"NO","enrtotal":149,"sp.journ":0,"sp.fl":0,"sp.arts":0,"sp.s&t":0,"sch.id":304868,"municipality":"CITY OF BISLIG","fish":0,"sp.program":null,"longitude":126.295188,"id":"ag4rx6ahu3lo","province":"SURIGAO DEL SUR","sp.sports":0,"shs?1":0,"sp.prog1":0},"type":"Feature","geometry":{"type":"Point","coordinates":[126.295188,8.287145]}},{"properties":{"agri":0,"school name":"Sikahoy NHS","shs?":"NO","tech-voc":"NO","latitude":8.098434,"region":"CARAGA","id 2":1516,"w.bld":1,"arts&trade":0,"division.2012":"Bislig City","sp.prog":"NO","enrtotal":110,"sp.journ":0,"sp.fl":0,"sp.arts":0,"sp.s&t":0,"sch.id":304869,"municipality":"CITY OF BISLIG","fish":0,"sp.program":null,"longitude":126.330352,"id":"ag4rx5w10ys0","province":"SURIGAO DEL SUR","sp.sports":0,"shs?1":0,"sp.prog1":0},"type":"Feature","geometry":{"type":"Point","coordinates":[126.330352,8.098434]}},{"properties":{"agri":0,"school name":"Sta. Cruz NHS","shs?":"NO","tech-voc":"NO","latitude":8.254403,"region":"CARAGA","id 2":1516,"w.bld":1,"arts&trade":0,"division.2012":"Bislig City","sp.prog":"NO","enrtotal":86,"sp.journ":0,"sp.fl":0,"sp.arts":0,"sp.s&t":0,"sch.id":304870,"municipality":"CITY OF BISLIG","fish":0,"sp.program":null,"longitude":126.300531,"id":"ag4rx676i7c0","province":"SURIGAO DEL SUR","sp.sports":0,"shs?1":0,"sp.prog1":0},"type":"Feature","geometry":{"type":"Point","coordinates":[126.300531,8.254403]}},{"properties":{"agri":0,"school name":"Tabon M. Estrella NHS","shs?":"NO","tech-voc":"Arts and Trade","latitude":8.181629,"region":"CARAGA","id 2":1516,"w.bld":1,"arts&trade":1,"division.2012":"Bislig City","sp.prog":"NO","enrtotal":1621,"sp.journ":0,"sp.fl":0,"sp.arts":0,"sp.s&t":0,"sch.id":304917,"municipality":"CITY OF BISLIG","fish":0,"sp.program":null,"longitude":126.362112,"id":"ag4rx65x2l8h","province":"SURIGAO DEL SUR","sp.sports":0,"shs?1":0,"sp.prog1":0},"type":"Feature","geometry":{"type":"Point","coordinates":[126.362112,8.181629]}},{"properties":{"agri":0,"school name":"Tumanan NHS","shs?":"NO","tech-voc":"NO","latitude":8.27208,"region":"CARAGA","id 2":1516,"w.bld":1,"arts&trade":0,"division.2012":"Bislig City","sp.prog":"NO","enrtotal":143,"sp.journ":0,"sp.fl":0,"sp.arts":0,"sp.s&t":0,"sch.id":322502,"municipality":"CITY OF BISLIG","fish":0,"sp.program":null,"longitude":126.348308,"id":"ag4rx6a2syx4","province":"SURIGAO DEL SUR","sp.sports":0,"shs?1":0,"sp.prog1":0},"type":"Feature","geometry":{"type":"Point","coordinates":[126.348308,8.27208]}},{"properties":{"agri":0,"school name":"Agusan NHS","shs?":"NO","tech-voc":"NO","latitude":8.944274,"region":"CARAGA","id 2":29,"w.bld":1,"arts&trade":0,"division.2012":"Butuan City","sp.prog":"YES","enrtotal":8976,"sp.journ":0,"sp.fl":0,"sp.arts":1,"sp.s&t":1,"sch.id":304756,"municipality":"BUTUAN CITY (Capital)","fish":0,"sp.program":"Sports, Arts, Sci &amp; Tech","longitude":125.541748,"id":"ag4rx60j0y73","province":"AGUSAN DEL NORTE","sp.sports":1,"shs?1":0,"sp.prog1":1},"type":"Feature","geometry":{"type":"Point","coordinates":[125.541748,8.944274]}},{"properties":{"agri":1,"school name":"Agusan Pequeno NHS","shs?":"NO","tech-voc":"Agriculture","latitude":8.972931,"region":"CARAGA","id 2":29,"w.bld":0,"arts&trade":0,"division.2012":"Butuan City","sp.prog":"NO","enrtotal":773,"sp.journ":0,"sp.fl":0,"sp.arts":0,"sp.s&t":0,"sch.id":304757,"municipality":"BUTUAN CITY (Capital)","fish":0,"sp.program":null,"longitude":125.52636,"id":"ag4rx5yn9vku","province":"AGUSAN DEL NORTE","sp.sports":0,"shs?1":0,"sp.prog1":0},"type":"Feature","geometry":{"type":"Point","coordinates":[125.52636,8.972931]}},{"properties":{"agri":0,"school name":"Amparo NHS","shs?":"NO","tech-voc":"NO","latitude":8.864987,"region":"CARAGA","id 2":29,"w.bld":1,"arts&trade":0,"division.2012":"Butuan City","sp.prog":"NO","enrtotal":380,"sp.journ":0,"sp.fl":0,"sp.arts":0,"sp.s&t":0,"sch.id":304758,"municipality":"BUTUAN CITY (Capital)","fish":0,"sp.program":null,"longitude":125.557381,"id":"ag4rx5x3vfvo","province":"AGUSAN DEL NORTE","sp.sports":0,"shs?1":0,"sp.prog1":0},"type":"Feature","geometry":{"type":"Point","coordinates":[125.557381,8.864987]}},{"properties":{"agri":0,"school name":"Anticala NHS","shs?":"NO","tech-voc":"NO","latitude":8.993664,"region":"CARAGA","id 2":29,"w.bld":1,"arts&trade":0,"division.2012":"Butuan City","sp.prog":"NO","enrtotal":442,"sp.journ":0,"sp.fl":0,"sp.arts":0,"sp.s&t":0,"sch.id":304765,"municipality":"BUTUAN CITY (Capital)","fish":0,"sp.program":null,"longitude":125.644386,"id":"ag4rx5vyiy3a","province":"AGUSAN DEL NORTE","sp.sports":0,"shs?1":0,"sp.prog1":0},"type":"Feature","geometry":{"type":"Point","coordinates":[125.644386,8.993664]}},{"properties":{"agri":0,"school name":"Bagong Silang ISS","shs?":"NO","tech-voc":"NO","latitude":8.751099,"region":"CARAGA","id 2":29,"w.bld":1,"arts&trade":0,"division.2012":"Butuan City","sp.prog":"NO","enrtotal":168,"sp.journ":0,"sp.fl":0,"sp.arts":0,"sp.s&t":0,"sch.id":317513,"municipality":"BUTUAN CITY (Capital)","fish":0,"sp.program":null,"longitude":125.501694,"id":"ag4rx609321e","province":"AGUSAN DEL NORTE","sp.sports":0,"shs?1":0,"sp.prog1":0},"type":"Feature","geometry":{"type":"Point","coordinates":[125.501694,8.751099]}},{"properties":{"agri":0,"school name":"Banza NHS","shs?":"NO","tech-voc":"NO","latitude":8.980222,"region":"CARAGA","id 2":29,"w.bld":1,"arts&trade":0,"division.2012":"Butuan City","sp.prog":"NO","enrtotal":595,"sp.journ":0,"sp.fl":0,"sp.arts":0,"sp.s&t":0,"sch.id":304759,"municipality":"BUTUAN CITY (Capital)","fish":0,"sp.program":null,"longitude":125.544632,"id":"ag4rx69ktwlw","province":"AGUSAN DEL NORTE","sp.sports":0,"shs?1":0,"sp.prog1":0},"type":"Feature","geometry":{"type":"Point","coordinates":[125.544632,8.980222]}},{"properties":{"agri":0,"school name":"Bilay NHS","shs?":"NO","tech-voc":"NO","latitude":8.853779,"region":"CARAGA","id 2":29,"w.bld":1,"arts&trade":0,"division.2012":"Butuan City","sp.prog":"NO","enrtotal":156,"sp.journ":0,"sp.fl":0,"sp.arts":0,"sp.s&t":0,"sch.id":304760,"municipality":"BUTUAN CITY (Capital)","fish":0,"sp.program":null,"longitude":125.576004,"id":"ag4rx5vjfupm","province":"AGUSAN DEL NORTE","sp.sports":0,"shs?1":0,"sp.prog1":0},"type":"Feature","geometry":{"type":"Point","coordinates":[125.576004,8.853779]}},{"properties":{"agri":0,"school name":"Butuan City Comprehensive HS","shs?":"NO","tech-voc":"NO","latitude":8.947537,"region":"CARAGA","id 2":29,"w.bld":1,"arts&trade":0,"division.2012":"Butuan City","sp.prog":"NO","enrtotal":369,"sp.journ":0,"sp.fl":0,"sp.arts":0,"sp.s&t":0,"sch.id":304761,"municipality":"BUTUAN CITY (Capital)","fish":0,"sp.program":null,"longitude":125.540626,"id":"ag4rx63tz7q2","province":"AGUSAN DEL NORTE","sp.sports":0,"shs?1":0,"sp.prog1":0},"type":"Feature","geometry":{"type":"Point","coordinates":[125.540626,8.947537]}},{"properties":{"agri":0,"school name":"Butuan City Sch. of Arts &amp; Trades","shs?":"NO","tech-voc":"Arts and Trade","latitude":8.9475,"region":"CARAGA","id 2":29,"w.bld":1,"arts&trade":1,"division.2012":"Butuan City","sp.prog":"NO","enrtotal":1600,"sp.journ":0,"sp.fl":0,"sp.arts":0,"sp.s&t":0,"sch.id":304762,"municipality":"BUTUAN CITY (Capital)","fish":0,"sp.program":null,"longitude":125.531389,"id":"ag4rx632dtl3","province":"AGUSAN DEL NORTE","sp.sports":0,"shs?1":0,"sp.prog1":0},"type":"Feature","geometry":{"type":"Point","coordinates":[125.531389,8.9475]}},{"properties":{"agri":0,"school name":"Florida NHS","shs?":"NO","tech-voc":"NO","latitude":8.947537,"region":"CARAGA","id 2":29,"w.bld":1,"arts&trade":0,"division.2012":"Butuan City","sp.prog":"NO","enrtotal":256,"sp.journ":0,"sp.fl":0,"sp.arts":0,"sp.s&t":0,"sch.id":317501,"municipality":"BUTUAN CITY (Capital)","fish":0,"sp.program":null,"longitude":125.540626,"id":"ag4rx5x8xh3c","province":"AGUSAN DEL NORTE","sp.sports":0,"shs?1":0,"sp.prog1":0},"type":"Feature","geometry":{"type":"Point","coordinates":[125.540626,8.947537]}},{"properties":{"agri":0,"school name":"La Trinidad ISS","shs?":"NO","tech-voc":"NO","latitude":8.940889,"region":"CARAGA","id 2":29,"w.bld":1,"arts&trade":0,"division.2012":"Butuan City","sp.prog":"NO","enrtotal":82,"sp.journ":0,"sp.fl":0,"sp.arts":0,"sp.s&t":0,"sch.id":317506,"municipality":"BUTUAN CITY (Capital)","fish":0,"sp.program":null,"longitude":125.532356,"id":"ag4rx5w9ulgk","province":"AGUSAN DEL NORTE","sp.sports":0,"shs?1":0,"sp.prog1":0},"type":"Feature","geometry":{"type":"Point","coordinates":[125.532356,8.940889]}},{"properties":{"agri":0,"school name":"Libertad NHS","shs?":"NO","tech-voc":"NO","latitude":8.945885,"region":"CARAGA","id 2":29,"w.bld":1,"arts&trade":0,"division.2012":"Butuan City","sp.prog":"NO","enrtotal":1994,"sp.journ":0,"sp.fl":0,"sp.arts":0,"sp.s&t":0,"sch.id":304763,"municipality":"BUTUAN CITY (Capital)","fish":0,"sp.program":null,"longitude":125.501312,"id":"ag4rx66wc74k","province":"AGUSAN DEL NORTE","sp.sports":0,"shs?1":0,"sp.prog1":0},"type":"Feature","geometry":{"type":"Point","coordinates":[125.501312,8.945885]}},{"properties":{"agri":0,"school name":"Los Angeles NHS","shs?":"NO","tech-voc":"NO","latitude":9.013231,"region":"CARAGA","id 2":29,"w.bld":1,"arts&trade":0,"division.2012":"Butuan City","sp.prog":"NO","enrtotal":667,"sp.journ":0,"sp.fl":0,"sp.arts":0,"sp.s&t":0,"sch.id":304764,"municipality":"BUTUAN CITY (Capital)","fish":0,"sp.program":null,"longitude":125.61071,"id":"ag4rx67jianz","province":"AGUSAN DEL NORTE","sp.sports":0,"shs?1":0,"sp.prog1":0},"type":"Feature","geometry":{"type":"Point","coordinates":[125.61071,9.013231]}},{"properties":{"agri":0,"school name":"Lumbocan NHS","shs?":"NO","tech-voc":"NO","latitude":9.008401,"region":"CARAGA","id 2":29,"w.bld":1,"arts&trade":0,"division.2012":"Butuan City","sp.prog":"NO","enrtotal":486,"sp.journ":0,"sp.fl":0,"sp.arts":0,"sp.s&t":0,"sch.id":304766,"municipality":"BUTUAN CITY (Capital)","fish":0,"sp.program":null,"longitude":125.501923,"id":"ag4rx6at5k0p","province":"AGUSAN DEL NORTE","sp.sports":0,"shs?1":0,"sp.prog1":0},"type":"Feature","geometry":{"type":"Point","coordinates":[125.501923,9.008401]}},{"properties":{"agri":0,"school name":"Maguinda NHS","shs?":"NO","tech-voc":"NO","latitude":8.820337,"region":"CARAGA","id 2":29,"w.bld":1,"arts&trade":0,"division.2012":"Butuan City","sp.prog":"NO","enrtotal":296,"sp.journ":0,"sp.fl":0,"sp.arts":0,"sp.s&t":0,"sch.id":304767,"municipality":"BUTUAN CITY (Capital)","fish":0,"sp.program":null,"longitude":125.589966,"id":"ag4rx647400b","province":"AGUSAN DEL NORTE","sp.sports":0,"shs?1":0,"sp.prog1":0},"type":"Feature","geometry":{"type":"Point","coordinates":[125.589966,8.820337]}},{"properties":{"agri":0,"school name":"Maibu ISS","shs?":"NO","tech-voc":"NO","latitude":8.779101,"region":"CARAGA","id 2":29,"w.bld":1,"arts&trade":0,"division.2012":"Butuan City","sp.prog":"NO","enrtotal":121,"sp.journ":0,"sp.fl":0,"sp.arts":0,"sp.s&t":0,"sch.id":317505,"municipality":"BUTUAN CITY (Capital)","fish":0,"sp.program":null,"longitude":125.592339,"id":"ag4rx665tibn","province":"AGUSAN DEL NORTE","sp.sports":0,"shs?1":0,"sp.prog1":0},"type":"Feature","geometry":{"type":"Point","coordinates":[125.592339,8.779101]}},{"properties":{"agri":0,"school name":"Pigdaulan NHS","shs?":"NO","tech-voc":"NO","latitude":8.917072,"region":"CARAGA","id 2":29,"w.bld":1,"arts&trade":0,"division.2012":"Butuan City","sp.prog":"NO","enrtotal":292,"sp.journ":0,"sp.fl":0,"sp.arts":0,"sp.s&t":0,"sch.id":317521,"municipality":"BUTUAN CITY (Capital)","fish":0,"sp.program":null,"longitude":125.584122,"id":"ag4rx5yssp42","province":"AGUSAN DEL NORTE","sp.sports":0,"shs?1":0,"sp.prog1":0},"type":"Feature","geometry":{"type":"Point","coordinates":[125.584122,8.917072]}},{"properties":{"agri":0,"school name":"Pinamanculan ISS","shs?":"NO","tech-voc":"NO","latitude":8.96548,"region":"CARAGA","id 2":29,"w.bld":1,"arts&trade":0,"division.2012":"Butuan City","sp.prog":"NO","enrtotal":169,"sp.journ":0,"sp.fl":0,"sp.arts":0,"sp.s&t":0,"sch.id":317508,"municipality":"BUTUAN CITY (Capital)","fish":0,"sp.program":null,"longitude":125.481766,"id":"ag4rx63o8a23","province":"AGUSAN DEL NORTE","sp.sports":0,"shs?1":0,"sp.prog1":0},"type":"Feature","geometry":{"type":"Point","coordinates":[125.481766,8.96548]}},{"properties":{"agri":0,"school name":"San Vicente NHS","shs?":"NO","tech-voc":"NO","latitude":8.906308,"region":"CARAGA","id 2":29,"w.bld":1,"arts&trade":0,"division.2012":"Butuan City","sp.prog":"NO","enrtotal":951,"sp.journ":0,"sp.fl":0,"sp.arts":0,"sp.s&t":0,"sch.id":304769,"municipality":"BUTUAN CITY (Capital)","fish":0,"sp.program":null,"longitude":125.55442,"id":"ag4rx60tmqd9","province":"AGUSAN DEL NORTE","sp.sports":0,"shs?1":0,"sp.prog1":0},"type":"Feature","geometry":{"type":"Point","coordinates":[125.55442,8.906308]}},{"properties":{"agri":0,"school name":"Sumile NHS","shs?":"NO","tech-voc":"NO","latitude":8.823697,"region":"CARAGA","id 2":29,"w.bld":1,"arts&trade":0,"division.2012":"Butuan City","sp.prog":"NO","enrtotal":179,"sp.journ":0,"sp.fl":0,"sp.arts":0,"sp.s&t":0,"sch.id":304770,"municipality":"BUTUAN CITY (Capital)","fish":0,"sp.program":null,"longitude":125.626572,"id":"ag4rx608ogd7","province":"AGUSAN DEL NORTE","sp.sports":0,"shs?1":0,"sp.prog1":0},"type":"Feature","geometry":{"type":"Point","coordinates":[125.626572,8.823697]}},{"properties":{"agri":0,"school name":"Taligaman NHS","shs?":"NO","tech-voc":"NO","latitude":8.938731,"region":"CARAGA","id 2":29,"w.bld":1,"arts&trade":0,"division.2012":"Butuan City","sp.prog":"NO","enrtotal":1033,"sp.journ":0,"sp.fl":0,"sp.arts":0,"sp.s&t":0,"sch.id":304771,"municipality":"BUTUAN CITY (Capital)","fish":0,"sp.program":null,"longitude":125.627411,"id":"ag4rx5vzluus","province":"AGUSAN DEL NORTE","sp.sports":0,"shs?1":0,"sp.prog1":0},"type":"Feature","geometry":{"type":"Point","coordinates":[125.627411,8.938731]}},{"properties":{"agri":0,"school name":"Tungao NHS","shs?":"NO","tech-voc":"NO","latitude":8.781897,"region":"CARAGA","id 2":29,"w.bld":1,"arts&trade":0,"division.2012":"Butuan City","sp.prog":"NO","enrtotal":801,"sp.journ":0,"sp.fl":0,"sp.arts":0,"sp.s&t":0,"sch.id":304772,"municipality":"BUTUAN CITY (Capital)","fish":0,"sp.program":null,"longitude":125.563225,"id":"ag4rx6a1w31c","province":"AGUSAN DEL NORTE","sp.sports":0,"shs?1":0,"sp.prog1":0},"type":"Feature","geometry":{"type":"Point","coordinates":[125.563225,8.781897]}},{"properties":{"agri":0,"school name":"Albor NHS","shs?":"NO","tech-voc":"NO","latitude":10.19203,"region":"CARAGA","id 2":546,"w.bld":1,"arts&trade":0,"division.2012":"Dinagat Island","sp.prog":"NO","enrtotal":665,"sp.journ":0,"sp.fl":0,"sp.arts":0,"sp.s&t":0,"sch.id":304808,"municipality":"LIBJO (ALBOR)","fish":0,"sp.program":null,"longitude":125.528969,"id":"ag4rx617es3m","province":"DINAGAT ISLANDS","sp.sports":0,"shs?1":0,"sp.prog1":0},"type":"Feature","geometry":{"type":"Point","coordinates":[125.528969,10.19203]}},{"properties":{"agri":0,"school name":"Albor NHS - Osmena NHS Annex","shs?":"NO","tech-voc":"NO","latitude":10.185773,"region":"CARAGA","id 2":546,"w.bld":1,"arts&trade":0,"division.2012":"Dinagat Island","sp.prog":"NO","enrtotal":140,"sp.journ":0,"sp.fl":0,"sp.arts":0,"sp.s&t":0,"sch.id":304809,"municipality":"LIBJO (ALBOR)","fish":0,"sp.program":null,"longitude":125.508583,"id":"ag4rx5xzpihq","province":"DINAGAT ISLANDS","sp.sports":0,"shs?1":0,"sp.prog1":0},"type":"Feature","geometry":{"type":"Point","coordinates":[125.508583,10.185773]}},{"properties":{"agri":0,"school name":"Cab-ilan NHS","shs?":"NO","tech-voc":"NO","latitude":9.946617,"region":"CARAGA","id 2":545,"w.bld":1,"arts&trade":0,"division.2012":"Dinagat Island","sp.prog":"NO","enrtotal":104,"sp.journ":0,"sp.fl":0,"sp.arts":0,"sp.s&t":0,"sch.id":304823,"municipality":"DINAGAT","fish":0,"sp.program":null,"longitude":125.545578,"id":"ag4rx5ujbgbc","province":"DINAGAT ISLANDS","sp.sports":0,"shs?1":0,"sp.prog1":0},"type":"Feature","geometry":{"type":"Point","coordinates":[125.545578,9.946617]}},{"properties":{"agri":0,"school name":"Cagdianao NHS","shs?":"NO","tech-voc":"NO","latitude":9.922374,"region":"CARAGA","id 2":544,"w.bld":1,"arts&trade":0,"division.2012":"Dinagat Island","sp.prog":"YES","enrtotal":564,"sp.journ":0,"sp.fl":0,"sp.arts":0,"sp.s&t":1,"sch.id":304815,"municipality":"CAGDIANAO","fish":0,"sp.program":"Sci &amp; Tech","longitude":125.669571,"id":"ag4rx690vuqj","province":"DINAGAT ISLANDS","sp.sports":0,"shs?1":0,"sp.prog1":1},"type":"Feature","geometry":{"type":"Point","coordinates":[125.669571,9.922374]}},{"properties":{"agri":0,"school name":"Cuarenta NHS","shs?":"NO","tech-voc":"NO","latitude":10.017877,"region":"CARAGA","id 2":548,"w.bld":1,"arts&trade":0,"division.2012":"Dinagat Island","sp.prog":"NO","enrtotal":165,"sp.journ":0,"sp.fl":0,"sp.arts":0,"sp.s&t":0,"sch.id":304825,"municipality":"SAN JOSE (Capital)","fish":0,"sp.program":null,"longitude":125.591324,"id":"ag4rx5v5vvmr","province":"DINAGAT ISLANDS","sp.sports":0,"shs?1":0,"sp.prog1":0},"type":"Feature","geometry":{"type":"Point","coordinates":[125.591324,10.017877]}},{"properties":{"agri":0,"school name":"Del Pilar NHS","shs?":"NO","tech-voc":"NO","latitude":9.993935,"region":"CARAGA","id 2":544,"w.bld":1,"arts&trade":0,"division.2012":"Dinagat Island","sp.prog":"NO","enrtotal":187,"sp.journ":0,"sp.fl":0,"sp.arts":0,"sp.s&t":0,"sch.id":304816,"municipality":"CAGDIANAO","fish":0,"sp.program":null,"longitude":125.670074,"id":"ag4rx5wcwa7b","province":"DINAGAT ISLANDS","sp.sports":0,"shs?1":0,"sp.prog1":0},"type":"Feature","geometry":{"type":"Point","coordinates":[125.670074,9.993935]}},{"properties":{"agri":0,"school name":"Dinagat School of Fisheries","shs?":"NO","tech-voc":"Fisheries","latitude":9.961369,"region":"CARAGA","id 2":545,"w.bld":1,"arts&trade":0,"division.2012":"Dinagat Island","sp.prog":"NO","enrtotal":431,"sp.journ":0,"sp.fl":0,"sp.arts":0,"sp.s&t":0,"sch.id":304822,"municipality":"DINAGAT","fish":1,"sp.program":null,"longitude":125.591499,"id":"ag4rx5ugsctx","province":"DINAGAT ISLANDS","sp.sports":0,"shs?1":0,"sp.prog1":0},"type":"Feature","geometry":{"type":"Point","coordinates":[125.591499,9.961369]}},{"properties":{"agri":0,"school name":"Don Ruben E. Ecleo Sr. MNHS","shs?":"NO","tech-voc":"NO","latitude":10.01552,"region":"CARAGA","id 2":548,"w.bld":1,"arts&trade":0,"division.2012":"Dinagat Island","sp.prog":"NO","enrtotal":1333,"sp.journ":0,"sp.fl":0,"sp.arts":0,"sp.s&t":0,"sch.id":304824,"municipality":"SAN JOSE (Capital)","fish":0,"sp.program":null,"longitude":125.57519,"id":"ag4rx5wa3s7x","province":"DINAGAT ISLANDS","sp.sports":0,"shs?1":0,"sp.prog1":0},"type":"Feature","geometry":{"type":"Point","coordinates":[125.57519,10.01552]}},{"properties":{"agri":0,"school name":"Edera NHS","shs?":"NO","tech-voc":"NO","latitude":10.088184,"region":"CARAGA","id 2":543,"w.bld":1,"arts&trade":0,"division.2012":"Dinagat Island","sp.prog":"NO","enrtotal":103,"sp.journ":0,"sp.fl":0,"sp.arts":0,"sp.s&t":0,"sch.id":324403,"municipality":"BASILISA (RIZAL)","fish":0,"sp.program":null,"longitude":125.572395,"id":"ag4rx66l9k56","province":"DINAGAT ISLANDS","sp.sports":0,"shs?1":0,"sp.prog1":0},"type":"Feature","geometry":{"type":"Point","coordinates":[125.572395,10.088184]}},{"properties":{"agri":0,"school name":"Liberty NHS","shs?":"NO","tech-voc":"NO","latitude":10.430944,"region":"CARAGA","id 2":547,"w.bld":1,"arts&trade":0,"division.2012":"Dinagat Island","sp.prog":"NO","enrtotal":97,"sp.journ":0,"sp.fl":0,"sp.arts":0,"sp.s&t":0,"sch.id":304827,"municipality":"LORETO","fish":0,"sp.program":null,"longitude":125.492363,"id":"ag4rx5vf9ms8","province":"DINAGAT ISLANDS","sp.sports":0,"shs?1":0,"sp.prog1":0},"type":"Feature","geometry":{"type":"Point","coordinates":[125.492363,10.430944]}},{"properties":{"agri":0,"school name":"Llamera NHS","shs?":"NO","tech-voc":"NO","latitude":10.143463,"region":"CARAGA","id 2":546,"w.bld":1,"arts&trade":0,"division.2012":"Dinagat Island","sp.prog":"NO","enrtotal":124,"sp.journ":0,"sp.fl":0,"sp.arts":0,"sp.s&t":0,"sch.id":324401,"municipality":"LIBJO (ALBOR)","fish":0,"sp.program":null,"longitude":125.575722,"id":"ag4rx65ut9i1","province":"DINAGAT ISLANDS","sp.sports":0,"shs?1":0,"sp.prog1":0},"type":"Feature","geometry":{"type":"Point","coordinates":[125.575722,10.143463]}},{"properties":{"agri":0,"school name":"Loreto NHS","shs?":"NO","tech-voc":"NO","latitude":10.35089,"region":"CARAGA","id 2":547,"w.bld":1,"arts&trade":0,"division.2012":"Dinagat Island","sp.prog":"NO","enrtotal":436,"sp.journ":0,"sp.fl":0,"sp.arts":0,"sp.s&t":0,"sch.id":304828,"municipality":"LORETO","fish":0,"sp.program":null,"longitude":125.616302,"id":"ag4rx682ajbr","province":"DINAGAT ISLANDS","sp.sports":0,"shs?1":0,"sp.prog1":0},"type":"Feature","geometry":{"type":"Point","coordinates":[125.616302,10.35089]}},{"properties":{"agri":0,"school name":"Melgar NHS","shs?":"NO","tech-voc":"NO","latitude":10.062465,"region":"CARAGA","id 2":543,"w.bld":1,"arts&trade":0,"division.2012":"Dinagat Island","sp.prog":"NO","enrtotal":111,"sp.journ":0,"sp.fl":0,"sp.arts":0,"sp.s&t":0,"sch.id":304836,"municipality":"BASILISA (RIZAL)","fish":0,"sp.program":null,"longitude":125.527626,"id":"ag4rx65odt4a","province":"DINAGAT ISLANDS","sp.sports":0,"shs?1":0,"sp.prog1":0},"type":"Feature","geometry":{"type":"Point","coordinates":[125.527626,10.062465]}},{"properties":{"agri":0,"school name":"New Nazareth NHS Annex","shs?":"NO","tech-voc":"NO","latitude":10.087801,"region":"CARAGA","id 2":543,"w.bld":1,"arts&trade":0,"division.2012":"Dinagat Island","sp.prog":"NO","enrtotal":160,"sp.journ":0,"sp.fl":0,"sp.arts":0,"sp.s&t":0,"sch.id":324404,"municipality":"BASILISA (RIZAL)","fish":0,"sp.program":null,"longitude":125.581055,"id":"ag4rx67xq5ds","province":"DINAGAT ISLANDS","sp.sports":0,"shs?1":0,"sp.prog1":0},"type":"Feature","geometry":{"type":"Point","coordinates":[125.581055,10.087801]}},{"properties":{"agri":0,"school name":"Panamaon NHS Annex","shs?":"NO","tech-voc":"NO","latitude":10.4236,"region":"CARAGA","id 2":547,"w.bld":1,"arts&trade":0,"division.2012":"Dinagat Island","sp.prog":"NO","enrtotal":141,"sp.journ":0,"sp.fl":0,"sp.arts":0,"sp.s&t":0,"sch.id":324405,"municipality":"LORETO","fish":0,"sp.program":null,"longitude":125.611626,"id":"ag4rx5zlk79c","province":"DINAGAT ISLANDS","sp.sports":0,"shs?1":0,"sp.prog1":0},"type":"Feature","geometry":{"type":"Point","coordinates":[125.611626,10.4236]}},{"properties":{"agri":0,"school name":"Plaridel NHS","shs?":"NO","tech-voc":"NO","latitude":10.130407,"region":"CARAGA","id 2":546,"w.bld":1,"arts&trade":0,"division.2012":"Dinagat Island","sp.prog":"NO","enrtotal":212,"sp.journ":0,"sp.fl":0,"sp.arts":0,"sp.s&t":0,"sch.id":304839,"municipality":"LIBJO (ALBOR)","fish":0,"sp.program":null,"longitude":125.497459,"id":"ag4rx65bp854","province":"DINAGAT ISLANDS","sp.sports":0,"shs?1":0,"sp.prog1":0},"type":"Feature","geometry":{"type":"Point","coordinates":[125.497459,10.130407]}},{"properties":{"agri":0,"school name":"Primitivo J. Ebol Memorial National High School","shs?":"NO","tech-voc":"NO","latitude":9.979502,"region":"CARAGA","id 2":545,"w.bld":1,"arts&trade":0,"division.2012":"Dinagat Island","sp.prog":"NO","enrtotal":163,"sp.journ":0,"sp.fl":0,"sp.arts":0,"sp.s&t":0,"sch.id":324406,"municipality":"DINAGAT","fish":0,"sp.program":null,"longitude":125.604118,"id":"ag4rx5x6iqix","province":"DINAGAT ISLANDS","sp.sports":0,"shs?1":0,"sp.prog1":0},"type":"Feature","geometry":{"type":"Point","coordinates":[125.604118,9.979502]}},{"properties":{"agri":0,"school name":"R. E. Ecleo, Sr. NHS","shs?":"NO","tech-voc":"NO","latitude":9.936599,"region":"CARAGA","id 2":544,"w.bld":1,"arts&trade":0,"division.2012":"Dinagat Island","sp.prog":"NO","enrtotal":313,"sp.journ":0,"sp.fl":0,"sp.arts":0,"sp.s&t":0,"sch.id":304840,"municipality":"CAGDIANAO","fish":0,"sp.program":null,"longitude":125.641624,"id":"ag4rx5z9rve4","province":"DINAGAT ISLANDS","sp.sports":0,"shs?1":0,"sp.prog1":0},"type":"Feature","geometry":{"type":"Point","coordinates":[125.641624,9.936599]}},{"properties":{"agri":0,"school name":"Rizal NHS","shs?":"NO","tech-voc":"NO","latitude":9.998304,"region":"CARAGA","id 2":543,"w.bld":1,"arts&trade":0,"division.2012":"Dinagat Island","sp.prog":"NO","enrtotal":175,"sp.journ":0,"sp.fl":0,"sp.arts":0,"sp.s&t":0,"sch.id":304841,"municipality":"BASILISA (RIZAL)","fish":0,"sp.program":null,"longitude":125.50956,"id":"ag4rx6526n8n","province":"DINAGAT ISLANDS","sp.sports":0,"shs?1":0,"sp.prog1":0},"type":"Feature","geometry":{"type":"Point","coordinates":[125.50956,9.998304]}},{"properties":{"agri":0,"school name":"Rizal NHS - Puerto Princesa - Moleta NHS Annex","shs?":"NO","tech-voc":"NO","latitude":10.104519,"region":"CARAGA","id 2":543,"w.bld":1,"arts&trade":0,"division.2012":"Dinagat Island","sp.prog":"NO","enrtotal":129,"sp.journ":0,"sp.fl":0,"sp.arts":0,"sp.s&t":0,"sch.id":304842,"municipality":"BASILISA (RIZAL)","fish":0,"sp.program":null,"longitude":125.482376,"id":"ag4rx644uel5","province":"DINAGAT ISLANDS","sp.sports":0,"shs?1":0,"sp.prog1":0},"type":"Feature","geometry":{"type":"Point","coordinates":[125.482376,10.104519]}},{"properties":{"agri":0,"school name":"Rosita National High School","shs?":"NO","tech-voc":"NO","latitude":10.124922,"region":"CARAGA","id 2":546,"w.bld":1,"arts&trade":0,"division.2012":"Dinagat Island","sp.prog":"NO","enrtotal":115,"sp.journ":0,"sp.fl":0,"sp.arts":0,"sp.s&t":0,"sch.id":317801,"municipality":"LIBJO (ALBOR)","fish":0,"sp.program":null,"longitude":125.574615,"id":"ag4rx6764uby","province":"DINAGAT ISLANDS","sp.sports":0,"shs?1":0,"sp.prog1":0},"type":"Feature","geometry":{"type":"Point","coordinates":[125.574615,10.124922]}},{"properties":{"agri":0,"school name":"San Jose NHS","shs?":"NO","tech-voc":"NO","latitude":10.17731,"region":"CARAGA","id 2":546,"w.bld":1,"arts&trade":0,"division.2012":"Dinagat Island","sp.prog":"NO","enrtotal":198,"sp.journ":0,"sp.fl":0,"sp.arts":0,"sp.s&t":0,"sch.id":304810,"municipality":"LIBJO (ALBOR)","fish":0,"sp.program":null,"longitude":125.564064,"id":"ag4rx6a4h65t","province":"DINAGAT ISLANDS","sp.sports":0,"shs?1":0,"sp.prog1":0},"type":"Feature","geometry":{"type":"Point","coordinates":[125.564064,10.17731]}},{"properties":{"agri":0,"school name":"Sering NHS","shs?":"NO","tech-voc":"NO","latitude":10.08159,"region":"CARAGA","id 2":543,"w.bld":1,"arts&trade":0,"division.2012":"Dinagat Island","sp.prog":"NO","enrtotal":221,"sp.journ":0,"sp.fl":0,"sp.arts":0,"sp.s&t":0,"sch.id":304844,"municipality":"BASILISA (RIZAL)","fish":0,"sp.program":null,"longitude":125.541298,"id":"ag4rx6a41g6k","province":"DINAGAT ISLANDS","sp.sports":0,"shs?1":0,"sp.prog1":0},"type":"Feature","geometry":{"type":"Point","coordinates":[125.541298,10.08159]}},{"properties":{"agri":0,"school name":"Tag-abaca NHS","shs?":"NO","tech-voc":"NO","latitude":10.061878,"region":"CARAGA","id 2":543,"w.bld":1,"arts&trade":0,"division.2012":"Dinagat Island","sp.prog":"YES","enrtotal":431,"sp.journ":0,"sp.fl":0,"sp.arts":0,"sp.s&t":1,"sch.id":304851,"municipality":"BASILISA (RIZAL)","fish":0,"sp.program":"Sci &amp; Tech","longitude":125.599602,"id":"ag4rx5vcuk1y","province":"DINAGAT ISLANDS","sp.sports":0,"shs?1":0,"sp.prog1":1},"type":"Feature","geometry":{"type":"Point","coordinates":[125.599602,10.061878]}},{"properties":{"agri":0,"school name":"Tag-abaca NHS - Rita-Glenda NHS Annex","shs?":"NO","tech-voc":"NO","latitude":10.130441,"region":"CARAGA","id 2":543,"w.bld":1,"arts&trade":0,"division.2012":"Dinagat Island","sp.prog":"NO","enrtotal":203,"sp.journ":0,"sp.fl":0,"sp.arts":0,"sp.s&t":0,"sch.id":304852,"municipality":"BASILISA (RIZAL)","fish":0,"sp.program":null,"longitude":125.595703,"id":"ag4rx5x4pcvj","province":"DINAGAT ISLANDS","sp.sports":0,"shs?1":0,"sp.prog1":0},"type":"Feature","geometry":{"type":"Point","coordinates":[125.595703,10.130441]}},{"properties":{"agri":0,"school name":"Tubajon NHS","shs?":"NO","tech-voc":"NO","latitude":10.3,"region":"CARAGA","id 2":549,"w.bld":1,"arts&trade":0,"division.2012":"Dinagat Island","sp.prog":"NO","enrtotal":319,"sp.journ":0,"sp.fl":0,"sp.arts":0,"sp.s&t":0,"sch.id":304854,"municipality":"TUBAJON","fish":0,"sp.program":null,"longitude":125.566666,"id":"ag4rx63hstnc","province":"DINAGAT ISLANDS","sp.sports":0,"shs?1":0,"sp.prog1":0},"type":"Feature","geometry":{"type":"Point","coordinates":[125.566666,10.3]}},{"properties":{"agri":0,"school name":"Tubajon NHS - Mabini NHS Annex","shs?":"NO","tech-voc":"NO","latitude":10.303561,"region":"CARAGA","id 2":549,"w.bld":1,"arts&trade":0,"division.2012":"Dinagat Island","sp.prog":"NO","enrtotal":149,"sp.journ":0,"sp.fl":0,"sp.arts":0,"sp.s&t":0,"sch.id":317805,"municipality":"TUBAJON","fish":0,"sp.program":null,"longitude":125.59304,"id":"ag4rx5vqnqaa","province":"DINAGAT ISLANDS","sp.sports":0,"shs?1":0,"sp.prog1":0},"type":"Feature","geometry":{"type":"Point","coordinates":[125.59304,10.303561]}},{"properties":{"agri":0,"school name":"Valencia NHS","shs?":"NO","tech-voc":"NO","latitude":10.162673,"region":"CARAGA","id 2":544,"w.bld":1,"arts&trade":0,"division.2012":"Dinagat Island","sp.prog":"NO","enrtotal":200,"sp.journ":0,"sp.fl":0,"sp.arts":0,"sp.s&t":0,"sch.id":317802,"municipality":"CAGDIANAO","fish":0,"sp.program":null,"longitude":125.657005,"id":"ag4rx60jy3nt","province":"DINAGAT ISLANDS","sp.sports":0,"shs?1":0,"sp.prog1":0},"type":"Feature","geometry":{"type":"Point","coordinates":[125.657005,10.162673]}},{"properties":{"agri":0,"school name":"Burgos NHS","shs?":"NO","tech-voc":"NO","latitude":10.018,"region":"CARAGA","id 2":1494,"w.bld":1,"arts&trade":0,"division.2012":"Siargao","sp.prog":"NO","enrtotal":347,"sp.journ":0,"sp.fl":0,"sp.arts":0,"sp.s&t":0,"sch.id":304773,"municipality":"BURGOS","fish":0,"sp.program":null,"longitude":126.073997,"id":"ag4rx5xp2i6f","province":"SURIGAO DEL NORTE","sp.sports":0,"shs?1":0,"sp.prog1":0},"type":"Feature","geometry":{"type":"Point","coordinates":[126.073997,10.018]}},{"properties":{"agri":0,"school name":"Dapa NHS","shs?":"NO","tech-voc":"NO","latitude":9.755414,"region":"CARAGA","id 2":1496,"w.bld":1,"arts&trade":0,"division.2012":"Siargao","sp.prog":"YES","enrtotal":1498,"sp.journ":0,"sp.fl":0,"sp.arts":0,"sp.s&t":0,"sch.id":304774,"municipality":"DAPA","fish":0,"sp.program":"Sports,","longitude":126.053152,"id":"ag4rx5xz2o10","province":"SURIGAO DEL NORTE","sp.sports":1,"shs?1":0,"sp.prog1":1},"type":"Feature","geometry":{"type":"Point","coordinates":[126.053152,9.755414]}},{"properties":{"agri":0,"school name":"Gen. Luna NHS - Consuelo NHS Annex","shs?":"NO","tech-voc":"NO","latitude":9.8,"region":"CARAGA","id 2":1498,"w.bld":1,"arts&trade":0,"division.2012":"Siargao","sp.prog":"NO","enrtotal":167,"sp.journ":0,"sp.fl":0,"sp.arts":0,"sp.s&t":0,"sch.id":317603,"municipality":"GENERAL LUNA","fish":0,"sp.program":null,"longitude":126.133331,"id":"ag4rx66ctona","province":"SURIGAO DEL NORTE","sp.sports":0,"shs?1":0,"sp.prog1":0},"type":"Feature","geometry":{"type":"Point","coordinates":[126.133331,9.8]}},{"properties":{"agri":0,"school name":"Oguing Navarro Mem. NHS - Annex","shs?":"NO","tech-voc":"NO","latitude":9.858889,"region":"CARAGA","id 2":1497,"w.bld":1,"arts&trade":0,"division.2012":"Siargao","sp.prog":"NO","enrtotal":151,"sp.journ":0,"sp.fl":0,"sp.arts":0,"sp.s&t":0,"sch.id":317605,"municipality":"DEL CARMEN","fish":0,"sp.program":null,"longitude":126.013886,"id":"ag4rx5wm7xy6","province":"SURIGAO DEL NORTE","sp.sports":0,"shs?1":0,"sp.prog1":0},"type":"Feature","geometry":{"type":"Point","coordinates":[126.013886,9.858889]}},{"properties":{"agri":0,"school name":"Pilar NHS","shs?":"NO","tech-voc":"NO","latitude":9.865612,"region":"CARAGA","id 2":1503,"w.bld":1,"arts&trade":0,"division.2012":"Siargao","sp.prog":"NO","enrtotal":397,"sp.journ":0,"sp.fl":0,"sp.arts":0,"sp.s&t":0,"sch.id":304779,"municipality":"PILAR","fish":0,"sp.program":null,"longitude":126.099492,"id":"ag4rx5vhtj0u","province":"SURIGAO DEL NORTE","sp.sports":0,"shs?1":0,"sp.prog1":0},"type":"Feature","geometry":{"type":"Point","coordinates":[126.099492,9.865612]}},{"properties":{"agri":0,"school name":"Roxas NHS","shs?":"NO","tech-voc":"NO","latitude":9.757132,"region":"CARAGA","id 2":1507,"w.bld":1,"arts&trade":0,"division.2012":"Siargao","sp.prog":"NO","enrtotal":246,"sp.journ":0,"sp.fl":0,"sp.arts":0,"sp.s&t":0,"sch.id":304784,"municipality":"SAN ISIDRO","fish":0,"sp.program":null,"longitude":125.513771,"id":"ag4rx5vx2o39","province":"SURIGAO DEL NORTE","sp.sports":0,"shs?1":0,"sp.prog1":0},"type":"Feature","geometry":{"type":"Point","coordinates":[125.513771,9.757132]}},{"properties":{"agri":0,"school name":"San Benito NHS","shs?":"NO","tech-voc":"NO","latitude":9.958,"region":"CARAGA","id 2":1505,"w.bld":1,"arts&trade":0,"division.2012":"Siargao","sp.prog":"NO","enrtotal":316,"sp.journ":0,"sp.fl":0,"sp.arts":0,"sp.s&t":0,"sch.id":304781,"municipality":"SAN BENITO","fish":0,"sp.program":null,"longitude":126.007004,"id":"ag4rx66aw06x","province":"SURIGAO DEL NORTE","sp.sports":0,"shs?1":0,"sp.prog1":0},"type":"Feature","geometry":{"type":"Point","coordinates":[126.007004,9.958]}},{"properties":{"agri":0,"school name":"Sapao NHS","shs?":"NO","tech-voc":"NO","latitude":10.02,"region":"CARAGA","id 2":1508,"w.bld":1,"arts&trade":0,"division.2012":"Siargao","sp.prog":"NO","enrtotal":471,"sp.journ":0,"sp.fl":0,"sp.arts":0,"sp.s&t":0,"sch.id":304785,"municipality":"SANTA MONICA (SAPAO)","fish":0,"sp.program":null,"longitude":126.038002,"id":"ag4rx60zdlds","province":"SURIGAO DEL NORTE","sp.sports":0,"shs?1":0,"sp.prog1":0},"type":"Feature","geometry":{"type":"Point","coordinates":[126.038002,10.02]}},{"properties":{"agri":0,"school name":"Siargao Nat'l. Science HS","shs?":"YES","tech-voc":"NO","latitude":9.754932,"region":"CARAGA","id 2":1496,"w.bld":1,"arts&trade":0,"division.2012":"Siargao","sp.prog":"NO","enrtotal":87,"sp.journ":0,"sp.fl":0,"sp.arts":0,"sp.s&t":0,"sch.id":317604,"municipality":"DAPA","fish":0,"sp.program":null,"longitude":126.052897,"id":"ag4rx5xyauou","province":"SURIGAO DEL NORTE","sp.sports":0,"shs?1":1,"sp.prog1":0},"type":"Feature","geometry":{"type":"Point","coordinates":[126.052897,9.754932]}},{"properties":{"agri":0,"school name":"Socorro National HS","shs?":"NO","tech-voc":"NO","latitude":9.621,"region":"CARAGA","id 2":1510,"w.bld":1,"arts&trade":0,"division.2012":"Siargao","sp.prog":"YES","enrtotal":1230,"sp.journ":0,"sp.fl":0,"sp.arts":1,"sp.s&t":1,"sch.id":304788,"municipality":"SOCORRO","fish":0,"sp.program":"Sports, Arts, Sci &amp; Tech","longitude":125.967003,"id":"ag4rx68bym9w","province":"SURIGAO DEL NORTE","sp.sports":1,"shs?1":0,"sp.prog1":1},"type":"Feature","geometry":{"type":"Point","coordinates":[125.967003,9.621]}},{"properties":{"agri":0,"school name":"Sta. Fe NHS","shs?":"NO","tech-voc":"NO","latitude":9.8449,"region":"CARAGA","id 2":1498,"w.bld":1,"arts&trade":0,"division.2012":"Siargao","sp.prog":"NO","enrtotal":185,"sp.journ":0,"sp.fl":0,"sp.arts":0,"sp.s&t":0,"sch.id":304778,"municipality":"GENERAL LUNA","fish":0,"sp.program":null,"longitude":126.137352,"id":"ag4rx60yeo34","province":"SURIGAO DEL NORTE","sp.sports":0,"shs?1":0,"sp.prog1":0},"type":"Feature","geometry":{"type":"Point","coordinates":[126.137352,9.8449]}},{"properties":{"agri":0,"school name":"Anomar NHS","shs?":"NO","tech-voc":"NO","latitude":9.680804,"region":"CARAGA","id 2":1511,"w.bld":1,"arts&trade":0,"division.2012":"Surigao City","sp.prog":"NO","enrtotal":442,"sp.journ":0,"sp.fl":0,"sp.arts":0,"sp.s&t":0,"sch.id":304800,"municipality":"SURIGAO CITY (Capital)","fish":0,"sp.program":null,"longitude":125.503983,"id":"ag4rx69tfumd","province":"SURIGAO DEL NORTE","sp.sports":0,"shs?1":0,"sp.prog1":0},"type":"Feature","geometry":{"type":"Point","coordinates":[125.503983,9.680804]}},{"properties":{"agri":0,"school name":"Capalayan NHS","shs?":"NO","tech-voc":"NO","latitude":9.738973,"region":"CARAGA","id 2":1511,"w.bld":0,"arts&trade":0,"division.2012":"Surigao City","sp.prog":"NO","enrtotal":394,"sp.journ":0,"sp.fl":0,"sp.arts":0,"sp.s&t":0,"sch.id":304802,"municipality":"SURIGAO CITY (Capital)","fish":0,"sp.program":null,"longitude":125.544991,"id":"ag4rx5wj8z5j","province":"SURIGAO DEL NORTE","sp.sports":0,"shs?1":0,"sp.prog1":0},"type":"Feature","geometry":{"type":"Point","coordinates":[125.544991,9.738973]}},{"properties":{"agri":0,"school name":"Caraga Regional Science HS","shs?":"YES","tech-voc":"NO","latitude":9.788441,"region":"CARAGA","id 2":1511,"w.bld":1,"arts&trade":0,"division.2012":"Surigao City","sp.prog":"NO","enrtotal":465,"sp.journ":0,"sp.fl":0,"sp.arts":0,"sp.s&t":0,"sch.id":304794,"municipality":"SURIGAO CITY (Capital)","fish":0,"sp.program":null,"longitude":125.479866,"id":"ag4rx64zbban","province":"SURIGAO DEL NORTE","sp.sports":0,"shs?1":1,"sp.prog1":0},"type":"Feature","geometry":{"type":"Point","coordinates":[125.479866,9.788441]}},{"properties":{"agri":0,"school name":"Day-asan NHS","shs?":"NO","tech-voc":"NO","latitude":9.76767,"region":"CARAGA","id 2":1511,"w.bld":1,"arts&trade":0,"division.2012":"Surigao City","sp.prog":"NO","enrtotal":383,"sp.journ":0,"sp.fl":0,"sp.arts":0,"sp.s&t":0,"sch.id":304803,"municipality":"SURIGAO CITY (Capital)","fish":0,"sp.program":null,"longitude":125.534515,"id":"ag4rx5vozjxa","province":"SURIGAO DEL NORTE","sp.sports":0,"shs?1":0,"sp.prog1":0},"type":"Feature","geometry":{"type":"Point","coordinates":[125.534515,9.76767]}},{"properties":{"agri":0,"school name":"Ipil NHS","shs?":"NO","tech-voc":"NO","latitude":9.796703,"region":"CARAGA","id 2":1511,"w.bld":1,"arts&trade":0,"division.2012":"Surigao City","sp.prog":"NO","enrtotal":620,"sp.journ":0,"sp.fl":0,"sp.arts":0,"sp.s&t":0,"sch.id":304795,"municipality":"SURIGAO CITY (Capital)","fish":0,"sp.program":null,"longitude":125.440918,"id":"ag4rx5wu8eq2","province":"SURIGAO DEL NORTE","sp.sports":0,"shs?1":0,"sp.prog1":0},"type":"Feature","geometry":{"type":"Point","coordinates":[125.440918,9.796703]}},{"properties":{"agri":0,"school name":"Juan P. Cedro, Sr. MHS","shs?":"NO","tech-voc":"NO","latitude":9.757132,"region":"CARAGA","id 2":1511,"w.bld":1,"arts&trade":0,"division.2012":"Surigao City","sp.prog":"NO","enrtotal":149,"sp.journ":0,"sp.fl":0,"sp.arts":0,"sp.s&t":0,"sch.id":304792,"municipality":"SURIGAO CITY (Capital)","fish":0,"sp.program":null,"longitude":125.513771,"id":"ag4rx5z6f78h","province":"SURIGAO DEL NORTE","sp.sports":0,"shs?1":0,"sp.prog1":0},"type":"Feature","geometry":{"type":"Point","coordinates":[125.513771,9.757132]}},{"properties":{"agri":0,"school name":"Mat-i NHS","shs?":"NO","tech-voc":"NO","latitude":9.718839,"region":"CARAGA","id 2":1511,"w.bld":1,"arts&trade":0,"division.2012":"Surigao City","sp.prog":"NO","enrtotal":603,"sp.journ":0,"sp.fl":0,"sp.arts":0,"sp.s&t":0,"sch.id":304799,"municipality":"SURIGAO CITY (Capital)","fish":0,"sp.program":null,"longitude":125.478333,"id":"ag4rx62g96l4","province":"SURIGAO DEL NORTE","sp.sports":0,"shs?1":0,"sp.prog1":0},"type":"Feature","geometry":{"type":"Point","coordinates":[125.478333,9.718839]}},{"properties":{"agri":0,"school name":"Nonoc NHS - Annex","shs?":"NO","tech-voc":"NO","latitude":9.820601,"region":"CARAGA","id 2":1511,"w.bld":1,"arts&trade":0,"division.2012":"Surigao City","sp.prog":"NO","enrtotal":88,"sp.journ":0,"sp.fl":0,"sp.arts":0,"sp.s&t":0,"sch.id":304804,"municipality":"SURIGAO CITY (Capital)","fish":0,"sp.program":null,"longitude":125.581467,"id":"ag4rx5uvi88j","province":"SURIGAO DEL NORTE","sp.sports":0,"shs?1":0,"sp.prog1":0},"type":"Feature","geometry":{"type":"Point","coordinates":[125.581467,9.820601]}},{"properties":{"agri":0,"school name":"Rizal NHS","shs?":"NO","tech-voc":"NO","latitude":9.781193,"region":"CARAGA","id 2":1511,"w.bld":1,"arts&trade":0,"division.2012":"Surigao City","sp.prog":"NO","enrtotal":270,"sp.journ":0,"sp.fl":0,"sp.arts":0,"sp.s&t":0,"sch.id":304796,"municipality":"SURIGAO CITY (Capital)","fish":0,"sp.program":null,"longitude":125.465233,"id":"ag4rx5zi846m","province":"SURIGAO DEL NORTE","sp.sports":0,"shs?1":0,"sp.prog1":0},"type":"Feature","geometry":{"type":"Point","coordinates":[125.465233,9.781193]}},{"properties":{"agri":0,"school name":"Surigao City NHS","shs?":"NO","tech-voc":"NO","latitude":9.789746,"region":"CARAGA","id 2":1511,"w.bld":1,"arts&trade":0,"division.2012":"Surigao City","sp.prog":"NO","enrtotal":1571,"sp.journ":0,"sp.fl":0,"sp.arts":0,"sp.s&t":0,"sch.id":304801,"municipality":"SURIGAO CITY (Capital)","fish":0,"sp.program":null,"longitude":125.484253,"id":"ag4rx5wuaiut","province":"SURIGAO DEL NORTE","sp.sports":0,"shs?1":0,"sp.prog1":0},"type":"Feature","geometry":{"type":"Point","coordinates":[125.484253,9.789746]}},{"properties":{"agri":0,"school name":"Taft NHS - Annex","shs?":"NO","tech-voc":"NO","latitude":9.779634,"region":"CARAGA","id 2":1511,"w.bld":0,"arts&trade":0,"division.2012":"Surigao City","sp.prog":"YES","enrtotal":1063,"sp.journ":0,"sp.fl":0,"sp.arts":0,"sp.s&t":1,"sch.id":317701,"municipality":"SURIGAO CITY (Capital)","fish":0,"sp.program":"Sci &amp; Tech","longitude":125.49401,"id":"ag4rx68f6haz","province":"SURIGAO DEL NORTE","sp.sports":0,"shs?1":0,"sp.prog1":1},"type":"Feature","geometry":{"type":"Point","coordinates":[125.49401,9.779634]}},{"properties":{"agri":0,"school name":"Talisay NHS - Annex","shs?":"NO","tech-voc":"NO","latitude":9.817202,"region":"CARAGA","id 2":1511,"w.bld":1,"arts&trade":0,"division.2012":"Surigao City","sp.prog":"NO","enrtotal":85,"sp.journ":0,"sp.fl":0,"sp.arts":0,"sp.s&t":0,"sch.id":304805,"municipality":"SURIGAO CITY (Capital)","fish":0,"sp.program":null,"longitude":125.613258,"id":"ag4rx5wh3lkr","province":"SURIGAO DEL NORTE","sp.sports":0,"shs?1":0,"sp.prog1":0},"type":"Feature","geometry":{"type":"Point","coordinates":[125.613258,9.817202]}},{"properties":{"agri":0,"school name":"Alegria NHS","shs?":"NO","tech-voc":"NO","latitude":9.465,"region":"CARAGA","id 2":1492,"w.bld":1,"arts&trade":0,"division.2012":"Surigao del Norte","sp.prog":"YES","enrtotal":1299,"sp.journ":0,"sp.fl":0,"sp.arts":0,"sp.s&t":1,"sch.id":304811,"municipality":"ALEGRIA","fish":0,"sp.program":"Sci &amp; Tech","longitude":125.578903,"id":"ag4rx5y7hzvr","province":"SURIGAO DEL NORTE","sp.sports":0,"shs?1":0,"sp.prog1":1},"type":"Feature","geometry":{"type":"Point","coordinates":[125.578903,9.465]}},{"properties":{"agri":0,"school name":"Amando A. Fabio MNHS","shs?":"NO","tech-voc":"NO","latitude":9.630966,"region":"CARAGA","id 2":1504,"w.bld":1,"arts&trade":0,"division.2012":"Surigao del Norte","sp.prog":"NO","enrtotal":722,"sp.journ":0,"sp.fl":0,"sp.arts":0,"sp.s&t":0,"sch.id":304845,"municipality":"PLACER","fish":0,"sp.program":null,"longitude":125.563136,"id":"ag4rx5xe53ac","province":"SURIGAO DEL NORTE","sp.sports":0,"shs?1":0,"sp.prog1":0},"type":"Feature","geometry":{"type":"Point","coordinates":[125.563136,9.630966]}},{"properties":{"agri":1,"school name":"Bacuag Nat'L Agro-Indust'L Sch.","shs?":"NO","tech-voc":"Agriculture","latitude":9.609146,"region":"CARAGA","id 2":1493,"w.bld":1,"arts&trade":0,"division.2012":"Surigao del Norte","sp.prog":"NO","enrtotal":386,"sp.journ":0,"sp.fl":0,"sp.arts":0,"sp.s&t":0,"sch.id":304813,"municipality":"BACUAG","fish":0,"sp.program":null,"longitude":125.636715,"id":"ag4rx62yo3ks","province":"SURIGAO DEL NORTE","sp.sports":0,"shs?1":0,"sp.prog1":0},"type":"Feature","geometry":{"type":"Point","coordinates":[125.636715,9.609146]}},{"properties":{"agri":0,"school name":"Balite NHS","shs?":"NO","tech-voc":"NO","latitude":9.737302,"region":"CARAGA","id 2":1506,"w.bld":1,"arts&trade":0,"division.2012":"Surigao del Norte","sp.prog":"NO","enrtotal":299,"sp.journ":0,"sp.fl":0,"sp.arts":0,"sp.s&t":0,"sch.id":304814,"municipality":"SAN FRANCISCO (ANAO-AON)","fish":0,"sp.program":null,"longitude":125.398926,"id":"ag4rx5ypn29q","province":"SURIGAO DEL NORTE","sp.sports":0,"shs?1":0,"sp.prog1":0},"type":"Feature","geometry":{"type":"Point","coordinates":[125.398926,9.737302]}},{"properties":{"agri":0,"school name":"Bunyasan NHS","shs?":"NO","tech-voc":"NO","latitude":9.58302,"region":"CARAGA","id 2":1502,"w.bld":1,"arts&trade":0,"division.2012":"Surigao del Norte","sp.prog":"NO","enrtotal":245,"sp.journ":0,"sp.fl":0,"sp.arts":0,"sp.s&t":0,"sch.id":304832,"municipality":"MALIMONO","fish":0,"sp.program":null,"longitude":125.411194,"id":"ag4rx67g8xgw","province":"SURIGAO DEL NORTE","sp.sports":0,"shs?1":0,"sp.prog1":0},"type":"Feature","geometry":{"type":"Point","coordinates":[125.411194,9.58302]}},{"properties":{"agri":0,"school name":"Campo NHS","shs?":"NO","tech-voc":"NO","latitude":9.576138,"region":"CARAGA","id 2":1493,"w.bld":1,"arts&trade":0,"division.2012":"Surigao del Norte","sp.prog":"NO","enrtotal":517,"sp.journ":0,"sp.fl":0,"sp.arts":0,"sp.s&t":0,"sch.id":304817,"municipality":"BACUAG","fish":0,"sp.program":null,"longitude":125.64312,"id":"ag4rx67z2r5r","province":"SURIGAO DEL NORTE","sp.sports":0,"shs?1":0,"sp.prog1":0},"type":"Feature","geometry":{"type":"Point","coordinates":[125.64312,9.576138]}},{"properties":{"agri":0,"school name":"Cantapoy NHS","shs?":"NO","tech-voc":"NO","latitude":9.544569,"region":"CARAGA","id 2":1502,"w.bld":1,"arts&trade":0,"division.2012":"Surigao del Norte","sp.prog":"NO","enrtotal":225,"sp.journ":0,"sp.fl":0,"sp.arts":0,"sp.s&t":0,"sch.id":304818,"municipality":"MALIMONO","fish":0,"sp.program":null,"longitude":125.427766,"id":"ag4rx666myy0","province":"SURIGAO DEL NORTE","sp.sports":0,"shs?1":0,"sp.prog1":0},"type":"Feature","geometry":{"type":"Point","coordinates":[125.427766,9.544569]}},{"properties":{"agri":0,"school name":"Cawilan NHS-Annex","shs?":"NO","tech-voc":"NO","latitude":9.721229,"region":"CARAGA","id 2":1512,"w.bld":1,"arts&trade":0,"division.2012":"Surigao del Norte","sp.prog":"NO","enrtotal":73,"sp.journ":0,"sp.fl":0,"sp.arts":0,"sp.s&t":0,"sch.id":317810,"municipality":"TAGANA-AN","fish":0,"sp.program":null,"longitude":125.662018,"id":"ag4rx62e9i0z","province":"SURIGAO DEL NORTE","sp.sports":0,"shs?1":0,"sp.prog1":0},"type":"Feature","geometry":{"type":"Point","coordinates":[125.662018,9.721229]}},{"properties":{"agri":0,"school name":"Claver NHS","shs?":"NO","tech-voc":"NO","latitude":9.576378,"region":"CARAGA","id 2":1495,"w.bld":0,"arts&trade":0,"division.2012":"Surigao del Norte","sp.prog":"YES","enrtotal":1311,"sp.journ":0,"sp.fl":0,"sp.arts":0,"sp.s&t":1,"sch.id":304820,"municipality":"CLAVER","fish":0,"sp.program":"Sci &amp; Tech","longitude":125.734204,"id":"ag4rx5zbw4cy","province":"SURIGAO DEL NORTE","sp.sports":0,"shs?1":0,"sp.prog1":1},"type":"Feature","geometry":{"type":"Point","coordinates":[125.734204,9.576378]}},{"properties":{"agri":0,"school name":"Dakung Patag NHS - Annex (TS PSMHS)","shs?":"NO","tech-voc":"NO","latitude":9.637173,"region":"CARAGA","id 2":1509,"w.bld":1,"arts&trade":0,"division.2012":"Surigao del Norte","sp.prog":"NO","enrtotal":148,"sp.journ":0,"sp.fl":0,"sp.arts":0,"sp.s&t":0,"sch.id":317808,"municipality":"SISON","fish":0,"sp.program":null,"longitude":125.517784,"id":"ag4rx61510qx","province":"SURIGAO DEL NORTE","sp.sports":0,"shs?1":0,"sp.prog1":0},"type":"Feature","geometry":{"type":"Point","coordinates":[125.517784,9.637173]}},{"properties":{"agri":0,"school name":"Gigaquit Nat'l. Sch. of Home Industries","shs?":"NO","tech-voc":"Arts and Trade","latitude":9.594117,"region":"CARAGA","id 2":1499,"w.bld":1,"arts&trade":1,"division.2012":"Surigao del Norte","sp.prog":"NO","enrtotal":815,"sp.journ":0,"sp.fl":0,"sp.arts":0,"sp.s&t":0,"sch.id":304826,"municipality":"GIGAQUIT","fish":0,"sp.program":null,"longitude":125.69561,"id":"ag4rx67g6b0m","province":"SURIGAO DEL NORTE","sp.sports":0,"shs?1":0,"sp.prog1":0},"type":"Feature","geometry":{"type":"Point","coordinates":[125.69561,9.594117]}},{"properties":{"agri":0,"school name":"GNSHI - Lasicam-Perral NHS-Annex","shs?":"NO","tech-voc":"NO","latitude":9.466587,"region":"CARAGA","id 2":1499,"w.bld":1,"arts&trade":0,"division.2012":"Surigao del Norte","sp.prog":"NO","enrtotal":113,"sp.journ":0,"sp.fl":0,"sp.arts":0,"sp.s&t":0,"sch.id":317804,"municipality":"GIGAQUIT","fish":0,"sp.program":null,"longitude":125.733421,"id":"ag4rx5v1koo1","province":"SURIGAO DEL NORTE","sp.sports":0,"shs?1":0,"sp.prog1":0},"type":"Feature","geometry":{"type":"Point","coordinates":[125.733421,9.466587]}},{"properties":{"agri":0,"school name":"Lakandula NHS","shs?":"NO","tech-voc":"NO","latitude":9.661941,"region":"CARAGA","id 2":1504,"w.bld":1,"arts&trade":0,"division.2012":"Surigao del Norte","sp.prog":"NO","enrtotal":158,"sp.journ":0,"sp.fl":0,"sp.arts":0,"sp.s&t":0,"sch.id":304838,"municipality":"PLACER","fish":0,"sp.program":null,"longitude":125.603119,"id":"ag4rx63lki81","province":"SURIGAO DEL NORTE","sp.sports":0,"shs?1":0,"sp.prog1":0},"type":"Feature","geometry":{"type":"Point","coordinates":[125.603119,9.661941]}},{"properties":{"agri":0,"school name":"Magpayang NHS","shs?":"NO","tech-voc":"NO","latitude":9.536262,"region":"CARAGA","id 2":1501,"w.bld":1,"arts&trade":0,"division.2012":"Surigao del Norte","sp.prog":"NO","enrtotal":345,"sp.journ":0,"sp.fl":0,"sp.arts":0,"sp.s&t":0,"sch.id":317803,"municipality":"MAINIT","fish":0,"sp.program":null,"longitude":125.562851,"id":"ag4rx5xuzxcw","province":"SURIGAO DEL NORTE","sp.sports":0,"shs?1":0,"sp.prog1":0},"type":"Feature","geometry":{"type":"Point","coordinates":[125.562851,9.536262]}},{"properties":{"agri":0,"school name":"Mainit NHS","shs?":"NO","tech-voc":"NO","latitude":9.535209,"region":"CARAGA","id 2":1501,"w.bld":1,"arts&trade":0,"division.2012":"Surigao del Norte","sp.prog":"YES","enrtotal":687,"sp.journ":0,"sp.fl":1,"sp.arts":0,"sp.s&t":1,"sch.id":304829,"municipality":"MAINIT","fish":0,"sp.program":"Foreign Language, Sci &amp; Tech","longitude":125.523883,"id":"ag4rx60ynqxv","province":"SURIGAO DEL NORTE","sp.sports":0,"shs?1":0,"sp.prog1":1},"type":"Feature","geometry":{"type":"Point","coordinates":[125.523883,9.535209]}},{"properties":{"agri":0,"school name":"Malimono NHS","shs?":"NO","tech-voc":"NO","latitude":9.614629,"region":"CARAGA","id 2":1502,"w.bld":1,"arts&trade":0,"division.2012":"Surigao del Norte","sp.prog":"NO","enrtotal":258,"sp.journ":0,"sp.fl":0,"sp.arts":0,"sp.s&t":0,"sch.id":304833,"municipality":"MALIMONO","fish":0,"sp.program":null,"longitude":125.402756,"id":"ag4rx60hwrzb","province":"SURIGAO DEL NORTE","sp.sports":0,"shs?1":0,"sp.prog1":0},"type":"Feature","geometry":{"type":"Point","coordinates":[125.402756,9.614629]}},{"properties":{"agri":0,"school name":"Masgad NHS","shs?":"NO","tech-voc":"NO","latitude":9.569404,"region":"CARAGA","id 2":1502,"w.bld":1,"arts&trade":0,"division.2012":"Surigao del Norte","sp.prog":"NO","enrtotal":165,"sp.journ":0,"sp.fl":0,"sp.arts":0,"sp.s&t":0,"sch.id":304831,"municipality":"MALIMONO","fish":0,"sp.program":null,"longitude":125.417297,"id":"ag4rx5uyrzle","province":"SURIGAO DEL NORTE","sp.sports":0,"shs?1":0,"sp.prog1":0},"type":"Feature","geometry":{"type":"Point","coordinates":[125.417297,9.569404]}},{"properties":{"agri":0,"school name":"Matin-ao NHS","shs?":"NO","tech-voc":"NO","latitude":9.535,"region":"CARAGA","id 2":1501,"w.bld":1,"arts&trade":0,"division.2012":"Surigao del Norte","sp.prog":"NO","enrtotal":597,"sp.journ":0,"sp.fl":0,"sp.arts":0,"sp.s&t":0,"sch.id":304834,"municipality":"MAINIT","fish":0,"sp.program":null,"longitude":125.523003,"id":"ag4rx60loqts","province":"SURIGAO DEL NORTE","sp.sports":0,"shs?1":0,"sp.prog1":0},"type":"Feature","geometry":{"type":"Point","coordinates":[125.523003,9.535]}},{"properties":{"agri":0,"school name":"Matin-ao NHS - Hacienda NHS Annex","shs?":"NO","tech-voc":"NO","latitude":9.524724,"region":"CARAGA","id 2":1501,"w.bld":1,"arts&trade":0,"division.2012":"Surigao del Norte","sp.prog":"NO","enrtotal":272,"sp.journ":0,"sp.fl":0,"sp.arts":0,"sp.s&t":0,"sch.id":304835,"municipality":"MAINIT","fish":0,"sp.program":null,"longitude":125.471634,"id":"ag4rx5vlzi05","province":"SURIGAO DEL NORTE","sp.sports":0,"shs?1":0,"sp.prog1":0},"type":"Feature","geometry":{"type":"Point","coordinates":[125.471634,9.524724]}},{"properties":{"agri":0,"school name":"Paco NHS","shs?":"NO","tech-voc":"NO","latitude":9.593,"region":"CARAGA","id 2":1501,"w.bld":1,"arts&trade":0,"division.2012":"Surigao del Norte","sp.prog":"NO","enrtotal":88,"sp.journ":0,"sp.fl":0,"sp.arts":0,"sp.s&t":0,"sch.id":304830,"municipality":"MAINIT","fish":0,"sp.program":null,"longitude":125.519997,"id":"ag4rx68fp4ub","province":"SURIGAO DEL NORTE","sp.sports":0,"shs?1":0,"sp.prog1":0},"type":"Feature","geometry":{"type":"Point","coordinates":[125.519997,9.593]}},{"properties":{"agri":0,"school name":"Payapag NHS - Annex (Campo NHS)","shs?":"NO","tech-voc":"NO","latitude":9.550763,"region":"CARAGA","id 2":1493,"w.bld":1,"arts&trade":0,"division.2012":"Surigao del Norte","sp.prog":"NO","enrtotal":199,"sp.journ":0,"sp.fl":0,"sp.arts":0,"sp.s&t":0,"sch.id":317806,"municipality":"BACUAG","fish":0,"sp.program":null,"longitude":125.618423,"id":"ag4rx5zwbf6w","province":"SURIGAO DEL NORTE","sp.sports":0,"shs?1":0,"sp.prog1":0},"type":"Feature","geometry":{"type":"Point","coordinates":[125.618423,9.550763]}},{"properties":{"agri":0,"school name":"Pili NHS","shs?":"NO","tech-voc":"NO","latitude":9.496646,"region":"CARAGA","id 2":1502,"w.bld":1,"arts&trade":0,"division.2012":"Surigao del Norte","sp.prog":"NO","enrtotal":216,"sp.journ":0,"sp.fl":0,"sp.arts":0,"sp.s&t":0,"sch.id":304819,"municipality":"MALIMONO","fish":0,"sp.program":null,"longitude":125.437523,"id":"ag4rx64w08y8","province":"SURIGAO DEL NORTE","sp.sports":0,"shs?1":0,"sp.prog1":0},"type":"Feature","geometry":{"type":"Point","coordinates":[125.437523,9.496646]}},{"properties":{"agri":0,"school name":"Placer NHS","shs?":"NO","tech-voc":"NO","latitude":9.653433,"region":"CARAGA","id 2":1504,"w.bld":1,"arts&trade":0,"division.2012":"Surigao del Norte","sp.prog":"NO","enrtotal":790,"sp.journ":0,"sp.fl":0,"sp.arts":0,"sp.s&t":0,"sch.id":304837,"municipality":"PLACER","fish":0,"sp.program":null,"longitude":125.597413,"id":"ag4rx68rsitx","province":"SURIGAO DEL NORTE","sp.sports":0,"shs?1":0,"sp.prog1":0},"type":"Feature","geometry":{"type":"Point","coordinates":[125.597413,9.653433]}},{"properties":{"agri":0,"school name":"San Francisco NHS","shs?":"NO","tech-voc":"NO","latitude":9.733334,"region":"CARAGA","id 2":1506,"w.bld":1,"arts&trade":0,"division.2012":"Surigao del Norte","sp.prog":"NO","enrtotal":508,"sp.journ":0,"sp.fl":0,"sp.arts":0,"sp.s&t":0,"sch.id":304843,"municipality":"SAN FRANCISCO (ANAO-AON)","fish":0,"sp.program":null,"longitude":125.416664,"id":"ag4rx6a20qrz","province":"SURIGAO DEL NORTE","sp.sports":0,"shs?1":0,"sp.prog1":0},"type":"Feature","geometry":{"type":"Point","coordinates":[125.416664,9.733334]}},{"properties":{"agri":0,"school name":"Surigao Del Norte NHS","shs?":"NO","tech-voc":"NO","latitude":9.653279,"region":"CARAGA","id 2":1511,"w.bld":1,"arts&trade":0,"division.2012":"Surigao del Norte","sp.prog":"YES","enrtotal":3274,"sp.journ":0,"sp.fl":0,"sp.arts":0,"sp.s&t":1,"sch.id":304847,"municipality":"SURIGAO CITY (Capital)","fish":0,"sp.program":"Sports, Sci &amp; Tech","longitude":125.597412,"id":"ag4rx5vzb0rx","province":"SURIGAO DEL NORTE","sp.sports":1,"shs?1":0,"sp.prog1":1},"type":"Feature","geometry":{"type":"Point","coordinates":[125.597412,9.653279]}},{"properties":{"agri":0,"school name":"T.S Pantilo, Sr. MNHS","shs?":"NO","tech-voc":"NO","latitude":9.66,"region":"CARAGA","id 2":1509,"w.bld":1,"arts&trade":0,"division.2012":"Surigao del Norte","sp.prog":"NO","enrtotal":565,"sp.journ":0,"sp.fl":0,"sp.arts":0,"sp.s&t":0,"sch.id":304849,"municipality":"SISON","fish":0,"sp.program":null,"longitude":125.528999,"id":"ag4rx663fw1x","province":"SURIGAO DEL NORTE","sp.sports":0,"shs?1":0,"sp.prog1":0},"type":"Feature","geometry":{"type":"Point","coordinates":[125.528999,9.66]}},{"properties":{"agri":0,"school name":"T.S Pantilo, Sr. MNHS - Mayag NHS Annex","shs?":"NO","tech-voc":"NO","latitude":9.68183,"region":"CARAGA","id 2":1509,"w.bld":1,"arts&trade":0,"division.2012":"Surigao del Norte","sp.prog":"NO","enrtotal":113,"sp.journ":0,"sp.fl":0,"sp.arts":0,"sp.s&t":0,"sch.id":304850,"municipality":"SISON","fish":0,"sp.program":null,"longitude":125.504356,"id":"ag4rx62xzskq","province":"SURIGAO DEL NORTE","sp.sports":0,"shs?1":0,"sp.prog1":0},"type":"Feature","geometry":{"type":"Point","coordinates":[125.504356,9.68183]}},{"properties":{"agri":0,"school name":"Tagana-an NHS (ASA NHS)","shs?":"NO","tech-voc":"NO","latitude":9.699878,"region":"CARAGA","id 2":1512,"w.bld":1,"arts&trade":0,"division.2012":"Surigao del Norte","sp.prog":"NO","enrtotal":667,"sp.journ":0,"sp.fl":0,"sp.arts":0,"sp.s&t":0,"sch.id":304812,"municipality":"TAGANA-AN","fish":0,"sp.program":null,"longitude":125.583817,"id":"ag4rx5ybwr9p","province":"SURIGAO DEL NORTE","sp.sports":0,"shs?1":0,"sp.prog1":0},"type":"Feature","geometry":{"type":"Point","coordinates":[125.583817,9.699878]}},{"properties":{"agri":0,"school name":"Taganito NHS","shs?":"NO","tech-voc":"NO","latitude":9.540649,"region":"CARAGA","id 2":1495,"w.bld":1,"arts&trade":0,"division.2012":"Surigao del Norte","sp.prog":"NO","enrtotal":590,"sp.journ":0,"sp.fl":0,"sp.arts":0,"sp.s&t":0,"sch.id":304821,"municipality":"CLAVER","fish":0,"sp.program":null,"longitude":125.824161,"id":"ag4rx608qwnu","province":"SURIGAO DEL NORTE","sp.sports":0,"shs?1":0,"sp.prog1":0},"type":"Feature","geometry":{"type":"Point","coordinates":[125.824161,9.540649]}},{"properties":{"agri":0,"school name":"Talavera NHS - Annex (Tagana-an NHS)","shs?":"NO","tech-voc":"NO","latitude":9.75126,"region":"CARAGA","id 2":1512,"w.bld":0,"arts&trade":0,"division.2012":"Surigao del Norte","sp.prog":"NO","enrtotal":199,"sp.journ":0,"sp.fl":0,"sp.arts":0,"sp.s&t":0,"sch.id":317809,"municipality":"TAGANA-AN","fish":0,"sp.program":null,"longitude":125.6968,"id":"ag4rx60xautd","province":"SURIGAO DEL NORTE","sp.sports":0,"shs?1":0,"sp.prog1":0},"type":"Feature","geometry":{"type":"Point","coordinates":[125.6968,9.75126]}},{"properties":{"agri":0,"school name":"Timamana NHS","shs?":"NO","tech-voc":"NO","latitude":9.562,"region":"CARAGA","id 2":1513,"w.bld":1,"arts&trade":0,"division.2012":"Surigao del Norte","sp.prog":"NO","enrtotal":370,"sp.journ":0,"sp.fl":0,"sp.arts":0,"sp.s&t":0,"sch.id":304853,"municipality":"TUBOD","fish":0,"sp.program":null,"longitude":125.570999,"id":"ag4rx6200ybu","province":"SURIGAO DEL NORTE","sp.sports":0,"shs?1":0,"sp.prog1":0},"type":"Feature","geometry":{"type":"Point","coordinates":[125.570999,9.562]}},{"properties":{"agri":0,"school name":"Tubod NHS","shs?":"NO","tech-voc":"NO","latitude":9.556328,"region":"CARAGA","id 2":1513,"w.bld":1,"arts&trade":0,"division.2012":"Surigao del Norte","sp.prog":"NO","enrtotal":751,"sp.journ":0,"sp.fl":0,"sp.arts":0,"sp.s&t":0,"sch.id":304855,"municipality":"TUBOD","fish":0,"sp.program":null,"longitude":125.570351,"id":"ag4rx61r35uj","province":"SURIGAO DEL NORTE","sp.sports":0,"shs?1":0,"sp.prog1":0},"type":"Feature","geometry":{"type":"Point","coordinates":[125.570351,9.556328]}},{"properties":{"agri":0,"school name":"Villa Riza NHS","shs?":"NO","tech-voc":"NO","latitude":9.543504,"region":"CARAGA","id 2":1502,"w.bld":1,"arts&trade":0,"division.2012":"Surigao del Norte","sp.prog":"NO","enrtotal":36,"sp.journ":0,"sp.fl":0,"sp.arts":0,"sp.s&t":0,"sch.id":304856,"municipality":"MALIMONO","fish":0,"sp.program":null,"longitude":125.453384,"id":"ag4rx5wd1bh0","province":"SURIGAO DEL NORTE","sp.sports":0,"shs?1":0,"sp.prog1":0},"type":"Feature","geometry":{"type":"Point","coordinates":[125.453384,9.543504]}},{"properties":{"agri":0,"school name":"Adlay NHS","shs?":"NO","tech-voc":"NO","latitude":9.410394,"region":"CARAGA","id 2":1520,"w.bld":1,"arts&trade":0,"division.2012":"Surigao del Sur","sp.prog":"NO","enrtotal":402,"sp.journ":0,"sp.fl":0,"sp.arts":0,"sp.s&t":0,"sch.id":304857,"municipality":"CARRASCAL","fish":0,"sp.program":null,"longitude":125.892063,"id":"ag4rx5w925og","province":"SURIGAO DEL SUR","sp.sports":0,"shs?1":0,"sp.prog1":0},"type":"Feature","geometry":{"type":"Point","coordinates":[125.892063,9.410394]}},{"properties":{"agri":0,"school name":"Anibongan NHS","shs?":"NO","tech-voc":"NO","latitude":8.582695,"region":"CARAGA","id 2":1524,"w.bld":1,"arts&trade":0,"division.2012":"Surigao del Sur","sp.prog":"NO","enrtotal":220,"sp.journ":0,"sp.fl":0,"sp.arts":0,"sp.s&t":0,"sch.id":304858,"municipality":"LIANGA","fish":0,"sp.program":null,"longitude":126.101726,"id":"ag4rx65mdvs0","province":"SURIGAO DEL SUR","sp.sports":0,"shs?1":0,"sp.prog1":0},"type":"Feature","geometry":{"type":"Point","coordinates":[126.101726,8.582695]}},{"properties":{"agri":0,"school name":"Antipolo NHS","shs?":"NO","tech-voc":"NO","latitude":8.778718,"region":"CARAGA","id 2":1527,"w.bld":1,"arts&trade":0,"division.2012":"Surigao del Sur","sp.prog":"NO","enrtotal":166,"sp.journ":0,"sp.fl":0,"sp.arts":0,"sp.s&t":0,"sch.id":304899,"municipality":"MARIHATAG","fish":0,"sp.program":null,"longitude":126.280036,"id":"ag4rx6arfyov","province":"SURIGAO DEL SUR","sp.sports":0,"shs?1":0,"sp.prog1":0},"type":"Feature","geometry":{"type":"Point","coordinates":[126.280036,8.778718]}},{"properties":{"agri":0,"school name":"Baculin ISS","shs?":"NO","tech-voc":"NO","latitude":8.36711,"region":"CARAGA","id 2":1522,"w.bld":1,"arts&trade":0,"division.2012":"Surigao del Sur","sp.prog":"NO","enrtotal":75,"sp.journ":0,"sp.fl":0,"sp.arts":0,"sp.s&t":0,"sch.id":317924,"municipality":"HINATUAN","fish":0,"sp.program":null,"longitude":126.333468,"id":"ag4rx5xr7esl","province":"SURIGAO DEL SUR","sp.sports":0,"shs?1":0,"sp.prog1":0},"type":"Feature","geometry":{"type":"Point","coordinates":[126.333468,8.36711]}},{"properties":{"agri":0,"school name":"Badong National High School","shs?":"NO","tech-voc":"NO","latitude":8.966886,"region":"CARAGA","id 2":1531,"w.bld":1,"arts&trade":0,"division.2012":"Surigao del Sur","sp.prog":"NO","enrtotal":140,"sp.journ":0,"sp.fl":0,"sp.arts":0,"sp.s&t":0,"sch.id":317903,"municipality":"TAGO","fish":0,"sp.program":null,"longitude":126.149989,"id":"ag4rx634rdfl","province":"SURIGAO DEL SUR","sp.sports":0,"shs?1":0,"sp.prog1":0},"type":"Feature","geometry":{"type":"Point","coordinates":[126.149989,8.966886]}},{"properties":{"agri":0,"school name":"Bangsud ISS","shs?":"NO","tech-voc":"NO","latitude":8.966667,"region":"CARAGA","id 2":1531,"w.bld":1,"arts&trade":0,"division.2012":"Surigao del Sur","sp.prog":"NO","enrtotal":205,"sp.journ":0,"sp.fl":0,"sp.arts":0,"sp.s&t":0,"sch.id":317918,"municipality":"TAGO","fish":0,"sp.program":null,"longitude":126.150001,"id":"ag4rx64swxoi","province":"SURIGAO DEL SUR","sp.sports":0,"shs?1":0,"sp.prog1":0},"type":"Feature","geometry":{"type":"Point","coordinates":[126.150001,8.966667]}},{"properties":{"agri":0,"school name":"Barcelona NHS","shs?":"NO","tech-voc":"NO","latitude":8.158181,"region":"CARAGA","id 2":1525,"w.bld":1,"arts&trade":0,"division.2012":"Surigao del Sur","sp.prog":"NO","enrtotal":395,"sp.journ":0,"sp.fl":0,"sp.arts":0,"sp.s&t":0,"sch.id":304860,"municipality":"LINGIG","fish":0,"sp.program":null,"longitude":126.432466,"id":"ag4rx63ykypz","province":"SURIGAO DEL SUR","sp.sports":0,"shs?1":0,"sp.prog1":0},"type":"Feature","geometry":{"type":"Point","coordinates":[126.432466,8.158181]}},{"properties":{"agri":0,"school name":"BAROBO NHS","shs?":"NO","tech-voc":"Arts and Trade","latitude":8.528712,"region":"CARAGA","id 2":1514,"w.bld":1,"arts&trade":1,"division.2012":"Surigao del Sur","sp.prog":"NO","enrtotal":1138,"sp.journ":0,"sp.fl":0,"sp.arts":0,"sp.s&t":0,"sch.id":304861,"municipality":"BAROBO","fish":0,"sp.program":null,"longitude":126.120957,"id":"ag4rx6159zyg","province":"SURIGAO DEL SUR","sp.sports":0,"shs?1":0,"sp.prog1":0},"type":"Feature","geometry":{"type":"Point","coordinates":[126.120957,8.528712]}},{"properties":{"agri":0,"school name":"BAROBO NHS-WAKAT NHS ANNEX","shs?":"NO","tech-voc":"NO","latitude":8.55001,"region":"CARAGA","id 2":1514,"w.bld":1,"arts&trade":0,"division.2012":"Surigao del Sur","sp.prog":"NO","enrtotal":237,"sp.journ":0,"sp.fl":0,"sp.arts":0,"sp.s&t":0,"sch.id":317921,"municipality":"BAROBO","fish":0,"sp.program":null,"longitude":126.200004,"id":"ag4rx64ngptz","province":"SURIGAO DEL SUR","sp.sports":0,"shs?1":0,"sp.prog1":0},"type":"Feature","geometry":{"type":"Point","coordinates":[126.200004,8.55001]}},{"properties":{"agri":0,"school name":"Bingcongan IS","shs?":"NO","tech-voc":"NO","latitude":8.367654,"region":"CARAGA","id 2":1522,"w.bld":1,"arts&trade":0,"division.2012":"Surigao del Sur","sp.prog":"NO","enrtotal":160,"sp.journ":0,"sp.fl":0,"sp.arts":0,"sp.s&t":0,"sch.id":317909,"municipality":"HINATUAN","fish":0,"sp.program":null,"longitude":126.334013,"id":"ag4rx63u7vyh","province":"SURIGAO DEL SUR","sp.sports":0,"shs?1":0,"sp.prog1":0},"type":"Feature","geometry":{"type":"Point","coordinates":[126.334013,8.367654]}},{"properties":{"agri":0,"school name":"Bitaugan ISS","shs?":"NO","tech-voc":"NO","latitude":8.916244,"region":"CARAGA","id 2":1517,"w.bld":1,"arts&trade":0,"division.2012":"Surigao del Sur","sp.prog":"NO","enrtotal":141,"sp.journ":0,"sp.fl":0,"sp.arts":0,"sp.s&t":0,"sch.id":317920,"municipality":"CAGWAIT","fish":0,"sp.program":null,"longitude":126.300147,"id":"ag4rx64mnc7c","province":"SURIGAO DEL SUR","sp.sports":0,"shs?1":0,"sp.prog1":0},"type":"Feature","geometry":{"type":"Point","coordinates":[126.300147,8.916244]}},{"properties":{"agri":0,"school name":"Buenavista NHS","shs?":"NO","tech-voc":"NO","latitude":9.118962,"region":"CARAGA","id 2":1532,"w.bld":1,"arts&trade":0,"division.2012":"Surigao del Sur","sp.prog":"NO","enrtotal":527,"sp.journ":0,"sp.fl":0,"sp.arts":0,"sp.s&t":0,"sch.id":304871,"municipality":"CITY OF TANDAG (Capital)","fish":0,"sp.program":null,"longitude":126.159857,"id":"ag4rx5zutx5f","province":"SURIGAO DEL SUR","sp.sports":0,"shs?1":0,"sp.prog1":0},"type":"Feature","geometry":{"type":"Point","coordinates":[126.159857,9.118962]}},{"properties":{"agri":0,"school name":"Burgos NHS","shs?":"NO","tech-voc":"NO","latitude":9.240842,"region":"CARAGA","id 2":1521,"w.bld":1,"arts&trade":0,"division.2012":"Surigao del Sur","sp.prog":"NO","enrtotal":304,"sp.journ":0,"sp.fl":0,"sp.arts":0,"sp.s&t":0,"sch.id":304872,"municipality":"CORTES","fish":0,"sp.program":null,"longitude":126.1754,"id":"ag4rx5y5p65c","province":"SURIGAO DEL SUR","sp.sports":0,"shs?1":0,"sp.prog1":0},"type":"Feature","geometry":{"type":"Point","coordinates":[126.1754,9.240842]}},{"properties":{"agri":0,"school name":"Cabacungan NHS","shs?":"NO","tech-voc":"NO","latitude":8.524325,"region":"CARAGA","id 2":1514,"w.bld":1,"arts&trade":0,"division.2012":"Surigao del Sur","sp.prog":"NO","enrtotal":159,"sp.journ":0,"sp.fl":0,"sp.arts":0,"sp.s&t":0,"sch.id":304862,"municipality":"BAROBO","fish":0,"sp.program":null,"longitude":126.319054,"id":"ag4rx67f3ggq","province":"SURIGAO DEL SUR","sp.sports":0,"shs?1":0,"sp.prog1":0},"type":"Feature","geometry":{"type":"Point","coordinates":[126.319054,8.524325]}},{"properties":{"agri":0,"school name":"Cabangahan ISS","shs?":"NO","tech-voc":"NO","latitude":9.282851,"region":"CARAGA","id 2":1518,"w.bld":1,"arts&trade":0,"division.2012":"Surigao del Sur","sp.prog":"NO","enrtotal":105,"sp.journ":0,"sp.fl":0,"sp.arts":0,"sp.s&t":0,"sch.id":317915,"municipality":"CANTILAN","fish":0,"sp.program":null,"longitude":125.941606,"id":"ag4rx64lf6co","province":"SURIGAO DEL SUR","sp.sports":0,"shs?1":0,"sp.prog1":0},"type":"Feature","geometry":{"type":"Point","coordinates":[125.941606,9.282851]}},{"properties":{"agri":0,"school name":"Cantilan NHS","shs?":"NO","tech-voc":"NO","latitude":9.33653,"region":"CARAGA","id 2":1518,"w.bld":1,"arts&trade":0,"division.2012":"Surigao del Sur","sp.prog":"YES","enrtotal":986,"sp.journ":0,"sp.fl":0,"sp.arts":1,"sp.s&t":0,"sch.id":304873,"municipality":"CANTILAN","fish":0,"sp.program":"Arts","longitude":125.961953,"id":"ag4rx5wjhoub","province":"SURIGAO DEL SUR","sp.sports":0,"shs?1":0,"sp.prog1":1},"type":"Feature","geometry":{"type":"Point","coordinates":[125.961953,9.33653]}},{"properties":{"agri":0,"school name":"Carmen ISS","shs?":"NO","tech-voc":"NO","latitude":8.995031,"region":"CARAGA","id 2":1532,"w.bld":1,"arts&trade":0,"division.2012":"Surigao del Sur","sp.prog":"NO","enrtotal":125,"sp.journ":0,"sp.fl":0,"sp.arts":0,"sp.s&t":0,"sch.id":317917,"municipality":"CITY OF TANDAG (Capital)","fish":0,"sp.program":null,"longitude":126.002319,"id":"ag4rx68ltbgk","province":"SURIGAO DEL SUR","sp.sports":0,"shs?1":0,"sp.prog1":0},"type":"Feature","geometry":{"type":"Point","coordinates":[126.002319,8.995031]}},{"properties":{"agri":1,"school name":"Carmen Nat'l. Agr'l. HS","shs?":"NO","tech-voc":"Agriculture","latitude":9.217209,"region":"CARAGA","id 2":1519,"w.bld":1,"arts&trade":0,"division.2012":"Surigao del Sur","sp.prog":"YES","enrtotal":305,"sp.journ":0,"sp.fl":0,"sp.arts":1,"sp.s&t":0,"sch.id":304875,"municipality":"CARMEN","fish":0,"sp.program":"Arts","longitude":126.018515,"id":"ag4rx61e5feh","province":"SURIGAO DEL SUR","sp.sports":0,"shs?1":0,"sp.prog1":1},"type":"Feature","geometry":{"type":"Point","coordinates":[126.018515,9.217209]}},{"properties":{"agri":0,"school name":"Carrascal NHS","shs?":"NO","tech-voc":"NO","latitude":9.362652,"region":"CARAGA","id 2":1520,"w.bld":1,"arts&trade":0,"division.2012":"Surigao del Sur","sp.prog":"NO","enrtotal":656,"sp.journ":0,"sp.fl":0,"sp.arts":0,"sp.s&t":0,"sch.id":304877,"municipality":"CARRASCAL","fish":0,"sp.program":null,"longitude":125.945432,"id":"ag4rx69hrz0y","province":"SURIGAO DEL SUR","sp.sports":0,"shs?1":0,"sp.prog1":0},"type":"Feature","geometry":{"type":"Point","coordinates":[125.945432,9.362652]}},{"properties":{"agri":0,"school name":"Dante Luib Osano Maputi NHS","shs?":"NO","tech-voc":"NO","latitude":8.31677,"region":"CARAGA","id 2":1530,"w.bld":1,"arts&trade":0,"division.2012":"Surigao del Sur","sp.prog":"NO","enrtotal":158,"sp.journ":0,"sp.fl":0,"sp.arts":0,"sp.s&t":0,"sch.id":304879,"municipality":"TAGBINA","fish":0,"sp.program":null,"longitude":126.215376,"id":"ag4rx66jqq9b","province":"SURIGAO DEL SUR","sp.sports":0,"shs?1":0,"sp.prog1":0},"type":"Feature","geometry":{"type":"Point","coordinates":[126.215376,8.31677]}},{"properties":{"agri":0,"school name":"Doña Carmen NHS","shs?":"NO","tech-voc":"NO","latitude":8.339732,"region":"CARAGA","id 2":1530,"w.bld":1,"arts&trade":0,"division.2012":"Surigao del Sur","sp.prog":"NO","enrtotal":142,"sp.journ":0,"sp.fl":0,"sp.arts":0,"sp.s&t":0,"sch.id":304878,"municipality":"TAGBINA","fish":0,"sp.program":null,"longitude":126.187765,"id":"ag4rx5z4m7g6","province":"SURIGAO DEL SUR","sp.sports":0,"shs?1":0,"sp.prog1":0},"type":"Feature","geometry":{"type":"Point","coordinates":[126.187765,8.339732]}},{"properties":{"agri":0,"school name":"Dugmanon NHS","shs?":"NO","tech-voc":"NO","latitude":8.406263,"region":"CARAGA","id 2":1522,"w.bld":1,"arts&trade":0,"division.2012":"Surigao del Sur","sp.prog":"NO","enrtotal":223,"sp.journ":0,"sp.fl":0,"sp.arts":0,"sp.s&t":0,"sch.id":304891,"municipality":"HINATUAN","fish":0,"sp.program":null,"longitude":126.325224,"id":"ag4rx6afz5e1","province":"SURIGAO DEL SUR","sp.sports":0,"shs?1":0,"sp.prog1":0},"type":"Feature","geometry":{"type":"Point","coordinates":[126.325224,8.406263]}},{"properties":{"agri":0,"school name":"Esperanza ISS (Carmen Nat'l. Agr'l. HS - Esperanza NHS Annex)","shs?":"NO","tech-voc":"NO","latitude":9.225389,"region":"CARAGA","id 2":1519,"w.bld":1,"arts&trade":0,"division.2012":"Surigao del Sur","sp.prog":"NO","enrtotal":187,"sp.journ":0,"sp.fl":0,"sp.arts":0,"sp.s&t":0,"sch.id":304876,"municipality":"CARMEN","fish":0,"sp.program":null,"longitude":125.944424,"id":"ag4rx5ww5rzu","province":"SURIGAO DEL SUR","sp.sports":0,"shs?1":0,"sp.prog1":0},"type":"Feature","geometry":{"type":"Point","coordinates":[125.944424,9.225389]}},{"properties":{"agri":0,"school name":"Felisberto Verano NHS","shs?":"NO","tech-voc":"NO","latitude":9.273257,"region":"CARAGA","id 2":1521,"w.bld":1,"arts&trade":0,"division.2012":"Surigao del Sur","sp.prog":"NO","enrtotal":238,"sp.journ":0,"sp.fl":0,"sp.arts":0,"sp.s&t":0,"sch.id":304886,"municipality":"CORTES","fish":0,"sp.program":null,"longitude":126.191272,"id":"ag4rx69wy0jp","province":"SURIGAO DEL SUR","sp.sports":0,"shs?1":0,"sp.prog1":0},"type":"Feature","geometry":{"type":"Point","coordinates":[126.191272,9.273257]}},{"properties":{"agri":0,"school name":"Florita Herrera-Irizari NHS","shs?":"NO","tech-voc":"NO","latitude":9.230386,"region":"CARAGA","id 2":1523,"w.bld":1,"arts&trade":0,"division.2012":"Surigao del Sur","sp.prog":"NO","enrtotal":513,"sp.journ":0,"sp.fl":0,"sp.arts":0,"sp.s&t":0,"sch.id":304885,"municipality":"LANUZA","fish":0,"sp.program":null,"longitude":126.06096,"id":"ag4rx5wtrqzg","province":"SURIGAO DEL SUR","sp.sports":0,"shs?1":0,"sp.prog1":0},"type":"Feature","geometry":{"type":"Point","coordinates":[126.06096,9.230386]}},{"properties":{"agri":0,"school name":"Gamut NHS (Barobo)","shs?":"NO","tech-voc":"NO","latitude":8.533135,"region":"CARAGA","id 2":1514,"w.bld":1,"arts&trade":0,"division.2012":"Surigao del Sur","sp.prog":"NO","enrtotal":301,"sp.journ":0,"sp.fl":0,"sp.arts":0,"sp.s&t":0,"sch.id":304888,"municipality":"BAROBO","fish":0,"sp.program":null,"longitude":126.242622,"id":"ag4rx5vgfqrn","province":"SURIGAO DEL SUR","sp.sports":0,"shs?1":0,"sp.prog1":0},"type":"Feature","geometry":{"type":"Point","coordinates":[126.242622,8.533135]}},{"properties":{"agri":0,"school name":"Gamut NHS (Tago)","shs?":"NO","tech-voc":"NO","latitude":9.006449,"region":"CARAGA","id 2":1531,"w.bld":1,"arts&trade":0,"division.2012":"Surigao del Sur","sp.prog":"NO","enrtotal":939,"sp.journ":0,"sp.fl":0,"sp.arts":0,"sp.s&t":0,"sch.id":304889,"municipality":"TAGO","fish":0,"sp.program":null,"longitude":126.170792,"id":"ag4rx5varixl","province":"SURIGAO DEL SUR","sp.sports":0,"shs?1":0,"sp.prog1":0},"type":"Feature","geometry":{"type":"Point","coordinates":[126.170792,9.006449]}},{"properties":{"agri":0,"school name":"Gata ISS","shs?":"NO","tech-voc":"NO","latitude":8.733334,"region":"CARAGA","id 2":1528,"w.bld":1,"arts&trade":0,"division.2012":"Surigao del Sur","sp.prog":"NO","enrtotal":80,"sp.journ":0,"sp.fl":0,"sp.arts":0,"sp.s&t":0,"sch.id":317914,"municipality":"SAN AGUSTIN","fish":0,"sp.program":null,"longitude":126.133331,"id":"ag4rx67dvcrz","province":"SURIGAO DEL SUR","sp.sports":0,"shs?1":0,"sp.prog1":0},"type":"Feature","geometry":{"type":"Point","coordinates":[126.133331,8.733334]}},{"properties":{"agri":0,"school name":"Hinatuan NHS","shs?":"NO","tech-voc":"NO","latitude":8.372297,"region":"CARAGA","id 2":1522,"w.bld":1,"arts&trade":0,"division.2012":"Surigao del Sur","sp.prog":"YES","enrtotal":1325,"sp.journ":0,"sp.fl":0,"sp.arts":1,"sp.s&t":1,"sch.id":304890,"municipality":"HINATUAN","fish":0,"sp.program":"Arts, Sci &amp; Tech","longitude":126.33449,"id":"ag4rx68ngwmf","province":"SURIGAO DEL SUR","sp.sports":0,"shs?1":0,"sp.prog1":1},"type":"Feature","geometry":{"type":"Point","coordinates":[126.33449,8.372297]}},{"properties":{"agri":0,"school name":"Jacinto P. Elpa NHS","shs?":"NO","tech-voc":"NO","latitude":9.067722,"region":"CARAGA","id 2":1532,"w.bld":1,"arts&trade":0,"division.2012":"Surigao del Sur","sp.prog":"YES","enrtotal":3352,"sp.journ":0,"sp.fl":0,"sp.arts":1,"sp.s&t":1,"sch.id":304892,"municipality":"CITY OF TANDAG (Capital)","fish":0,"sp.program":"Arts, Sci &amp; Tech","longitude":126.190758,"id":"ag4rx6axusq2","province":"SURIGAO DEL SUR","sp.sports":0,"shs?1":0,"sp.prog1":1},"type":"Feature","geometry":{"type":"Point","coordinates":[126.190758,9.067722]}},{"properties":{"agri":0,"school name":"Javier NHS","shs?":"NO","tech-voc":"NO","latitude":8.486387,"region":"CARAGA","id 2":1514,"w.bld":1,"arts&trade":0,"division.2012":"Surigao del Sur","sp.prog":"NO","enrtotal":179,"sp.journ":0,"sp.fl":0,"sp.arts":0,"sp.s&t":0,"sch.id":304863,"municipality":"BAROBO","fish":0,"sp.program":null,"longitude":126.08404,"id":"ag4rx5z061vh","province":"SURIGAO DEL SUR","sp.sports":0,"shs?1":0,"sp.prog1":0},"type":"Feature","geometry":{"type":"Point","coordinates":[126.08404,8.486387]}},{"properties":{"agri":0,"school name":"Jose Sanvictores Sr. National School Annex","shs?":"NO","tech-voc":"NO","latitude":8.91448,"region":"CARAGA","id 2":1517,"w.bld":1,"arts&trade":0,"division.2012":"Surigao del Sur","sp.prog":"NO","enrtotal":410,"sp.journ":0,"sp.fl":0,"sp.arts":0,"sp.s&t":0,"sch.id":304925,"municipality":"CAGWAIT","fish":0,"sp.program":null,"longitude":126.297323,"id":"ag4rx69lfht4","province":"SURIGAO DEL SUR","sp.sports":0,"shs?1":0,"sp.prog1":0},"type":"Feature","geometry":{"type":"Point","coordinates":[126.297323,8.91448]}},{"properties":{"agri":0,"school name":"Kahayagan NHS","shs?":"NO","tech-voc":"NO","latitude":8.449074,"region":"CARAGA","id 2":1530,"w.bld":1,"arts&trade":0,"division.2012":"Surigao del Sur","sp.prog":"NO","enrtotal":117,"sp.journ":0,"sp.fl":0,"sp.arts":0,"sp.s&t":0,"sch.id":304880,"municipality":"TAGBINA","fish":0,"sp.program":null,"longitude":126.25186,"id":"ag4rx61nczbi","province":"SURIGAO DEL SUR","sp.sports":0,"shs?1":0,"sp.prog1":0},"type":"Feature","geometry":{"type":"Point","coordinates":[126.25186,8.449074]}},{"properties":{"agri":0,"school name":"Lianga NCHS","shs?":"NO","tech-voc":"NO","latitude":8.63203,"region":"CARAGA","id 2":1524,"w.bld":1,"arts&trade":0,"division.2012":"Surigao del Sur","sp.prog":"NO","enrtotal":667,"sp.journ":0,"sp.fl":0,"sp.arts":0,"sp.s&t":0,"sch.id":304859,"municipality":"LIANGA","fish":0,"sp.program":null,"longitude":126.087656,"id":"ag4rx68daq29","province":"SURIGAO DEL SUR","sp.sports":0,"shs?1":0,"sp.prog1":0},"type":"Feature","geometry":{"type":"Point","coordinates":[126.087656,8.63203]}},{"properties":{"agri":0,"school name":"Libas Sud ISS","shs?":"NO","tech-voc":"NO","latitude":8.882763,"region":"CARAGA","id 2":1529,"w.bld":1,"arts&trade":0,"division.2012":"Surigao del Sur","sp.prog":"NO","enrtotal":160,"sp.journ":0,"sp.fl":0,"sp.arts":0,"sp.s&t":0,"sch.id":317919,"municipality":"SAN MIGUEL","fish":0,"sp.program":null,"longitude":125.99948,"id":"ag4rx63od78u","province":"SURIGAO DEL SUR","sp.sports":0,"shs?1":0,"sp.prog1":0},"type":"Feature","geometry":{"type":"Point","coordinates":[125.99948,8.882763]}},{"properties":{"agri":0,"school name":"Lingig NHS","shs?":"NO","tech-voc":"NO","latitude":8.03948,"region":"CARAGA","id 2":1525,"w.bld":1,"arts&trade":0,"division.2012":"Surigao del Sur","sp.prog":"NO","enrtotal":972,"sp.journ":0,"sp.fl":0,"sp.arts":0,"sp.s&t":0,"sch.id":304895,"municipality":"LINGIG","fish":0,"sp.program":null,"longitude":126.413919,"id":"ag4rx5y1r9n2","province":"SURIGAO DEL SUR","sp.sports":0,"shs?1":0,"sp.prog1":0},"type":"Feature","geometry":{"type":"Point","coordinates":[126.413919,8.03948]}},{"properties":{"agri":0,"school name":"M.K.Yusingco NHS","shs?":"NO","tech-voc":"NO","latitude":7.973616,"region":"CARAGA","id 2":1525,"w.bld":1,"arts&trade":0,"division.2012":"Surigao del Sur","sp.prog":"NO","enrtotal":278,"sp.journ":0,"sp.fl":0,"sp.arts":0,"sp.s&t":0,"sch.id":304896,"municipality":"LINGIG","fish":0,"sp.program":null,"longitude":126.405204,"id":"ag4rx6apuuit","province":"SURIGAO DEL SUR","sp.sports":0,"shs?1":0,"sp.prog1":0},"type":"Feature","geometry":{"type":"Point","coordinates":[126.405204,7.973616]}},{"properties":{"agri":0,"school name":"Madrid NHS","shs?":"NO","tech-voc":"NO","latitude":9.257504,"region":"CARAGA","id 2":1526,"w.bld":1,"arts&trade":0,"division.2012":"Surigao del Sur","sp.prog":"NO","enrtotal":1193,"sp.journ":0,"sp.fl":0,"sp.arts":0,"sp.s&t":0,"sch.id":304897,"municipality":"MADRID","fish":0,"sp.program":null,"longitude":125.968882,"id":"ag4rx68uuq34","province":"SURIGAO DEL SUR","sp.sports":0,"shs?1":0,"sp.prog1":0},"type":"Feature","geometry":{"type":"Point","coordinates":[125.968882,9.257504]}},{"properties":{"agri":0,"school name":"Maglatab NHS","shs?":"NO","tech-voc":"NO","latitude":8.407366,"region":"CARAGA","id 2":1530,"w.bld":1,"arts&trade":0,"division.2012":"Surigao del Sur","sp.prog":"NO","enrtotal":105,"sp.journ":0,"sp.fl":0,"sp.arts":0,"sp.s&t":0,"sch.id":304881,"municipality":"TAGBINA","fish":0,"sp.program":null,"longitude":126.128157,"id":"ag4rx60nzu23","province":"SURIGAO DEL SUR","sp.sports":0,"shs?1":0,"sp.prog1":0},"type":"Feature","geometry":{"type":"Point","coordinates":[126.128157,8.407366]}},{"properties":{"agri":0,"school name":"Marihatag Nat'l. Agr'l. HS","shs?":"NO","tech-voc":"NO","latitude":8.812722,"region":"CARAGA","id 2":1527,"w.bld":1,"arts&trade":0,"division.2012":"Surigao del Sur","sp.prog":"NO","enrtotal":187,"sp.journ":0,"sp.fl":0,"sp.arts":0,"sp.s&t":0,"sch.id":304898,"municipality":"MARIHATAG","fish":0,"sp.program":null,"longitude":126.250931,"id":"ag4rx5vrsjxo","province":"SURIGAO DEL SUR","sp.sports":0,"shs?1":0,"sp.prog1":0},"type":"Feature","geometry":{"type":"Point","coordinates":[126.250931,8.812722]}},{"properties":{"agri":0,"school name":"Marihatag Nat'l. Agr'l. HS - Mararag NHS Annex","shs?":"NO","tech-voc":"NO","latitude":8.79999,"region":"CARAGA","id 2":1527,"w.bld":1,"arts&trade":0,"division.2012":"Surigao del Sur","sp.prog":"NO","enrtotal":185,"sp.journ":0,"sp.fl":0,"sp.arts":0,"sp.s&t":0,"sch.id":317905,"municipality":"MARIHATAG","fish":0,"sp.program":null,"longitude":126.299257,"id":"ag4rx6934eig","province":"SURIGAO DEL SUR","sp.sports":0,"shs?1":0,"sp.prog1":0},"type":"Feature","geometry":{"type":"Point","coordinates":[126.299257,8.79999]}},{"properties":{"agri":0,"school name":"Matho ISS","shs?":"NO","tech-voc":"NO","latitude":9.23354,"region":"CARAGA","id 2":1521,"w.bld":1,"arts&trade":0,"division.2012":"Surigao del Sur","sp.prog":"NO","enrtotal":210,"sp.journ":0,"sp.fl":0,"sp.arts":0,"sp.s&t":0,"sch.id":317911,"municipality":"CORTES","fish":0,"sp.program":null,"longitude":126.16667,"id":"ag4rx61qfcv7","province":"SURIGAO DEL SUR","sp.sports":0,"shs?1":0,"sp.prog1":0},"type":"Feature","geometry":{"type":"Point","coordinates":[126.16667,9.23354]}},{"properties":{"agri":0,"school name":"Osmena ISS","shs?":"NO","tech-voc":"NO","latitude":8.450017,"region":"CARAGA","id 2":1530,"w.bld":1,"arts&trade":0,"division.2012":"Surigao del Sur","sp.prog":"NO","enrtotal":89,"sp.journ":0,"sp.fl":0,"sp.arts":0,"sp.s&t":0,"sch.id":317927,"municipality":"TAGBINA","fish":0,"sp.program":null,"longitude":126.166673,"id":"ag4rx675kyil","province":"SURIGAO DEL SUR","sp.sports":0,"shs?1":0,"sp.prog1":0},"type":"Feature","geometry":{"type":"Point","coordinates":[126.166673,8.450017]}},{"properties":{"agri":0,"school name":"Pakwan ISS (F.H. Irizari Memorial NHS - Pakwan NHS Annex)","shs?":"NO","tech-voc":"NO","latitude":9.233341,"region":"CARAGA","id 2":1523,"w.bld":1,"arts&trade":0,"division.2012":"Surigao del Sur","sp.prog":"NO","enrtotal":55,"sp.journ":0,"sp.fl":0,"sp.arts":0,"sp.s&t":0,"sch.id":317902,"municipality":"LANUZA","fish":0,"sp.program":null,"longitude":126.066669,"id":"ag4rx65c6gst","province":"SURIGAO DEL SUR","sp.sports":0,"shs?1":0,"sp.prog1":0},"type":"Feature","geometry":{"type":"Point","coordinates":[126.066669,9.233341]}},{"properties":{"agri":0,"school name":"Palasao Integrated School","shs?":"NO","tech-voc":"NO","latitude":9.292039,"region":"CARAGA","id 2":1518,"w.bld":1,"arts&trade":0,"division.2012":"Surigao del Sur","sp.prog":"NO","enrtotal":111,"sp.journ":0,"sp.fl":0,"sp.arts":0,"sp.s&t":0,"sch.id":304874,"municipality":"CANTILAN","fish":0,"sp.program":null,"longitude":125.970355,"id":"ag4rx612tgsx","province":"SURIGAO DEL SUR","sp.sports":0,"shs?1":0,"sp.prog1":0},"type":"Feature","geometry":{"type":"Point","coordinates":[125.970355,9.292039]}},{"properties":{"agri":0,"school name":"Panikian NHS","shs?":"NO","tech-voc":"NO","latitude":9.330006,"region":"CARAGA","id 2":1520,"w.bld":1,"arts&trade":0,"division.2012":"Surigao del Sur","sp.prog":"NO","enrtotal":321,"sp.journ":0,"sp.fl":0,"sp.arts":0,"sp.s&t":0,"sch.id":304900,"municipality":"CARRASCAL","fish":0,"sp.program":null,"longitude":125.936042,"id":"ag4rx5w1hmi4","province":"SURIGAO DEL SUR","sp.sports":0,"shs?1":0,"sp.prog1":0},"type":"Feature","geometry":{"type":"Point","coordinates":[125.936042,9.330006]}},{"properties":{"agri":0,"school name":"Parang NHS","shs?":"NO","tech-voc":"NO","latitude":9.279551,"region":"CARAGA","id 2":1518,"w.bld":1,"arts&trade":0,"division.2012":"Surigao del Sur","sp.prog":"NO","enrtotal":397,"sp.journ":0,"sp.fl":0,"sp.arts":0,"sp.s&t":0,"sch.id":304901,"municipality":"CANTILAN","fish":0,"sp.program":null,"longitude":125.941361,"id":"ag4rx65k918q","province":"SURIGAO DEL SUR","sp.sports":0,"shs?1":0,"sp.prog1":0},"type":"Feature","geometry":{"type":"Point","coordinates":[125.941361,9.279551]}},{"properties":{"agri":0,"school name":"Portlamon NHS","shs?":"NO","tech-voc":"NO","latitude":8.468218,"region":"CARAGA","id 2":1522,"w.bld":1,"arts&trade":0,"division.2012":"Surigao del Sur","sp.prog":"NO","enrtotal":178,"sp.journ":0,"sp.fl":0,"sp.arts":0,"sp.s&t":0,"sch.id":304902,"municipality":"HINATUAN","fish":0,"sp.program":null,"longitude":126.381253,"id":"ag4rx61jjmgc","province":"SURIGAO DEL SUR","sp.sports":0,"shs?1":0,"sp.prog1":0},"type":"Feature","geometry":{"type":"Point","coordinates":[126.381253,8.468218]}},{"properties":{"agri":0,"school name":"Purisima NHS","shs?":"NO","tech-voc":"NO","latitude":9.01463,"region":"CARAGA","id 2":1531,"w.bld":1,"arts&trade":0,"division.2012":"Surigao del Sur","sp.prog":"NO","enrtotal":433,"sp.journ":0,"sp.fl":0,"sp.arts":0,"sp.s&t":0,"sch.id":304903,"municipality":"TAGO","fish":0,"sp.program":null,"longitude":126.237123,"id":"ag4rx5vhzz9i","province":"SURIGAO DEL SUR","sp.sports":0,"shs?1":0,"sp.prog1":0},"type":"Feature","geometry":{"type":"Point","coordinates":[126.237123,9.01463]}},{"properties":{"agri":0,"school name":"Salvacion NHS","shs?":"NO","tech-voc":"NO","latitude":8.715413,"region":"CARAGA","id 2":1528,"w.bld":1,"arts&trade":0,"division.2012":"Surigao del Sur","sp.prog":"NO","enrtotal":281,"sp.journ":0,"sp.fl":0,"sp.arts":0,"sp.s&t":0,"sch.id":304904,"municipality":"SAN AGUSTIN","fish":0,"sp.program":null,"longitude":126.203203,"id":"ag4rx5uu50aj","province":"SURIGAO DEL SUR","sp.sports":0,"shs?1":0,"sp.prog1":0},"type":"Feature","geometry":{"type":"Point","coordinates":[126.203203,8.715413]}},{"properties":{"agri":0,"school name":"San Miguel NCHS","shs?":"NO","tech-voc":"NO","latitude":8.939942,"region":"CARAGA","id 2":1529,"w.bld":1,"arts&trade":0,"division.2012":"Surigao del Sur","sp.prog":"NO","enrtotal":470,"sp.journ":0,"sp.fl":0,"sp.arts":0,"sp.s&t":0,"sch.id":304905,"municipality":"SAN MIGUEL","fish":0,"sp.program":null,"longitude":126.055668,"id":"ag4rx5zd55h8","province":"SURIGAO DEL SUR","sp.sports":0,"shs?1":0,"sp.prog1":0},"type":"Feature","geometry":{"type":"Point","coordinates":[126.055668,8.939942]}},{"properties":{"agri":0,"school name":"San Miguel NCHS - Bolhoon NHS Annex","shs?":"NO","tech-voc":"NO","latitude":8.859209,"region":"CARAGA","id 2":1529,"w.bld":1,"arts&trade":0,"division.2012":"Surigao del Sur","sp.prog":"NO","enrtotal":190,"sp.journ":0,"sp.fl":0,"sp.arts":0,"sp.s&t":0,"sch.id":304906,"municipality":"SAN MIGUEL","fish":0,"sp.program":null,"longitude":125.975724,"id":"ag4rx5w84vce","province":"SURIGAO DEL SUR","sp.sports":0,"shs?1":0,"sp.prog1":0},"type":"Feature","geometry":{"type":"Point","coordinates":[125.975724,8.859209]}},{"properties":{"agri":0,"school name":"San Miguel NCHS - Sagbayan NHS Annex","shs?":"NO","tech-voc":"NO","latitude":8.955125,"region":"CARAGA","id 2":1529,"w.bld":1,"arts&trade":0,"division.2012":"Surigao del Sur","sp.prog":"NO","enrtotal":290,"sp.journ":0,"sp.fl":0,"sp.arts":0,"sp.s&t":0,"sch.id":304907,"municipality":"SAN MIGUEL","fish":0,"sp.program":null,"longitude":125.982307,"id":"ag4rx65y5clg","province":"SURIGAO DEL SUR","sp.sports":0,"shs?1":0,"sp.prog1":0},"type":"Feature","geometry":{"type":"Point","coordinates":[125.982307,8.955125]}},{"properties":{"agri":0,"school name":"San Miguel NCHS - San Miguel NHS Annex","shs?":"NO","tech-voc":"NO","latitude":8.929267,"region":"CARAGA","id 2":1529,"w.bld":1,"arts&trade":0,"division.2012":"Surigao del Sur","sp.prog":"NO","enrtotal":500,"sp.journ":0,"sp.fl":0,"sp.arts":0,"sp.s&t":0,"sch.id":304908,"municipality":"SAN MIGUEL","fish":0,"sp.program":null,"longitude":126.042318,"id":"ag4rx67uwrqy","province":"SURIGAO DEL SUR","sp.sports":0,"shs?1":0,"sp.prog1":0},"type":"Feature","geometry":{"type":"Point","coordinates":[126.042318,8.929267]}},{"properties":{"agri":0,"school name":"San Vicente II NHS","shs?":"NO","tech-voc":"NO","latitude":8.376521,"region":"CARAGA","id 2":1530,"w.bld":1,"arts&trade":0,"division.2012":"Surigao del Sur","sp.prog":"NO","enrtotal":169,"sp.journ":0,"sp.fl":0,"sp.arts":0,"sp.s&t":0,"sch.id":304882,"municipality":"TAGBINA","fish":0,"sp.program":null,"longitude":126.151984,"id":"ag4rx69x83sr","province":"SURIGAO DEL SUR","sp.sports":0,"shs?1":0,"sp.prog1":0},"type":"Feature","geometry":{"type":"Point","coordinates":[126.151984,8.376521]}},{"properties":{"agri":0,"school name":"Solomon P. Lozada NHS","shs?":"NO","tech-voc":"NO","latitude":8.958677,"region":"CARAGA","id 2":1515,"w.bld":1,"arts&trade":0,"division.2012":"Surigao del Sur","sp.prog":"NO","enrtotal":394,"sp.journ":0,"sp.fl":0,"sp.arts":0,"sp.s&t":0,"sch.id":304909,"municipality":"BAYABAS","fish":0,"sp.program":null,"longitude":126.278792,"id":"ag4rx64rha1f","province":"SURIGAO DEL SUR","sp.sports":0,"shs?1":0,"sp.prog1":0},"type":"Feature","geometry":{"type":"Point","coordinates":[126.278792,8.958677]}},{"properties":{"agri":0,"school name":"St. Christine NHS","shs?":"NO","tech-voc":"Fisheries","latitude":8.668588,"region":"CARAGA","id 2":1524,"w.bld":1,"arts&trade":0,"division.2012":"Surigao del Sur","sp.prog":"NO","enrtotal":546,"sp.journ":0,"sp.fl":0,"sp.arts":0,"sp.s&t":0,"sch.id":304915,"municipality":"LIANGA","fish":1,"sp.program":null,"longitude":126.127007,"id":"ag4rx62yacpp","province":"SURIGAO DEL SUR","sp.sports":0,"shs?1":0,"sp.prog1":0},"type":"Feature","geometry":{"type":"Point","coordinates":[126.127007,8.668588]}},{"properties":{"agri":0,"school name":"St. Christine NHS - Davisol NHS Annex","shs?":"NO","tech-voc":"NO","latitude":8.633336,"region":"CARAGA","id 2":1524,"w.bld":1,"arts&trade":0,"division.2012":"Surigao del Sur","sp.prog":"NO","enrtotal":63,"sp.journ":0,"sp.fl":0,"sp.arts":0,"sp.s&t":0,"sch.id":317912,"municipality":"LIANGA","fish":0,"sp.program":null,"longitude":126.100001,"id":"ag4rx65106v9","province":"SURIGAO DEL SUR","sp.sports":0,"shs?1":0,"sp.prog1":0},"type":"Feature","geometry":{"type":"Point","coordinates":[126.100001,8.633336]}},{"properties":{"agri":0,"school name":"Sta. Juana NHS","shs?":"NO","tech-voc":"NO","latitude":8.346022,"region":"CARAGA","id 2":1530,"w.bld":1,"arts&trade":0,"division.2012":"Surigao del Sur","sp.prog":"NO","enrtotal":252,"sp.journ":0,"sp.fl":0,"sp.arts":0,"sp.s&t":0,"sch.id":304883,"municipality":"TAGBINA","fish":0,"sp.program":null,"longitude":126.218596,"id":"ag4rx6085beu","province":"SURIGAO DEL SUR","sp.sports":0,"shs?1":0,"sp.prog1":0},"type":"Feature","geometry":{"type":"Point","coordinates":[126.218596,8.346022]}},{"properties":{"agri":0,"school name":"Sto. Niño NHS","shs?":"NO","tech-voc":"NO","latitude":8.761043,"region":"CARAGA","id 2":1528,"w.bld":1,"arts&trade":0,"division.2012":"Surigao del Sur","sp.prog":"YES","enrtotal":738,"sp.journ":0,"sp.fl":0,"sp.arts":0,"sp.s&t":1,"sch.id":304916,"municipality":"SAN AGUSTIN","fish":0,"sp.program":"Sci &amp; Tech","longitude":126.23519,"id":"ag4rx60945t7","province":"SURIGAO DEL SUR","sp.sports":0,"shs?1":0,"sp.prog1":1},"type":"Feature","geometry":{"type":"Point","coordinates":[126.23519,8.761043]}},{"properties":{"agri":0,"school name":"Tagasaka NHS","shs?":"NO","tech-voc":"NO","latitude":8.358963,"region":"CARAGA","id 2":1522,"w.bld":1,"arts&trade":0,"division.2012":"Surigao del Sur","sp.prog":"NO","enrtotal":238,"sp.journ":0,"sp.fl":0,"sp.arts":0,"sp.s&t":0,"sch.id":304920,"municipality":"HINATUAN","fish":0,"sp.program":null,"longitude":126.27801,"id":"ag4rx62kk674","province":"SURIGAO DEL SUR","sp.sports":0,"shs?1":0,"sp.prog1":0},"type":"Feature","geometry":{"type":"Point","coordinates":[126.27801,8.358963]}},{"properties":{"agri":0,"school name":"Tagasaka NHS - Bigaan NHS Annex","shs?":"NO","tech-voc":"NO","latitude":8.31842,"region":"CARAGA","id 2":1522,"w.bld":1,"arts&trade":0,"division.2012":"Surigao del Sur","sp.prog":"NO","enrtotal":151,"sp.journ":0,"sp.fl":0,"sp.arts":0,"sp.s&t":0,"sch.id":304921,"municipality":"HINATUAN","fish":0,"sp.program":null,"longitude":126.275507,"id":"ag4rx5zv4tr5","province":"SURIGAO DEL SUR","sp.sports":0,"shs?1":0,"sp.prog1":0},"type":"Feature","geometry":{"type":"Point","coordinates":[126.275507,8.31842]}},{"properties":{"agri":0,"school name":"Tagasaka NHS - Loyola NHS Annex","shs?":"NO","tech-voc":"NO","latitude":8.366672,"region":"CARAGA","id 2":1522,"w.bld":1,"arts&trade":0,"division.2012":"Surigao del Sur","sp.prog":"NO","enrtotal":191,"sp.journ":0,"sp.fl":0,"sp.arts":0,"sp.s&t":0,"sch.id":317910,"municipality":"HINATUAN","fish":0,"sp.program":null,"longitude":126.333334,"id":"ag4rx6a1ts9s","province":"SURIGAO DEL SUR","sp.sports":0,"shs?1":0,"sp.prog1":0},"type":"Feature","geometry":{"type":"Point","coordinates":[126.333334,8.366672]}},{"properties":{"agri":0,"school name":"Tagbina NHS","shs?":"NO","tech-voc":"NO","latitude":8.459067,"region":"CARAGA","id 2":1530,"w.bld":1,"arts&trade":0,"division.2012":"Surigao del Sur","sp.prog":"NO","enrtotal":702,"sp.journ":0,"sp.fl":0,"sp.arts":0,"sp.s&t":0,"sch.id":304884,"municipality":"TAGBINA","fish":0,"sp.program":null,"longitude":126.153923,"id":"ag4rx5ybwt97","province":"SURIGAO DEL SUR","sp.sports":0,"shs?1":0,"sp.prog1":0},"type":"Feature","geometry":{"type":"Point","coordinates":[126.153923,8.459067]}},{"properties":{"agri":0,"school name":"Tambis National High School","shs?":"NO","tech-voc":"NO","latitude":8.533608,"region":"CARAGA","id 2":1514,"w.bld":1,"arts&trade":0,"division.2012":"Surigao del Sur","sp.prog":"NO","enrtotal":469,"sp.journ":0,"sp.fl":0,"sp.arts":0,"sp.s&t":0,"sch.id":304864,"municipality":"BAROBO","fish":0,"sp.program":null,"longitude":126.048367,"id":"ag4rx67p8atq","province":"SURIGAO DEL SUR","sp.sports":0,"shs?1":0,"sp.prog1":0},"type":"Feature","geometry":{"type":"Point","coordinates":[126.048367,8.533608]}},{"properties":{"agri":0,"school name":"Tandag Nat'l. Sci HS","shs?":"YES","tech-voc":"NO","latitude":9.059105,"region":"CARAGA","id 2":1532,"w.bld":1,"arts&trade":0,"division.2012":"Surigao del Sur","sp.prog":"NO","enrtotal":136,"sp.journ":0,"sp.fl":0,"sp.arts":0,"sp.s&t":0,"sch.id":304922,"municipality":"CITY OF TANDAG (Capital)","fish":0,"sp.program":null,"longitude":126.172021,"id":"ag4rx5vyccfu","province":"SURIGAO DEL SUR","sp.sports":0,"shs?1":1,"sp.prog1":0},"type":"Feature","geometry":{"type":"Point","coordinates":[126.172021,9.059105]}},{"properties":{"agri":0,"school name":"Tarusan ISS","shs?":"NO","tech-voc":"NO","latitude":8.366154,"region":"CARAGA","id 2":1522,"w.bld":1,"arts&trade":0,"division.2012":"Surigao del Sur","sp.prog":"NO","enrtotal":58,"sp.journ":0,"sp.fl":0,"sp.arts":0,"sp.s&t":0,"sch.id":317926,"municipality":"HINATUAN","fish":0,"sp.program":null,"longitude":126.335054,"id":"ag4rx61tiqur","province":"SURIGAO DEL SUR","sp.sports":0,"shs?1":0,"sp.prog1":0},"type":"Feature","geometry":{"type":"Point","coordinates":[126.335054,8.366154]}},{"properties":{"agri":0,"school name":"Tidman NHS","shs?":"NO","tech-voc":"NO","latitude":8.298589,"region":"CARAGA","id 2":1522,"w.bld":1,"arts&trade":0,"division.2012":"Surigao del Sur","sp.prog":"NO","enrtotal":255,"sp.journ":0,"sp.fl":0,"sp.arts":0,"sp.s&t":0,"sch.id":304923,"municipality":"HINATUAN","fish":0,"sp.program":null,"longitude":126.373681,"id":"ag4rx6atopd8","province":"SURIGAO DEL SUR","sp.sports":0,"shs?1":0,"sp.prog1":0},"type":"Feature","geometry":{"type":"Point","coordinates":[126.373681,8.298589]}},{"properties":{"agri":0,"school name":"Tigao National High School","shs?":"NO","tech-voc":"NO","latitude":9.205404,"region":"CARAGA","id 2":1521,"w.bld":1,"arts&trade":0,"division.2012":"Surigao del Sur","sp.prog":"NO","enrtotal":316,"sp.journ":0,"sp.fl":0,"sp.arts":0,"sp.s&t":0,"sch.id":304887,"municipality":"CORTES","fish":0,"sp.program":null,"longitude":126.175486,"id":"ag4rx69n1msf","province":"SURIGAO DEL SUR","sp.sports":0,"shs?1":0,"sp.prog1":0},"type":"Feature","geometry":{"type":"Point","coordinates":[126.175486,9.205404]}},{"properties":{"agri":0,"school name":"Unidad NHS","shs?":"NO","tech-voc":"NO","latitude":8.884076,"region":"CARAGA","id 2":1517,"w.bld":1,"arts&trade":0,"division.2012":"Surigao del Sur","sp.prog":"YES","enrtotal":752,"sp.journ":0,"sp.fl":0,"sp.arts":0,"sp.s&t":1,"sch.id":304924,"municipality":"CAGWAIT","fish":0,"sp.program":"Sci &amp; Tech","longitude":126.306714,"id":"ag4rx663fyzz","province":"SURIGAO DEL SUR","sp.sports":0,"shs?1":0,"sp.prog1":1},"type":"Feature","geometry":{"type":"Point","coordinates":[126.306714,8.884076]}},{"properties":{"agri":0,"school name":"Vicente L. Pimentel NHS","shs?":"NO","tech-voc":"NO","latitude":9.058961,"region":"CARAGA","id 2":1532,"w.bld":1,"arts&trade":0,"division.2012":"Surigao del Sur","sp.prog":"NO","enrtotal":150,"sp.journ":0,"sp.fl":0,"sp.arts":0,"sp.s&t":0,"sch.id":304893,"municipality":"CITY OF TANDAG (Capital)","fish":0,"sp.program":null,"longitude":126.165225,"id":"ag4rx63e1iy0","province":"SURIGAO DEL SUR","sp.sports":0,"shs?1":0,"sp.prog1":0},"type":"Feature","geometry":{"type":"Point","coordinates":[126.165225,9.058961]}}],"is_temporal":false,"author":{"url":"","metadata":"","contact_name":"","contact_address":"","source":"","contact_phone":""},"source":"","pagination":{"sort":null,"start":0,"total":273,"limit":1000000},"state":"complete","tags":"","published":"2014-08-16T15:41:09-04:00","id":382146}