{"type":"FeatureCollection","data_type":"Dataset","url_type":null,"permissions":[{"permissions":{"download":true,"view":true},"group_id":"everyone"}],"classification":null,"title":"Highways_WW_Map_3","count":54,"stream_id":382420,"contributor":{"url":"http://geocommons.com/users/69819","name":"adaben"},"data_attributes":null,"calculation_params":null,"icon_link":null,"link":"http://geocommons.com/overlays/382420.json","extent":[0.0,0.0,0.0,0.0],"geometry_types":[],"unique_name":null,"name":"Highways_WW_Map_3","feature_count":54,"description":"","next_feature":null,"is_raster":false,"short_classification":"Y","stats":{"lantitude":{"max":55.008649,"variance":1.26292248583616,"mean":52.4389817358491,"stdev":1.1237982407159,"min":50.536473,"median":51.9705},"longitude":{"max":0.912118,"variance":2.42296928802375,"mean":-2.1197121509434,"stdev":1.55658899136019,"min":-5.968035,"median":-2.123603}},"features":[{"properties":{"project":"Managed Motorway Framework","geo_score":0.0,"lantitude":52.484871,"longitude":-1.906815,"id":"ag5cas9ximrh","address":"Live Projects","geo_precision":"unmatched"},"type":"Feature","geometry":null},{"properties":{"project":"M1 Junction 28 - 31","geo_score":0.0,"lantitude":53.115666,"longitude":-1.332779,"id":"ag5casckypou","address":"Live Projects","geo_precision":"unmatched"},"type":"Feature","geometry":null},{"properties":{"project":"M1 Junction 32 - 35a","geo_score":0.0,"lantitude":53.396023,"longitude":-1.290894,"id":"ag5cas8x92if","address":"Live Projects","geo_precision":"unmatched"},"type":"Feature","geometry":null},{"properties":{"project":"A556 Knutsford to Bowdon","geo_score":0.0,"lantitude":53.396432,"longitude":-2.48291,"id":"ag5cas9tfxwu","address":"Live Projects","geo_precision":"unmatched"},"type":"Feature","geometry":null},{"properties":{"project":"A5 / M1 Link","geo_score":0.0,"lantitude":51.9705,"longitude":-0.501251,"id":"ag5cas1k3r4e","address":"Live Projects","geo_precision":"unmatched"},"type":"Feature","geometry":null},{"properties":{"project":"A465 Heads of the Valley","geo_score":0.0,"lantitude":51.81286,"longitude":-3.128357,"id":"ag5casceo6zl","address":"Live Projects","geo_precision":"unmatched"},"type":"Feature","geometry":null},{"properties":{"project":"Hammersmith Flyover","geo_score":0.0,"lantitude":51.491188,"longitude":-0.223731,"id":"ag5cas3i2xg5","address":"Live Projects","geo_precision":"unmatched"},"type":"Feature","geometry":null},{"properties":{"project":"Heysham to M6 link","geo_score":0.0,"lantitude":54.056164,"longitude":-2.787781,"id":"ag5cas6farpj","address":"Live Projects","geo_precision":"unmatched"},"type":"Feature","geometry":null},{"properties":{"project":"M1 Junction 10 -13","geo_score":0.0,"lantitude":51.856139,"longitude":-0.42572,"id":"ag5cas6u1fzu","address":"Live Projects","geo_precision":"unmatched"},"type":"Feature","geometry":null},{"properties":{"project":"Asset Support Framework","geo_score":0.0,"lantitude":52.539168,"longitude":-2.003517,"id":"ag5cas5jrc94","address":"Live Projects","geo_precision":"unmatched"},"type":"Feature","geometry":null},{"properties":{"project":"M5 Junction 21","geo_score":0.0,"lantitude":51.263174,"longitude":-2.922248,"id":"ag5casdifiqa","address":"Live Projects","geo_precision":"unmatched"},"type":"Feature","geometry":null},{"properties":{"project":"A14 Huntingdon Viaduct","geo_score":0.0,"lantitude":52.341184,"longitude":-0.212745,"id":"ag5cas3b5e26","address":"Live Projects","geo_precision":"unmatched"},"type":"Feature","geometry":null},{"properties":{"project":"Port Talbot","geo_score":0.0,"lantitude":51.591546,"longitude":-3.798408,"id":"ag5carznpmod","address":"Live Projects","geo_precision":"unmatched"},"type":"Feature","geometry":null},{"properties":{"project":"South East Wales Framework","geo_score":0.0,"lantitude":51.510422,"longitude":-3.212013,"id":"ag5casctnvvg","address":"Live Projects","geo_precision":"unmatched"},"type":"Feature","geometry":null},{"properties":{"project":"Carmarthensire Framework","geo_score":0.0,"lantitude":51.853068,"longitude":-4.306858,"id":"ag5cary86qj4","address":"Live Projects","geo_precision":"unmatched"},"type":"Feature","geometry":null},{"properties":{"project":"A244 Walton Bridge","geo_score":0.0,"lantitude":51.384758,"longitude":-0.439692,"id":"ag5cas4z424c","address":"Live Projects","geo_precision":"unmatched"},"type":"Feature","geometry":null},{"properties":{"project":"A8 Duelling","geo_score":0.0,"lantitude":54.720605,"longitude":-5.968035,"id":"ag5cas4ptv8l","address":"Live Projects","geo_precision":"unmatched"},"type":"Feature","geometry":null},{"properties":{"project":"M6 Junction 16 - 19","geo_score":0.0,"lantitude":53.261927,"longitude":-2.393646,"id":"ag5casboqcjx","address":"Live Projects","geo_precision":"unmatched"},"type":"Feature","geometry":null},{"properties":{"project":"Area 7","geo_score":0.0,"lantitude":53.073199,"longitude":-1.248388,"id":"ag5cas67iitl","address":"Live Projects","geo_precision":"unmatched"},"type":"Feature","geometry":null},{"properties":{"project":"Area 12","geo_score":0.0,"lantitude":53.70218,"longitude":-1.392508,"id":"ag5casbmpkcz","address":"Live Projects","geo_precision":"unmatched"},"type":"Feature","geometry":null},{"properties":{"project":"Area 14","geo_score":0.0,"lantitude":54.531365,"longitude":-1.549567,"id":"ag5caryh6l63","address":"Live Projects","geo_precision":"unmatched"},"type":"Feature","geometry":null},{"properties":{"project":"Traffic Technology Framework","geo_score":0.0,"lantitude":51.515904,"longitude":-0.739048,"id":"ag5cas4dh7a9","address":"Live Projects","geo_precision":"unmatched"},"type":"Feature","geometry":null},{"properties":{"project":"All Wales Communications","geo_score":0.0,"lantitude":51.505648,"longitude":-3.199986,"id":"ag5cas0hb45p","address":"Live Projects","geo_precision":"unmatched"},"type":"Feature","geometry":null},{"properties":{"project":"A6 to Manchester","geo_score":0.0,"lantitude":53.342763,"longitude":-2.241898,"id":"ag5cas94mnf4","address":"Tendering","geo_precision":"unmatched"},"type":"Feature","geometry":null},{"properties":{"project":"M&amp;E Framework","geo_score":0.0,"lantitude":53.407815,"longitude":-3.021735,"id":"ag5cas3h7e8c","address":"Tendering","geo_precision":"unmatched"},"type":"Feature","geometry":null},{"properties":{"project":"Heathrow Tunnel","geo_score":0.0,"lantitude":51.472747,"longitude":-0.492133,"id":"ag5cas43oxly","address":"Tendering","geo_precision":"unmatched"},"type":"Feature","geometry":null},{"properties":{"project":"South Bristol Link Road","geo_score":0.0,"lantitude":51.429957,"longitude":-2.587775,"id":"ag5cas1zc6pb","address":"PQQ Stage","geo_precision":"unmatched"},"type":"Feature","geometry":null},{"properties":{"project":"Area 12 ASC &amp; Area 4 ASC","geo_score":0.0,"lantitude":53.70218,"longitude":-1.392508,"id":"ag5cas53fypi","address":"PQQ Stage","geo_precision":"unmatched"},"type":"Feature","geometry":null},{"properties":{"project":"A1 Lobley Hill","geo_score":0.0,"lantitude":54.939669,"longitude":-1.630359,"id":"ag5cas3qg7p7","address":"PQQ Stage","geo_precision":"unmatched"},"type":"Feature","geometry":null},{"properties":{"project":"Bristol ITS","geo_score":0.0,"lantitude":51.443654,"longitude":-2.607001,"id":"ag5cas63qk2k","address":"PQQ Stage","geo_precision":"unmatched"},"type":"Feature","geometry":null},{"properties":{"project":"RTMC - Midlands","geo_score":0.0,"lantitude":52.815963,"longitude":-2.123603,"id":"ag5cas2z3mmp","address":"Opportunity Stage Definitely Bid","geo_precision":"unmatched"},"type":"Feature","geometry":null},{"properties":{"project":"Collaborative Infrastructutre Delivery Framework","geo_score":0.0,"lantitude":52.484871,"longitude":-1.906815,"id":"ag5casdluh74","address":"Opportunity Stage Definitely Bid","geo_precision":"unmatched"},"type":"Feature","geometry":null},{"properties":{"project":"M4 relief Road","geo_score":0.0,"lantitude":51.597465,"longitude":-3.020362,"id":"ag5cas5x5dg1","address":"Opportunity Stage Definitely Bid","geo_precision":"unmatched"},"type":"Feature","geometry":null},{"properties":{"project":"Area 14 ASC","geo_score":0.0,"lantitude":54.531365,"longitude":-1.549567,"id":"ag5cas1lifjg","address":"Opportunity Stage Definitely Bid","geo_precision":"unmatched"},"type":"Feature","geometry":null},{"properties":{"project":"A465 HoV Section 5 &amp; 6","geo_score":0.0,"lantitude":51.734601,"longitude":-3.654823,"id":"ag5carz3st7i","address":"Opportunity Stage Definitely Bid","geo_precision":"unmatched"},"type":"Feature","geometry":null},{"properties":{"project":"North Wales Tunnels","geo_score":0.0,"lantitude":52.842493,"longitude":-3.695788,"id":"ag5cas60uw0h","address":"Opportunity Stage Priority Targets","geo_precision":"unmatched"},"type":"Feature","geometry":null},{"properties":{"project":"Bryn Glas tunnel, Newport","geo_score":0.0,"lantitude":51.734601,"longitude":-3.654823,"id":"ag5cas47mnnm","address":"Opportunity Stage Priority Targets","geo_precision":"unmatched"},"type":"Feature","geometry":null},{"properties":{"project":"NRTS2","geo_score":0.0,"lantitude":51.429957,"longitude":-2.587775,"id":"ag5cascebk2y","address":"Opportunity Stage Priority Targets","geo_precision":"unmatched"},"type":"Feature","geometry":null},{"properties":{"project":"A40 Llandewi Velfry","geo_score":0.0,"lantitude":51.819813,"longitude":-4.689175,"id":"ag5cas9hweb9","address":"Opportunity Stage Priority Targets","geo_precision":"unmatched"},"type":"Feature","geometry":null},{"properties":{"project":"A55 Britannia Bridge","geo_score":0.0,"lantitude":53.21588,"longitude":-4.185446,"id":"ag5cas40qesm","address":"Opportunity Stage Priority Targets","geo_precision":"unmatched"},"type":"Feature","geometry":null},{"properties":{"project":"A21 Tonbridge to Penbury","geo_score":0.0,"lantitude":51.177505,"longitude":0.291988,"id":"ag5cas02mc2y","address":"Opportunity Stage Priority Targets","geo_precision":"unmatched"},"type":"Feature","geometry":null},{"properties":{"project":"A63 Castle Street","geo_score":0.0,"lantitude":53.740901,"longitude":-0.339102,"id":"ag5cas9prqef","address":"Opportunity Stage Priority Targets","geo_precision":"unmatched"},"type":"Feature","geometry":null},{"properties":{"project":"A19 Coast Road","geo_score":0.0,"lantitude":55.008649,"longitude":-1.497321,"id":"ag5cas5ai018","address":"Opportunity Stage Priority Targets","geo_precision":"unmatched"},"type":"Feature","geometry":null},{"properties":{"project":"M25 J30","geo_score":0.0,"lantitude":51.49772,"longitude":0.268565,"id":"ag5cas7plpcd","address":"Opportunity Stage Priority Targets","geo_precision":"unmatched"},"type":"Feature","geometry":null},{"properties":{"project":"A14 Cambridge to Huntingdon","geo_score":0.0,"lantitude":52.230184,"longitude":0.070087,"id":"ag5caryf77ra","address":"Opportunity Stage Priority Targets","geo_precision":"unmatched"},"type":"Feature","geometry":null},{"properties":{"project":"A487 Caernarvon","geo_score":0.0,"lantitude":53.08649,"longitude":-4.281293,"id":"ag5cas3o9thv","address":"Opportunity Stage Priority Targets","geo_precision":"unmatched"},"type":"Feature","geometry":null},{"properties":{"project":"A30 Temple","geo_score":0.0,"lantitude":50.536473,"longitude":-4.61966,"id":"ag5cas65lvo8","address":"Opportunity Stage Priority Targets","geo_precision":"unmatched"},"type":"Feature","geometry":null},{"properties":{"project":"M4 J28 ECI","geo_score":0.0,"lantitude":51.560701,"longitude":-3.042388,"id":"ag5cas5vl23u","address":"Opportunity Stage Contenders","geo_precision":"unmatched"},"type":"Feature","geometry":null},{"properties":{"project":"Silvertown","geo_score":0.0,"lantitude":51.503104,"longitude":0.038282,"id":"ag5cas0myb91","address":"Opportunity Stage Contenders","geo_precision":"unmatched"},"type":"Feature","geometry":null},{"properties":{"project":"Lower Thames Crossing","geo_score":0.0,"lantitude":51.491188,"longitude":-0.223731,"id":"ag5casa5fh79","address":"Opportunity Stage Contenders","geo_precision":"unmatched"},"type":"Feature","geometry":null},{"properties":{"project":"Llandeilo Bypas","geo_score":0.0,"lantitude":51.826356,"longitude":-4.009214,"id":"ag5cas1h6iro","address":"Opportunity Stage Contenders","geo_precision":"unmatched"},"type":"Feature","geometry":null},{"properties":{"project":"M56 to M6 Toll","geo_score":0.0,"lantitude":null,"longitude":null,"id":"ag5casax24av","address":"Opportunity Stage Contenders","geo_precision":"unmatched"},"type":"Feature","geometry":null},{"properties":{"project":"M20 Jct 10a","geo_score":0.0,"lantitude":51.136953,"longitude":0.912118,"id":"ag5casatcxby","address":"Opportunity Stage Contenders","geo_precision":"unmatched"},"type":"Feature","geometry":null},{"properties":{"project":"Builth Wells","geo_score":0.0,"lantitude":52.150023,"longitude":-3.404592,"id":"ag5casc3lp13","address":"Opportunity Stage Contenders","geo_precision":"unmatched"},"type":"Feature","geometry":null}],"is_temporal":false,"author":{"url":"","metadata":null,"contact_name":null,"contact_address":null,"source":null,"contact_phone":null},"source":"","pagination":{"sort":null,"start":0,"total":54,"limit":1000000},"state":"complete","tags":"","published":"2014-08-16T16:03:34-04:00","id":382420}