{"type":"FeatureCollection","data_type":"Dataset","url_type":null,"permissions":[{"permissions":{"download":true,"view":true},"group_id":"everyone"}],"classification":null,"title":"july 1","count":299,"stream_id":382852,"contributor":{"url":"http://geocommons.com/users/71562","name":"csuch"},"data_attributes":null,"calculation_params":null,"icon_link":null,"link":"http://geocommons.com/overlays/382852.json","extent":[-122.113,26.2817,-71.0828,45.1996],"geometry_types":["point"],"unique_name":null,"name":"july 1","feature_count":299,"description":"","next_feature":null,"is_raster":false,"short_classification":"Y","stats":{},"features":[{"properties":{"city":"Opelika","store number":"12004A","zip":"36801","geo_score":0.454,"street address":"2336 Tiger Town Parkway","contact1":"Christopher M. Decker","id":"ag6eeefbq8l7","geo_precision":"street","state":"AL"},"type":"Feature","geometry":{"type":"Point","coordinates":[-85.814523,32.807622]}},{"properties":{"city":"Hoover","store number":"12007","zip":"35244","geo_score":0.902,"street address":"1851 Montgomery Highway","contact1":"Chris Decker","id":"ag6eeemmtinv","geo_precision":"range","state":"AL"},"type":"Feature","geometry":{"type":"Point","coordinates":[-86.795117,33.350835]}},{"properties":{"city":"Birmingham","store number":"12006","zip":"35235","geo_score":1.0,"street address":"1873 Gadsden Highway","contact1":"Chris Decker","id":"ag6eeee68ars","geo_precision":"range","state":"AL"},"type":"Feature","geometry":{"type":"Point","coordinates":[-86.629345,33.60791]}},{"properties":{"city":"Birmingham","store number":"12002A","zip":"35242","geo_score":0.659,"street address":"4673 Hwy 280 East","contact1":"Chris Decker","id":"ag6eeeojwhrk","geo_precision":"street","state":"AL"},"type":"Feature","geometry":{"type":"Point","coordinates":[-86.664215,33.406515]}},{"properties":{"city":"Huntsville","store number":"12003A","zip":"35806","geo_score":0.945,"street address":"6290 University Dr.","contact1":"Roger Chappell","id":"ag6eeeld4hfh","geo_precision":"range","state":"AL"},"type":"Feature","geometry":{"type":"Point","coordinates":[-86.683881,34.746051]}},{"properties":{"city":"Phoenix","store number":"9017","zip":"85032","geo_score":1.0,"street address":"4603 East Cactus Rd.","contact1":"William Mapes","id":"ag6eeeelehel","geo_precision":"range","state":"AZ"},"type":"Feature","geometry":{"type":"Point","coordinates":[-111.980408,33.598603]}},{"properties":{"city":"Scottsdale","store number":"9009","zip":"85260","geo_score":0.589,"street address":"15807 E. Frank Lloyd Wright","contact1":"William Mapes","id":"ag6eeeoiunbq","geo_precision":"street","state":"AZ"},"type":"Feature","geometry":{"type":"Point","coordinates":[-111.897646,33.632337]}},{"properties":{"city":"Chandler","store number":"9005","zip":"85224","geo_score":0.6,"street address":"2780 W. Chandler Blvd.","contact1":"William Mapes","id":"ag6eeeek91pk","geo_precision":"street","state":"AZ"},"type":"Feature","geometry":{"type":"Point","coordinates":[-111.842745,33.306159]}},{"properties":{"city":"Glendale","store number":"9007","zip":"85308","geo_score":1.0,"street address":"7410 West Bell Rd.","contact1":"William Mapes","id":"ag6eeeo152a3","geo_precision":"range","state":"AZ"},"type":"Feature","geometry":{"type":"Point","coordinates":[-112.218044,33.638304]}},{"properties":{"city":"Phoenix","store number":"9006","zip":"85048","geo_score":1.0,"street address":"4605 East Chandler Blvd.","contact1":"William Mapes","id":"ag6eeecaqna1","geo_precision":"range","state":"AZ"},"type":"Feature","geometry":{"type":"Point","coordinates":[-111.984704,33.305173]}},{"properties":{"city":"Tempe","store number":"9002","zip":"85281","geo_score":1.0,"street address":"555 North Scottsdale Rd.","contact1":"William Mapes","id":"ag6eeeqj8fix","geo_precision":"range","state":"AZ"},"type":"Feature","geometry":{"type":"Point","coordinates":[-111.926178,33.434349]}},{"properties":{"city":"Scottsdale","store number":"9004","zip":"85254","geo_score":0.61,"street address":"10392 North Scottsdale Rd.","contact1":"William Mapes","id":"ag6eeeksmz6i","geo_precision":"street","state":"AZ"},"type":"Feature","geometry":{"type":"Point","coordinates":[-111.926117,33.489745]}},{"properties":{"city":"Phoenix","store number":"9015","zip":"85022","geo_score":1.0,"street address":"245 East Bell Road","contact1":"William Mapes","id":"ag6eeeddlti5","geo_precision":"range","state":"AZ"},"type":"Feature","geometry":{"type":"Point","coordinates":[-112.070938,33.6402]}},{"properties":{"city":"Phoenix","store number":"9003","zip":"85032","geo_score":1.0,"street address":"4550 East Bell Road","contact1":"William Mapes","id":"ag6eeeqb2jw1","geo_precision":"range","state":"AZ"},"type":"Feature","geometry":{"type":"Point","coordinates":[-111.983178,33.64068]}},{"properties":{"city":"Phoenix","store number":"9008","zip":"85058","geo_score":0.805,"street address":"2501 West Happy Valley Road","contact1":"William Mapes","id":"ag6eeed95207","geo_precision":"range","state":"AZ"},"type":"Feature","geometry":{"type":"Point","coordinates":[-112.113139,33.712894]}},{"properties":{"city":"Gilbert","store number":"9011","zip":"85233","geo_score":0.805,"street address":"891 E Baseline Rd","contact1":"Gregory S. Pentz","id":"ag6eeeq8otgl","geo_precision":"range","state":"AZ"},"type":"Feature","geometry":{"type":"Point","coordinates":[-111.930687,33.378172]}},{"properties":{"city":"Mesa","store number":"9016","zip":"85204","geo_score":0.602,"street address":"1939 S. Val Vista Drive","contact1":"Gregory Pentz","id":"ag6eeemrjdxy","geo_precision":"street","state":"AZ"},"type":"Feature","geometry":{"type":"Point","coordinates":[-111.753722,33.413088]}},{"properties":{"city":"Phoenix","store number":"9014","zip":"85042","geo_score":0.604,"street address":"2415 E. Baseline Road","contact1":"Steve Rosenfield","id":"ag6eeegy81di","geo_precision":"street","state":"AZ"},"type":"Feature","geometry":{"type":"Point","coordinates":[-112.073255,33.377756]}},{"properties":{"city":"Laveen","store number":"9018","zip":"85339","geo_score":0.604,"street address":"5130 W. Baseline Rd","contact1":"Steve Rosenfield","id":"ag6eeecu01um","geo_precision":"street","state":"AZ"},"type":"Feature","geometry":{"type":"Point","coordinates":[-112.12113,33.377708]}},{"properties":{"city":"Phoenix","store number":"9013","zip":"85003","geo_score":0.339,"street address":"1515 N. 7th Avenue","contact1":"Steve Rosenfield","id":"ag6eeebpcdmi","geo_precision":"street","state":"AZ"},"type":"Feature","geometry":{"type":"Point","coordinates":[-112.065122,33.450013]}},{"properties":{"city":"Phoenix","store number":"9012","zip":"85012","geo_score":1.0,"street address":"18 East Camelback Road","contact1":"Steve Rosenfield","id":"ag6eeehh33fv","geo_precision":"range","state":"AZ"},"type":"Feature","geometry":{"type":"Point","coordinates":[-112.072953,33.509352]}},{"properties":{"city":"Chandler","store number":"9010","zip":"85248","geo_score":0.598,"street address":"1085 W. Queen Creek Road","contact1":"Steve Rosenfield","id":"ag6eeep9r46t","geo_precision":"street","state":"AZ"},"type":"Feature","geometry":{"type":"Point","coordinates":[-111.846972,33.26205]}},{"properties":{"city":"Buena Park","store number":"20088","zip":"90620","geo_score":1.0,"street address":"5974 Orangethorpe Ave","contact1":"Alvaro Garcia","id":"ag6eeeo2j0n5","geo_precision":"range","state":"CA"},"type":"Feature","geometry":{"type":"Point","coordinates":[-118.030726,33.858627]}},{"properties":{"city":"Costa Mesa","store number":"20068","zip":"92626","geo_score":1.0,"street address":"2300 Harbor Boulevard","contact1":"Alvaro Garcia","id":"ag6eeefp1wwc","geo_precision":"range","state":"CA"},"type":"Feature","geometry":{"type":"Point","coordinates":[-117.91927,33.66328]}},{"properties":{"city":"Culver City","store number":"20098","zip":"90230","geo_score":1.0,"street address":"4114 Sepulveda Blvd.","contact1":"Alvaro Garcia","id":"ag6eeek3ud16","geo_precision":"range","state":"CA"},"type":"Feature","geometry":{"type":"Point","coordinates":[-118.412758,34.007016]}},{"properties":{"city":"Castaic","store number":"20015A","zip":"91384","geo_score":1.0,"street address":"31765 Castaic Road","contact1":"Kimberly Ann Ensing","id":"ag6eeed3a7j7","geo_precision":"range","state":"CA"},"type":"Feature","geometry":{"type":"Point","coordinates":[-118.621828,34.495817]}},{"properties":{"city":"Glendale","store number":"20072","zip":"91210","geo_score":0.585,"street address":"813 Americana Way","contact1":"Richard Dikran Elmassian","id":"ag6eeehsdj37","geo_precision":"zip","state":"CA"},"type":"Feature","geometry":{"type":"Point","coordinates":[-118.298662,33.786594]}},{"properties":{"city":"Oxnard","store number":"20004","zip":"93036","geo_score":0.585,"street address":"2041 North Oxnard Blvd.","contact1":"Ralph Cox","id":"ag6eeeo9d2v3","geo_precision":"zip","state":"CA"},"type":"Feature","geometry":{"type":"Point","coordinates":[-119.21216,34.199838]}},{"properties":{"city":"Huntington Beach","store number":"20014","zip":"92646","geo_score":1.0,"street address":"10035 Adams Avenue","contact1":"Daniel R. Ciscel","id":"ag6eeenhl6u7","geo_precision":"range","state":"CA"},"type":"Feature","geometry":{"type":"Point","coordinates":[-117.951731,33.672418]}},{"properties":{"city":"Westminster","store number":"20090","zip":"92685","geo_score":0.683,"street address":"16470 Beach Blvd.","contact1":"Daniel R. Ciscel","id":"ag6eeeimyl9p","geo_precision":"street","state":"CA"},"type":"Feature","geometry":{"type":"Point","coordinates":[-117.98909,33.72296]}},{"properties":{"city":"Huntington Beach","store number":"20094","zip":"92648","geo_score":1.0,"street address":"21004 Beach Blvd.","contact1":"Daniel R. Ciscel","id":"ag6eeemdaa6q","geo_precision":"range","state":"CA"},"type":"Feature","geometry":{"type":"Point","coordinates":[-117.988116,33.654075]}},{"properties":{"city":"Huntington Beach","store number":"20087","zip":"92647","geo_score":0.805,"street address":"6041 Bolsa Ave.","contact1":"Daniel R. Ciscel","id":"ag6eeedeqah5","geo_precision":"range","state":"CA"},"type":"Feature","geometry":{"type":"Point","coordinates":[-118.023183,33.744469]}},{"properties":{"city":"Irvine","store number":"20047","zip":"92606","geo_score":0.948,"street address":"16525-G Von Karman Avenue","contact1":"Daniel R. Ciscel","id":"ag6eeeomdmrx","geo_precision":"range","state":"CA"},"type":"Feature","geometry":{"type":"Point","coordinates":[-117.838552,33.693424]}},{"properties":{"city":"Laguna Woods","store number":"20022","zip":"92637","geo_score":0.892,"street address":"24365-A El Toro Road","contact1":"Ed Castaneda","id":"ag6eeep6aijy","geo_precision":"range","state":"CA"},"type":"Feature","geometry":{"type":"Point","coordinates":[-117.727153,33.609363]}},{"properties":{"city":"Orange","store number":"20054","zip":"92867","geo_score":0.604,"street address":"1545 E. Katella Ave.","contact1":"Ed Castaneda","id":"ag6eeenmwt7q","geo_precision":"street","state":"CA"},"type":"Feature","geometry":{"type":"Point","coordinates":[-117.855897,33.809052]}},{"properties":{"city":"Oxnard","store number":"20009A","zip":"93033","geo_score":0.902,"street address":"2721 South Rose Ave.","contact1":"Dan Burrell","id":"ag6eeep91vmr","geo_precision":"range","state":"CA"},"type":"Feature","geometry":{"type":"Point","coordinates":[-119.159997,34.182084]}},{"properties":{"city":"Long Beach","store number":"20025","zip":"90831","geo_score":0.957,"street address":"One World Trade Center","contact1":"Dan Burrell","id":"ag6eeee0id29","geo_precision":"street","state":"CA"},"type":"Feature","geometry":{"type":"Point","coordinates":[-118.199374,33.767319]}},{"properties":{"city":"Ventura","store number":"20100","zip":"93003","geo_score":1.0,"street address":"3301 East Main St","contact1":"Dan Burrell","id":"ag6eeekzr20b","geo_precision":"range","state":"CA"},"type":"Feature","geometry":{"type":"Point","coordinates":[-119.247534,34.265434]}},{"properties":{"city":"Arroyo Grande","store number":"20029","zip":"93420","geo_score":0.947,"street address":"1540 E Grand Ave.","contact1":"Dan Burrell","id":"ag6eeedn72pb","geo_precision":"range","state":"CA"},"type":"Feature","geometry":{"type":"Point","coordinates":[-120.606186,35.120869]}},{"properties":{"city":"Thousand Oaks","store number":"20048","zip":"91360","geo_score":0.614,"street address":"605 E. Janss Road","contact1":"Dan Burrell","id":"ag6eeeqgl8wo","geo_precision":"street","state":"CA"},"type":"Feature","geometry":{"type":"Point","coordinates":[-118.873611,34.200497]}},{"properties":{"city":"Camarillo","store number":"20001","zip":"93010","geo_score":0.614,"street address":"370 N. Lantana","contact1":"Dan Burrell","id":"ag6eeef6gqu0","geo_precision":"street","state":"CA"},"type":"Feature","geometry":{"type":"Point","coordinates":[-119.054237,34.232946]}},{"properties":{"city":"Newbury Park","store number":"20013","zip":"91320","geo_score":1.0,"street address":"1610-2 Newbury Rd","contact1":"Dan Burrell","id":"ag6eeeh29aj6","geo_precision":"range","state":"CA"},"type":"Feature","geometry":{"type":"Point","coordinates":[-118.916276,34.183891]}},{"properties":{"city":"Westlake Village","store number":"20011","zip":"91362","geo_score":0.477,"street address":"3825 E. Thousand Oaks Blvd.","contact1":"Dan Burrell","id":"ag6eeef8mogv","geo_precision":"street","state":"CA"},"type":"Feature","geometry":{"type":"Point","coordinates":[-118.874018,34.179148]}},{"properties":{"city":"Ventura","store number":"20003","zip":"93003","geo_score":0.602,"street address":"1145 S. Victoria Avenue","contact1":"Dan Burrell","id":"ag6eeedh5dmd","geo_precision":"street","state":"CA"},"type":"Feature","geometry":{"type":"Point","coordinates":[-119.214447,34.275587]}},{"properties":{"city":"Ojai","store number":"20006","zip":"93023","geo_score":0.614,"street address":"423 E. Ojai Ave.","contact1":"Dan Burrell","id":"ag6eeecxc5f8","geo_precision":"street","state":"CA"},"type":"Feature","geometry":{"type":"Point","coordinates":[-119.249394,34.447489]}},{"properties":{"city":"Santa Maria","store number":"20023","zip":"93455","geo_score":0.805,"street address":"2358 S Bradley Rd","contact1":"Dan Burrell","id":"ag6eeeeaa10r","geo_precision":"street","state":"CA"},"type":"Feature","geometry":{"type":"Point","coordinates":[-120.418523,34.909214]}},{"properties":{"city":"San Diego","store number":"20043","zip":"92110","geo_score":1.0,"street address":"3670 Rosecrans St.","contact1":"Cathy Brown","id":"ag6eeeqqjk7j","geo_precision":"range","state":"CA"},"type":"Feature","geometry":{"type":"Point","coordinates":[-117.204471,32.751681]}},{"properties":{"city":"Santa Clara","store number":"20109","zip":"95054","geo_score":0.743,"street address":"3937 Rivermark Plaza","contact1":"Cathy Brown","id":"ag6eeefiovg0","geo_precision":"street","state":"CA"},"type":"Feature","geometry":{"type":"Point","coordinates":[-121.94987,37.39684]}},{"properties":{"city":"San Diego","store number":"20062","zip":"92115","geo_score":1.0,"street address":"6083 El Cajon Blvd","contact1":"Cathy Brown","id":"ag6eeerh1sfr","geo_precision":"range","state":"CA"},"type":"Feature","geometry":{"type":"Point","coordinates":[-117.064764,32.762749]}},{"properties":{"city":"San Diego","store number":"20035","zip":"92108","geo_score":1.0,"street address":"8590 Rio San Diego Drive","contact1":"Cathy Brown","id":"ag6eeej3mnsn","geo_precision":"range","state":"CA"},"type":"Feature","geometry":{"type":"Point","coordinates":[-117.143133,32.775268]}},{"properties":{"city":"Mountain View","store number":"20115","zip":"94040","geo_score":1.0,"street address":"634 San Antonio Road","contact1":"Cathy Brown","id":"ag6eeeo04zp0","geo_precision":"range","state":"CA"},"type":"Feature","geometry":{"type":"Point","coordinates":[-122.11346,37.401387]}},{"properties":{"city":"San Diego","store number":"20040","zip":"92126","geo_score":0.688,"street address":"10764 Westview Parkway","contact1":"Cathy Brown","id":"ag6eeejc58c7","geo_precision":"street","state":"CA"},"type":"Feature","geometry":{"type":"Point","coordinates":[-117.120548,32.917212]}},{"properties":{"city":"San Diego","store number":"20086","zip":"92129","geo_score":0.317,"street address":"13173 - 6 Black Mountain Rd.","contact1":"Cathy Brown","id":"ag6eeem5be68","geo_precision":"street","state":"CA"},"type":"Feature","geometry":{"type":"Point","coordinates":[-117.163597,32.773719]}},{"properties":{"city":"Simi Valley","store number":"20007A","zip":"93065","geo_score":1.0,"street address":"2790 Cochran Street","contact1":"Manny Bhogal","id":"ag6eeek4rmh6","geo_precision":"range","state":"CA"},"type":"Feature","geometry":{"type":"Point","coordinates":[-118.743807,34.27899]}},{"properties":{"city":"Tarzana","store number":"20019","zip":"91356","geo_score":1.0,"street address":"19458 Ventura Blvd.","contact1":"Jeffrey Bengston","id":"ag6eeemc1878","geo_precision":"range","state":"CA"},"type":"Feature","geometry":{"type":"Point","coordinates":[-118.557744,34.172687]}},{"properties":{"city":"Beverly Hills","store number":"20034A","zip":"90212","geo_score":1.0,"street address":"279 South Beverly Dr.","contact1":"Adrian Baldieri","id":"ag6eeej88gqx","geo_precision":"range","state":"CA"},"type":"Feature","geometry":{"type":"Point","coordinates":[-118.399142,34.064417]}},{"properties":{"city":"Van Nuys","store number":"20085","zip":"91401","geo_score":1.0,"street address":"14441 Burbank Blvd","contact1":"Leonard Babaie","id":"ag6eeermy79i","geo_precision":"range","state":"CA"},"type":"Feature","geometry":{"type":"Point","coordinates":[-118.448487,34.17219]}},{"properties":{"city":"Burbank","store number":"20020","zip":"91502","geo_score":0.6,"street address":"875 N. San Fernando Blvd.","contact1":"Leonard Babaie","id":"ag6eeeicsdq6","geo_precision":"street","state":"CA"},"type":"Feature","geometry":{"type":"Point","coordinates":[-118.308744,34.180839]}},{"properties":{"city":"Granada Hills","store number":"20038","zip":"91344","geo_score":0.815,"street address":"18131 Chatsworth Street","contact1":"Gillian Maria Armenta","id":"ag6eeer6zkoz","geo_precision":"street","state":"CA"},"type":"Feature","geometry":{"type":"Point","coordinates":[-118.528112,34.26452]}},{"properties":{"city":"Redlands","store number":"20095","zip":"92374","geo_score":1.0,"street address":"10040 Alabama Street","contact1":"David G. Abrahams","id":"ag6eeefrw9uk","geo_precision":"range","state":"CA"},"type":"Feature","geometry":{"type":"Point","coordinates":[-117.208844,34.072881]}},{"properties":{"city":"Upland","store number":"20114","zip":"91786","geo_score":0.602,"street address":"367 S. Mountain Avenue","contact1":"Alvaro Garcia","id":"ag6eeepy35qy","geo_precision":"street","state":"CA"},"type":"Feature","geometry":{"type":"Point","coordinates":[-117.670138,34.092417]}},{"properties":{"city":"La Verne","store number":"20077","zip":"91750","geo_score":1.0,"street address":"2212 Foothill Blvd.","contact1":"Alvaro Garcia","id":"ag6eeeil1b5a","geo_precision":"range","state":"CA"},"type":"Feature","geometry":{"type":"Point","coordinates":[-117.765163,34.113293]}},{"properties":{"city":"Fountain Valley","store number":"20064","zip":"92708","geo_score":1.0,"street address":"18120 Brookhurst Street","contact1":"Alvaro Garcia","id":"ag6eeelu01xt","geo_precision":"range","state":"CA"},"type":"Feature","geometry":{"type":"Point","coordinates":[-117.954119,33.69956]}},{"properties":{"city":"Rancho Cucamonga","store number":"20060","zip":"91730","geo_score":1.0,"street address":"8880 Foothill Blvd.","contact1":"Alvaro Garcia","id":"ag6eeeremu6y","geo_precision":"range","state":"CA"},"type":"Feature","geometry":{"type":"Point","coordinates":[-117.612568,34.106737]}},{"properties":{"city":"Santa Monica","store number":"20096","zip":"90401","geo_score":1.0,"street address":"1447 Lincoln Blvd.","contact1":"Alvaro Garcia","id":"ag6eeeij297s","geo_precision":"range","state":"CA"},"type":"Feature","geometry":{"type":"Point","coordinates":[-118.490217,34.018657]}},{"properties":{"city":"Glendora","store number":"20070","zip":"91740","geo_score":0.571,"street address":"865 W. Route 66","contact1":"Alvaro Garcia","id":"ag6eeegjkk33","geo_precision":"street","state":"CA"},"type":"Feature","geometry":{"type":"Point","coordinates":[-117.863802,34.128675]}},{"properties":{"city":"Santa Ana","store number":"20113","zip":"92704","geo_score":0.607,"street address":"3941 S. Bristol Street","contact1":"Alvaro Garcia","id":"ag6eeeldm1wm","geo_precision":"street","state":"CA"},"type":"Feature","geometry":{"type":"Point","coordinates":[-117.885007,33.732814]}},{"properties":{"city":"Upland","store number":"20073","zip":"91784","geo_score":0.607,"street address":"1945 N. Campus Ave.","contact1":"Alvaro Garcia","id":"ag6eeeh6ii44","geo_precision":"street","state":"CA"},"type":"Feature","geometry":{"type":"Point","coordinates":[-117.641616,34.126227]}},{"properties":{"city":"Long Beach","store number":"20089","zip":"90815","geo_score":0.973,"street address":"1831 Ximeno  Avenue","contact1":"Alvaro Garcia","id":"ag6eeenr1pcn","geo_precision":"range","state":"CA"},"type":"Feature","geometry":{"type":"Point","coordinates":[-118.13939,33.791676]}},{"properties":{"city":"Marina del Rey","store number":"20081","zip":"90292","geo_score":1.0,"street address":"4020 Lincoln Blvd.","contact1":"Alvaro Garcia","id":"ag6eeepkpgiy","geo_precision":"range","state":"CA"},"type":"Feature","geometry":{"type":"Point","coordinates":[-118.444694,33.987331]}},{"properties":{"city":"Los Angeles","store number":"20069","zip":"90049","geo_score":0.805,"street address":"12003 Wilshire Boulevard","contact1":"Todd Gregory","id":"ag6eeemfgma6","geo_precision":"range","state":"CA"},"type":"Feature","geometry":{"type":"Point","coordinates":[-118.467501,34.044178]}},{"properties":{"city":"Orange","store number":"20080","zip":"92868","geo_score":0.619,"street address":"763 S. Main Street","contact1":"Hector Haget","id":"ag6eeegeci6x","geo_precision":"street","state":"CA"},"type":"Feature","geometry":{"type":"Point","coordinates":[-117.86729,33.786069]}},{"properties":{"city":"Irvine","store number":"20102","zip":"92614","geo_score":1.0,"street address":"17917 MacArthur Boulevard","contact1":"Hector Haget","id":"ag6eeedjidpd","geo_precision":"range","state":"CA"},"type":"Feature","geometry":{"type":"Point","coordinates":[-117.85402,33.687813]}},{"properties":{"city":"Tustin","store number":"20078","zip":"92780","geo_score":1.0,"street address":"13681 Newport Ave.","contact1":"Hector Haget","id":"ag6eeefm6tiw","geo_precision":"range","state":"CA"},"type":"Feature","geometry":{"type":"Point","coordinates":[-117.818295,33.742073]}},{"properties":{"city":"Lake Forest","store number":"20017","zip":"92610","geo_score":0.805,"street address":"45 Auto Center Drive","contact1":"Hector Haget","id":"ag6eeenla2bf","geo_precision":"range","state":"CA"},"type":"Feature","geometry":{"type":"Point","coordinates":[-117.723027,33.634636]}},{"properties":{"city":"Mission Viejo","store number":"20037","zip":"92692","geo_score":0.951,"street address":"25280-C Marguerite Parkway","contact1":"Hector Haget","id":"ag6eeebhtivl","geo_precision":"range","state":"CA"},"type":"Feature","geometry":{"type":"Point","coordinates":[-117.659188,33.594832]}},{"properties":{"city":"Lake Forest","store number":"20030","zip":"92630","geo_score":1.0,"street address":"23572 El Toro Road","contact1":"Hector Haget","id":"ag6eeeih4f44","geo_precision":"range","state":"CA"},"type":"Feature","geometry":{"type":"Point","coordinates":[-117.701472,33.619624]}},{"properties":{"city":"Murrieta","store number":"20067","zip":"92562","geo_score":1.0,"street address":"25359 Madison Avenue","contact1":"Boris Ilic","id":"ag6eeec4lj99","geo_precision":"range","state":"CA"},"type":"Feature","geometry":{"type":"Point","coordinates":[-117.201153,33.558068]}},{"properties":{"city":"Vista","store number":"20092","zip":"92081","geo_score":1.0,"street address":"620 Hacienda Drive","contact1":"Phillip M. Jones","id":"ag6eeerdbig8","geo_precision":"range","state":"CA"},"type":"Feature","geometry":{"type":"Point","coordinates":[-117.257139,33.193412]}},{"properties":{"city":"Solana Beach","store number":"20050","zip":"92075","geo_score":1.0,"street address":"915 Lomas Santa Fe Dr.","contact1":"Kevin Kenny","id":"ag6eeeqvm33k","geo_precision":"range","state":"CA"},"type":"Feature","geometry":{"type":"Point","coordinates":[-117.255134,32.995703]}},{"properties":{"city":"San Diego","store number":"20074","zip":"92109","geo_score":1.0,"street address":"1975 Garnet Ave","contact1":"Kevin Kenny","id":"ag6eeeh4hrzf","geo_precision":"range","state":"CA"},"type":"Feature","geometry":{"type":"Point","coordinates":[-117.234709,32.801026]}},{"properties":{"city":"La Jolla","store number":"20066","zip":"92037","geo_score":1.0,"street address":"7836 Herschel Avenue","contact1":"Kevin Kenny","id":"ag6eeem541n7","geo_precision":"range","state":"CA"},"type":"Feature","geometry":{"type":"Point","coordinates":[-117.273167,32.846345]}},{"properties":{"city":"West Covina","store number":"20063","zip":"91791","geo_score":0.805,"street address":"2536 E Workman Ave","contact1":"James Kern","id":"ag6eeemeve8p","geo_precision":"street","state":"CA"},"type":"Feature","geometry":{"type":"Point","coordinates":[-117.905053,34.075486]}},{"properties":{"city":"El Segundo","store number":"20105","zip":"90245","geo_score":1.0,"street address":"530A N Sepulveda Blvd.","contact1":"Garen Khodaverdian","id":"ag6eeeewghr1","geo_precision":"range","state":"CA"},"type":"Feature","geometry":{"type":"Point","coordinates":[-118.396188,33.923401]}},{"properties":{"city":"Hawthorne","store number":"20033","zip":"90250","geo_score":1.0,"street address":"5342 Rosecrans Ave.","contact1":"Garen Khodaverdian","id":"ag6eeejp33vh","geo_precision":"range","state":"CA"},"type":"Feature","geometry":{"type":"Point","coordinates":[-118.373889,33.901755]}},{"properties":{"city":"Torrance","store number":"20055","zip":"90505","geo_score":1.0,"street address":"24631 Crenshaw Blvd.","contact1":"Garen Khodaverdian","id":"ag6eeek62l4h","geo_precision":"range","state":"CA"},"type":"Feature","geometry":{"type":"Point","coordinates":[-118.328004,33.802812]}},{"properties":{"city":"Oxnard","store number":"20012","zip":"93035","geo_score":0.708,"street address":"1231 South Victoria Ave.","contact1":"Robert Patton Kincade","id":"ag6eeehbbx9b","geo_precision":"street","state":"CA"},"type":"Feature","geometry":{"type":"Point","coordinates":[-119.213741,34.272107]}},{"properties":{"city":"Bakersfield","store number":"20059","zip":"93309","geo_score":0.585,"street address":"5120 Stockdale Highway","contact1":"Stacy Knight","id":"ag6eeecxc52i","geo_precision":"zip","state":"CA"},"type":"Feature","geometry":{"type":"Point","coordinates":[-118.905173,35.294405]}},{"properties":{"city":"Bakersfield","store number":"20032","zip":"93308","geo_score":1.0,"street address":"4715 Coffee Road","contact1":"Stacy Knight","id":"ag6eeel7d2k0","geo_precision":"range","state":"CA"},"type":"Feature","geometry":{"type":"Point","coordinates":[-119.092146,35.399962]}},{"properties":{"city":"Los Angeles","store number":"20024A","zip":"90024","geo_score":1.0,"street address":"1020 Glendon Ave.","contact1":"David Lee","id":"ag6eeel3df68","geo_precision":"range","state":"CA"},"type":"Feature","geometry":{"type":"Point","coordinates":[-118.444274,34.061282]}},{"properties":{"city":"San Marcos","store number":"20053","zip":"92078","geo_score":0.837,"street address":"595 Grand Ave.","contact1":"Steve Leonard","id":"ag6eeenrc4a3","geo_precision":"street","state":"CA"},"type":"Feature","geometry":{"type":"Point","coordinates":[-117.178041,33.134524]}},{"properties":{"city":"Poway","store number":"20099","zip":"92064","geo_score":1.0,"street address":"12285 Scripps Poway Parkway","contact1":"Steve Leonard","id":"ag6eeefimp8u","geo_precision":"range","state":"CA"},"type":"Feature","geometry":{"type":"Point","coordinates":[-117.053583,32.938495]}},{"properties":{"city":"San Diego","store number":"20061","zip":"92127","geo_score":0.902,"street address":"15805 Bernardo Center Drive","contact1":"Steve Leonard","id":"ag6eeeeiy1w4","geo_precision":"range","state":"CA"},"type":"Feature","geometry":{"type":"Point","coordinates":[-117.090925,33.00564]}},{"properties":{"city":"Escondido","store number":"20071","zip":"92025","geo_score":1.0,"street address":"1829 S Centre City Pkwy","contact1":"Steve Leonard","id":"ag6eeef5gv4h","geo_precision":"range","state":"CA"},"type":"Feature","geometry":{"type":"Point","coordinates":[-117.075593,33.103358]}},{"properties":{"city":"Woodland Hills","store number":"20051","zip":"91364","geo_score":1.0,"street address":"22649 Ventura Blvd.","contact1":"Thomas James Magglos","id":"ag6eeek1d7ss","geo_precision":"range","state":"CA"},"type":"Feature","geometry":{"type":"Point","coordinates":[-118.620013,34.167195]}},{"properties":{"city":"Chatsworth","store number":"20039","zip":"91311","geo_score":1.0,"street address":"9840E Topanga Canyon Blvd.","contact1":"Thomas James Magglos","id":"ag6eeecy2zll","geo_precision":"range","state":"CA"},"type":"Feature","geometry":{"type":"Point","coordinates":[-118.605883,34.249015]}},{"properties":{"city":"Orange","store number":"20082","zip":"92869","geo_score":0.604,"street address":"3428 E. Chapman Avenue","contact1":"Marie May","id":"ag6eeep0clnr","geo_precision":"street","state":"CA"},"type":"Feature","geometry":{"type":"Point","coordinates":[-117.82842,33.78781]}},{"properties":{"city":"Arcadia","store number":"20076","zip":"91007","geo_score":1.0,"street address":"400 South Baldwin Avenue","contact1":"Vana Mehrabian","id":"ag6eeeiegzjo","geo_precision":"range","state":"CA"},"type":"Feature","geometry":{"type":"Point","coordinates":[-118.054255,34.134837]}},{"properties":{"city":"Monrovia","store number":"20046","zip":"91016","geo_score":1.0,"street address":"444 West Huntington Dr.","contact1":"Vana Mehrabian","id":"ag6eeedztynv","geo_precision":"range","state":"CA"},"type":"Feature","geometry":{"type":"Point","coordinates":[-118.009199,34.140196]}},{"properties":{"city":"Brea","store number":"20031","zip":"92821","geo_score":1.0,"street address":"955 East Birch Street","contact1":"Clarissa Palomaria","id":"ag6eeehxb3pp","geo_precision":"range","state":"CA"},"type":"Feature","geometry":{"type":"Point","coordinates":[-117.883395,33.917924]}},{"properties":{"city":"San Diego","store number":"20056","zip":"92111","geo_score":0.805,"street address":"7420 Clairemont Mesa Blvd.","contact1":"Christine Paul","id":"ag6eeehrb9bq","geo_precision":"range","state":"CA"},"type":"Feature","geometry":{"type":"Point","coordinates":[-117.153523,32.832804]}},{"properties":{"city":"San Diego","store number":"20097","zip":"92122","geo_score":0.985,"street address":"4353 La Jolla Village Drive","contact1":"Bradley Remy","id":"ag6eeemmdhz1","geo_precision":"range","state":"CA"},"type":"Feature","geometry":{"type":"Point","coordinates":[-117.210755,32.873351]}},{"properties":{"city":"San Diego","store number":"20079","zip":"92103","geo_score":0.916,"street address":"3975 5th Avenue","contact1":"Bradley S. Remy","id":"ag6eeeojftd8","geo_precision":"range","state":"CA"},"type":"Feature","geometry":{"type":"Point","coordinates":[-117.160365,32.748728]}},{"properties":{"city":"Camarillo","store number":"20010","zip":"93012","geo_score":1.0,"street address":"5800 Santa Rosa Road","contact1":"Dawn Robinson","id":"ag6eeeehuztu","geo_precision":"range","state":"CA"},"type":"Feature","geometry":{"type":"Point","coordinates":[-118.993288,34.223999]}},{"properties":{"city":"Moorpark","store number":"20027","zip":"93021","geo_score":0.597,"street address":"144 W. Los Angeles Ave.","contact1":"Dawn Robinson","id":"ag6eeee735ed","geo_precision":"street","state":"CA"},"type":"Feature","geometry":{"type":"Point","coordinates":[-118.801156,34.281211]}},{"properties":{"city":"Goleta","store number":"20075","zip":"93117","geo_score":0.98,"street address":"7034 Marketplace Dr.","contact1":"Dawn Robinson","id":"ag6eeeo7gg7d","geo_precision":"range","state":"CA"},"type":"Feature","geometry":{"type":"Point","coordinates":[-119.873305,34.4289]}},{"properties":{"city":"Eastvale","store number":"20084","zip":"91752","geo_score":0.902,"street address":"12569 Limonite Ave","contact1":"Gilbert Rubalcaba","id":"ag6eeejyqmov","geo_precision":"range","state":"CA"},"type":"Feature","geometry":{"type":"Point","coordinates":[-117.550952,33.975308]}},{"properties":{"city":"South Pasadena","store number":"20083","zip":"91030","geo_score":1.0,"street address":"462 Fair Oaks Avenue","contact1":"John Paul Simmons","id":"ag6eeekxgo9f","geo_precision":"range","state":"CA"},"type":"Feature","geometry":{"type":"Point","coordinates":[-118.150223,34.120291]}},{"properties":{"city":"La Canada","store number":"20044","zip":"91011","geo_score":0.946,"street address":"711 Foothill Blvd.","contact1":"John Paul Simmons","id":"ag6eeeq0gnba","geo_precision":"range","state":"CA"},"type":"Feature","geometry":{"type":"Point","coordinates":[-118.194236,34.201702]}},{"properties":{"city":"Pasadena","store number":"20052","zip":"91101","geo_score":0.614,"street address":"122 S. Lake Avenue","contact1":"John Paul Simmons","id":"ag6eeeh0wn1z","geo_precision":"street","state":"CA"},"type":"Feature","geometry":{"type":"Point","coordinates":[-118.132353,34.1459]}},{"properties":{"city":"Calabasas","store number":"20042","zip":"91302","geo_score":1.0,"street address":"26799 Agoura Rd.","contact1":"Lisa Sutter","id":"ag6eeeilqdq2","geo_precision":"range","state":"CA"},"type":"Feature","geometry":{"type":"Point","coordinates":[-118.706872,34.139984]}},{"properties":{"city":"Norco","store number":"20057","zip":"92860","geo_score":1.0,"street address":"1411 Hamner Ave.","contact1":"Errol Talley","id":"ag6eeemx1hjc","geo_precision":"range","state":"CA"},"type":"Feature","geometry":{"type":"Point","coordinates":[-117.561952,33.903614]}},{"properties":{"city":"Palmdale","store number":"20028","zip":"93551","geo_score":0.633,"street address":"39604 10th St. West","contact1":"William C. Violante","id":"ag6eeef4zcnk","geo_precision":"street","state":"CA"},"type":"Feature","geometry":{"type":"Point","coordinates":[-118.199702,34.617789]}},{"properties":{"city":"West Hollywood","store number":"20041","zip":"90046","geo_score":0.916,"street address":"7100 Santa Monica Blvd.","contact1":"Lloyd Weintraub","id":"ag6eeegblisv","geo_precision":"range","state":"CA"},"type":"Feature","geometry":{"type":"Point","coordinates":[-118.345145,34.090699]}},{"properties":{"city":"Hollywood","store number":"20058","zip":"90028","geo_score":1.0,"street address":"1517 Vine St.","contact1":"Lloyd Weintraub","id":"ag6eeeogj0uz","geo_precision":"range","state":"CA"},"type":"Feature","geometry":{"type":"Point","coordinates":[-118.326741,34.099498]}},{"properties":{"city":"Northridge","store number":"v20026","zip":"91324","geo_score":0.955,"street address":"19350 C Nordhoff St.","contact1":"Lloyd W Weintraub","id":"ag6eeei7wzo8","geo_precision":"range","state":"CA"},"type":"Feature","geometry":{"type":"Point","coordinates":[-118.553891,34.235407]}},{"properties":{"city":"Encinitas","store number":"20065","zip":"92024","geo_score":0.753,"street address":"1070 N El Camino Real","contact1":"Joseph R Weir","id":"ag6eeeixbgfz","geo_precision":"street","state":"CA"},"type":"Feature","geometry":{"type":"Point","coordinates":[-117.262216,33.067585]}},{"properties":{"city":"Saugus","store number":"20018","zip":"91350","geo_score":1.0,"street address":"26510 Bouquet Canyon Rd.","contact1":"Stephen J. Youlios","id":"ag6eeedlf01z","geo_precision":"range","state":"CA"},"type":"Feature","geometry":{"type":"Point","coordinates":[-118.536938,34.427286]}},{"properties":{"city":"Stevenson Ranch","store number":"20045","zip":"91381","geo_score":1.0,"street address":"25660 The Old Road","contact1":"Stephen J. Youlios","id":"ag6eeelnixep","geo_precision":"range","state":"CA"},"type":"Feature","geometry":{"type":"Point","coordinates":[-118.572067,34.386217]}},{"properties":{"city":"Valencia","store number":"20005A","zip":"91354","geo_score":0.61,"street address":"23872 Copper Hill Dr","contact1":"Stephen J. Youlios","id":"ag6eeeq3nex2","geo_precision":"street","state":"CA"},"type":"Feature","geometry":{"type":"Point","coordinates":[-118.535189,34.46]}},{"properties":{"city":"Canyon Country","store number":"20016B","zip":"91351","geo_score":1.0,"street address":"18635 Soledad Canyon Road","contact1":"Stephen Youlios","id":"ag6eeej30ewv","geo_precision":"range","state":"CA"},"type":"Feature","geometry":{"type":"Point","coordinates":[-118.458657,34.416026]}},{"properties":{"city":"Denver","store number":"22001","zip":"80203","geo_score":1.0,"street address":"555 Broadway","contact1":"Tom Chambers","id":"ag6eeecuzgiy","geo_precision":"range","state":"CO"},"type":"Feature","geometry":{"type":"Point","coordinates":[-104.987532,39.724812]}},{"properties":{"city":"Edgewater","store number":"22002","zip":"80214","geo_score":0.78,"street address":"2255 Sheridan Blvd.","contact1":"Tom Chambers","id":"ag6eeepzq1n6","geo_precision":"range","state":"CO"},"type":"Feature","geometry":{"type":"Point","coordinates":[-105.053149,39.750868]}},{"properties":{"city":"Westminster","store number":"22003","zip":"80234","geo_score":0.481,"street address":"12003 N. Pecos Street","contact1":"Tom Chambers","id":"ag6eeejt58se","geo_precision":"street","state":"CO"},"type":"Feature","geometry":{"type":"Point","coordinates":[-105.006425,39.890327]}},{"properties":{"city":"Greenwood Village","store number":"22005","zip":"80111","geo_score":0.925,"street address":"5137 South Yosemite St.","contact1":"Tom Chambers","id":"ag6eeemm9wpa","geo_precision":"range","state":"CO"},"type":"Feature","geometry":{"type":"Point","coordinates":[-104.885404,39.622778]}},{"properties":{"city":"Lakewood","store number":"22004","zip":"80226","geo_score":0.915,"street address":"105 Wadsworth Blvd","contact1":"Tom Chambers","id":"ag6eeectuoar","geo_precision":"range","state":"CO"},"type":"Feature","geometry":{"type":"Point","coordinates":[-105.081568,39.719265]}},{"properties":{"city":"Highlands Ranch","store number":"22009","zip":"80126","geo_score":0.6,"street address":"9362 S. Colorado Blvd.","contact1":"Jason Brown","id":"ag6eeek6q9a2","geo_precision":"street","state":"CO"},"type":"Feature","geometry":{"type":"Point","coordinates":[-104.941711,39.565826]}},{"properties":{"city":"Colorado Springs","store number":"22010","zip":"80909","geo_score":0.602,"street address":"737 N. Academy Blvd.","contact1":"Timothy Holliday","id":"ag6eeeim4f6c","geo_precision":"street","state":"CO"},"type":"Feature","geometry":{"type":"Point","coordinates":[-104.757425,38.832858]}},{"properties":{"city":"Parker","store number":"22006","zip":"80134","geo_score":0.604,"street address":"18366 E. Lincoln Avenue","contact1":"Natalie Karpa","id":"ag6eeecqivj9","geo_precision":"street","state":"CO"},"type":"Feature","geometry":{"type":"Point","coordinates":[-104.866391,39.536238]}},{"properties":{"city":"Aurora","store number":"22008","zip":"80013","geo_score":1.0,"street address":"3571 S Tower Rd.","contact1":"Michael S. Longhofer","id":"ag6eeefetk7b","geo_precision":"range","state":"CO"},"type":"Feature","geometry":{"type":"Point","coordinates":[-104.772539,39.65288]}},{"properties":{"city":"Fort Collins","store number":"22007","zip":"80528","geo_score":0.669,"street address":"4709 S Timberline Road","contact1":"John B. Ricketts","id":"ag6eeekmidhf","geo_precision":"street","state":"CO"},"type":"Feature","geometry":{"type":"Point","coordinates":[-105.039301,40.511243]}},{"properties":{"city":"Branford","store number":"19001","zip":"06405","geo_score":1.0,"street address":"845 West Main Street","contact1":"Edward Rizzuti","id":"ag6eeekm79ya","geo_precision":"range","state":"CT"},"type":"Feature","geometry":{"type":"Point","coordinates":[-72.838968,41.27743]}},{"properties":{"city":"Jupiter","store number":"13060","zip":"33458","geo_score":0.836,"street address":"5500 North Military Trail","contact1":"Amber Gagne","id":"ag6eeecimsr4","geo_precision":"range","state":"FL"},"type":"Feature","geometry":{"type":"Point","coordinates":[-80.102612,26.907697]}},{"properties":{"city":"Stuart","store number":"13009A","zip":"34997","geo_score":0.602,"street address":"3321 S. Federal Highway","contact1":"Matt Forbes","id":"ag6eeeh7umvc","geo_precision":"street","state":"FL"},"type":"Feature","geometry":{"type":"Point","coordinates":[-80.231169,27.17219]}},{"properties":{"city":"Orlando","store number":"13032","zip":"32828","geo_score":1.0,"street address":"12420 Lake Underhill Rd","contact1":"Joseph Fischer","id":"ag6eeepmxeek","geo_precision":"range","state":"FL"},"type":"Feature","geometry":{"type":"Point","coordinates":[-81.198478,28.545223]}},{"properties":{"city":"Tampa","store number":"13027","zip":"33618","geo_score":1.0,"street address":"14839 North Dale Mabry Highway","contact1":"James &amp; Shelli Fanning","id":"ag6eeejcyuwd","geo_precision":"range","state":"FL"},"type":"Feature","geometry":{"type":"Point","coordinates":[-82.506672,28.077514]}},{"properties":{"city":"Brandon","store number":"13026","zip":"33511","geo_score":0.719,"street address":"10951 Causeway Blvd","contact1":"James Fanning","id":"ag6eeehpkv2c","geo_precision":"street","state":"FL"},"type":"Feature","geometry":{"type":"Point","coordinates":[-82.332562,27.923071]}},{"properties":{"city":"Daytona Beach","store number":"13042","zip":"32114","geo_score":0.586,"street address":"1808 W. International Speedway Blvd.","contact1":"George Ebbs","id":"ag6eeegqbu3q","geo_precision":"street","state":"FL"},"type":"Feature","geometry":{"type":"Point","coordinates":[-81.022064,29.211131]}},{"properties":{"city":"Ormond Beach","store number":"13049","zip":"32174","geo_score":0.602,"street address":"1474 W Granada Blvd, Suite 25","contact1":"George Ebbs","id":"ag6eeeldp7fw","geo_precision":"street","state":"FL"},"type":"Feature","geometry":{"type":"Point","coordinates":[-81.058685,29.284457]}},{"properties":{"city":"Destin","store number":"13029A","zip":"32541","geo_score":0.92,"street address":"817 Harbor Blvd","contact1":"Christopher M. Decker","id":"ag6eeemkua3f","geo_precision":"range","state":"FL"},"type":"Feature","geometry":{"type":"Point","coordinates":[-86.483571,30.412927]}},{"properties":{"city":"Okeechobee","store number":"13035A","zip":"34972","geo_score":0.779,"street address":"611 South West Park St.","contact1":"Wanda Dail","id":"ag6eeeg829l2","geo_precision":"street","state":"FL"},"type":"Feature","geometry":{"type":"Point","coordinates":[-80.839147,27.243133]}},{"properties":{"city":"Gainesville","store number":"13054","zip":"32605","geo_score":0.809,"street address":"2015 NW 43rd Street","contact1":"Kimberly A. Crowell","id":"ag6eeejnqq9b","geo_precision":"street","state":"FL"},"type":"Feature","geometry":{"type":"Point","coordinates":[-82.388986,29.671031]}},{"properties":{"city":"Tallahassee","store number":"13069","zip":"32308","geo_score":1.0,"street address":"3122 Mahan Drive","contact1":"Kimberly Crowell","id":"ag6eeejuuilb","geo_precision":"range","state":"FL"},"type":"Feature","geometry":{"type":"Point","coordinates":[-84.226542,30.460648]}},{"properties":{"city":"Tallahassee","store number":"13047","zip":"32312","geo_score":1.0,"street address":"1355 Market St.","contact1":"Kimberly A. Crowell","id":"ag6eeeme2rr8","geo_precision":"range","state":"FL"},"type":"Feature","geometry":{"type":"Point","coordinates":[-84.253809,30.506034]}},{"properties":{"city":"Tallahassee","store number":"13076","zip":"32311","geo_score":0.585,"street address":"1970 Gainesborough Drive","contact1":"Kimberly Crowell","id":"ag6eeeradgka","geo_precision":"zip","state":"FL"},"type":"Feature","geometry":{"type":"Point","coordinates":[-84.135913,30.433478]}},{"properties":{"city":"Tallahassee","store number":"13043","zip":"32304","geo_score":1.0,"street address":"1801 West Tennessee St.","contact1":"Kimberly A. Crowell","id":"ag6eeeog10vj","geo_precision":"range","state":"FL"},"type":"Feature","geometry":{"type":"Point","coordinates":[-84.308628,30.449043]}},{"properties":{"city":"Pinellas Park","store number":"13074","zip":"33781","geo_score":0.947,"street address":"7066  US Highway 19 North","contact1":"James Connolly","id":"ag6eeehr5zu2","geo_precision":"range","state":"FL"},"type":"Feature","geometry":{"type":"Point","coordinates":[-82.682185,27.83678]}},{"properties":{"city":"St. Petersburg","store number":"13056","zip":"33716","geo_score":0.783,"street address":"10304 Roosevelt Boulevard North","contact1":"James Connolly","id":"ag6eeef85hnm","geo_precision":"street","state":"FL"},"type":"Feature","geometry":{"type":"Point","coordinates":[-82.645009,27.868395]}},{"properties":{"city":"Boca Raton","store number":"13058","zip":"33431","geo_score":0.61,"street address":"1200 Yamato Rd.","contact1":"Scott Coleman","id":"ag6eeer77jjm","geo_precision":"street","state":"FL"},"type":"Feature","geometry":{"type":"Point","coordinates":[-80.150241,26.394119]}},{"properties":{"city":"Ft. Myers","store number":"13021A","zip":"33907","geo_score":0.529,"street address":"12377 S. Cleveland Ave","contact1":"Leisha Cherry","id":"ag6eeebibnib","geo_precision":"street","state":"FL"},"type":"Feature","geometry":{"type":"Point","coordinates":[-81.871984,26.59355]}},{"properties":{"city":"Winter Garden","store number":"13071","zip":"34787","geo_score":0.805,"street address":"3310 Daniels Road","contact1":"Raul Ceide","id":"ag6eeeey4ak3","geo_precision":"street","state":"FL"},"type":"Feature","geometry":{"type":"Point","coordinates":[-81.5835,28.54879]}},{"properties":{"city":"Orlando","store number":"13048","zip":"32819","geo_score":1.0,"street address":"3042 West Sand Lake Road","contact1":"Raul Ceide","id":"ag6eeenx0c4a","geo_precision":"range","state":"FL"},"type":"Feature","geometry":{"type":"Point","coordinates":[-81.422515,28.45032]}},{"properties":{"city":"Orlando","store number":"13068","zip":"32801","geo_score":0.61,"street address":"54 W. Church Street","contact1":"Raul Ceide","id":"ag6eeelcyyzl","geo_precision":"street","state":"FL"},"type":"Feature","geometry":{"type":"Point","coordinates":[-81.379888,28.540343]}},{"properties":{"city":"Orlando","store number":"13020A","zip":"32835","geo_score":1.0,"street address":"6700 Conroy Rd","contact1":"Raul Ceide","id":"ag6eeep4lzur","geo_precision":"range","state":"FL"},"type":"Feature","geometry":{"type":"Point","coordinates":[-81.473238,28.493691]}},{"properties":{"city":"Orlando","store number":"13064","zip":"32837","geo_score":0.727,"street address":"13651 Hunters Oak Dr.","contact1":"Raul Ceide","id":"ag6eeem7c5yt","geo_precision":"street","state":"FL"},"type":"Feature","geometry":{"type":"Point","coordinates":[-81.400553,28.378556]}},{"properties":{"city":"Coral Springs","store number":"13079","zip":"33073","geo_score":0.91,"street address":"4230 North State Rd 7","contact1":"Scott Coleman","id":"ag6eeeqvzns8","geo_precision":"range","state":"FL"},"type":"Feature","geometry":{"type":"Point","coordinates":[-80.201904,26.281731]}},{"properties":{"city":"Delray Beach","store number":"13001B","zip":"33483","geo_score":1.0,"street address":"1554 South Federal Highway","contact1":"Ken Bynum","id":"ag6eeelfxt3g","geo_precision":"range","state":"FL"},"type":"Feature","geometry":{"type":"Point","coordinates":[-80.067045,26.446878]}},{"properties":{"city":"Boca Raton","store number":"13025","zip":"33433","geo_score":1.0,"street address":"7050 West Palmetto Park Road","contact1":"Steven &amp; Sandra Brodsky","id":"ag6eeemo80wo","geo_precision":"range","state":"FL"},"type":"Feature","geometry":{"type":"Point","coordinates":[-80.154422,26.350248]}},{"properties":{"city":"Tampa","store number":"13065","zip":"33606","geo_score":0.602,"street address":"2121 W. Kennedy Blvd.","contact1":"William Atkins","id":"ag6eeeiycxcn","geo_precision":"street","state":"FL"},"type":"Feature","geometry":{"type":"Point","coordinates":[-82.459657,27.947105]}},{"properties":{"city":"Trinity","store number":"13072","zip":"34655","geo_score":0.734,"street address":"10829 State Road 54","contact1":"William Atkins","id":"ag6eeek834ip","geo_precision":"street","state":"FL"},"type":"Feature","geometry":{"type":"Point","coordinates":[-82.635015,28.193215]}},{"properties":{"city":"Bradenton","store number":"13046","zip":"34205","geo_score":0.619,"street address":"4020 14th St. West","contact1":"Patrick J. George","id":"ag6eeef76yds","geo_precision":"street","state":"FL"},"type":"Feature","geometry":{"type":"Point","coordinates":[-82.575217,27.496122]}},{"properties":{"city":"Winter Park","store number":"13055","zip":"32792","geo_score":0.607,"street address":"4004 N. Goldenrod Road","contact1":"Sean Gillespie","id":"ag6eeefo4ren","geo_precision":"street","state":"FL"},"type":"Feature","geometry":{"type":"Point","coordinates":[-81.27327,28.618579]}},{"properties":{"city":"Orlando","store number":"13044","zip":"32817","geo_score":1.0,"street address":"3402 Technological Ave.","contact1":"Sean Gillespie","id":"ag6eeece8zw1","geo_precision":"range","state":"FL"},"type":"Feature","geometry":{"type":"Point","coordinates":[-81.220378,28.598625]}},{"properties":{"city":"Ft. Myers","store number":"13024","zip":"33912","geo_score":0.641,"street address":"6810 Shoppes at Plantation Drive","contact1":"Keith A. Glynn","id":"ag6eeej540ba","geo_precision":"street","state":"FL"},"type":"Feature","geometry":{"type":"Point","coordinates":[-81.811096,26.488018]}},{"properties":{"city":"Orange Park","store number":"13063","zip":"32073","geo_score":1.0,"street address":"410 Blanding Blvd.","contact1":"Dale Herring","id":"ag6eeeexoo42","geo_precision":"range","state":"FL"},"type":"Feature","geometry":{"type":"Point","coordinates":[-81.747491,30.163316]}},{"properties":{"city":"Jacksonville","store number":"13051","zip":"32205","geo_score":0.806,"street address":"4261 Roosevelt Blvd.","contact1":"Dale Herring","id":"ag6eeebn7ebd","geo_precision":"street","state":"FL"},"type":"Feature","geometry":{"type":"Point","coordinates":[-81.720025,30.293772]}},{"properties":{"city":"Oldsmar","store number":"13039","zip":"34677","geo_score":1.0,"street address":"3860 Tampa Road","contact1":"Brian Kenny","id":"ag6eeeozdovj","geo_precision":"range","state":"FL"},"type":"Feature","geometry":{"type":"Point","coordinates":[-82.672836,28.041937]}},{"properties":{"city":"Jupiter","store number":"13011","zip":"33458","geo_score":1.0,"street address":"6390 West Indiantown Road","contact1":"Lance Steven Liptak","id":"ag6eeeran1tx","geo_precision":"range","state":"FL"},"type":"Feature","geometry":{"type":"Point","coordinates":[-80.132994,26.934456]}},{"properties":{"city":"Delray Beach","store number":"13010B","zip":"33483","geo_score":0.867,"street address":"455-C NE 5th Avenue","contact1":"Humayune Malik","id":"ag6eeedqv6el","geo_precision":"range","state":"FL"},"type":"Feature","geometry":{"type":"Point","coordinates":[-80.068135,26.469842]}},{"properties":{"city":"Jacksonville","store number":"13070","zip":"32217","geo_score":1.0,"street address":"3541-1 University Blvd West","contact1":"Ryan McLaughlin","id":"ag6eeer15uad","geo_precision":"range","state":"FL"},"type":"Feature","geometry":{"type":"Point","coordinates":[-81.624117,30.262579]}},{"properties":{"city":"Jacksonville","store number":"13059","zip":"32207","geo_score":1.0,"street address":"1615 Hendricks Avenue","contact1":"Ryan McLaughlin","id":"ag6eeeovrbvk","geo_precision":"range","state":"FL"},"type":"Feature","geometry":{"type":"Point","coordinates":[-81.65426,30.307513]}},{"properties":{"city":"Jacksonville","store number":"13067","zip":"32246","geo_score":1.0,"street address":"9700 Deer Lake Court","contact1":"Ryan McLaughlin","id":"ag6eeefxvcfr","geo_precision":"range","state":"FL"},"type":"Feature","geometry":{"type":"Point","coordinates":[-81.554454,30.268145]}},{"properties":{"city":"Boynton Beach","store number":"13012","zip":"33426","geo_score":0.961,"street address":"2260 Woolbright Rd.","contact1":"Mike McMenaman","id":"ag6eeejbu7e3","geo_precision":"range","state":"FL"},"type":"Feature","geometry":{"type":"Point","coordinates":[-80.089841,26.513137]}},{"properties":{"city":"West Palm Beach","store number":"13002B","zip":"33409","geo_score":1.0,"street address":"931 Village Blvd","contact1":"James W. Myers","id":"ag6eeemqp2ix","geo_precision":"range","state":"FL"},"type":"Feature","geometry":{"type":"Point","coordinates":[-80.100252,26.714586]}},{"properties":{"city":"Vero Beach","store number":"13023A","zip":"32960","geo_score":0.916,"street address":"628 21st Street","contact1":"Anthony Nigito","id":"ag6eeei4y6gf","geo_precision":"range","state":"FL"},"type":"Feature","geometry":{"type":"Point","coordinates":[-80.385999,27.639829]}},{"properties":{"city":"Altamonte Springs","store number":"13036","zip":"32714","geo_score":0.317,"street address":"851 S. State Rd. 434","contact1":"Jeff Padgett","id":"ag6eeen275r2","geo_precision":"street","state":"FL"},"type":"Feature","geometry":{"type":"Point","coordinates":[-81.279707,28.771144]}},{"properties":{"city":"Maitland","store number":"13057","zip":"32751","geo_score":0.604,"street address":"246 N. Orlando Avenue","contact1":"Jeff Padgett","id":"ag6eeeob018r","geo_precision":"street","state":"FL"},"type":"Feature","geometry":{"type":"Point","coordinates":[-81.363495,28.625791]}},{"properties":{"city":"Altamonte Springs","store number":"13037","zip":"32701","geo_score":1.0,"street address":"175 East Altamonte Drive","contact1":"Jeff Padgett","id":"ag6eeeqzdj3x","geo_precision":"range","state":"FL"},"type":"Feature","geometry":{"type":"Point","coordinates":[-81.385511,28.662027]}},{"properties":{"city":"Orlando","store number":"13053","zip":"32804","geo_score":1.0,"street address":"2100 Edgewater Drive","contact1":"Jeff Padgett","id":"ag6eeek3vdfe","geo_precision":"range","state":"FL"},"type":"Feature","geometry":{"type":"Point","coordinates":[-81.38944,28.571144]}},{"properties":{"city":"Lake Mary","store number":"13033","zip":"32746","geo_score":0.837,"street address":"819 Rinehart Road","contact1":"Jeff Padgett","id":"ag6eeel0l5w0","geo_precision":"street","state":"FL"},"type":"Feature","geometry":{"type":"Point","coordinates":[-81.347281,28.779287]}},{"properties":{"city":"Winter Park","store number":"13061","zip":"32789","geo_score":1.0,"street address":"1150 South Orlando Ave.","contact1":"Jeff Padgett","id":"ag6eeen0ciir","geo_precision":"range","state":"FL"},"type":"Feature","geometry":{"type":"Point","coordinates":[-81.36503,28.587238]}},{"properties":{"city":"Melbourne","store number":"13040","zip":"32901","geo_score":0.699,"street address":"1515 Palm Bay Road","contact1":"Bryan Price","id":"ag6eeem5hnlw","geo_precision":"street","state":"FL"},"type":"Feature","geometry":{"type":"Point","coordinates":[-80.634294,28.080555]}},{"properties":{"city":"Melbourne","store number":"13045","zip":"32935","geo_score":0.585,"street address":"1070 North Wickham Road","contact1":"Bryan Price","id":"ag6eeecec1bk","geo_precision":"zip","state":"FL"},"type":"Feature","geometry":{"type":"Point","coordinates":[-80.680583,28.210733]}},{"properties":{"city":"Melbourne","store number":"13052","zip":"32901","geo_score":1.0,"street address":"90 West Hibiscus Blvd.","contact1":"Bryan Price","id":"ag6eeejq935b","geo_precision":"range","state":"FL"},"type":"Feature","geometry":{"type":"Point","coordinates":[-80.624093,28.085303]}},{"properties":{"city":"Tampa","store number":"13007B","zip":"33613","geo_score":1.0,"street address":"14925 Bruce B Downs Blvd.","contact1":"Todd Quinzi","id":"ag6eeenl2wkb","geo_precision":"range","state":"FL"},"type":"Feature","geometry":{"type":"Point","coordinates":[-82.413941,28.082169]}},{"properties":{"city":"Tampa","store number":"13062","zip":"33629","geo_score":0.598,"street address":"1155 S. Dale Mabry Hwy","contact1":"Todd Quinzi","id":"ag6eeego0775","geo_precision":"street","state":"FL"},"type":"Feature","geometry":{"type":"Point","coordinates":[-82.505819,27.932928]}},{"properties":{"city":"Port St. Lucie","store number":"13031A","zip":"34984","geo_score":0.597,"street address":"262 SW Port St. Lucie Blvd.","contact1":"Jason Rex","id":"ag6eeedkibwd","geo_precision":"street","state":"FL"},"type":"Feature","geometry":{"type":"Point","coordinates":[-80.314679,27.165221]}},{"properties":{"city":"Pensacola","store number":"13004","zip":"32504","geo_score":1.0,"street address":"1620 Airport Blvd","contact1":"Wade Scherl","id":"ag6eeeev39oc","geo_precision":"range","state":"FL"},"type":"Feature","geometry":{"type":"Point","coordinates":[-87.208508,30.480594]}},{"properties":{"city":"University Park","store number":"13030","zip":"34201","geo_score":0.455,"street address":"8210 Tourist Center Drive","contact1":"Bill &amp; Kathleen Schulte","id":"ag6eeegfumj3","geo_precision":"street","state":"FL"},"type":"Feature","geometry":{"type":"Point","coordinates":[-82.533734,27.557762]}},{"properties":{"city":"Sarasota","store number":"13019","zip":"34239","geo_score":0.607,"street address":"3820 S. Tuttle Ave.","contact1":"William Schulte","id":"ag6eeeqz6e1u","geo_precision":"street","state":"FL"},"type":"Feature","geometry":{"type":"Point","coordinates":[-82.51409,27.322753]}},{"properties":{"city":"Bonita Springs","store number":"13028","zip":"34135","geo_score":1.0,"street address":"8951 Bonita Beach Road","contact1":"Wayne Shaw","id":"ag6eeeqoc978","geo_precision":"range","state":"FL"},"type":"Feature","geometry":{"type":"Point","coordinates":[-81.803661,26.330503]}},{"properties":{"city":"Boca Raton","store number":"13017","zip":"33434","geo_score":1.0,"street address":"8903 Glades Road","contact1":"Eric Wilson","id":"ag6eeekqorv2","geo_precision":"range","state":"FL"},"type":"Feature","geometry":{"type":"Point","coordinates":[-80.184875,26.367969]}},{"properties":{"city":"Port Orange","store number":"13041A","zip":"32127","geo_score":1.0,"street address":"3843 South Nova Road","contact1":"Ryan McLaughlin","id":"ag6eeent3b83","geo_precision":"range","state":"FL"},"type":"Feature","geometry":{"type":"Point","coordinates":[-81.004222,29.125919]}},{"properties":{"city":"Canton","store number":"5040A","zip":"30114","geo_score":0.809,"street address":"149 Reinhardt College Pkwy.","contact1":"James R. Gallimore","id":"ag6eeebd89mn","geo_precision":"street","state":"GA"},"type":"Feature","geometry":{"type":"Point","coordinates":[-84.480955,34.256693]}},{"properties":{"city":"Atlanta","store number":"5014B","zip":"30342","geo_score":1.0,"street address":"3740 Roswell Road","contact1":"Gary Dorfman","id":"ag6eeeonxomq","geo_precision":"range","state":"GA"},"type":"Feature","geometry":{"type":"Point","coordinates":[-84.381999,33.857124]}},{"properties":{"city":"Atlanta","store number":"5037","zip":"30328","geo_score":1.0,"street address":"227 Sandy Springs Place NE","contact1":"Gary Dorfman","id":"ag6eeej516bv","geo_precision":"range","state":"GA"},"type":"Feature","geometry":{"type":"Point","coordinates":[-84.381752,33.921477]}},{"properties":{"city":"Savannah","store number":"5042","zip":"31410","geo_score":1.0,"street address":"111 Jazie Drive","contact1":"Ryan Delman","id":"ag6eeehgvflu","geo_precision":"range","state":"GA"},"type":"Feature","geometry":{"type":"Point","coordinates":[-81.008533,32.042885]}},{"properties":{"city":"Savannah","store number":"5043","zip":"31406","geo_score":1.0,"street address":"7400 Abercorn St.","contact1":"Ryan Delman","id":"ag6eeee894lf","geo_precision":"range","state":"GA"},"type":"Feature","geometry":{"type":"Point","coordinates":[-81.114508,32.009828]}},{"properties":{"city":"Marietta","store number":"5048","zip":"30062","geo_score":1.0,"street address":"4400 Roswell Road","contact1":"Charles A. Davis","id":"ag6eeeh94v67","geo_precision":"range","state":"GA"},"type":"Feature","geometry":{"type":"Point","coordinates":[-84.422407,33.985881]}},{"properties":{"city":"Acworth","store number":"5035B","zip":"30101","geo_score":0.571,"street address":"3330 N. Cobb Pkwy.","contact1":"Majid Dadmehr","id":"ag6eeej1vltl","geo_precision":"street","state":"GA"},"type":"Feature","geometry":{"type":"Point","coordinates":[-84.671364,34.033584]}},{"properties":{"city":"Grovetown","store number":"5045","zip":"30813","geo_score":0.585,"street address":"4010 Gateway Blvd.","contact1":"Eric Clark","id":"ag6eeemamir5","geo_precision":"zip","state":"GA"},"type":"Feature","geometry":{"type":"Point","coordinates":[-82.213991,33.466721]}},{"properties":{"city":"Martinez","store number":"5050","zip":"30907","geo_score":0.98,"street address":"403 Fury's Ferry Rd.","contact1":"Eric Clark","id":"ag6eeefli3k9","geo_precision":"range","state":"GA"},"type":"Feature","geometry":{"type":"Point","coordinates":[-82.074486,33.529715]}},{"properties":{"city":"Statesboro","store number":"5049","zip":"30458","geo_score":0.806,"street address":"721 South Main Street","contact1":"William C. Brown","id":"ag6eeefjr8r2","geo_precision":"street","state":"GA"},"type":"Feature","geometry":{"type":"Point","coordinates":[-81.785007,32.432877]}},{"properties":{"city":"Kennesaw","store number":"5039","zip":"30144","geo_score":0.735,"street address":"840 Ernest W. Barrett Pkwy NW","contact1":"Justin Barnes","id":"ag6eeefmwmgh","geo_precision":"street","state":"GA"},"type":"Feature","geometry":{"type":"Point","coordinates":[-84.561303,34.014033]}},{"properties":{"city":"Loganville","store number":"5003E","zip":"30052","geo_score":1.0,"street address":"4018 Atlanta Highway","contact1":"Fredy Acosta","id":"ag6eeeoivz4z","geo_precision":"range","state":"GA"},"type":"Feature","geometry":{"type":"Point","coordinates":[-83.911226,33.845994]}},{"properties":{"city":"Suwanee","store number":"5028A","zip":"30024","geo_score":0.805,"street address":"3463 Lawrenceville Suwanee Rd.","contact1":"Fredy Acosta","id":"ag6eeekchyji","geo_precision":"street","state":"GA"},"type":"Feature","geometry":{"type":"Point","coordinates":[-84.04654,34.028417]}},{"properties":{"city":"Duluth","store number":"5032","zip":"30096","geo_score":0.902,"street address":"3780 Old Norcross Rd.","contact1":"Fredy Acosta","id":"ag6eeefepc6x","geo_precision":"range","state":"GA"},"type":"Feature","geometry":{"type":"Point","coordinates":[-84.142545,33.962614]}},{"properties":{"city":"Snellville","store number":"5030","zip":"30078","geo_score":0.806,"street address":"2050 Highway 124","contact1":"Charles (Mike) Hogan Jr.","id":"ag6eeegezris","geo_precision":"street","state":"GA"},"type":"Feature","geometry":{"type":"Point","coordinates":[-84.020005,33.857566]}},{"properties":{"city":"Atlanta","store number":"5016","zip":"30319","geo_score":0.708,"street address":"2036 Johnson Ferry Road","contact1":"Gerald Kallman","id":"ag6eeer6ceql","geo_precision":"street","state":"GA"},"type":"Feature","geometry":{"type":"Point","coordinates":[-84.350136,33.905775]}},{"properties":{"city":"Peachtree Corners","store number":"5007C","zip":"30092","geo_score":0.874,"street address":"6050 Peachtree Pkwy.","contact1":"Gerald Kallman","id":"ag6eeed7b1oj","geo_precision":"range","state":"GA"},"type":"Feature","geometry":{"type":"Point","coordinates":[-84.232923,33.95454]}},{"properties":{"city":"Alpharetta","store number":"5005B","zip":"30005","geo_score":0.878,"street address":"4075 Old Milton Pkwy.","contact1":"Peter Knezevich","id":"ag6eeenzh6ss","geo_precision":"range","state":"GA"},"type":"Feature","geometry":{"type":"Point","coordinates":[-84.239796,34.060306]}},{"properties":{"city":"Newnan","store number":"5013A","zip":"30265","geo_score":0.725,"street address":"90 Glenda Trace","contact1":"Thomas Kuhns","id":"ag6eeefm7t9l","geo_precision":"range","state":"GA"},"type":"Feature","geometry":{"type":"Point","coordinates":[-85.019392,33.070412]}},{"properties":{"city":"Peachtree City","store number":"5029","zip":"30269","geo_score":0.756,"street address":"2729 Highway 54 West","contact1":"Thomas Kuhns","id":"ag6eeeh1emid","geo_precision":"range","state":"GA"},"type":"Feature","geometry":{"type":"Point","coordinates":[-84.594783,33.396804]}},{"properties":{"city":"Smyrna","store number":"5020","zip":"30080","geo_score":0.951,"street address":"4715 South Atlanta Road","contact1":"Michael K. Lee","id":"ag6eeeep683j","geo_precision":"range","state":"GA"},"type":"Feature","geometry":{"type":"Point","coordinates":[-84.483922,33.839324]}},{"properties":{"city":"Atlanta","store number":"5025","zip":"30341","geo_score":1.0,"street address":"3489A Chamblee Tucker Road","contact1":"Cheng (Steve) Liu","id":"ag6eeeou99jq","geo_precision":"range","state":"GA"},"type":"Feature","geometry":{"type":"Point","coordinates":[-84.248378,33.885525]}},{"properties":{"city":"Roswell","store number":"5015","zip":"30076","geo_score":0.826,"street address":"665 Holcomb Bridge Road","contact1":"Ronald P. Longo","id":"ag6eeeku185l","geo_precision":"range","state":"GA"},"type":"Feature","geometry":{"type":"Point","coordinates":[-84.34189,34.034448]}},{"properties":{"city":"Holly Springs","store number":"5038","zip":"30188","geo_score":0.917,"street address":"5341 Old Highway 5","contact1":"John Vincent O'Donnell Jr","id":"ag6eeelh4y1t","geo_precision":"range","state":"GA"},"type":"Feature","geometry":{"type":"Point","coordinates":[-84.503854,34.139872]}},{"properties":{"city":"Dalton","store number":"5044","zip":"30720","geo_score":1.0,"street address":"1367 W Walnut Ave.","contact1":"Sweeti Patel","id":"ag6eeeq37bl5","geo_precision":"range","state":"GA"},"type":"Feature","geometry":{"type":"Point","coordinates":[-84.992983,34.759658]}},{"properties":{"city":"Atlanta","store number":"5018B","zip":"30329","geo_score":0.945,"street address":"2470 Briarcliff Rd.","contact1":"Brandon Powell","id":"ag6eeeirfhlw","geo_precision":"range","state":"GA"},"type":"Feature","geometry":{"type":"Point","coordinates":[-84.331711,33.826949]}},{"properties":{"city":"Atlanta","store number":"5023","zip":"30339","geo_score":0.709,"street address":"2014 Powers Ferry Road","contact1":"Hadi (Tony) Saraj","id":"ag6eeec50d8s","geo_precision":"street","state":"GA"},"type":"Feature","geometry":{"type":"Point","coordinates":[-84.464695,33.906745]}},{"properties":{"city":"Atlanta","store number":"5041","zip":"30318","geo_score":0.931,"street address":"1000 Northside Drive NW","contact1":"Hadi (Tony) Saraj","id":"ag6eeektk8jc","geo_precision":"range","state":"GA"},"type":"Feature","geometry":{"type":"Point","coordinates":[-84.407548,33.781991]}},{"properties":{"city":"Atlanta","store number":"5011","zip":"30319","geo_score":0.982,"street address":"3895 Peachtree Road North East","contact1":"Jeff Sponsler","id":"ag6eeejdb23w","geo_precision":"range","state":"GA"},"type":"Feature","geometry":{"type":"Point","coordinates":[-84.344743,33.857386]}},{"properties":{"city":"Atlanta","store number":"5017A","zip":"30318","geo_score":1.0,"street address":"2020 Howell Mill Road","contact1":"Jeff Sponsler","id":"ag6eeeoomxk6","geo_precision":"range","state":"GA"},"type":"Feature","geometry":{"type":"Point","coordinates":[-84.412703,33.810577]}},{"properties":{"city":"Atlanta","store number":"5031A","zip":"30336","geo_score":0.664,"street address":"6035 Bakers Ferry Rd.","contact1":"Jeff Sponsler","id":"ag6eeemlo752","geo_precision":"street","state":"GA"},"type":"Feature","geometry":{"type":"Point","coordinates":[-84.545949,33.746403]}},{"properties":{"city":"Lawrenceville","store number":"5027A","zip":"30043","geo_score":0.807,"street address":"1820 North Brown Road","contact1":"Jeff Sponsler","id":"ag6eeelpdfck","geo_precision":"street","state":"GA"},"type":"Feature","geometry":{"type":"Point","coordinates":[-84.079852,33.985942]}},{"properties":{"city":"Dunwoody","store number":"5001","zip":"30338","geo_score":1.0,"street address":"2458 Jett Ferry Road;","contact1":"Jeff Sponsler","id":"ag6eeeen5ldg","geo_precision":"range","state":"GA"},"type":"Feature","geometry":{"type":"Point","coordinates":[-84.302574,33.958687]}},{"properties":{"city":"Columbus","store number":"5046","zip":"31904","geo_score":0.686,"street address":"1640 Rollins Way","contact1":"William Howard Swecker","id":"ag6eeegthr35","geo_precision":"street","state":"GA"},"type":"Feature","geometry":{"type":"Point","coordinates":[-84.972065,32.535832]}},{"properties":{"city":"Monroe","store number":"5034","zip":"30655","geo_score":0.683,"street address":"2120 West Spring St.","contact1":"Todd White","id":"ag6eeee8ac25","geo_precision":"street","state":"GA"},"type":"Feature","geometry":{"type":"Point","coordinates":[-83.737235,33.791637]}},{"properties":{"city":"Marietta","store number":"5033","zip":"30066","geo_score":1.0,"street address":"2960 Shallowford Road","contact1":"Lloyd Russell Windon","id":"ag6eeejh3531","geo_precision":"range","state":"GA"},"type":"Feature","geometry":{"type":"Point","coordinates":[-84.466173,34.036605]}},{"properties":{"city":"Chicago","store number":"27035","zip":"60657","geo_score":0.604,"street address":"3152 N. Broadway","contact1":"David Do","id":"ag6eeeowy68a","geo_precision":"street","state":"IL"},"type":"Feature","geometry":{"type":"Point","coordinates":[-87.644264,41.934252]}},{"properties":{"city":"Wheaton","store number":"27013A","zip":"60187","geo_score":1.0,"street address":"3 Danada Square East","contact1":"Mark Cross","id":"ag6eeejz6y7t","geo_precision":"range","state":"IL"},"type":"Feature","geometry":{"type":"Point","coordinates":[-88.101433,41.832846]}},{"properties":{"city":"Naperville","store number":"27001","zip":"60540","geo_score":0.333,"street address":"2555 W. 75th Street","contact1":"Mark Cross","id":"ag6eeeclp26y","geo_precision":"street","state":"IL"},"type":"Feature","geometry":{"type":"Point","coordinates":[-87.991486,41.751514]}},{"properties":{"city":"Plainfield","store number":"27018","zip":"60585","geo_score":0.482,"street address":"13400 S. Route 59","contact1":"Mark Cross","id":"ag6eeep3ssk9","geo_precision":"street","state":"IL"},"type":"Feature","geometry":{"type":"Point","coordinates":[-88.201843,41.5999]}},{"properties":{"city":"Lisle","store number":"27016","zip":"60532","geo_score":0.878,"street address":"1032 Maple Avenue","contact1":"Mark Cross","id":"ag6eeee4cv2c","geo_precision":"range","state":"IL"},"type":"Feature","geometry":{"type":"Point","coordinates":[-88.071901,41.786606]}},{"properties":{"city":"Naperville","store number":"27040","zip":"60563","geo_score":0.61,"street address":"111 E. Ogden Avenue","contact1":"Mark Cross","id":"ag6eeec9ogt6","geo_precision":"street","state":"IL"},"type":"Feature","geometry":{"type":"Point","coordinates":[-88.145772,41.785744]}},{"properties":{"city":"Aurora","store number":"27005","zip":"60504","geo_score":0.902,"street address":"1147 North Eola Road","contact1":"Mark Cross","id":"ag6eeelvg15z","geo_precision":"street","state":"IL"},"type":"Feature","geometry":{"type":"Point","coordinates":[-88.240687,41.782851]}},{"properties":{"city":"Elmhurst","store number":"27010A","zip":"60126","geo_score":0.677,"street address":"297 N York Rd","contact1":"John Griparis","id":"ag6eeebptwox","geo_precision":"street","state":"IL"},"type":"Feature","geometry":{"type":"Point","coordinates":[-87.932442,41.867391]}},{"properties":{"city":"Vernon Hills","store number":"27002","zip":"60061","geo_score":0.805,"street address":"1640 North Milwaukee Avenue","contact1":"John Griparis","id":"ag6eeefo1srk","geo_precision":"street","state":"IL"},"type":"Feature","geometry":{"type":"Point","coordinates":[-87.938108,42.220631]}},{"properties":{"city":"Mount Prospect","store number":"27007","zip":"60056","geo_score":0.604,"street address":"106 E. Kensington Rd.","contact1":"John Griparis","id":"ag6eeecmq0u9","geo_precision":"street","state":"IL"},"type":"Feature","geometry":{"type":"Point","coordinates":[-87.904468,42.080595]}},{"properties":{"city":"Glenview","store number":"27015A","zip":"60025","geo_score":0.74,"street address":"2149 Willow Road","contact1":"John Griparis","id":"ag6eeef9n1zu","geo_precision":"street","state":"IL"},"type":"Feature","geometry":{"type":"Point","coordinates":[-87.852043,42.101907]}},{"properties":{"city":"Chicago","store number":"27037","zip":"60605","geo_score":0.602,"street address":"26 E. Roosevelt Road","contact1":"Jeff Herter","id":"ag6eeemf4qy9","geo_precision":"street","state":"IL"},"type":"Feature","geometry":{"type":"Point","coordinates":[-87.629298,41.867457]}},{"properties":{"city":"Chicago","store number":"27028","zip":"60611","geo_score":0.619,"street address":"203 E. Ohio Street","contact1":"Jeffrey Herter","id":"ag6eeecn71b8","geo_precision":"street","state":"IL"},"type":"Feature","geometry":{"type":"Point","coordinates":[-87.626747,41.892496]}},{"properties":{"city":"Lake in the Hills","store number":"27009","zip":"60156","geo_score":0.607,"street address":"285 N. Randall Road","contact1":"Mark Michalak","id":"ag6eeep9t4u1","geo_precision":"street","state":"IL"},"type":"Feature","geometry":{"type":"Point","coordinates":[-88.335472,42.181716]}},{"properties":{"city":"Crystal Lake","store number":"27022","zip":"60014","geo_score":0.842,"street address":"5006 Northwest Highway","contact1":"Mark Michalak","id":"ag6eeeexoyj1","geo_precision":"range","state":"IL"},"type":"Feature","geometry":{"type":"Point","coordinates":[-88.292236,42.226099]}},{"properties":{"city":"Chicago","store number":"27014","zip":"60606","geo_score":0.902,"street address":"200 West Monroe Street","contact1":"Amish Patel","id":"ag6eeer9rgi8","geo_precision":"range","state":"IL"},"type":"Feature","geometry":{"type":"Point","coordinates":[-87.63528,41.880641]}},{"properties":{"city":"Chicago","store number":"27025","zip":"60606","geo_score":1.0,"street address":"120 North Wells Street","contact1":"Amish Patel","id":"ag6eeeihkllb","geo_precision":"range","state":"IL"},"type":"Feature","geometry":{"type":"Point","coordinates":[-87.633895,41.884468]}},{"properties":{"city":"Oswego","store number":"27027","zip":"60543","geo_score":1.0,"street address":"2428 Route 34","contact1":"Raj Patel-Manager","id":"ag6eeeprwm3x","geo_precision":"range","state":"IL"},"type":"Feature","geometry":{"type":"Point","coordinates":[-88.306391,41.704952]}},{"properties":{"city":"Glen Ellyn","store number":"27033","zip":"60137","geo_score":0.602,"street address":"711 E. Roosevelt Road","contact1":"Raj Patel-Manager","id":"ag6eeeipg7d5","geo_precision":"street","state":"IL"},"type":"Feature","geometry":{"type":"Point","coordinates":[-88.078992,41.859207]}},{"properties":{"city":"Romeoville","store number":"27034","zip":"60446","geo_score":0.614,"street address":"412 S. Weber Road","contact1":"Raj Patel-Manager","id":"ag6eeem5egh0","geo_precision":"street","state":"IL"},"type":"Feature","geometry":{"type":"Point","coordinates":[-88.123904,41.627894]}},{"properties":{"city":"Bolingbrook","store number":"27023","zip":"60440","geo_score":1.0,"street address":"214 N Weber Rd","contact1":"Raj Patel-Manager","id":"ag6eeef2hmyx","geo_precision":"range","state":"IL"},"type":"Feature","geometry":{"type":"Point","coordinates":[-88.124666,41.701398]}},{"properties":{"city":"Shiloh","store number":"27024","zip":"62269","geo_score":0.749,"street address":"3284 Green Mount Crossing Dr","contact1":"Gregory G. Potter","id":"ag6eeego5pr6","geo_precision":"street","state":"IL"},"type":"Feature","geometry":{"type":"Point","coordinates":[-89.927944,38.572706]}},{"properties":{"city":"Schaumburg","store number":"27019A","zip":"60194","geo_score":0.857,"street address":"2568 W. Schaumburg Rd.","contact1":"Jay Punukollu","id":"ag6eeerr26lj","geo_precision":"zip","state":"IL"},"type":"Feature","geometry":{"type":"Point","coordinates":[-88.116655,42.028926]}},{"properties":{"city":"Gurnee","store number":"27003A","zip":"60031","geo_score":1.0,"street address":"7105 Grand Ave.","contact1":"Jay Punukollu","id":"ag6eeeese2i8","geo_precision":"range","state":"IL"},"type":"Feature","geometry":{"type":"Point","coordinates":[-87.981085,42.385893]}},{"properties":{"city":"Niles","store number":"27029A","zip":"60714","geo_score":1.0,"street address":"5691 West Touhy Ave","contact1":"Jay Punukollu","id":"ag6eeen4rutw","geo_precision":"range","state":"IL"},"type":"Feature","geometry":{"type":"Point","coordinates":[-87.769888,42.011876]}},{"properties":{"city":"Elk Grove Village","store number":"27030","zip":"60007","geo_score":1.0,"street address":"178 Biesterfield Road","contact1":"Jay Punukollu","id":"ag6eeed3d7yx","geo_precision":"range","state":"IL"},"type":"Feature","geometry":{"type":"Point","coordinates":[-88.007434,42.003616]}},{"properties":{"city":"Schaumburg","store number":"27006A","zip":"60173","geo_score":0.961,"street address":"601 Martingale Road","contact1":"Jay Punukollu","id":"ag6eeepp7hbg","geo_precision":"range","state":"IL"},"type":"Feature","geometry":{"type":"Point","coordinates":[-88.035597,42.040517]}},{"properties":{"city":"Springfield","store number":"27036","zip":"62704","geo_score":0.614,"street address":"2318 W. Wabash Ave.","contact1":"Anthony Rubba","id":"ag6eeejdu4ki","geo_precision":"street","state":"IL"},"type":"Feature","geometry":{"type":"Point","coordinates":[-89.668076,39.765229]}},{"properties":{"city":"Champaign","store number":"27038","zip":"61820","geo_score":0.614,"street address":"505 E. Green Street","contact1":"Anthony Rubba","id":"ag6eeec40yww","geo_precision":"street","state":"IL"},"type":"Feature","geometry":{"type":"Point","coordinates":[-88.243467,40.110178]}},{"properties":{"city":"Niles","store number":"27011B","zip":"60714","geo_score":0.619,"street address":"8484 W. Golf Rd","contact1":"Bob Sagerstrom","id":"ag6eeeiyzu7z","geo_precision":"street","state":"IL"},"type":"Feature","geometry":{"type":"Point","coordinates":[-87.828655,42.054807]}},{"properties":{"city":"Orland Park","store number":"27021","zip":"60462","geo_score":0.602,"street address":"15625 S. La Grange Road","contact1":"Raymond M. Shimmon","id":"ag6eeefwsra3","geo_precision":"street","state":"IL"},"type":"Feature","geometry":{"type":"Point","coordinates":[-87.853966,41.649938]}},{"properties":{"city":"South Elgin","store number":"27039","zip":"60177","geo_score":0.585,"street address":"469 Redington Drive","contact1":"James Shipman","id":"ag6eeeq721m1","geo_precision":"zip","state":"IL"},"type":"Feature","geometry":{"type":"Point","coordinates":[-88.405895,42.007476]}},{"properties":{"city":"Geneva","store number":"27008","zip":"60134","geo_score":0.607,"street address":"1770 S. Randall Rd.","contact1":"James Shipman","id":"ag6eeelt2063","geo_precision":"street","state":"IL"},"type":"Feature","geometry":{"type":"Point","coordinates":[-88.340368,41.872172]}},{"properties":{"city":"St. Charles","store number":"27020","zip":"60174","geo_score":0.97,"street address":"2540 East Main St.","contact1":"James Shipman","id":"ag6eeekxo2n7","geo_precision":"range","state":"IL"},"type":"Feature","geometry":{"type":"Point","coordinates":[-88.282827,41.921247]}},{"properties":{"city":"Rockford","store number":"27026","zip":"61114","geo_score":0.329,"street address":"6284 E. State Street","contact1":"Francesco Tarara","id":"ag6eeeptszuz","geo_precision":"street","state":"IL"},"type":"Feature","geometry":{"type":"Point","coordinates":[-89.087554,42.267693]}},{"properties":{"city":"Machesney","store number":"27032","zip":"61115","geo_score":0.843,"street address":"1513 W Lane Road","contact1":"Francesco Tarara","id":"ag6eeeloa222","geo_precision":"range","state":"IL"},"type":"Feature","geometry":{"type":"Point","coordinates":[-89.031872,42.365528]}},{"properties":{"city":"Arlington Heights","store number":"27017A","zip":"60004","geo_score":1.0,"street address":"115 West Rand Road","contact1":"John Stephens","id":"ag6eeebwysc8","geo_precision":"range","state":"IL"},"type":"Feature","geometry":{"type":"Point","coordinates":[-87.984232,42.115156]}},{"properties":{"city":"Indianapolis","store number":"11011A","zip":"46250","geo_score":0.619,"street address":"5025 E. 82nd Street","contact1":"Tim Fleischman","id":"ag6eeeqb0dlp","geo_precision":"street","state":"IN"},"type":"Feature","geometry":{"type":"Point","coordinates":[-86.104914,39.910183]}},{"properties":{"city":"Indianapolis","store number":"11005A","zip":"46254","geo_score":0.935,"street address":"6985 West 38th Street","contact1":"Tim Fleischman","id":"ag6eeeifqrqp","geo_precision":"range","state":"IN"},"type":"Feature","geometry":{"type":"Point","coordinates":[-86.281118,39.823361]}},{"properties":{"city":"Mishawaka","store number":"11001","zip":"46545","geo_score":0.619,"street address":"5718 N. Main Street","contact1":"Robert J. Guros","id":"ag6eeeeo8han","geo_precision":"street","state":"IN"},"type":"Feature","geometry":{"type":"Point","coordinates":[-86.180453,41.663047]}},{"properties":{"city":"Schererville","store number":"11012","zip":"46375","geo_score":0.619,"street address":"37 U.S. Highway 41","contact1":"Raul Padilla","id":"ag6eeefrld1n","geo_precision":"street","state":"IN"},"type":"Feature","geometry":{"type":"Point","coordinates":[-87.471322,41.521636]}},{"properties":{"city":"Indianapolis","store number":"11009B","zip":"46268","geo_score":0.902,"street address":"7125 Georgetown Rd.","contact1":"Casey Raxlin","id":"ag6eeeqsr125","geo_precision":"range","state":"IN"},"type":"Feature","geometry":{"type":"Point","coordinates":[-86.241529,39.89324]}},{"properties":{"city":"Topeka","store number":"21002","zip":"66603","geo_score":1.0,"street address":"718 South Kansas Avenue","contact1":"Gerald Kallman","id":"ag6eeebwf0g1","geo_precision":"range","state":"KS"},"type":"Feature","geometry":{"type":"Point","coordinates":[-95.674517,39.048814]}},{"properties":{"city":"Topeka","store number":"21001","zip":"66614","geo_score":1.0,"street address":"2121 SW Wanamaker Road","contact1":"Gerald Kallman","id":"ag6eeelmf09l","geo_precision":"range","state":"KS"},"type":"Feature","geometry":{"type":"Point","coordinates":[-95.762328,39.026541]}},{"properties":{"city":"Olathe","store number":"21004A","zip":"66062","geo_score":0.614,"street address":"15018 S.Black Bob Rd.","contact1":"Mike Spiegel","id":"ag6eeecrusls","geo_precision":"street","state":"KS"},"type":"Feature","geometry":{"type":"Point","coordinates":[-94.802452,38.834382]}},{"properties":{"city":"Louisville","store number":"10007","zip":"40299","geo_score":1.0,"street address":"9156 Taylorsville Rd.","contact1":"Gary &amp; Carol Greenwell","id":"ag6eeebva18d","geo_precision":"range","state":"KY"},"type":"Feature","geometry":{"type":"Point","coordinates":[-85.588473,38.213389]}},{"properties":{"city":"Hopkinsville","store number":"10010","zip":"42240","geo_score":0.694,"street address":"2413 Ft. Campbell Blvd.","contact1":"Jeff Horn","id":"ag6eeeh9xs66","geo_precision":"street","state":"KY"},"type":"Feature","geometry":{"type":"Point","coordinates":[-87.432673,36.817464]}},{"properties":{"city":"Oak Grove","store number":"10011","zip":"42262","geo_score":0.408,"street address":"16472 Ft. Campbell Blvd.","contact1":"Jeff Horn","id":"ag6eeeds83sm","geo_precision":"street","state":"KY"},"type":"Feature","geometry":{"type":"Point","coordinates":[-87.432673,36.817464]}},{"properties":{"city":"Newport","store number":"10001B","zip":"41071","geo_score":0.958,"street address":"86 B Carothers Rd","contact1":"Michael Ouimet","id":"ag6eeeqqx89m","geo_precision":"range","state":"KY"},"type":"Feature","geometry":{"type":"Point","coordinates":[-84.483856,39.08385]}},{"properties":{"city":"Florence","store number":"10003A","zip":"41042","geo_score":0.619,"street address":"310 Mt. Zion Road","contact1":"Michael Ouimet","id":"ag6eeehkgafw","geo_precision":"street","state":"KY"},"type":"Feature","geometry":{"type":"Point","coordinates":[-84.623381,38.990938]}},{"properties":{"city":"Louisville","store number":"10002","zip":"40223","geo_score":1.0,"street address":"10266 Shelbyville Road","contact1":"Deborah B. Thompson","id":"ag6eeenljqho","geo_precision":"range","state":"KY"},"type":"Feature","geometry":{"type":"Point","coordinates":[-85.564977,38.245425]}},{"properties":{"city":"Louisville","store number":"10005","zip":"40241","geo_score":0.493,"street address":"10521 Fischer Park Drive","contact1":"Deborah Thompson","id":"ag6eeemloz8b","geo_precision":"street","state":"KY"},"type":"Feature","geometry":{"type":"Point","coordinates":[-85.690877,38.174673]}},{"properties":{"city":"Shreveport","store number":"30001","zip":"71105","geo_score":1.0,"street address":"7435 Youree Drive","contact1":"Bryan Selden","id":"ag6eeer85gyl","geo_precision":"range","state":"LA"},"type":"Feature","geometry":{"type":"Point","coordinates":[-93.717386,32.442231]}},{"properties":{"city":"Raynham","store number":"16001B","zip":"02767","geo_score":0.707,"street address":"325 New State Highway Rt. 44","contact1":"Sean Sullivan","id":"ag6eeeerk6am","geo_precision":"range","state":"MA"},"type":"Feature","geometry":{"type":"Point","coordinates":[-71.082809,41.939468]}},{"properties":{"city":"Bowie","store number":"28006","zip":"20715","geo_score":1.0,"street address":"6844 Race Track Road","contact1":"William Spencer Bryant","id":"ag6eeecwi8vd","geo_precision":"range","state":"MD"},"type":"Feature","geometry":{"type":"Point","coordinates":[-76.729571,38.984106]}},{"properties":{"city":"Frederick","store number":"28003","zip":"21703","geo_score":1.0,"street address":"5599 Spectrum Drive","contact1":"Danny Malamis","id":"ag6eeeme6qqt","geo_precision":"range","state":"MD"},"type":"Feature","geometry":{"type":"Point","coordinates":[-77.404686,39.384823]}},{"properties":{"city":"Greenbelt","store number":"28007","zip":"20770","geo_score":1.0,"street address":"6000 Greenbelt Road","contact1":"Danny Malamis","id":"ag6eeemby0ir","geo_precision":"range","state":"MD"},"type":"Feature","geometry":{"type":"Point","coordinates":[-76.912037,38.998021]}},{"properties":{"city":"Laurel","store number":"28002","zip":"20707","geo_score":1.0,"street address":"13600 Baltimore Ave.","contact1":"Danny Malamis","id":"ag6eeeqblcrj","geo_precision":"range","state":"MD"},"type":"Feature","geometry":{"type":"Point","coordinates":[-76.867894,39.07657]}},{"properties":{"city":"Gaithersburg","store number":"28005","zip":"20878","geo_score":1.0,"street address":"249 Kentlands Blvd.","contact1":"Danny Malamis","id":"ag6eeecewh18","geo_precision":"range","state":"MD"},"type":"Feature","geometry":{"type":"Point","coordinates":[-77.241756,39.124737]}},{"properties":{"city":"Germantown","store number":"28001","zip":"20876","geo_score":0.941,"street address":"21040-F Frederick Rd.","contact1":"Danny Malamis","id":"ag6eeeqfic5v","geo_precision":"range","state":"MD"},"type":"Feature","geometry":{"type":"Point","coordinates":[-77.245911,39.203536]}},{"properties":{"city":"Hagerstown","store number":"28004","zip":"21740","geo_score":1.0,"street address":"18015 Garland Groh Blvd.","contact1":"Patrick Provost","id":"ag6eeejdnhvz","geo_precision":"range","state":"MD"},"type":"Feature","geometry":{"type":"Point","coordinates":[-77.745563,39.660355]}},{"properties":{"city":"Rochester Hills","store number":"31002","zip":"48307","geo_score":0.545,"street address":"2670 S. Rochester Road","contact1":"Robert Middleton","id":"ag6eeecd57gc","geo_precision":"street","state":"MI"},"type":"Feature","geometry":{"type":"Point","coordinates":[-83.133686,42.678232]}},{"properties":{"city":"Shelby Township","store number":"31003","zip":"48315","geo_score":0.568,"street address":"12161 23 Mile Road","contact1":"Robert Middleton","id":"ag6eeefv1rxj","geo_precision":"street","state":"MI"},"type":"Feature","geometry":{"type":"Point","coordinates":[-83.48343,42.641025]}},{"properties":{"city":"Pittsfield","store number":"31001","zip":"48197","geo_score":0.798,"street address":"3650 Carpenter Road","contact1":"Peter D. Shipman","id":"ag6eeehlfee7","geo_precision":"range","state":"MI"},"type":"Feature","geometry":{"type":"Point","coordinates":[-83.680188,42.238458]}},{"properties":{"city":"Mankato","store number":"24002","zip":"56001","geo_score":1.0,"street address":"1924 Adams Street","contact1":"Kevin Bores","id":"ag6eeedpoc2d","geo_precision":"range","state":"MN"},"type":"Feature","geometry":{"type":"Point","coordinates":[-93.946658,44.170424]}},{"properties":{"city":"Mankato","store number":"24005","zip":"56001","geo_score":0.6,"street address":"500 S. Riverfront Drive","contact1":"Kevin Bores","id":"ag6eeenkzx8a","geo_precision":"street","state":"MN"},"type":"Feature","geometry":{"type":"Point","coordinates":[-94.005648,44.166153]}},{"properties":{"city":"Blaine","store number":"24006","zip":"55449","geo_score":0.47,"street address":"10340 Baltimore Street N.E.","contact1":"John Griparis","id":"ag6eeen70rl6","geo_precision":"street","state":"MN"},"type":"Feature","geometry":{"type":"Point","coordinates":[-93.232923,45.128153]}},{"properties":{"city":"Coon Rapids","store number":"24003","zip":"55448","geo_score":0.838,"street address":"3473 River Rapids Drive NW","contact1":"John Griparis","id":"ag6eeemv35qa","geo_precision":"range","state":"MN"},"type":"Feature","geometry":{"type":"Point","coordinates":[-93.351548,45.199608]}},{"properties":{"city":"St. Anthony Village","store number":"24001A","zip":"55418","geo_score":0.755,"street address":"2704 Highway 88","contact1":"John Griparis","id":"ag6eeeclzttw","geo_precision":"range","state":"MN"},"type":"Feature","geometry":{"type":"Point","coordinates":[-93.217225,45.016732]}},{"properties":{"city":"Woodbury","store number":"24004","zip":"55125","geo_score":1.0,"street address":"7455 Currell Boulevard","contact1":"Brian Risch","id":"ag6eeedk17ek","geo_precision":"range","state":"MN"},"type":"Feature","geometry":{"type":"Point","coordinates":[-92.954241,44.925645]}}],"is_temporal":false,"author":{"url":"","metadata":"","contact_name":"","contact_address":"","source":"","contact_phone":""},"source":"","pagination":{"sort":null,"start":0,"total":299,"limit":1000000},"state":"complete","tags":"","published":"2014-08-16T16:36:46-04:00","id":382852}