{"type":"FeatureCollection","data_type":"Dataset","url_type":null,"permissions":[{"permissions":{"download":true,"view":true},"group_id":"everyone"}],"classification":null,"title":"Potential School Pantry Addresses","count":21,"stream_id":383217,"contributor":{"url":"http://geocommons.com/users/77640","name":"esodo"},"data_attributes":null,"calculation_params":null,"icon_link":null,"link":"http://geocommons.com/overlays/383217.json","extent":[-86.7943,38.7387,-84.8727,40.1419],"geometry_types":["point"],"unique_name":null,"name":"Potential School Pantry Addresses","feature_count":21,"description":"","next_feature":null,"is_raster":false,"short_classification":"Y","stats":{},"features":[{"properties":{"city":"Hope","county":"Bartholomew","site name":"Hauser Jr-Sr High","geo_score":0.806,"zip code":"47246","street":"923 North State Road 9","id":"ag7bhmmy8j82","geo_precision":"street","state":"Indiana"},"type":"Feature","geometry":{"type":"Point","coordinates":[-85.771509,39.30399]}},{"properties":{"city":"Thorntown","county":"Boone","site name":"Western Boone Jr-Sr High","geo_score":1.0,"zip code":"46071","street":"1205 North State Road 75","id":"ag7bhmggft8e","geo_precision":"range","state":"Indiana"},"type":"Feature","geometry":{"type":"Point","coordinates":[-86.619751,40.058702]}},{"properties":{"city":"Greensburg","county":"Decatur","site name":"North Decatur Jr-Sr High","geo_score":1.0,"zip code":"47240","street":"3172 North State Road 3","id":"ag7bhmj8h7ok","geo_precision":"range","state":"Indiana"},"type":"Feature","geometry":{"type":"Point","coordinates":[-85.479576,39.392781]}},{"properties":{"city":"Connersville","county":"Fayette","site name":"Connersville Middle School","geo_score":1.0,"zip code":"47331","street":"1900 North Grand Avenue","id":"ag7bhmav4x4u","geo_precision":"range","state":"Indiana"},"type":"Feature","geometry":{"type":"Point","coordinates":[-85.134892,39.655763]}},{"properties":{"city":"Brookville","county":"Franklin","site name":"Franklin County High School","geo_score":0.585,"zip code":"47012","street":"1 Wildcat Lane","id":"ag7bhmgdb0na","geo_precision":"zip","state":"Indiana"},"type":"Feature","geometry":{"type":"Point","coordinates":[-85.031626,39.321719]}},{"properties":{"city":"Sheridan","county":"Hamilton","site name":"Sheridan High School","geo_score":1.0,"zip code":"46069","street":"24185 Hinesley Road","id":"ag7bhmjjlnyx","geo_precision":"range","state":"Indiana"},"type":"Feature","geometry":{"type":"Point","coordinates":[-86.218272,40.141937]}},{"properties":{"city":"Charlotesville","county":"Hancock","site name":"Eastern Hancock High School","geo_score":0.993,"zip code":"46117","street":"10320 East 250 North","id":"ag7bhmc37dl6","geo_precision":"range","state":"Indiana"},"type":"Feature","geometry":{"type":"Point","coordinates":[-85.611412,39.822845]}},{"properties":{"city":"Clayton","county":"Hendricks","site name":"Cascade High School","geo_score":1.0,"zip code":"46118","street":"6565 South County Road 200 West","id":"ag7bhmm6t73n","geo_precision":"range","state":"Indiana"},"type":"Feature","geometry":{"type":"Point","coordinates":[-86.560064,39.665717]}},{"properties":{"city":"Seymour","county":"Jackson","site name":"Seymour High School","geo_score":0.927,"zip code":"47274","street":"1350 West 2nd Street","id":"ag7bhmfxumb5","geo_precision":"range","state":"Indiana"},"type":"Feature","geometry":{"type":"Point","coordinates":[-85.906002,38.954056]}},{"properties":{"city":"Madison","county":"Jefferson","site name":"Madison Senior High School","geo_score":1.0,"zip code":"47250","street":"743 Clifty Drive","id":"ag7bhmhj1lea","geo_precision":"range","state":"Indiana"},"type":"Feature","geometry":{"type":"Point","coordinates":[-85.404118,38.774594]}},{"properties":{"city":"North Vernon","county":"Jennings","site name":"Jennings County Middle School","geo_score":1.0,"zip code":"47265","street":"820 West Walnut Street","id":"ag7bhme68uj1","geo_precision":"range","state":"Indiana"},"type":"Feature","geometry":{"type":"Point","coordinates":[-85.642844,39.00057]}},{"properties":{"city":"Edinburgh","county":"Johnson","site name":"Edinburgh High School","geo_score":0.947,"zip code":"46124","street":"300 South Keeley Street","id":"ag7bhmo2452f","geo_precision":"range","state":"Indiana"},"type":"Feature","geometry":{"type":"Point","coordinates":[-85.9697,39.35228]}},{"properties":{"city":"Beech Grove","county":"Marion","site name":"Beech Grove Middle School","geo_score":1.0,"zip code":"46107","street":"1248 Buffalo Street","id":"ag7bhm97wacg","geo_precision":"range","state":"Indiana"},"type":"Feature","geometry":{"type":"Point","coordinates":[-86.096833,39.725363]}},{"properties":{"city":"Eminence","county":"Morgan","site name":"Eminence High School","geo_score":0.782,"zip code":"46125","street":"6760 North State Road 42","id":"ag7bhmhzmll2","geo_precision":"range","state":"Indiana"},"type":"Feature","geometry":{"type":"Point","coordinates":[-86.732624,39.499773]}},{"properties":{"city":"Cloverdale","county":"Putnam","site name":"Cloverdale Senior High School","geo_score":0.779,"zip code":"46120","street":"205 East Market Street","id":"ag7bhmegqqx3","geo_precision":"street","state":"Indiana"},"type":"Feature","geometry":{"type":"Point","coordinates":[-86.79426,39.511649]}},{"properties":{"city":"Versailles","county":"Ripley","site name":"South Ripley Jr-Sr High School","geo_score":1.0,"zip code":"47042","street":"1589 South Benham Road","id":"ag7bhmbitneg","geo_precision":"range","state":"Indiana"},"type":"Feature","geometry":{"type":"Point","coordinates":[-85.25028,39.051047]}},{"properties":{"city":"Rushville","county":"Rush","site name":"Benjamin Rush Middle School","geo_score":0.927,"zip code":"46173","street":"330 West 8th Street","id":"ag7bhmnloiqs","geo_precision":"range","state":"Indiana"},"type":"Feature","geometry":{"type":"Point","coordinates":[-85.448223,39.614807]}},{"properties":{"city":"Austin","county":"Scott","site name":"Austin High School","geo_score":0.837,"zip code":"47102","street":"255 Highway 31 South","id":"ag7bhme1w9ox","geo_precision":"range","state":"Indiana"},"type":"Feature","geometry":{"type":"Point","coordinates":[-85.802244,38.738715]}},{"properties":{"city":"Shelbyville","county":"Shelby","site name":"Shelbyville Senior High School","geo_score":1.0,"zip code":"46176","street":"2003 South Miller Street","id":"ag7bhmatg1kz","geo_precision":"range","state":"Indiana"},"type":"Feature","geometry":{"type":"Point","coordinates":[-85.786578,39.50635]}},{"properties":{"city":"Indianapolis","county":"Union","site name":"Liberty Elementary School","geo_score":1.0,"zip code":"46239","street":"8425 East Raymond Street","id":"ag7bhmlc04d4","geo_precision":"range","state":"Indiana"},"type":"Feature","geometry":{"type":"Point","coordinates":[-86.011715,39.740093]}},{"properties":{"city":"Richmond","county":"Wayne","site name":"Test Intermediate School","geo_score":0.935,"zip code":"47374","street":"33 South 22nd Street","id":"ag7bhmh3329l","geo_precision":"range","state":"Indiana"},"type":"Feature","geometry":{"type":"Point","coordinates":[-84.872653,39.829422]}}],"is_temporal":false,"author":{"url":"","metadata":"","contact_name":"","contact_address":"","source":"","contact_phone":""},"source":"","pagination":{"sort":null,"start":0,"total":21,"limit":1000000},"state":"complete","tags":"","published":"2014-08-16T17:05:44-04:00","id":383217}