{"type":"FeatureCollection","data_type":"Dataset","url_type":null,"permissions":[{"permissions":{"download":true,"view":true},"group_id":"everyone"}],"classification":null,"title":"Sales Rep Complete Responses Map Data","count":14,"stream_id":384432,"contributor":{"url":"http://geocommons.com/users/78641","name":"steelj15"},"data_attributes":null,"calculation_params":null,"icon_link":null,"link":"http://geocommons.com/overlays/384432.json","extent":[-117.865,28.0199,-79.7597,44.9224],"geometry_types":["point"],"unique_name":null,"name":"Sales Rep Complete Responses Map Data","feature_count":14,"description":"","next_feature":null,"is_raster":false,"short_classification":"Y","stats":{},"features":[{"properties":{"name":"Dan Thompson","company":"Mid/South Sales Inc.","city":"Clinton","zip":"39056","response":"Yes","country":"United States","geo_score":1.0,"complete":"Complete","id":"agao7etf9poy","email address":"dano452@aol.com","address":"703 Lakeridge Cove","geo_precision":"range","state":"MS"},"type":"Feature","geometry":{"type":"Point","coordinates":[-90.379326,32.345797]}},{"properties":{"name":"Gary Adams","company":"Texas Reps","city":"Buda","zip":"78610","response":"Yes","country":"United States","geo_score":1.0,"complete":"Complete","id":"agao7erigs0g","email address":"gadams@texasreps.com","address":"16226 Remuda Trail","geo_precision":"range","state":"TX"},"type":"Feature","geometry":{"type":"Point","coordinates":[-97.858948,30.104147]}},{"properties":{"name":"Hector Ley","company":"Bard Mfg. de Mexico","city":"Ramos Arizpe","zip":"25903","response":"Yes","country":"Mexico","geo_score":0.332,"complete":"Complete","id":"agao7enoz2u0","email address":"hector.ley@bardhvac.com.mx","address":"Blvd Alfa 1155","geo_precision":"street","state":null},"type":"Feature","geometry":{"type":"Point","coordinates":[-87.29167,37.484628]}},{"properties":{"name":"James Gibson","company":"Texas Reps","city":"Clifton","zip":"76634","response":"Yes","country":"United States","geo_score":0.463,"complete":"Complete","id":"agao7etnek5r","email address":"jgibson@texasreps.com","address":"6211 fm 56","geo_precision":"street","state":"TX"},"type":"Feature","geometry":{"type":"Point","coordinates":[-97.472442,31.6592]}},{"properties":{"name":"John Scott","company":"Texas Reps","city":"Plano","zip":"75023","response":"Yes","country":"United States","geo_score":1.0,"complete":"Complete","id":"agao7evzq00g","email address":"jscott@texasreps.com","address":"6505 Gatlin Pl.","geo_precision":"range","state":"TX"},"type":"Feature","geometry":{"type":"Point","coordinates":[-96.761649,33.063189]}},{"properties":{"name":"Kelly Casey","company":"Texas Reps","city":"Spicewood","zip":"78669","response":"Yes","country":"United States","geo_score":1.0,"complete":"Complete","id":"agao7esywmgy","email address":"kcasey@texasreps.com","address":"22315 Bute Drive","geo_precision":"range","state":"TX"},"type":"Feature","geometry":{"type":"Point","coordinates":[-98.051639,30.406707]}},{"properties":{"name":"Layne Miller","company":"Geary Pacific Supply","city":"Orange","zip":"92865","response":"Yes","country":"United States","geo_score":0.6,"complete":"Complete","id":"agao7eo6ln2o","email address":"layne@gearypacific.com","address":"1908 N. Enterprise Street","geo_precision":"street","state":"CA"},"type":"Feature","geometry":{"type":"Point","coordinates":[-117.865088,33.819067]}},{"properties":{"name":"Leon Essex","company":"Manufacturers' Marketing","city":"Winter Haven","zip":"33880","response":"Yes","country":"United States","geo_score":0.935,"complete":"Complete","id":"agao7evnbwv3","email address":"lessex@leonessex.com","address":"249 9th Street SE","geo_precision":"range","state":"FL"},"type":"Feature","geometry":{"type":"Point","coordinates":[-81.714942,28.019911]}},{"properties":{"name":"Mike Morgan","company":"John J Morgan Company","city":"Saint Paul","zip":"55116","response":"Yes","country":"United States","geo_score":0.951,"complete":"Complete","id":"agao7eyuff3k","email address":"mikem@jjmorgan.com","address":"1338 Bayard Ave","geo_precision":"range","state":"MN"},"type":"Feature","geometry":{"type":"Point","coordinates":[-93.154282,44.922425]}},{"properties":{"name":"Phill Garrett","company":"Marketing Associates","city":"Greensboro","zip":"27415","response":"Yes","country":"United States","geo_score":0.805,"complete":"Complete","id":"agao7etfv77h","email address":"p.garrett@marketingassociates.org","address":"1007 Warehouse Street","geo_precision":"range","state":"NC"},"type":"Feature","geometry":{"type":"Point","coordinates":[-79.759725,36.087003]}},{"properties":{"name":"Rucker Chunn","company":"JayKay Sales Co.","city":"Old Hickory","zip":"37138","response":"Yes","country":"United States","geo_score":1.0,"complete":"Complete","id":"agao7eu89bwf","email address":"ruckerchunn@jaykaysales.com","address":"112 Mount Vernon Dr.","geo_precision":"range","state":"TN"},"type":"Feature","geometry":{"type":"Point","coordinates":[-86.634433,36.234493]}},{"properties":{"name":"Ray Weaver","company":"Texas Reps","city":"Stafford","zip":"77477","response":"Yes","country":"United States","geo_score":0.454,"complete":"Complete","id":"agao7ezu58wq","email address":"rweaver@texasreps.com","address":"13003 Southwest Frwy","geo_precision":"street","state":"TX"},"type":"Feature","geometry":{"type":"Point","coordinates":[-95.592188,29.628923]}},{"properties":{"name":"Tod Heath","company":"Miller Component Sales","city":"Westerville","zip":"43082","response":"Yes","country":"United States","geo_score":1.0,"complete":"Complete","id":"agao7emt4had","email address":"theath@millermcs.com","address":"5898 Chandler Court","geo_precision":"range","state":"OH"},"type":"Feature","geometry":{"type":"Point","coordinates":[-82.924653,40.15403]}},{"properties":{"name":"Vaughan Smith","company":"Bard Sales Rep","city":"Macon","zip":"31220","response":"Yes","country":"United States","geo_score":0.902,"complete":"Complete","id":"agao7evpuu70","email address":"vaughan.smith@bardhvac.com","address":"7972 Whittle Road","geo_precision":"range","state":"GA"},"type":"Feature","geometry":{"type":"Point","coordinates":[-83.802594,32.919812]}}],"is_temporal":false,"author":{"url":"","metadata":"","contact_name":"","contact_address":"","source":"","contact_phone":""},"source":"","pagination":{"sort":null,"start":0,"total":14,"limit":1000000},"state":"complete","tags":"","published":"2014-08-16T18:15:40-04:00","id":384432}