{"type":"FeatureCollection","data_type":"Dataset","url_type":null,"permissions":[{"permissions":{"download":true,"view":true},"group_id":"everyone"}],"classification":null,"title":"FusionTestGeoCommon","count":115,"stream_id":384488,"contributor":{"url":"http://geocommons.com/users/79280","name":"gan@concentra.com"},"data_attributes":null,"calculation_params":null,"icon_link":null,"link":"http://geocommons.com/overlays/384488.json","extent":[-172.367,-45.4098,177.217,73.3833],"geometry_types":["point"],"unique_name":null,"name":"FusionTestGeoCommon","feature_count":115,"description":"","next_feature":null,"is_raster":false,"short_classification":"Y","stats":{"ttlptntsmnth":{"max":7.154,"variance":1.11414978672769,"mean":1.99894782608696,"stdev":1.05553293966967,"min":0.063,"median":1.594}},"features":[{"properties":{"city":"Raleigh","st":"NC","geo_score":0.714,"ttlptntsmnth":7.154,"id":"agaq8iao9ybu","geo_precision":"zip"},"type":"Feature","geometry":{"type":"Point","coordinates":[21.3638889,41.4861111]}},{"properties":{"city":"Aurora","st":"IL","geo_score":0.714,"ttlptntsmnth":5.43,"id":"agaq8if8zcc2","geo_precision":"zip"},"type":"Feature","geometry":{"type":"Point","coordinates":[-48.0425,-25.21472222]}},{"properties":{"city":"Glen Allen","st":"VA","geo_score":0.857,"ttlptntsmnth":4.593,"id":"agaq8i9ssyd1","geo_precision":"zip"},"type":"Feature","geometry":{"type":"Point","coordinates":[0.0,24.3555555333333]}},{"properties":{"city":"Eagle","st":"ID","geo_score":0.714,"ttlptntsmnth":3.911,"id":"agaq8i0j85on","geo_precision":"zip"},"type":"Feature","geometry":{"type":"Point","coordinates":[14.8833333,-11.3833333]}},{"properties":{"city":"Albuquerque","st":"NM","geo_score":0.714,"ttlptntsmnth":3.902,"id":"agaq8i5jrgjj","geo_precision":"zip"},"type":"Feature","geometry":{"type":"Point","coordinates":[-57.41,-19.40611111]}},{"properties":{"city":"Newark","st":"DE","geo_score":0.714,"ttlptntsmnth":3.899,"id":"agaq8ich30vk","geo_precision":"zip"},"type":"Feature","geometry":{"type":"Point","coordinates":[66.9136111,34.3830556]}},{"properties":{"city":"New York City","st":"NY","geo_score":0.714,"ttlptntsmnth":3.884,"id":"agaq8ie69c5b","geo_precision":"zip"},"type":"Feature","geometry":{"type":"Point","coordinates":[118.218537,27.002969]}},{"properties":{"city":"Round Rock","st":"TX","geo_score":0.714,"ttlptntsmnth":3.868,"id":"agaq8i6my4vp","geo_precision":"zip"},"type":"Feature","geometry":{"type":"Point","coordinates":[29.8166667,-22.7333333]}},{"properties":{"city":"Durham","st":"NC","geo_score":0.714,"ttlptntsmnth":3.648,"id":"agaq8i7kp7mp","geo_precision":"zip"},"type":"Feature","geometry":{"type":"Point","coordinates":[11.9666667,47.7333333]}},{"properties":{"city":"Plano","st":"TX","geo_score":0.714,"ttlptntsmnth":3.547,"id":"agaq8i72pylb","geo_precision":"zip"},"type":"Feature","geometry":{"type":"Point","coordinates":[-66.5166667,-10.1]}},{"properties":{"city":"Peoria","st":"AZ","geo_score":0.714,"ttlptntsmnth":3.547,"id":"agaq8ig4u033","geo_precision":"zip"},"type":"Feature","geometry":{"type":"Point","coordinates":[-2.0666667,11.6333333]}},{"properties":{"city":"Plymouth Meeting","st":"PA","geo_score":0.714,"ttlptntsmnth":3.516,"id":"agaq8iayq8kv","geo_precision":"zip"},"type":"Feature","geometry":{"type":"Point","coordinates":[116.1,-8.5333333]}},{"properties":{"city":"Glen Burnie","st":"MD","geo_score":0.857,"ttlptntsmnth":3.449,"id":"agaq8id1kuoj","geo_precision":"zip"},"type":"Feature","geometry":{"type":"Point","coordinates":[0.0,24.3555555333333]}},{"properties":{"city":"Denver","st":"CO","geo_score":0.714,"ttlptntsmnth":3.367,"id":"agaq8i7hks7u","geo_precision":"zip"},"type":"Feature","geometry":{"type":"Point","coordinates":[68.6216667,33.4997222]}},{"properties":{"city":"Mount Laurel","st":"NJ","geo_score":0.714,"ttlptntsmnth":3.358,"id":"agaq8i90ozcz","geo_precision":"zip"},"type":"Feature","geometry":{"type":"Point","coordinates":[-76.4774396,43.398124]}},{"properties":{"city":"Rochester","st":"NY","geo_score":0.714,"ttlptntsmnth":3.358,"id":"agaq8ib5h82d","geo_precision":"zip"},"type":"Feature","geometry":{"type":"Point","coordinates":[-70.9758962,43.2648041]}},{"properties":{"city":"Henderson","st":"NV","geo_score":0.857,"ttlptntsmnth":3.156,"id":"agaq8i2h58vw","geo_precision":"zip"},"type":"Feature","geometry":{"type":"Point","coordinates":[-119.55,25.5666667]}},{"properties":{"city":"West Palm Beach","st":"FL","geo_score":0.714,"ttlptntsmnth":3.136,"id":"agaq8i9d8jif","geo_precision":"zip"},"type":"Feature","geometry":{"type":"Point","coordinates":[61.0333333,35.3]}},{"properties":{"city":"Mesa","st":"AZ","geo_score":0.714,"ttlptntsmnth":3.026,"id":"agaq8i85o78m","geo_precision":"zip"},"type":"Feature","geometry":{"type":"Point","coordinates":[47.2288889,56.8652778]}},{"properties":{"city":"Dayton","st":"OH","geo_score":0.714,"ttlptntsmnth":3.006,"id":"agaq8i3ojxc7","geo_precision":"zip"},"type":"Feature","geometry":{"type":"Point","coordinates":[-6.5653,11.2859]}},{"properties":{"city":"Phoenix","st":"AZ","geo_score":0.714,"ttlptntsmnth":2.883,"id":"agaq8i8tgwpj","geo_precision":"zip"},"type":"Feature","geometry":{"type":"Point","coordinates":[-7.8283333,6.9702778]}},{"properties":{"city":"San Francisco","st":"CA","geo_score":0.857,"ttlptntsmnth":2.863,"id":"agaq8i9cirin","geo_precision":"zip"},"type":"Feature","geometry":{"type":"Point","coordinates":[119.25,4.45]}},{"properties":{"city":"Charlotte","st":"NC","geo_score":0.714,"ttlptntsmnth":2.862,"id":"agaq8i5o9sw6","geo_precision":"zip"},"type":"Feature","geometry":{"type":"Point","coordinates":[90.6333333,23.6333333]}},{"properties":{"city":"Timonium","st":"MD","geo_score":0.714,"ttlptntsmnth":2.862,"id":"agaq8iczeldy","geo_precision":"zip"},"type":"Feature","geometry":{"type":"Point","coordinates":[140.3394444,38.5408333]}},{"properties":{"city":"Littleton","st":"CO","geo_score":0.714,"ttlptntsmnth":2.854,"id":"agaq8i12q1vv","geo_precision":"zip"},"type":"Feature","geometry":{"type":"Point","coordinates":[-62.73193686,45.183448559]}},{"properties":{"city":"Wheeling","st":"IL","geo_score":0.714,"ttlptntsmnth":2.655,"id":"agaq8ig3plbs","geo_precision":"zip"},"type":"Feature","geometry":{"type":"Point","coordinates":[146.8166667,-38.25]}},{"properties":{"city":"Clifton","st":"NJ","geo_score":0.714,"ttlptntsmnth":2.598,"id":"agaq8i1fkv24","geo_precision":"zip"},"type":"Feature","geometry":{"type":"Point","coordinates":[144.5666667,-38.15]}},{"properties":{"city":"Garden City","st":"GA","geo_score":0.857,"ttlptntsmnth":2.538,"id":"agaq8ia5jbzo","geo_precision":"zip"},"type":"Feature","geometry":{"type":"Point","coordinates":[-12.8166667,-9.7333333]}},{"properties":{"city":"Sterling","st":"VA","geo_score":0.857,"ttlptntsmnth":2.505,"id":"agaq8ib7y5mq","geo_precision":"zip"},"type":"Feature","geometry":{"type":"Point","coordinates":[-172.3666667,23.0]}},{"properties":{"city":"Dixon","st":"IA","geo_score":0.0,"ttlptntsmnth":2.452,"id":"agaq8i5ureue","geo_precision":"unmatched"},"type":"Feature","geometry":null},{"properties":{"city":"Baltimore","st":"MD","geo_score":0.857,"ttlptntsmnth":2.408,"id":"agaq8i4e3pxb","geo_precision":"zip"},"type":"Feature","geometry":{"type":"Point","coordinates":[-73.7333333,38.05]}},{"properties":{"city":"Cincinnati","st":"OH","geo_score":0.714,"ttlptntsmnth":2.407,"id":"agaq8i66xycv","geo_precision":"zip"},"type":"Feature","geometry":{"type":"Point","coordinates":[-15.2827778,12.1144444]}},{"properties":{"city":"Elk Grove Village","st":"IL","geo_score":0.714,"ttlptntsmnth":2.278,"id":"agaq8i5i7ww0","geo_precision":"zip"},"type":"Feature","geometry":{"type":"Point","coordinates":[25.2833333,44.75]}},{"properties":{"city":"Marietta","st":"GA","geo_score":0.714,"ttlptntsmnth":2.239,"id":"agaq8i5x9sam","geo_precision":"zip"},"type":"Feature","geometry":{"type":"Point","coordinates":[-68.1666667,-11.65]}},{"properties":{"city":"Indianapolis","st":"IN","geo_score":0.857,"ttlptntsmnth":2.186,"id":"agaq8idnxer7","geo_precision":"zip"},"type":"Feature","geometry":{"type":"Point","coordinates":[-156.7,19.6333333]}},{"properties":{"city":"Akron","st":"OH","geo_score":0.714,"ttlptntsmnth":2.143,"id":"agaq8iccitjc","geo_precision":"zip"},"type":"Feature","geometry":{"type":"Point","coordinates":[-4.61,35.15]}},{"properties":{"city":"Ft. Lauderdale","st":"FL","geo_score":0.714,"ttlptntsmnth":2.138,"id":"agaq8i68bt4m","geo_precision":"zip"},"type":"Feature","geometry":{"type":"Point","coordinates":[-8.1236111,6.9586111]}},{"properties":{"city":"Golden","st":"CO","geo_score":0.714,"ttlptntsmnth":2.137,"id":"agaq8i6wkh9g","geo_precision":"zip"},"type":"Feature","geometry":{"type":"Point","coordinates":[-4.4833333,55.4333333]}},{"properties":{"city":"Norcross","st":"GA","geo_score":0.714,"ttlptntsmnth":2.115,"id":"agaq8idul4m4","geo_precision":"zip"},"type":"Feature","geometry":{"type":"Point","coordinates":[67.78,33.0]}},{"properties":{"city":"Edison","st":"NJ","geo_score":0.714,"ttlptntsmnth":2.05,"id":"agaq8igqnh25","geo_precision":"zip"},"type":"Feature","geometry":{"type":"Point","coordinates":[-91.4615282,43.5080273]}},{"properties":{"city":"Minneapolis","st":"MN","geo_score":0.714,"ttlptntsmnth":2.047,"id":"agaq8i0aifxi","geo_precision":"zip"},"type":"Feature","geometry":{"type":"Point","coordinates":[0.9833333,44.7833333]}},{"properties":{"city":"Cincinnati","st":"OH","geo_score":0.714,"ttlptntsmnth":2.047,"id":"agaq8i4t1lia","geo_precision":"zip"},"type":"Feature","geometry":{"type":"Point","coordinates":[-15.2827778,12.1144444]}},{"properties":{"city":"Atlanta","st":"GA","geo_score":0.857,"ttlptntsmnth":2.017,"id":"agaq8i0x1m50","geo_precision":"zip"},"type":"Feature","geometry":{"type":"Point","coordinates":[57.0,-33.0]}},{"properties":{"city":"Sandy","st":"UT","geo_score":0.714,"ttlptntsmnth":2.015,"id":"agaq8ichyqy8","geo_precision":"zip"},"type":"Feature","geometry":{"type":"Point","coordinates":[10.1088,14.3227]}},{"properties":{"city":"South Plainfield","st":"NJ","geo_score":0.714,"ttlptntsmnth":1.983,"id":"agaq8i64r07a","geo_precision":"zip"},"type":"Feature","geometry":{"type":"Point","coordinates":[35.2,24.2]}},{"properties":{"city":"Bridgeview","st":"IL","geo_score":0.714,"ttlptntsmnth":1.92,"id":"agaq8iemfnpm","geo_precision":"zip"},"type":"Feature","geometry":{"type":"Point","coordinates":[14.616667,50.516667]}},{"properties":{"city":"Pittsburgh","st":"PA","geo_score":0.714,"ttlptntsmnth":1.918,"id":"agaq8i9u5g8c","geo_precision":"zip"},"type":"Feature","geometry":{"type":"Point","coordinates":[-84.4874508,39.987551]}},{"properties":{"city":"Nashville","st":"TN","geo_score":0.714,"ttlptntsmnth":1.822,"id":"agaq8i7ef1xf","geo_precision":"zip"},"type":"Feature","geometry":{"type":"Point","coordinates":[-93.1166666666667,41.3]}},{"properties":{"city":"Londonderry","st":"NH","geo_score":0.714,"ttlptntsmnth":1.76,"id":"agaq8i9pkmrw","geo_precision":"zip"},"type":"Feature","geometry":{"type":"Point","coordinates":[73.2930556,34.7930556]}},{"properties":{"city":"Baton Rouge","st":"LA","geo_score":0.714,"ttlptntsmnth":1.742,"id":"agaq8i4ffx2c","geo_precision":"zip"},"type":"Feature","geometry":{"type":"Point","coordinates":[43.7,-23.35]}},{"properties":{"city":"Lanham","st":"MD","geo_score":0.714,"ttlptntsmnth":1.717,"id":"agaq8i9yv7ig","geo_precision":"zip"},"type":"Feature","geometry":{"type":"Point","coordinates":[10.3166667,48.4333333]}},{"properties":{"city":"Philadelphia","st":"PA","geo_score":0.714,"ttlptntsmnth":1.698,"id":"agaq8i5lwzyr","geo_precision":"zip"},"type":"Feature","geometry":{"type":"Point","coordinates":[-21.8833333,73.3833333]}},{"properties":{"city":"Franklin Park","st":"IL","geo_score":0.857,"ttlptntsmnth":1.692,"id":"agaq8i7y43ei","geo_precision":"zip"},"type":"Feature","geometry":{"type":"Point","coordinates":[-68.0833333,42.0833333]}},{"properties":{"city":"San Marcos","st":"CA","geo_score":0.714,"ttlptntsmnth":1.685,"id":"agaq8id4w33q","geo_precision":"zip"},"type":"Feature","geometry":{"type":"Point","coordinates":[47.1147222,41.3569444]}},{"properties":{"city":"El Paso","st":"TX","geo_score":0.714,"ttlptntsmnth":1.685,"id":"agaq8i93m1gq","geo_precision":"zip"},"type":"Feature","geometry":{"type":"Point","coordinates":[1.4166667,8.0333333]}},{"properties":{"city":"Houston","st":"TX","geo_score":0.714,"ttlptntsmnth":1.627,"id":"agaq8i616d4j","geo_precision":"zip"},"type":"Feature","geometry":{"type":"Point","coordinates":[-126.670081692,54.399761785]}},{"properties":{"city":"Nashville","st":"TN","geo_score":0.714,"ttlptntsmnth":1.594,"id":"agaq8iey5pf0","geo_precision":"zip"},"type":"Feature","geometry":{"type":"Point","coordinates":[-93.1166666666667,41.3]}},{"properties":{"city":"Erlanger","st":"KY","geo_score":0.714,"ttlptntsmnth":1.594,"id":"agaq8ieta6u2","geo_precision":"zip"},"type":"Feature","geometry":{"type":"Point","coordinates":[11.0333333,49.6166667]}},{"properties":{"city":"Milwaukee","st":"WI","geo_score":0.714,"ttlptntsmnth":1.538,"id":"agaq8ibtwjcs","geo_precision":"zip"},"type":"Feature","geometry":{"type":"Point","coordinates":[120.1497222,12.1802778]}},{"properties":{"city":"Morton Grove","st":"IL","geo_score":0.857,"ttlptntsmnth":1.529,"id":"agaq8ie5nfmq","geo_precision":"zip"},"type":"Feature","geometry":{"type":"Point","coordinates":[-16.8333333,16.8333333]}},{"properties":{"city":"Toledo","st":"OH","geo_score":0.714,"ttlptntsmnth":1.526,"id":"agaq8i32dsoy","geo_precision":"zip"},"type":"Feature","geometry":{"type":"Point","coordinates":[-53.548096331,47.56659444]}},{"properties":{"city":"Addison","st":"TX","geo_score":0.714,"ttlptntsmnth":1.509,"id":"agaq8i4xvobr","geo_precision":"zip"},"type":"Feature","geometry":{"type":"Point","coordinates":[90.4,23.1166667]}},{"properties":{"city":"Murfreesboro","st":"TN","geo_score":0.714,"ttlptntsmnth":1.497,"id":"agaq8iemypf2","geo_precision":"zip"},"type":"Feature","geometry":{"type":"Point","coordinates":[52.9166667,36.2166667]}},{"properties":{"city":"Racine","st":"WI","geo_score":0.714,"ttlptntsmnth":1.491,"id":"agaq8iemaudq","geo_precision":"zip"},"type":"Feature","geometry":{"type":"Point","coordinates":[-72.7761840820312,-45.4097792117611]}},{"properties":{"city":"North Little Rock","st":"AR","geo_score":0.714,"ttlptntsmnth":1.489,"id":"agaq8i9u0d9d","geo_precision":"zip"},"type":"Feature","geometry":{"type":"Point","coordinates":[32.14,-22.8566667]}},{"properties":{"city":"Pittsburgh","st":"PA","geo_score":0.714,"ttlptntsmnth":1.464,"id":"agaq8i6cbomm","geo_precision":"zip"},"type":"Feature","geometry":{"type":"Point","coordinates":[-84.4874508,39.987551]}},{"properties":{"city":"New Berlin","st":"WI","geo_score":0.714,"ttlptntsmnth":1.464,"id":"agaq8i6m0jg9","geo_precision":"zip"},"type":"Feature","geometry":{"type":"Point","coordinates":[-55.1166667,-20.0166667]}},{"properties":{"city":"Greenville","st":"SC","geo_score":0.857,"ttlptntsmnth":1.457,"id":"agaq8i1i3nl7","geo_precision":"zip"},"type":"Feature","geometry":{"type":"Point","coordinates":[-89.3333333,21.9166667]}},{"properties":{"city":"Southern Pines","st":"NC","geo_score":0.714,"ttlptntsmnth":1.457,"id":"agaq8idcz1b7","geo_precision":"zip"},"type":"Feature","geometry":{"type":"Point","coordinates":[18.0833333,-2.4333333]}},{"properties":{"city":"San Leandro","st":"CA","geo_score":0.714,"ttlptntsmnth":1.447,"id":"agaq8i2zuh1v","geo_precision":"zip"},"type":"Feature","geometry":{"type":"Point","coordinates":[47.1147222,41.3569444]}},{"properties":{"city":"Bellmawr","st":"NJ","geo_score":0.714,"ttlptntsmnth":1.432,"id":"agaq8igqom83","geo_precision":"zip"},"type":"Feature","geometry":{"type":"Point","coordinates":[148.9,-32.2]}},{"properties":{"city":"Omaha","st":"NE","geo_score":0.714,"ttlptntsmnth":1.432,"id":"agaq8i9d1kj7","geo_precision":"zip"},"type":"Feature","geometry":{"type":"Point","coordinates":[175.75020348,-40.978269207]}},{"properties":{"city":"Houston","st":"TX","geo_score":0.714,"ttlptntsmnth":1.432,"id":"agaq8icjo7g5","geo_precision":"zip"},"type":"Feature","geometry":{"type":"Point","coordinates":[-126.670081692,54.399761785]}},{"properties":{"city":"Fort Worth","st":"TX","geo_score":0.714,"ttlptntsmnth":1.426,"id":"agaq8ibh6h0t","geo_precision":"zip"},"type":"Feature","geometry":{"type":"Point","coordinates":[-5.62,35.83]}},{"properties":{"city":"Madison","st":"WI","geo_score":0.714,"ttlptntsmnth":1.394,"id":"agaq8iczhapf","geo_precision":"zip"},"type":"Feature","geometry":{"type":"Point","coordinates":[-3.9130556,6.0413889]}},{"properties":{"city":"Austin","st":"TX","geo_score":0.714,"ttlptntsmnth":1.386,"id":"agaq8i27dfd3","geo_precision":"zip"},"type":"Feature","geometry":{"type":"Point","coordinates":[68.27,35.4508333]}},{"properties":{"city":"N. Kansas City","st":"MO","geo_score":0.714,"ttlptntsmnth":1.367,"id":"agaq8i11t6da","geo_precision":"zip"},"type":"Feature","geometry":{"type":"Point","coordinates":[-94.8132951,38.8827847]}},{"properties":{"city":"Conyers","st":"GA","geo_score":0.714,"ttlptntsmnth":1.367,"id":"agaq8ibl89e1","geo_precision":"zip"},"type":"Feature","geometry":{"type":"Point","coordinates":[-84.8071608,34.1481531]}},{"properties":{"city":"Maryland Heights","st":"MO","geo_score":0.857,"ttlptntsmnth":1.367,"id":"agaq8ieijnel","geo_precision":"zip"},"type":"Feature","geometry":{"type":"Point","coordinates":[-160.0,15.8333333]}},{"properties":{"city":"Cleveland","st":"OH","geo_score":0.714,"ttlptntsmnth":1.362,"id":"agaq8i2xdjs6","geo_precision":"zip"},"type":"Feature","geometry":{"type":"Point","coordinates":[-100.2837389,35.8100433]}},{"properties":{"city":"Las Vegas","st":"NV","geo_score":0.714,"ttlptntsmnth":1.359,"id":"agaq8i18lqt6","geo_precision":"zip"},"type":"Feature","geometry":{"type":"Point","coordinates":[4.556944,52.26]}},{"properties":{"city":"Paramus","st":"NJ","geo_score":0.714,"ttlptntsmnth":1.358,"id":"agaq8ibxga2y","geo_precision":"zip"},"type":"Feature","geometry":{"type":"Point","coordinates":[69.7,30.8875]}},{"properties":{"city":"Boulder","st":"CO","geo_score":0.714,"ttlptntsmnth":1.334,"id":"agaq8i73m1u7","geo_precision":"zip"},"type":"Feature","geometry":{"type":"Point","coordinates":[97.8308,2.5259]}},{"properties":{"city":"Las Vegas","st":"NV","geo_score":0.714,"ttlptntsmnth":1.331,"id":"agaq8i36ffh1","geo_precision":"zip"},"type":"Feature","geometry":{"type":"Point","coordinates":[4.556944,52.26]}},{"properties":{"city":"Lenexa","st":"KS","geo_score":0.0,"ttlptntsmnth":1.302,"id":"agaq8i9oc7dk","geo_precision":"unmatched"},"type":"Feature","geometry":null},{"properties":{"city":"St. Louis","st":"MO","geo_score":0.714,"ttlptntsmnth":1.302,"id":"agaq8i8niwt4","geo_precision":"zip"},"type":"Feature","geometry":{"type":"Point","coordinates":[118.218537,27.002969]}},{"properties":{"city":"Charlotte","st":"NC","geo_score":0.714,"ttlptntsmnth":1.302,"id":"agaq8i39suq0","geo_precision":"zip"},"type":"Feature","geometry":{"type":"Point","coordinates":[90.6333333,23.6333333]}},{"properties":{"city":"Houston","st":"TX","geo_score":0.714,"ttlptntsmnth":1.3,"id":"agaq8iaaa0vy","geo_precision":"zip"},"type":"Feature","geometry":{"type":"Point","coordinates":[-126.670081692,54.399761785]}},{"properties":{"city":"San Antonio","st":"TX","geo_score":0.857,"ttlptntsmnth":1.299,"id":"agaq8ibbkbbs","geo_precision":"zip"},"type":"Feature","geometry":{"type":"Point","coordinates":[-85.0,22.0333333]}},{"properties":{"city":"Memphis","st":"TN","geo_score":0.714,"ttlptntsmnth":1.269,"id":"agaq8i3555n5","geo_precision":"zip"},"type":"Feature","geometry":{"type":"Point","coordinates":[18.8177778,44.1469444]}},{"properties":{"city":"Mesquite","st":"TX","geo_score":0.714,"ttlptntsmnth":1.247,"id":"agaq8ietpajh","geo_precision":"zip"},"type":"Feature","geometry":{"type":"Point","coordinates":[22.6666667,-29.2333333]}},{"properties":{"city":"Columbia","st":"MO","geo_score":0.714,"ttlptntsmnth":1.245,"id":"agaq8i2mavb3","geo_precision":"zip"},"type":"Feature","geometry":{"type":"Point","coordinates":[35.1666667,-14.8333333]}},{"properties":{"city":"Los Angeles","st":"CA","geo_score":0.714,"ttlptntsmnth":1.226,"id":"agaq8idy8rsl","geo_precision":"zip"},"type":"Feature","geometry":{"type":"Point","coordinates":[4.556944,52.26]}},{"properties":{"city":"Lubbock","st":"TX","geo_score":0.714,"ttlptntsmnth":0.063,"id":"agaq8idi1qx5","geo_precision":"zip"},"type":"Feature","geometry":{"type":"Point","coordinates":[15.1166667,-9.3833333]}},{"properties":{"city":"Fresno","st":"CA","geo_score":0.714,"ttlptntsmnth":1.213,"id":"agaq8ib4ifps","geo_precision":"zip"},"type":"Feature","geometry":{"type":"Point","coordinates":[8.6586,4.5473]}},{"properties":{"city":"Hamilton","st":"NJ","geo_score":0.857,"ttlptntsmnth":1.204,"id":"agaq8i9zlqml","geo_precision":"zip"},"type":"Feature","geometry":{"type":"Point","coordinates":[177.2166667,19.9166667]}},{"properties":{"city":"Ft. Collins","st":"CO","geo_score":0.714,"ttlptntsmnth":1.172,"id":"agaq8i3ytvrk","geo_precision":"zip"},"type":"Feature","geometry":{"type":"Point","coordinates":[15.8333333,58.6]}},{"properties":{"city":"Wichita","st":"KS","geo_score":0.714,"ttlptntsmnth":1.144,"id":"agaq8i8efadz","geo_precision":"zip"},"type":"Feature","geometry":{"type":"Point","coordinates":[120.7286111,24.4152778]}},{"properties":{"city":"Colorado Springs","st":"CO","geo_score":0.857,"ttlptntsmnth":1.106,"id":"agaq8i5ezltg","geo_precision":"zip"},"type":"Feature","geometry":{"type":"Point","coordinates":[-130.2,48.0666667]}},{"properties":{"city":"Chicago","st":"IL","geo_score":0.714,"ttlptntsmnth":1.106,"id":"agaq8iar2yin","geo_precision":"zip"},"type":"Feature","geometry":{"type":"Point","coordinates":[-77.6108333,-11.0652778]}},{"properties":{"city":"Corpus Christi","st":"TX","geo_score":0.714,"ttlptntsmnth":1.087,"id":"agaq8iek6jjf","geo_precision":"zip"},"type":"Feature","geometry":{"type":"Point","coordinates":[17.95,51.4833333]}},{"properties":{"city":"Davenport","st":"IA","geo_score":0.857,"ttlptntsmnth":1.086,"id":"agaq8i49ok32","geo_precision":"zip"},"type":"Feature","geometry":{"type":"Point","coordinates":[175.3833333,-31.5333333]}},{"properties":{"city":"Alexandria","st":"VA","geo_score":0.0,"ttlptntsmnth":1.077,"id":"agaq8i5i1z5h","geo_precision":"unmatched"},"type":"Feature","geometry":null},{"properties":{"city":"Grove City","st":"OH","geo_score":0.714,"ttlptntsmnth":1.074,"id":"agaq8i539d9b","geo_precision":"zip"},"type":"Feature","geometry":{"type":"Point","coordinates":[23.25,48.1666667]}},{"properties":{"city":"Harrisburg","st":"PA","geo_score":0.714,"ttlptntsmnth":1.074,"id":"agaq8i91el4h","geo_precision":"zip"},"type":"Feature","geometry":{"type":"Point","coordinates":[-76.8049713,40.3517548]}},{"properties":{"city":"Mechanicsburg","st":"PA","geo_score":0.714,"ttlptntsmnth":1.041,"id":"agaq8i9chaej","geo_precision":"zip"},"type":"Feature","geometry":{"type":"Point","coordinates":[107.3752778,33.1905556]}},{"properties":{"city":"Kenner","st":"LA","geo_score":0.714,"ttlptntsmnth":1.041,"id":"agaq8idn2spc","geo_precision":"zip"},"type":"Feature","geometry":{"type":"Point","coordinates":[13.9333333,9.6666667]}},{"properties":{"city":"New Britain","st":"CT","geo_score":0.857,"ttlptntsmnth":1.041,"id":"agaq8i8qg2ss","geo_precision":"zip"},"type":"Feature","geometry":{"type":"Point","coordinates":[35.0,31.8333333]}},{"properties":{"city":"Capitol Heights","st":"MD","geo_score":0.714,"ttlptntsmnth":1.041,"id":"agaq8i5rx03k","geo_precision":"zip"},"type":"Feature","geometry":{"type":"Point","coordinates":[-52.553226981132,-31.8432379584905]}},{"properties":{"city":"Rohnert Park","st":"CA","geo_score":0.714,"ttlptntsmnth":1.034,"id":"agaq8i6k0gjy","geo_precision":"zip"},"type":"Feature","geometry":{"type":"Point","coordinates":[20.09,40.6233333]}},{"properties":{"city":"Tampa","st":"FL","geo_score":0.714,"ttlptntsmnth":1.029,"id":"agaq8ie6qs92","geo_precision":"zip"},"type":"Feature","geometry":{"type":"Point","coordinates":[18.8666667,-13.4333333]}},{"properties":{"city":"East Hartford","st":"CT","geo_score":0.714,"ttlptntsmnth":1.014,"id":"agaq8igfzbh7","geo_precision":"zip"},"type":"Feature","geometry":{"type":"Point","coordinates":[117.2833333,-20.75]}},{"properties":{"city":"Nashville","st":"TN","geo_score":0.714,"ttlptntsmnth":1.014,"id":"agaq8icbvxve","geo_precision":"zip"},"type":"Feature","geometry":{"type":"Point","coordinates":[-93.1166666666667,41.3]}},{"properties":{"city":"Lake Oswego","st":"OR","geo_score":0.714,"ttlptntsmnth":1.014,"id":"agaq8if1l744","geo_precision":"zip"},"type":"Feature","geometry":{"type":"Point","coordinates":[-72.65,22.3166667]}},{"properties":{"city":"Hapeville","st":"GA","geo_score":0.857,"ttlptntsmnth":1.006,"id":"agaq8i6i33hx","geo_precision":"zip"},"type":"Feature","geometry":{"type":"Point","coordinates":[-171.0,68.8333333]}}],"is_temporal":false,"author":{"url":"","metadata":null,"contact_name":null,"contact_address":null,"source":null,"contact_phone":null},"source":"","pagination":{"sort":null,"start":0,"total":115,"limit":1000000},"state":"complete","tags":"","published":"2014-08-16T18:18:52-04:00","id":384488}