{"type":"FeatureCollection","data_type":"Dataset","url_type":null,"permissions":[{"permissions":{"download":true,"view":true},"group_id":"everyone"}],"classification":null,"title":"NVZIP_SameSex","count":176,"stream_id":385765,"contributor":{"url":"http://geocommons.com/users/79673","name":"unlvgrad03@yahoo.com"},"data_attributes":null,"calculation_params":null,"icon_link":null,"link":"http://geocommons.com/overlays/385765.json","extent":[-119.991,35.2523,-114.128,42.4107],"geometry_types":["point"],"unique_name":null,"name":"NVZIP_SameSex","feature_count":176,"description":"","next_feature":null,"is_raster":false,"short_classification":"Y","stats":{},"features":[{"properties":{"zip":"89448","geo_score":0.714,"percentage":"3.80%","id":"agf5j3qdewcs","geo_precision":"zip"},"type":"Feature","geometry":{"type":"Point","coordinates":[-119.948237,39.022408]}},{"properties":{"zip":"89414","geo_score":0.714,"percentage":"3.10%","id":"agf5j3u83df4","geo_precision":"zip"},"type":"Feature","geometry":{"type":"Point","coordinates":[-117.494182,40.950867]}},{"properties":{"zip":"89001","geo_score":0.714,"percentage":"2.40%","id":"agf5j3qzvkwr","geo_precision":"zip"},"type":"Feature","geometry":{"type":"Point","coordinates":[-115.635865,37.652452]}},{"properties":{"zip":"89120","geo_score":0.714,"percentage":"1.70%","id":"agf5j3y4y40d","geo_precision":"zip"},"type":"Feature","geometry":{"type":"Point","coordinates":[-115.367158,36.310827]}},{"properties":{"zip":"89179","geo_score":0.714,"percentage":"1.70%","id":"agf5j3zo1fs8","geo_precision":"zip"},"type":"Feature","geometry":{"type":"Point","coordinates":[-115.137223,36.174971]}},{"properties":{"zip":"89444","geo_score":0.714,"percentage":"1.40%","id":"agf5j3v5td6c","geo_precision":"zip"},"type":"Feature","geometry":{"type":"Point","coordinates":[-119.399328,38.869356]}},{"properties":{"zip":"89074","geo_score":0.714,"percentage":"1.30%","id":"agf5j3t7tlwn","geo_precision":"zip"},"type":"Feature","geometry":{"type":"Point","coordinates":[-115.136386,36.080358]}},{"properties":{"zip":"89113","geo_score":0.714,"percentage":"1.30%","id":"agf5j3vpvjs5","geo_precision":"zip"},"type":"Feature","geometry":{"type":"Point","coordinates":[-115.289522,36.057605]}},{"properties":{"zip":"89703","geo_score":0.714,"percentage":"1.30%","id":"agf5j3mzlfzq","geo_precision":"zip"},"type":"Feature","geometry":{"type":"Point","coordinates":[-119.800294,39.164225]}},{"properties":{"zip":"89433","geo_score":0.714,"percentage":"1.20%","id":"agf5j400l8wv","geo_precision":"zip"},"type":"Feature","geometry":{"type":"Point","coordinates":[-119.804924,39.748304]}},{"properties":{"zip":"89109","geo_score":0.714,"percentage":"1.10%","id":"agf5j3rpmq96","geo_precision":"zip"},"type":"Feature","geometry":{"type":"Point","coordinates":[-115.146665,36.097195]}},{"properties":{"zip":"89141","geo_score":0.714,"percentage":"1.10%","id":"agf5j3wix7ol","geo_precision":"zip"},"type":"Feature","geometry":{"type":"Point","coordinates":[-115.20729,36.010397]}},{"properties":{"zip":"89166","geo_score":0.714,"percentage":"1.10%","id":"agf5j3qzhpy8","geo_precision":"zip"},"type":"Feature","geometry":{"type":"Point","coordinates":[-115.137223,36.174971]}},{"properties":{"zip":"89511","geo_score":0.714,"percentage":"1.10%","id":"agf5j3kwe0lb","geo_precision":"zip"},"type":"Feature","geometry":{"type":"Point","coordinates":[-119.776019,39.352411]}},{"properties":{"zip":"89119","geo_score":0.714,"percentage":"1.00%","id":"agf5j3y1cype","geo_precision":"zip"},"type":"Feature","geometry":{"type":"Point","coordinates":[-115.148313,36.089022]}},{"properties":{"zip":"89011","geo_score":0.714,"percentage":"0.90%","id":"agf5j3wviyuz","geo_precision":"zip"},"type":"Feature","geometry":{"type":"Point","coordinates":[-114.919174,36.106464]}},{"properties":{"zip":"89121","geo_score":0.714,"percentage":"0.90%","id":"agf5j3zw67i6","geo_precision":"zip"},"type":"Feature","geometry":{"type":"Point","coordinates":[-115.09153,36.122271]}},{"properties":{"zip":"89122","geo_score":0.714,"percentage":"0.90%","id":"agf5j3vtbv3b","geo_precision":"zip"},"type":"Feature","geometry":{"type":"Point","coordinates":[-115.04194,36.094419]}},{"properties":{"zip":"89128","geo_score":0.714,"percentage":"0.90%","id":"agf5j3w0ojpl","geo_precision":"zip"},"type":"Feature","geometry":{"type":"Point","coordinates":[-115.24018,36.119038]}},{"properties":{"zip":"89147","geo_score":0.714,"percentage":"0.90%","id":"agf5j3k7cuny","geo_precision":"zip"},"type":"Feature","geometry":{"type":"Point","coordinates":[-115.243814,36.159421]}},{"properties":{"zip":"89183","geo_score":0.714,"percentage":"0.90%","id":"agf5j3k4qpsq","geo_precision":"zip"},"type":"Feature","geometry":{"type":"Point","coordinates":[-115.137223,36.174971]}},{"properties":{"zip":"89044","geo_score":0.0,"percentage":"0.80%","id":"agf5j3rdid2n","geo_precision":"unmatched"},"type":"Feature","geometry":null},{"properties":{"zip":"89052","geo_score":0.714,"percentage":"0.80%","id":"agf5j3sct4tl","geo_precision":"zip"},"type":"Feature","geometry":{"type":"Point","coordinates":[-115.116652,35.987798]}},{"properties":{"zip":"89431","geo_score":0.714,"percentage":"0.80%","id":"agf5j3uq7lnp","geo_precision":"zip"},"type":"Feature","geometry":{"type":"Point","coordinates":[-119.640601,40.039169]}},{"properties":{"zip":"89502","geo_score":0.714,"percentage":"0.80%","id":"agf5j3uuybwy","geo_precision":"zip"},"type":"Feature","geometry":{"type":"Point","coordinates":[-119.717965,39.491856]}},{"properties":{"zip":"89005","geo_score":0.714,"percentage":"0.70%","id":"agf5j3njdnac","geo_precision":"zip"},"type":"Feature","geometry":{"type":"Point","coordinates":[-114.82952,36.020563]}},{"properties":{"zip":"89012","geo_score":0.714,"percentage":"0.70%","id":"agf5j3njgv72","geo_precision":"zip"},"type":"Feature","geometry":{"type":"Point","coordinates":[-115.141185,36.075327]}},{"properties":{"zip":"89030","geo_score":0.714,"percentage":"0.70%","id":"agf5j3k457j2","geo_precision":"zip"},"type":"Feature","geometry":{"type":"Point","coordinates":[-115.15431,36.225271]}},{"properties":{"zip":"89031","geo_score":0.714,"percentage":"0.70%","id":"agf5j3unewj9","geo_precision":"zip"},"type":"Feature","geometry":{"type":"Point","coordinates":[-115.143685,36.277966]}},{"properties":{"zip":"89085","geo_score":0.0,"percentage":"0.70%","id":"agf5j3lnzjwr","geo_precision":"unmatched"},"type":"Feature","geometry":null},{"properties":{"zip":"89104","geo_score":0.714,"percentage":"0.70%","id":"agf5j3u1iqhq","geo_precision":"zip"},"type":"Feature","geometry":{"type":"Point","coordinates":[-115.106002,36.113372]}},{"properties":{"zip":"89115","geo_score":0.714,"percentage":"0.70%","id":"agf5j3oplrcq","geo_precision":"zip"},"type":"Feature","geometry":{"type":"Point","coordinates":[-115.064105,36.220075]}},{"properties":{"zip":"89117","geo_score":0.714,"percentage":"0.70%","id":"agf5j3uygkp2","geo_precision":"zip"},"type":"Feature","geometry":{"type":"Point","coordinates":[-115.217932,36.130992]}},{"properties":{"zip":"89144","geo_score":0.714,"percentage":"0.70%","id":"agf5j3xaan0i","geo_precision":"zip"},"type":"Feature","geometry":{"type":"Point","coordinates":[-115.31835,36.178088]}},{"properties":{"zip":"89145","geo_score":0.714,"percentage":"0.70%","id":"agf5j3wx2ka4","geo_precision":"zip"},"type":"Feature","geometry":{"type":"Point","coordinates":[-115.282751,36.169273]}},{"properties":{"zip":"89178","geo_score":0.714,"percentage":"0.70%","id":"agf5j3td6rbt","geo_precision":"zip"},"type":"Feature","geometry":{"type":"Point","coordinates":[-115.137223,36.174971]}},{"properties":{"zip":"89415","geo_score":0.714,"percentage":"0.70%","id":"agf5j3o2sxwz","geo_precision":"zip"},"type":"Feature","geometry":{"type":"Point","coordinates":[-118.690644,38.576848]}},{"properties":{"zip":"89434","geo_score":0.714,"percentage":"0.70%","id":"agf5j3lkmdl6","geo_precision":"zip"},"type":"Feature","geometry":{"type":"Point","coordinates":[-119.716747,39.591728]}},{"properties":{"zip":"89506","geo_score":0.714,"percentage":"0.70%","id":"agf5j3l9sj88","geo_precision":"zip"},"type":"Feature","geometry":{"type":"Point","coordinates":[-119.991311,39.675741]}},{"properties":{"zip":"89521","geo_score":0.714,"percentage":"0.70%","id":"agf5j3srdk15","geo_precision":"zip"},"type":"Feature","geometry":{"type":"Point","coordinates":[-119.682355,39.384899]}},{"properties":{"zip":"89048","geo_score":0.714,"percentage":"0.60%","id":"agf5j3meibca","geo_precision":"zip"},"type":"Feature","geometry":{"type":"Point","coordinates":[-116.167536,36.491623]}},{"properties":{"zip":"89086","geo_score":0.0,"percentage":"0.60%","id":"agf5j3pbnbos","geo_precision":"unmatched"},"type":"Feature","geometry":null},{"properties":{"zip":"89108","geo_score":0.714,"percentage":"0.60%","id":"agf5j3utlxeo","geo_precision":"zip"},"type":"Feature","geometry":{"type":"Point","coordinates":[-115.642795,36.257186]}},{"properties":{"zip":"89110","geo_score":0.714,"percentage":"0.60%","id":"agf5j3lhtuz5","geo_precision":"zip"},"type":"Feature","geometry":{"type":"Point","coordinates":[-115.073056,36.211082]}},{"properties":{"zip":"89423","geo_score":0.714,"percentage":"0.60%","id":"agf5j3m7erif","geo_precision":"zip"},"type":"Feature","geometry":{"type":"Point","coordinates":[-119.729731,39.008718]}},{"properties":{"zip":"89436","geo_score":0.714,"percentage":"0.60%","id":"agf5j3s0dltc","geo_precision":"zip"},"type":"Feature","geometry":{"type":"Point","coordinates":[-119.659053,39.651879]}},{"properties":{"zip":"89015","geo_score":0.714,"percentage":"0.50%","id":"agf5j3twa7km","geo_precision":"zip"},"type":"Feature","geometry":{"type":"Point","coordinates":[-115.193902,35.98395]}},{"properties":{"zip":"89101","geo_score":0.714,"percentage":"0.50%","id":"agf5j3nh2i51","geo_precision":"zip"},"type":"Feature","geometry":{"type":"Point","coordinates":[-115.10647,36.17372]}},{"properties":{"zip":"89102","geo_score":0.714,"percentage":"0.50%","id":"agf5j3tfkhb5","geo_precision":"zip"},"type":"Feature","geometry":{"type":"Point","coordinates":[-115.390646,36.281327]}},{"properties":{"zip":"89107","geo_score":0.714,"percentage":"0.50%","id":"agf5j3ov32i9","geo_precision":"zip"},"type":"Feature","geometry":{"type":"Point","coordinates":[-115.208529,36.169069]}},{"properties":{"zip":"89118","geo_score":0.714,"percentage":"0.50%","id":"agf5j3mgh9pv","geo_precision":"zip"},"type":"Feature","geometry":{"type":"Point","coordinates":[-115.23083,36.018028]}},{"properties":{"zip":"89123","geo_score":0.714,"percentage":"0.50%","id":"agf5j3l68wmt","geo_precision":"zip"},"type":"Feature","geometry":{"type":"Point","coordinates":[-115.157513,35.988844]}},{"properties":{"zip":"89134","geo_score":0.714,"percentage":"0.50%","id":"agf5j3l1n1ux","geo_precision":"zip"},"type":"Feature","geometry":{"type":"Point","coordinates":[-115.342404,36.126524]}},{"properties":{"zip":"89135","geo_score":0.714,"percentage":"0.50%","id":"agf5j3p7x6jh","geo_precision":"zip"},"type":"Feature","geometry":{"type":"Point","coordinates":[-115.326081,36.137829]}},{"properties":{"zip":"89138","geo_score":0.714,"percentage":"0.50%","id":"agf5j3ywht5e","geo_precision":"zip"},"type":"Feature","geometry":{"type":"Point","coordinates":[-114.972061,35.927901]}},{"properties":{"zip":"89460","geo_score":0.714,"percentage":"0.50%","id":"agf5j3swi3g6","geo_precision":"zip"},"type":"Feature","geometry":{"type":"Point","coordinates":[-119.742144,38.886708]}},{"properties":{"zip":"89501","geo_score":0.714,"percentage":"0.50%","id":"agf5j3mzxecf","geo_precision":"zip"},"type":"Feature","geometry":{"type":"Point","coordinates":[-119.704614,39.65558]}},{"properties":{"zip":"89503","geo_score":0.714,"percentage":"0.50%","id":"agf5j3sadnze","geo_precision":"zip"},"type":"Feature","geometry":{"type":"Point","coordinates":[-119.901957,39.547117]}},{"properties":{"zip":"89509","geo_score":0.714,"percentage":"0.50%","id":"agf5j3xtmco9","geo_precision":"zip"},"type":"Feature","geometry":{"type":"Point","coordinates":[-119.857022,39.413458]}},{"properties":{"zip":"89701","geo_score":0.714,"percentage":"0.50%","id":"agf5j3y8i2b7","geo_precision":"zip"},"type":"Feature","geometry":{"type":"Point","coordinates":[-119.809631,39.320188]}},{"properties":{"zip":"89706","geo_score":0.714,"percentage":"0.50%","id":"agf5j3pd22km","geo_precision":"zip"},"type":"Feature","geometry":{"type":"Point","coordinates":[-119.752626,39.202517]}},{"properties":{"zip":"89014","geo_score":0.714,"percentage":"0.40%","id":"agf5j3jrun6p","geo_precision":"zip"},"type":"Feature","geometry":{"type":"Point","coordinates":[-114.804393,36.283135]}},{"properties":{"zip":"89027","geo_score":0.714,"percentage":"0.40%","id":"agf5j3vf31e9","geo_precision":"zip"},"type":"Feature","geometry":{"type":"Point","coordinates":[-114.728855,36.437362]}},{"properties":{"zip":"89032","geo_score":0.714,"percentage":"0.40%","id":"agf5j3rs3sqp","geo_precision":"zip"},"type":"Feature","geometry":{"type":"Point","coordinates":[-115.170919,36.217968]}},{"properties":{"zip":"89103","geo_score":0.714,"percentage":"0.40%","id":"agf5j3z4znk5","geo_precision":"zip"},"type":"Feature","geometry":{"type":"Point","coordinates":[-114.891987,36.33689]}},{"properties":{"zip":"89106","geo_score":0.714,"percentage":"0.40%","id":"agf5j3uzwujm","geo_precision":"zip"},"type":"Feature","geometry":{"type":"Point","coordinates":[-115.167635,36.181169]}},{"properties":{"zip":"89130","geo_score":0.714,"percentage":"0.40%","id":"agf5j3ojfbqu","geo_precision":"zip"},"type":"Feature","geometry":{"type":"Point","coordinates":[-115.222064,36.246153]}},{"properties":{"zip":"89131","geo_score":0.714,"percentage":"0.40%","id":"agf5j3vfu83a","geo_precision":"zip"},"type":"Feature","geometry":{"type":"Point","coordinates":[-115.253899,36.343521]}},{"properties":{"zip":"89139","geo_score":0.714,"percentage":"0.40%","id":"agf5j3zlntzk","geo_precision":"zip"},"type":"Feature","geometry":{"type":"Point","coordinates":[-115.211805,36.012873]}},{"properties":{"zip":"89084","geo_score":0.0,"percentage":"0.30%","id":"agf5j3q840xm","geo_precision":"unmatched"},"type":"Feature","geometry":null},{"properties":{"zip":"89142","geo_score":0.714,"percentage":"0.30%","id":"agf5j3yej1pt","geo_precision":"zip"},"type":"Feature","geometry":{"type":"Point","coordinates":[-115.040429,36.147978]}},{"properties":{"zip":"89146","geo_score":0.714,"percentage":"0.30%","id":"agf5j3pu08od","geo_precision":"zip"},"type":"Feature","geometry":{"type":"Point","coordinates":[-115.224185,36.142369]}},{"properties":{"zip":"89148","geo_score":0.714,"percentage":"0.30%","id":"agf5j3uma5hw","geo_precision":"zip"},"type":"Feature","geometry":{"type":"Point","coordinates":[-115.272463,36.062903]}},{"properties":{"zip":"89149","geo_score":0.714,"percentage":"0.30%","id":"agf5j3lfkeqv","geo_precision":"zip"},"type":"Feature","geometry":{"type":"Point","coordinates":[-115.288521,36.276465]}},{"properties":{"zip":"89156","geo_score":0.714,"percentage":"0.30%","id":"agf5j3mu4gpl","geo_precision":"zip"},"type":"Feature","geometry":{"type":"Point","coordinates":[-115.036376,36.20343]}},{"properties":{"zip":"89169","geo_score":0.714,"percentage":"0.30%","id":"agf5j3lfsnwq","geo_precision":"zip"},"type":"Feature","geometry":{"type":"Point","coordinates":[-115.137223,36.174971]}},{"properties":{"zip":"89403","geo_score":0.714,"percentage":"0.30%","id":"agf5j3rm0c58","geo_precision":"zip"},"type":"Feature","geometry":{"type":"Point","coordinates":[-119.482264,39.103007]}},{"properties":{"zip":"89451","geo_score":0.714,"percentage":"0.30%","id":"agf5j3ut2qbq","geo_precision":"zip"},"type":"Feature","geometry":{"type":"Point","coordinates":[-119.935619,39.253908]}},{"properties":{"zip":"89519","geo_score":0.714,"percentage":"0.30%","id":"agf5j3vfycde","geo_precision":"zip"},"type":"Feature","geometry":{"type":"Point","coordinates":[-119.813803,39.529633]}},{"properties":{"zip":"89815","geo_score":0.714,"percentage":"0.30%","id":"agf5j3rzv5d4","geo_precision":"zip"},"type":"Feature","geometry":{"type":"Point","coordinates":[-115.595581,40.751905]}},{"properties":{"zip":"89081","geo_score":0.0,"percentage":"0.20%","id":"agf5j3rns6vi","geo_precision":"unmatched"},"type":"Feature","geometry":null},{"properties":{"zip":"89445","geo_score":0.714,"percentage":"0.20%","id":"agf5j3tbzw37","geo_precision":"zip"},"type":"Feature","geometry":{"type":"Point","coordinates":[-117.691517,41.011291]}},{"properties":{"zip":"89447","geo_score":0.714,"percentage":"0.20%","id":"agf5j3tp2cos","geo_precision":"zip"},"type":"Feature","geometry":{"type":"Point","coordinates":[-119.190154,38.949917]}},{"properties":{"zip":"89508","geo_score":0.714,"percentage":"0.20%","id":"agf5j3l3xu47","geo_precision":"zip"},"type":"Feature","geometry":{"type":"Point","coordinates":[-119.813803,39.529633]}},{"properties":{"zip":"89512","geo_score":0.714,"percentage":"0.20%","id":"agf5j3tgxl9u","geo_precision":"zip"},"type":"Feature","geometry":{"type":"Point","coordinates":[-119.879069,39.545363]}},{"properties":{"zip":"89002","geo_score":0.0,"percentage":"0.10%","id":"agf5j3la8tdp","geo_precision":"unmatched"},"type":"Feature","geometry":null},{"properties":{"zip":"89129","geo_score":0.714,"percentage":"0.10%","id":"agf5j3odhc9h","geo_precision":"zip"},"type":"Feature","geometry":{"type":"Point","coordinates":[-115.178996,35.794298]}},{"properties":{"zip":"89406","geo_score":0.714,"percentage":"0.10%","id":"agf5j3rxqkhn","geo_precision":"zip"},"type":"Feature","geometry":{"type":"Point","coordinates":[-118.296879,39.479393]}},{"properties":{"zip":"89523","geo_score":0.714,"percentage":"0.10%","id":"agf5j3k44lui","geo_precision":"zip"},"type":"Feature","geometry":{"type":"Point","coordinates":[-119.639031,39.549297]}},{"properties":{"zip":"84034","geo_score":0.714,"percentage":"0.00%","id":"agf5j3w9y1hy","geo_precision":"zip"},"type":"Feature","geometry":{"type":"Point","coordinates":[-114.349734,39.868549]}},{"properties":{"zip":"89003","geo_score":0.714,"percentage":"0.00%","id":"agf5j3z6q1ee","geo_precision":"zip"},"type":"Feature","geometry":{"type":"Point","coordinates":[-116.609372,36.819857]}},{"properties":{"zip":"89004","geo_score":0.714,"percentage":"0.00%","id":"agf5j3qnqv6r","geo_precision":"zip"},"type":"Feature","geometry":{"type":"Point","coordinates":[-115.608969,36.088098]}},{"properties":{"zip":"89007","geo_score":0.714,"percentage":"0.00%","id":"agf5j3likpdx","geo_precision":"zip"},"type":"Feature","geometry":{"type":"Point","coordinates":[-114.128106,36.768399]}},{"properties":{"zip":"89008","geo_score":0.714,"percentage":"0.00%","id":"agf5j3l0b9ll","geo_precision":"zip"},"type":"Feature","geometry":{"type":"Point","coordinates":[-114.492767,37.111915]}},{"properties":{"zip":"89010","geo_score":0.714,"percentage":"0.00%","id":"agf5j3wdqqr3","geo_precision":"zip"},"type":"Feature","geometry":{"type":"Point","coordinates":[-117.604871,37.585111]}},{"properties":{"zip":"89013","geo_score":0.714,"percentage":"0.00%","id":"agf5j3uhm2u2","geo_precision":"zip"},"type":"Feature","geometry":{"type":"Point","coordinates":[-117.498138,37.458265]}},{"properties":{"zip":"89017","geo_score":0.714,"percentage":"0.00%","id":"agf5j3rcswk9","geo_precision":"zip"},"type":"Feature","geometry":{"type":"Point","coordinates":[-115.193075,37.460516]}},{"properties":{"zip":"89018","geo_score":0.714,"percentage":"0.00%","id":"agf5j3xhjhda","geo_precision":"zip"},"type":"Feature","geometry":{"type":"Point","coordinates":[-115.535079,36.431289]}},{"properties":{"zip":"89019","geo_score":0.714,"percentage":"0.00%","id":"agf5j3ynuopg","geo_precision":"zip"},"type":"Feature","geometry":{"type":"Point","coordinates":[-115.434166,35.832477]}},{"properties":{"zip":"89020","geo_score":0.714,"percentage":"0.00%","id":"agf5j3t1fp0r","geo_precision":"zip"},"type":"Feature","geometry":{"type":"Point","coordinates":[-116.549634,36.539018]}},{"properties":{"zip":"89021","geo_score":0.714,"percentage":"0.00%","id":"agf5j3w0nnr0","geo_precision":"zip"},"type":"Feature","geometry":{"type":"Point","coordinates":[-114.468251,36.593525]}},{"properties":{"zip":"89022","geo_score":0.714,"percentage":"0.00%","id":"agf5j3t69blf","geo_precision":"zip"},"type":"Feature","geometry":{"type":"Point","coordinates":[-116.310045,38.702281]}},{"properties":{"zip":"89025","geo_score":0.714,"percentage":"0.00%","id":"agf5j3yl79aa","geo_precision":"zip"},"type":"Feature","geometry":{"type":"Point","coordinates":[-114.651381,36.691647]}},{"properties":{"zip":"89029","geo_score":0.714,"percentage":"0.00%","id":"agf5j3k4eiih","geo_precision":"zip"},"type":"Feature","geometry":{"type":"Point","coordinates":[-114.675298,35.819678]}},{"properties":{"zip":"89039","geo_score":0.714,"percentage":"0.00%","id":"agf5j3rq8e1p","geo_precision":"zip"},"type":"Feature","geometry":{"type":"Point","coordinates":[-114.871384,35.252249]}},{"properties":{"zip":"89040","geo_score":0.714,"percentage":"0.00%","id":"agf5j3ut0dwj","geo_precision":"zip"},"type":"Feature","geometry":{"type":"Point","coordinates":[-114.407754,36.380534]}},{"properties":{"zip":"89042","geo_score":0.714,"percentage":"0.00%","id":"agf5j3skvggk","geo_precision":"zip"},"type":"Feature","geometry":{"type":"Point","coordinates":[-114.972405,37.759736]}},{"properties":{"zip":"89043","geo_score":0.714,"percentage":"0.00%","id":"agf5j3x4vitt","geo_precision":"zip"},"type":"Feature","geometry":{"type":"Point","coordinates":[-114.474159,37.899963]}},{"properties":{"zip":"89045","geo_score":0.714,"percentage":"0.00%","id":"agf5j3n8e5mv","geo_precision":"zip"},"type":"Feature","geometry":{"type":"Point","coordinates":[-117.179254,38.786598]}},{"properties":{"zip":"89046","geo_score":0.714,"percentage":"0.00%","id":"agf5j3wlph3e","geo_precision":"zip"},"type":"Feature","geometry":{"type":"Point","coordinates":[-114.824701,35.708042]}},{"properties":{"zip":"89047","geo_score":0.714,"percentage":"0.00%","id":"agf5j3s0fbr3","geo_precision":"zip"},"type":"Feature","geometry":{"type":"Point","coordinates":[-117.796454,37.722454]}},{"properties":{"zip":"89049","geo_score":0.714,"percentage":"0.00%","id":"agf5j3r5vkkj","geo_precision":"zip"},"type":"Feature","geometry":{"type":"Point","coordinates":[-116.370054,38.19049]}},{"properties":{"zip":"89054","geo_score":0.0,"percentage":"0.00%","id":"agf5j3w2f98r","geo_precision":"unmatched"},"type":"Feature","geometry":null},{"properties":{"zip":"89060","geo_score":0.0,"percentage":"0.00%","id":"agf5j3lhjbe3","geo_precision":"unmatched"},"type":"Feature","geometry":null},{"properties":{"zip":"89061","geo_score":0.0,"percentage":"0.00%","id":"agf5j3mxm9x8","geo_precision":"unmatched"},"type":"Feature","geometry":null},{"properties":{"zip":"89124","geo_score":0.714,"percentage":"0.00%","id":"agf5j3mmnfki","geo_precision":"zip"},"type":"Feature","geometry":{"type":"Point","coordinates":[-115.217217,35.943586]}},{"properties":{"zip":"89143","geo_score":0.714,"percentage":"0.00%","id":"agf5j3ut7wq8","geo_precision":"zip"},"type":"Feature","geometry":{"type":"Point","coordinates":[-115.261939,36.317804]}},{"properties":{"zip":"89161","geo_score":0.714,"percentage":"0.00%","id":"agf5j3zxqmkb","geo_precision":"zip"},"type":"Feature","geometry":{"type":"Point","coordinates":[-115.137223,36.174971]}},{"properties":{"zip":"89191","geo_score":0.714,"percentage":"0.00%","id":"agf5j3z5us42","geo_precision":"zip"},"type":"Feature","geometry":{"type":"Point","coordinates":[-114.972061,35.927901]}},{"properties":{"zip":"89301","geo_score":0.714,"percentage":"0.00%","id":"agf5j3qqr049","geo_precision":"zip"},"type":"Feature","geometry":{"type":"Point","coordinates":[-114.840433,39.314155]}},{"properties":{"zip":"89310","geo_score":0.714,"percentage":"0.00%","id":"agf5j3oy4avn","geo_precision":"zip"},"type":"Feature","geometry":{"type":"Point","coordinates":[-117.069809,39.209929]}},{"properties":{"zip":"89311","geo_score":0.714,"percentage":"0.00%","id":"agf5j3y3jvr1","geo_precision":"zip"},"type":"Feature","geometry":{"type":"Point","coordinates":[-114.243831,38.955899]}},{"properties":{"zip":"89314","geo_score":0.714,"percentage":"0.00%","id":"agf5j3mvsjco","geo_precision":"zip"},"type":"Feature","geometry":{"type":"Point","coordinates":[-115.714485,38.932433]}},{"properties":{"zip":"89316","geo_score":0.714,"percentage":"0.00%","id":"agf5j3lg41k9","geo_precision":"zip"},"type":"Feature","geometry":{"type":"Point","coordinates":[-115.993806,39.547797]}},{"properties":{"zip":"89317","geo_score":0.714,"percentage":"0.00%","id":"agf5j3u1eoby","geo_precision":"zip"},"type":"Feature","geometry":{"type":"Point","coordinates":[-115.006865,38.864122]}},{"properties":{"zip":"89318","geo_score":0.714,"percentage":"0.00%","id":"agf5j3rf82gs","geo_precision":"zip"},"type":"Feature","geometry":{"type":"Point","coordinates":[-114.7791,39.403429]}},{"properties":{"zip":"89319","geo_score":0.714,"percentage":"0.00%","id":"agf5j3qn7hhk","geo_precision":"zip"},"type":"Feature","geometry":{"type":"Point","coordinates":[-114.885945,39.342631]}},{"properties":{"zip":"89405","geo_score":0.714,"percentage":"0.00%","id":"agf5j3yw5g8u","geo_precision":"zip"},"type":"Feature","geometry":{"type":"Point","coordinates":[-119.348515,40.613152]}},{"properties":{"zip":"89408","geo_score":0.714,"percentage":"0.00%","id":"agf5j4030z5e","geo_precision":"zip"},"type":"Feature","geometry":{"type":"Point","coordinates":[-119.196644,39.489212]}},{"properties":{"zip":"89409","geo_score":0.714,"percentage":"0.00%","id":"agf5j3wu0n2j","geo_precision":"zip"},"type":"Feature","geometry":{"type":"Point","coordinates":[-117.928173,38.863664]}},{"properties":{"zip":"89410","geo_score":0.714,"percentage":"0.00%","id":"agf5j3ugl0qi","geo_precision":"zip"},"type":"Feature","geometry":{"type":"Point","coordinates":[-119.544057,38.695741]}},{"properties":{"zip":"89411","geo_score":0.714,"percentage":"0.00%","id":"agf5j3k3kl5g","geo_precision":"zip"},"type":"Feature","geometry":{"type":"Point","coordinates":[-119.822837,39.034129]}},{"properties":{"zip":"89412","geo_score":0.714,"percentage":"0.00%","id":"agf5j3uniclo","geo_precision":"zip"},"type":"Feature","geometry":{"type":"Point","coordinates":[-119.666863,40.447403]}},{"properties":{"zip":"89413","geo_score":0.714,"percentage":"0.00%","id":"agf5j3urwvv3","geo_precision":"zip"},"type":"Feature","geometry":{"type":"Point","coordinates":[-119.948238,39.03963]}},{"properties":{"zip":"89418","geo_score":0.714,"percentage":"0.00%","id":"agf5j3jrv8ui","geo_precision":"zip"},"type":"Feature","geometry":{"type":"Point","coordinates":[-118.288693,40.649475]}},{"properties":{"zip":"89419","geo_score":0.714,"percentage":"0.00%","id":"agf5j3w35mwu","geo_precision":"zip"},"type":"Feature","geometry":{"type":"Point","coordinates":[-118.289591,40.447407]}},{"properties":{"zip":"89420","geo_score":0.714,"percentage":"0.00%","id":"agf5j3z93myr","geo_precision":"zip"},"type":"Feature","geometry":{"type":"Point","coordinates":[-118.423999,38.484178]}},{"properties":{"zip":"89421","geo_score":0.714,"percentage":"0.00%","id":"agf5j3umc2qb","geo_precision":"zip"},"type":"Feature","geometry":{"type":"Point","coordinates":[-117.86848,42.410717]}},{"properties":{"zip":"89422","geo_score":0.714,"percentage":"0.00%","id":"agf5j3swgctz","geo_precision":"zip"},"type":"Feature","geometry":{"type":"Point","coordinates":[-118.109585,38.387008]}},{"properties":{"zip":"89424","geo_score":0.714,"percentage":"0.00%","id":"agf5j3qwhfk2","geo_precision":"zip"},"type":"Feature","geometry":{"type":"Point","coordinates":[-119.360545,39.827156]}},{"properties":{"zip":"89425","geo_score":0.714,"percentage":"0.00%","id":"agf5j3sb3ips","geo_precision":"zip"},"type":"Feature","geometry":{"type":"Point","coordinates":[-118.174506,41.263287]}},{"properties":{"zip":"89426","geo_score":0.714,"percentage":"0.00%","id":"agf5j3kdvxk0","geo_precision":"zip"},"type":"Feature","geometry":{"type":"Point","coordinates":[-118.174506,41.263287]}},{"properties":{"zip":"89427","geo_score":0.714,"percentage":"0.00%","id":"agf5j3tb67w0","geo_precision":"zip"},"type":"Feature","geometry":{"type":"Point","coordinates":[-118.391242,39.01659]}},{"properties":{"zip":"89428","geo_score":0.714,"percentage":"0.00%","id":"agf5j3sx8d2a","geo_precision":"zip"},"type":"Feature","geometry":{"type":"Point","coordinates":[-119.638802,39.26524]}},{"properties":{"zip":"89429","geo_score":0.714,"percentage":"0.00%","id":"agf5j3yqdz8u","geo_precision":"zip"},"type":"Feature","geometry":{"type":"Point","coordinates":[-119.391468,39.439405]}},{"properties":{"zip":"89430","geo_score":0.714,"percentage":"0.00%","id":"agf5j3o7orp7","geo_precision":"zip"},"type":"Feature","geometry":{"type":"Point","coordinates":[-119.302929,38.773292]}},{"properties":{"zip":"89439","geo_score":0.714,"percentage":"0.00%","id":"agf5j3mcphml","geo_precision":"zip"},"type":"Feature","geometry":{"type":"Point","coordinates":[-119.983252,39.516486]}},{"properties":{"zip":"89440","geo_score":0.714,"percentage":"0.00%","id":"agf5j3r5pcuu","geo_precision":"zip"},"type":"Feature","geometry":{"type":"Point","coordinates":[-119.657401,39.290468]}},{"properties":{"zip":"89441","geo_score":0.0,"percentage":"0.00%","id":"agf5j3qsa49n","geo_precision":"unmatched"},"type":"Feature","geometry":null},{"properties":{"zip":"89442","geo_score":0.714,"percentage":"0.00%","id":"agf5j3x3gtdt","geo_precision":"zip"},"type":"Feature","geometry":{"type":"Point","coordinates":[-119.429065,39.658245]}},{"properties":{"zip":"89449","geo_score":0.714,"percentage":"0.00%","id":"agf5j4007mwg","geo_precision":"zip"},"type":"Feature","geometry":{"type":"Point","coordinates":[-119.732977,38.860647]}},{"properties":{"zip":"89450","geo_score":0.714,"percentage":"0.00%","id":"agf5j3l804ys","geo_precision":"zip"},"type":"Feature","geometry":{"type":"Point","coordinates":[-119.95087,39.228206]}},{"properties":{"zip":"89510","geo_score":0.714,"percentage":"0.00%","id":"agf5j3o3tjo9","geo_precision":"zip"},"type":"Feature","geometry":{"type":"Point","coordinates":[-119.600464,39.950185]}},{"properties":{"zip":"89704","geo_score":0.714,"percentage":"0.00%","id":"agf5j3t9m104","geo_precision":"zip"},"type":"Feature","geometry":{"type":"Point","coordinates":[-119.722803,39.453739]}},{"properties":{"zip":"89705","geo_score":0.714,"percentage":"0.00%","id":"agf5j3u335jk","geo_precision":"zip"},"type":"Feature","geometry":{"type":"Point","coordinates":[-119.805916,39.055424]}},{"properties":{"zip":"89801","geo_score":0.714,"percentage":"0.00%","id":"agf5j3rvgyul","geo_precision":"zip"},"type":"Feature","geometry":{"type":"Point","coordinates":[-115.678694,41.93657]}},{"properties":{"zip":"89820","geo_score":0.714,"percentage":"0.00%","id":"agf5j3xmfl7l","geo_precision":"zip"},"type":"Feature","geometry":{"type":"Point","coordinates":[-116.974803,40.042115]}},{"properties":{"zip":"89821","geo_score":0.714,"percentage":"0.00%","id":"agf5j3t5sqwm","geo_precision":"zip"},"type":"Feature","geometry":{"type":"Point","coordinates":[-116.477307,40.592692]}},{"properties":{"zip":"89822","geo_score":0.714,"percentage":"0.00%","id":"agf5j3kmzu9o","geo_precision":"zip"},"type":"Feature","geometry":{"type":"Point","coordinates":[-116.103154,40.715931]}},{"properties":{"zip":"89823","geo_score":0.714,"percentage":"0.00%","id":"agf5j3rfsfvv","geo_precision":"zip"},"type":"Feature","geometry":{"type":"Point","coordinates":[-115.529596,41.059414]}},{"properties":{"zip":"89825","geo_score":0.714,"percentage":"0.00%","id":"agf5j3ru0m4m","geo_precision":"zip"},"type":"Feature","geometry":{"type":"Point","coordinates":[-115.529596,41.059414]}},{"properties":{"zip":"89826","geo_score":0.714,"percentage":"0.00%","id":"agf5j3skjjjb","geo_precision":"zip"},"type":"Feature","geometry":{"type":"Point","coordinates":[-115.529596,41.059414]}},{"properties":{"zip":"89828","geo_score":0.714,"percentage":"0.00%","id":"agf5j3zyrbcg","geo_precision":"zip"},"type":"Feature","geometry":{"type":"Point","coordinates":[-115.554233,40.744704]}},{"properties":{"zip":"89830","geo_score":0.714,"percentage":"0.00%","id":"agf5j3zynbdt","geo_precision":"zip"},"type":"Feature","geometry":{"type":"Point","coordinates":[-115.529596,41.059414]}},{"properties":{"zip":"89831","geo_score":0.714,"percentage":"0.00%","id":"agf5j3mle1oj","geo_precision":"zip"},"type":"Feature","geometry":{"type":"Point","coordinates":[-115.957591,41.810181]}},{"properties":{"zip":"89832","geo_score":0.714,"percentage":"0.00%","id":"agf5j3nmjwx4","geo_precision":"zip"},"type":"Feature","geometry":{"type":"Point","coordinates":[-116.007157,41.74828]}},{"properties":{"zip":"89833","geo_score":0.714,"percentage":"0.00%","id":"agf5j3o8db1o","geo_precision":"zip"},"type":"Feature","geometry":{"type":"Point","coordinates":[-115.529596,41.059414]}},{"properties":{"zip":"89834","geo_score":0.714,"percentage":"0.00%","id":"agf5j3vngsug","geo_precision":"zip"},"type":"Feature","geometry":{"type":"Point","coordinates":[-115.529596,41.059414]}},{"properties":{"zip":"89835","geo_score":0.714,"percentage":"0.00%","id":"agf5j3of8fde","geo_precision":"zip"},"type":"Feature","geometry":{"type":"Point","coordinates":[-114.821761,41.543923]}},{"properties":{"zip":"89883","geo_score":0.714,"percentage":"0.00%","id":"agf5j3sd2mgt","geo_precision":"zip"},"type":"Feature","geometry":{"type":"Point","coordinates":[-114.412635,40.504545]}},{"properties":{"zip":"89026","geo_score":0.714,"percentage":null,"id":"agf5j3uzs8cf","geo_precision":"zip"},"type":"Feature","geometry":{"type":"Point","coordinates":[-114.972061,35.927901]}},{"properties":{"zip":"89402","geo_score":0.714,"percentage":null,"id":"agf5j3pe3ilv","geo_precision":"zip"},"type":"Feature","geometry":{"type":"Point","coordinates":[-119.971133,39.239457]}},{"properties":{"zip":"89404","geo_score":0.714,"percentage":null,"id":"agf5j3wrg2d8","geo_precision":"zip"},"type":"Feature","geometry":{"type":"Point","coordinates":[-118.174506,41.263287]}},{"properties":{"zip":"89438","geo_score":0.714,"percentage":null,"id":"agf5j3u2ppue","geo_precision":"zip"},"type":"Feature","geometry":{"type":"Point","coordinates":[-118.174506,41.263287]}},{"properties":{"zip":"89446","geo_score":0.714,"percentage":null,"id":"agf5j3ro25n7","geo_precision":"zip"},"type":"Feature","geometry":{"type":"Point","coordinates":[-117.760165,41.076358]}},{"properties":{"zip":"89702","geo_score":0.714,"percentage":null,"id":"agf5j3vir61f","geo_precision":"zip"},"type":"Feature","geometry":{"type":"Point","coordinates":[-119.75875,39.135503]}}],"is_temporal":false,"author":{"url":"","metadata":null,"contact_name":null,"contact_address":null,"source":null,"contact_phone":null},"source":"","pagination":{"sort":null,"start":0,"total":176,"limit":1000000},"state":"complete","tags":"","published":"2014-08-16T19:59:32-04:00","id":385765}