{"type":"FeatureCollection","data_type":"Dataset","url_type":null,"permissions":[{"permissions":{"download":true,"view":true},"group_id":"everyone"}],"classification":null,"title":"USA Eubanks Distributors","count":23,"stream_id":385896,"contributor":{"url":"http://geocommons.com/users/79346","name":"steelj2015"},"data_attributes":null,"calculation_params":null,"icon_link":null,"link":"http://geocommons.com/overlays/385896.json","extent":[-121.896,26.9926,-74.0436,44.8918],"geometry_types":["point"],"unique_name":null,"name":"USA Eubanks Distributors","feature_count":23,"description":"","next_feature":null,"is_raster":false,"short_classification":"Y","stats":{},"features":[{"properties":{"company":"MarTec Inc.","city":"Huntsville","zip":"35802","geo_score":0.732,"id":"agftefa6mbzd","address":"1035 Putman Dr.","geo_precision":"range","state":"AL"},"type":"Feature","geometry":{"type":"Point","coordinates":[-86.636746,34.739309]}},{"properties":{"company":"MarTec Inc.","city":"Franklin","zip":"37064","geo_score":0.805,"id":"agftefirb5xi","address":"2259 Scott Drive","geo_precision":"range","state":"TN"},"type":"Feature","geometry":{"type":"Point","coordinates":[-86.793625,35.894899]}},{"properties":{"company":"MarTec Inc.","city":"Roswell","zip":"30077","geo_score":0.857,"id":"agftefeftbqn","address":"P.O. Box 2269","geo_precision":"zip","state":"GA"},"type":"Feature","geometry":{"type":"Point","coordinates":[-84.47405,33.844371]}},{"properties":{"company":"Actio Technology Co.","city":"Mesa","zip":"85205","geo_score":1.0,"id":"agfteffquznb","address":"5558 E Enrose Street","geo_precision":"range","state":"AZ"},"type":"Feature","geometry":{"type":"Point","coordinates":[-111.711342,33.431688]}},{"properties":{"company":"Eagle Marketing Inc.","city":"San Jose","zip":"95131","geo_score":0.571,"id":"agftefguxi45","address":"1590 Oakland Road #b-112","geo_precision":"street","state":"CA"},"type":"Feature","geometry":{"type":"Point","coordinates":[-121.895593,37.37768]}},{"properties":{"company":"Eubanks Engineering Co.","city":"Ontario","zip":"91764","geo_score":1.0,"id":"agftef4a0k0y","address":"3022 Inland Empire Blvd","geo_precision":"range","state":"CA"},"type":"Feature","geometry":{"type":"Point","coordinates":[-117.591673,34.07031]}},{"properties":{"company":"Salit Associates","city":"Spring Valley","zip":"10977","geo_score":1.0,"id":"agftef97pxfv","address":"254 Hempstead Road","geo_precision":"range","state":"NY"},"type":"Feature","geometry":{"type":"Point","coordinates":[-74.043642,41.145759]}},{"properties":{"company":"Depco","city":"Eastlake","zip":"44095","geo_score":0.688,"id":"agftefdzdqef","address":"33801 Curtis Blvd, Suite 110","geo_precision":"street","state":"OH"},"type":"Feature","geometry":{"type":"Point","coordinates":[-81.449452,41.630334]}},{"properties":{"company":"Depco","city":"Fairfield","zip":"45014","geo_score":1.0,"id":"agftefi6iucv","address":"5640 Chesapeake Way","geo_precision":"range","state":"OH"},"type":"Feature","geometry":{"type":"Point","coordinates":[-84.547251,39.326954]}},{"properties":{"company":"Depco","city":"Englewood","zip":"34223","geo_score":1.0,"id":"agftefdcfamk","address":"383 Eden Drive, Suite A1","geo_precision":"street","state":"FL"},"type":"Feature","geometry":{"type":"Point","coordinates":[-82.386488,26.992583]}},{"properties":{"company":"Assembly Solutions","city":"Bridgeton","zip":"63044","geo_score":1.0,"id":"agftefjkwmlw","address":"4328 Bridgeton Industrial Dr.","geo_precision":"range","state":"MO"},"type":"Feature","geometry":{"type":"Point","coordinates":[-90.423006,38.778076]}},{"properties":{"company":"Z Tech Services, Inc.","city":"Chicago","zip":"60631","geo_score":0.604,"id":"agftef8pctw8","address":"6701 N. Olympia Ave.","geo_precision":"street","state":"IL"},"type":"Feature","geometry":{"type":"Point","coordinates":[-87.817792,41.98878]}},{"properties":{"company":"Production Automation Corp","city":"Eden Prairie","zip":"55346","geo_score":1.0,"id":"agftefftjxw7","address":"6200 Bury Drive","geo_precision":"range","state":"MN"},"type":"Feature","geometry":{"type":"Point","coordinates":[-93.452286,44.891819]}},{"properties":{"company":"Production Automation Corp","city":"El Monte","zip":"91731","geo_score":1.0,"id":"agftefk7t89j","address":"9674 Telstar Ave.","geo_precision":"range","state":"CA"},"type":"Feature","geometry":{"type":"Point","coordinates":[-118.058532,34.069774]}},{"properties":{"company":"Production Automation Corp","city":"Houston","zip":"77041","geo_score":1.0,"id":"agftefh1x39q","address":"10130 Talley Lane","geo_precision":"range","state":"TX"},"type":"Feature","geometry":{"type":"Point","coordinates":[-95.543948,29.857631]}},{"properties":{"company":"Murray A. Percival Co.","city":"Auburn Hills","zip":"48326","geo_score":1.0,"id":"agftefj5tvhe","address":"2014 Brown Road","geo_precision":"range","state":"MI"},"type":"Feature","geometry":{"type":"Point","coordinates":[-83.292407,42.70739]}},{"properties":{"company":"Circuit Technology, Inc.","city":"Holly Springs","zip":"27540","geo_score":0.659,"id":"agftefddzuhv","address":"340 Raleigh Street","geo_precision":"range","state":"NC"},"type":"Feature","geometry":{"type":"Point","coordinates":[-78.77226,35.781392]}},{"properties":{"company":"Circuit Technology, Inc.","city":"Reistertown","zip":"21136","geo_score":0.992,"id":"agftefjwn5qj","address":"4 Glyndon Drive","geo_precision":"range","state":"MD"},"type":"Feature","geometry":{"type":"Point","coordinates":[-76.824583,39.459987]}},{"properties":{"company":"Circuit Technology, Inc.","city":"Clearwater","zip":"33762","geo_score":0.512,"id":"agftefkhf1i1","address":"4521 107th Circle N #4","geo_precision":"street","state":"FL"},"type":"Feature","geometry":{"type":"Point","coordinates":[-82.685307,27.869425]}},{"properties":{"company":"The Mello Co., Inc.","city":"Dallas","zip":"75229","geo_score":1.0,"id":"agftefhm0sp4","address":"2636 Walnut Hill Lane","geo_precision":"range","state":"TX"},"type":"Feature","geometry":{"type":"Point","coordinates":[-96.889893,32.880962]}},{"properties":{"company":"CTG Technical Sales","city":"Moorestown","zip":"08057","geo_score":1.0,"id":"agftefe5fsbo","address":"63 Brooks Road","geo_precision":"range","state":"NJ"},"type":"Feature","geometry":{"type":"Point","coordinates":[-74.921778,39.986834]}},{"properties":{"company":"South Indistrial Suppliers Corp.","city":"Braselton","zip":"30517","geo_score":0.878,"id":"agftef68zwi3","address":"207 Nugget Trail","geo_precision":"range","state":"GA"},"type":"Feature","geometry":{"type":"Point","coordinates":[-83.800296,34.129861]}},{"properties":{"company":"La Belle Industrial Sales","city":"El Paso","zip":"79912","geo_score":1.0,"id":"agftefhmnsvr","address":"460 Eagle Dr.","geo_precision":"range","state":"TX"},"type":"Feature","geometry":{"type":"Point","coordinates":[-106.529458,31.816973]}}],"is_temporal":false,"author":{"url":"","metadata":"","contact_name":"","contact_address":"","source":"","contact_phone":""},"source":"","pagination":{"sort":null,"start":0,"total":23,"limit":1000000},"state":"complete","tags":"","published":"2014-08-16T20:05:14-04:00","id":385896}