{"type":"FeatureCollection","data_type":"Dataset","url_type":null,"permissions":[{"permissions":{"download":true,"view":true},"group_id":"everyone"}],"classification":null,"title":"Alternative_Fuel_Locations_CSV","count":136,"stream_id":385919,"contributor":{"url":"http://geocommons.com/users/79603","name":"rappelmaster"},"data_attributes":null,"calculation_params":null,"icon_link":null,"link":"http://geocommons.com/overlays/385919.json","extent":[-87.8851,41.692,-87.582,42.0174],"geometry_types":["point"],"unique_name":null,"name":"Alternative_Fuel_Locations_CSV","feature_count":136,"description":"","next_feature":null,"is_raster":false,"short_classification":"Y","stats":{"latitude":{"max":42.01745,"variance":0.00490337289033682,"mean":41.8902663177941,"stdev":0.0700240879293463,"median":41.89277,"min":41.691997},"longitude":{"max":-87.58196,"variance":0.00301113497869885,"mean":-87.6719216835294,"stdev":0.0548738095879888,"median":-87.6593594,"min":-87.8851}},"features":[{"properties":{"city":"Chicago","station name":"Peoples Gas","zip":"60621","latitude":41.77766,"fuel type code":"CNG","ng psi":"3000","access days time":null,"cards accepted":null,"bd blends":null,"street address":"38 W 64th St","owner type code":"T","ng fill type code":"B","date last confirmed":"08/31/2012","longitude":-87.6255,"id":"agfvyx1dxapq","groups with access code":"Private access only","geocode status":"200-8","state":"IL"},"type":"Feature","geometry":{"type":"Point","coordinates":[-87.6255,41.77766]}},{"properties":{"city":"Chicago","station name":"Peoples Gas","zip":"60641","latitude":41.95248,"fuel type code":"CNG","ng psi":"3000","access days time":null,"cards accepted":null,"bd blends":null,"street address":"3955 N Kilpatrick Ave","owner type code":"T","ng fill type code":"B","date last confirmed":"08/31/2012","longitude":-87.7431,"id":"agfvyx95pki7","groups with access code":"Private access only","geocode status":"200-8","state":"IL"},"type":"Feature","geometry":{"type":"Point","coordinates":[-87.7431,41.95248]}},{"properties":{"city":"Chicago","station name":"AmeriGas","zip":"60607","latitude":41.8872821,"fuel type code":"LPG","ng psi":null,"access days time":"6am-4pm M-F","cards accepted":"Cash A D M V","bd blends":null,"street address":"310 N Sangamon St","owner type code":"P","ng fill type code":null,"date last confirmed":"02/28/2013","longitude":-87.6511547,"id":"agfvyx43z009","groups with access code":"Public - see hours","geocode status":"200-8","state":"IL"},"type":"Feature","geometry":{"type":"Point","coordinates":[-87.6511547,41.8872821]}},{"properties":{"city":"Chicago","station name":"U-Haul","zip":"60639","latitude":41.9120964,"fuel type code":"LPG","ng psi":null,"access days time":"7am-7pm M-Sat, 9am-5pm Sun","cards accepted":"Cash A D M V","bd blends":null,"street address":"1700 N Cicero Ave","owner type code":"P","ng fill type code":null,"date last confirmed":"02/28/2013","longitude":-87.7461398,"id":"agfvyx8cvap6","groups with access code":"Public - see hours","geocode status":"200-8","state":"IL"},"type":"Feature","geometry":{"type":"Point","coordinates":[-87.7461398,41.9120964]}},{"properties":{"city":"Chicago","station name":"U-Haul","zip":"60641","latitude":41.9587882,"fuel type code":"LPG","ng psi":null,"access days time":"7am-7pm M-Th and Sat, 7am-8pm F, 8am-6pm Sun","cards accepted":"Cash A D M V","bd blends":null,"street address":"4301 N Cicero Ave","owner type code":"P","ng fill type code":null,"date last confirmed":"02/28/2013","longitude":-87.7472764,"id":"agfvyx1pgqpi","groups with access code":"Public - see hours","geocode status":"200-8","state":"IL"},"type":"Feature","geometry":{"type":"Point","coordinates":[-87.7472764,41.9587882]}},{"properties":{"city":"Chicago","station name":"U-Haul","zip":"60649","latitude":41.7661664,"fuel type code":"LPG","ng psi":null,"access days time":"7am-7pm M-Th and Sat, 7am-8pm F, 9am-5pm Sun","cards accepted":"Cash A D M V","bd blends":null,"street address":"1650 E 71st St","owner type code":"P","ng fill type code":null,"date last confirmed":"02/28/2013","longitude":-87.5838889,"id":"agfvyx98ietk","groups with access code":"Public - call ahead","geocode status":"200-8","state":"IL"},"type":"Feature","geometry":{"type":"Point","coordinates":[-87.5838889,41.7661664]}},{"properties":{"city":"Chicago","station name":"Citgo","zip":"60613","latitude":41.9562306,"fuel type code":"E85","ng psi":null,"access days time":"24 hours daily","cards accepted":"Cash A D M V Wright_Exp","bd blends":null,"street address":"4070 N Clark St","owner type code":"P","ng fill type code":null,"date last confirmed":"11/30/2012","longitude":-87.6633994,"id":"agfvyx6fkv8o","groups with access code":"Public - see hours","geocode status":"200-8","state":"IL"},"type":"Feature","geometry":{"type":"Point","coordinates":[-87.6633994,41.9562306]}},{"properties":{"city":"Chicago","station name":"Kean Brothers Oil Co","zip":"60655","latitude":41.691997,"fuel type code":"E85","ng psi":null,"access days time":"5:30am-10pm M-F, 6am-10pm Sat, 7am-10pm Sun","cards accepted":"Cash A D M V","bd blends":null,"street address":"2632 W 111th St","owner type code":"P","ng fill type code":null,"date last confirmed":"11/30/2012","longitude":-87.687613,"id":"agfvyx8xxun1","groups with access code":"Public - see hours","geocode status":"200-8","state":"IL"},"type":"Feature","geometry":{"type":"Point","coordinates":[-87.687613,41.691997]}},{"properties":{"city":"Chicago","station name":"Trillium CNG - Peoples Gas","zip":"60642","latitude":41.9023759,"fuel type code":"CNG","ng psi":"3000 3600","access days time":"24 hours daily; call 800-920-1166 to set up fueling agreement","cards accepted":"A M V","bd blends":null,"street address":"1241 W Division St","owner type code":"T","ng fill type code":"B","date last confirmed":"04/30/2013","longitude":-87.658827,"id":"agfvyx3jeglr","groups with access code":"Public - credit card at all times","geocode status":"200-8","state":"IL"},"type":"Feature","geometry":{"type":"Point","coordinates":[-87.658827,41.9023759]}},{"properties":{"city":"Chicago","station name":"Peoples Gas","zip":"60623","latitude":41.86363,"fuel type code":"CNG","ng psi":"3000","access days time":null,"cards accepted":null,"bd blends":null,"street address":"1250 S Kilborne","owner type code":"T","ng fill type code":"B","date last confirmed":"08/31/2012","longitude":-87.7373,"id":"agfvyx5rcmj5","groups with access code":"Private access only","geocode status":"200-8","state":"IL"},"type":"Feature","geometry":{"type":"Point","coordinates":[-87.7373,41.86363]}},{"properties":{"city":"Chicago","station name":"Aisha Wash and Fuel Island - Citgo","zip":"60639","latitude":41.931033,"fuel type code":"E85","ng psi":null,"access days time":"24 hours daily","cards accepted":"Cash A D M V Voyager Wright_Exp","bd blends":null,"street address":"5549 W Diversey Ave","owner type code":"P","ng fill type code":null,"date last confirmed":"11/30/2012","longitude":-87.765882,"id":"agfvyx6e66eo","groups with access code":"Public - see hours","geocode status":"200-8","state":"IL"},"type":"Feature","geometry":{"type":"Point","coordinates":[-87.765882,41.931033]}},{"properties":{"city":"Chicago","station name":"Clark Gas for Less","zip":"60614","latitude":41.9322895,"fuel type code":"E85","ng psi":null,"access days time":"24 hours daily","cards accepted":"Cash A D M V Voyager Wright_Exp","bd blends":null,"street address":"2801 N Damen Ave","owner type code":"P","ng fill type code":null,"date last confirmed":"11/30/2012","longitude":-87.6781499,"id":"agfvyx2u8zu8","groups with access code":"Public - see hours","geocode status":"200-8","state":"IL"},"type":"Feature","geometry":{"type":"Point","coordinates":[-87.6781499,41.9322895]}},{"properties":{"city":"Chicago","station name":"Midway Marathon","zip":"60652","latitude":41.7446904,"fuel type code":"E85","ng psi":null,"access days time":"24 hours daily","cards accepted":"Cash A D M V FuelMan Voyager Wright_Exp","bd blends":null,"street address":"8145 S Pulaski","owner type code":"P","ng fill type code":null,"date last confirmed":"11/30/2012","longitude":-87.7217535,"id":"agfvywv1alj8","groups with access code":"Public - see hours","geocode status":"200-8","state":"IL"},"type":"Feature","geometry":{"type":"Point","coordinates":[-87.7217535,41.7446904]}},{"properties":{"city":"Chicago","station name":"City of Chicago FS#6","zip":"60617","latitude":41.712605,"fuel type code":"E85","ng psi":null,"access days time":null,"cards accepted":null,"bd blends":null,"street address":"10101 S Stoney Island","owner type code":"LG","ng fill type code":null,"date last confirmed":"05/31/2012","longitude":-87.58196,"id":"agfvyx85hwzt","groups with access code":"Private access only","geocode status":"200-8","state":"IL"},"type":"Feature","geometry":{"type":"Point","coordinates":[-87.58196,41.712605]}},{"properties":{"city":"Chicago","station name":"City of Chicago FS#5","zip":"60630","latitude":41.9625287,"fuel type code":"E85","ng psi":null,"access days time":null,"cards accepted":null,"bd blends":null,"street address":"4833 W Sunnyside","owner type code":"LG","ng fill type code":null,"date last confirmed":"05/31/2012","longitude":-87.7490332,"id":"agfvywuet7o4","groups with access code":"Private access only","geocode status":"200-8","state":"IL"},"type":"Feature","geometry":{"type":"Point","coordinates":[-87.7490332,41.9625287]}},{"properties":{"city":"Chicago","station name":"City of Chicago FS#3","zip":"60624","latitude":41.88975,"fuel type code":"E85","ng psi":null,"access days time":null,"cards accepted":null,"bd blends":null,"street address":"4233 W Ferdinand","owner type code":"LG","ng fill type code":null,"date last confirmed":"05/31/2012","longitude":-87.730611,"id":"agfvywt4js9x","groups with access code":"Private access only","geocode status":"200-8","state":"IL"},"type":"Feature","geometry":{"type":"Point","coordinates":[-87.730611,41.88975]}},{"properties":{"city":"Chicago","station name":"City of Chicago FS#9","zip":"60621","latitude":41.7764203,"fuel type code":"E85","ng psi":null,"access days time":null,"cards accepted":null,"bd blends":null,"street address":"25 W 65th St","owner type code":"LG","ng fill type code":null,"date last confirmed":"05/31/2012","longitude":-87.6262229,"id":"agfvyx29iaer","groups with access code":"Private access only","geocode status":"200-8","state":"IL"},"type":"Feature","geometry":{"type":"Point","coordinates":[-87.6262229,41.7764203]}},{"properties":{"city":"Chicago","station name":"City of Chicago FS#7","zip":"60666","latitude":41.9602465,"fuel type code":"E85","ng psi":null,"access days time":null,"cards accepted":null,"bd blends":null,"street address":"10000 W Montrose","owner type code":"LG","ng fill type code":null,"date last confirmed":"05/31/2012","longitude":-87.7873765,"id":"agfvyww9663a","groups with access code":"Private access only","geocode status":"200-8","state":"IL"},"type":"Feature","geometry":{"type":"Point","coordinates":[-87.7873765,41.9602465]}},{"properties":{"city":"Chicago","station name":"City of Chicago FS#4","zip":"60609","latitude":41.825796,"fuel type code":"E85","ng psi":null,"access days time":null,"cards accepted":null,"bd blends":null,"street address":"3746 S Iron","owner type code":"LG","ng fill type code":null,"date last confirmed":"05/31/2012","longitude":-87.6593594,"id":"agfvywxgg2tp","groups with access code":"Private access only","geocode status":"200-8","state":"IL"},"type":"Feature","geometry":{"type":"Point","coordinates":[-87.6593594,41.825796]}},{"properties":{"city":"Chicago","station name":"City of Chicago FS#6","zip":"60617","latitude":41.71261,"fuel type code":"CNG","ng psi":"3600","access days time":null,"cards accepted":null,"bd blends":null,"street address":"10101 S Stoney Island","owner type code":"LG","ng fill type code":"Q","date last confirmed":"05/31/2012","longitude":-87.582,"id":"agfvyx6so37u","groups with access code":"Private access only","geocode status":"200-8","state":"IL"},"type":"Feature","geometry":{"type":"Point","coordinates":[-87.582,41.71261]}},{"properties":{"city":"Chicago","station name":"City of Chicago FS#5","zip":"60630","latitude":41.96253,"fuel type code":"CNG","ng psi":"3600","access days time":null,"cards accepted":null,"bd blends":null,"street address":"4833 W Sunnyside","owner type code":"LG","ng fill type code":"Q","date last confirmed":"05/31/2012","longitude":-87.749,"id":"agfvywxe9fda","groups with access code":"Private access only","geocode status":"200-8","state":"IL"},"type":"Feature","geometry":{"type":"Point","coordinates":[-87.749,41.96253]}},{"properties":{"city":"Chicago","station name":"City of Chicago FS#3","zip":"60624","latitude":41.88975,"fuel type code":"CNG","ng psi":"3600","access days time":null,"cards accepted":null,"bd blends":null,"street address":"4233 W Ferdinand","owner type code":"LG","ng fill type code":"Q","date last confirmed":"05/31/2012","longitude":-87.7306,"id":"agfvywvmzqbt","groups with access code":"Private access only","geocode status":"200-8","state":"IL"},"type":"Feature","geometry":{"type":"Point","coordinates":[-87.7306,41.88975]}},{"properties":{"city":"Chicago","station name":"City of Chicago FS#9","zip":"60621","latitude":41.77642,"fuel type code":"CNG","ng psi":"3600","access days time":null,"cards accepted":null,"bd blends":null,"street address":"25 W 65th St","owner type code":"LG","ng fill type code":"Q","date last confirmed":"05/31/2012","longitude":-87.6262,"id":"agfvywy2tje8","groups with access code":"Private access only","geocode status":"200-8","state":"IL"},"type":"Feature","geometry":{"type":"Point","coordinates":[-87.6262,41.77642]}},{"properties":{"city":"Chicago","station name":"City of Chicago FS#7","zip":"60666","latitude":41.96025,"fuel type code":"CNG","ng psi":"3600","access days time":null,"cards accepted":null,"bd blends":null,"street address":"10000 W Montrose","owner type code":"LG","ng fill type code":"Q","date last confirmed":"05/31/2012","longitude":-87.7874,"id":"agfvyx8l2qwd","groups with access code":"Private access only","geocode status":"200-8","state":"IL"},"type":"Feature","geometry":{"type":"Point","coordinates":[-87.7874,41.96025]}},{"properties":{"city":"Chicago","station name":"City of Chicago FS#4","zip":"60609","latitude":41.8258,"fuel type code":"CNG","ng psi":"3600","access days time":null,"cards accepted":null,"bd blends":null,"street address":"3746 S Iron","owner type code":"LG","ng fill type code":"Q","date last confirmed":"05/31/2012","longitude":-87.6594,"id":"agfvyxorqd33","groups with access code":"Private access only","geocode status":"200-8","state":"IL"},"type":"Feature","geometry":{"type":"Point","coordinates":[-87.6594,41.8258]}},{"properties":{"city":"Chicago","station name":"University of Illinois at Chicago","zip":"60608","latitude":41.86406,"fuel type code":"CNG","ng psi":"3600","access days time":null,"cards accepted":null,"bd blends":null,"street address":"1351 S Morgan","owner type code":"SG","ng fill type code":"B","date last confirmed":"12/31/2012","longitude":-87.6506,"id":"agfvyxbv8edt","groups with access code":"Private - government only","geocode status":"200-8","state":"IL"},"type":"Feature","geometry":{"type":"Point","coordinates":[-87.6506,41.86406]}},{"properties":{"city":"Chicago","station name":"City of Chicago FS#1","zip":"60642","latitude":41.9138873,"fuel type code":"E85","ng psi":null,"access days time":null,"cards accepted":null,"bd blends":null,"street address":"1701 N Throop","owner type code":"LG","ng fill type code":null,"date last confirmed":"05/31/2012","longitude":-87.6618872,"id":"agfvyxld4b8o","groups with access code":"Private access only","geocode status":"200-8","state":"IL"},"type":"Feature","geometry":{"type":"Point","coordinates":[-87.6618872,41.9138873]}},{"properties":{"city":"Chicago","station name":"City of Chicago","zip":"60642","latitude":41.91435,"fuel type code":"ELEC","ng psi":null,"access days time":null,"cards accepted":null,"bd blends":null,"street address":"1685 N Throop St","owner type code":"LG","ng fill type code":null,"date last confirmed":"11/30/2012","longitude":-87.6622,"id":"agfvyxi4yycz","groups with access code":"Private access only","geocode status":"GPS","state":"IL"},"type":"Feature","geometry":{"type":"Point","coordinates":[-87.6622,41.91435]}},{"properties":{"city":"Chicago","station name":"City of Chicago FS#1","zip":"60642","latitude":41.91389,"fuel type code":"CNG","ng psi":"3600","access days time":null,"cards accepted":null,"bd blends":null,"street address":"1701 N Throop","owner type code":"LG","ng fill type code":"Q","date last confirmed":"05/31/2012","longitude":-87.6619,"id":"agfvyxf4nbem","groups with access code":"Private access only","geocode status":"200-8","state":"IL"},"type":"Feature","geometry":{"type":"Point","coordinates":[-87.6619,41.91389]}},{"properties":{"city":"Chicago","station name":"City of Chicago FS#2","zip":"60626","latitude":41.9992707,"fuel type code":"E85","ng psi":null,"access days time":null,"cards accepted":null,"bd blends":null,"street address":"6445 N Ravenswood","owner type code":"LG","ng fill type code":null,"date last confirmed":"05/31/2012","longitude":-87.6750401,"id":"agfvyxgootwl","groups with access code":"Private access only","geocode status":"200-8","state":"IL"},"type":"Feature","geometry":{"type":"Point","coordinates":[-87.6750401,41.9992707]}},{"properties":{"city":"Chicago","station name":"City of Chicago FS#202","zip":"60638","latitude":41.778283,"fuel type code":"E85","ng psi":null,"access days time":null,"cards accepted":null,"bd blends":null,"street address":"5150 W 63rd St","owner type code":"LG","ng fill type code":null,"date last confirmed":"05/31/2012","longitude":-87.7505054,"id":"agfvyxfhhcfv","groups with access code":"Private access only","geocode status":"200-8","state":"IL"},"type":"Feature","geometry":{"type":"Point","coordinates":[-87.7505054,41.778283]}},{"properties":{"city":"Chicago","station name":"City of Chicago FS#205","zip":"60618","latitude":41.9403511,"fuel type code":"E85","ng psi":null,"access days time":null,"cards accepted":null,"bd blends":null,"street address":"3245 N Cambell","owner type code":"LG","ng fill type code":null,"date last confirmed":"05/31/2012","longitude":-87.6906155,"id":"agfvyxaa3bn1","groups with access code":"Private access only","geocode status":"200-8","state":"IL"},"type":"Feature","geometry":{"type":"Point","coordinates":[-87.6906155,41.9403511]}},{"properties":{"city":"Chicago","station name":"City of Chicago FS#8","zip":"60643","latitude":41.7040205,"fuel type code":"E85","ng psi":null,"access days time":null,"cards accepted":null,"bd blends":null,"street address":"10420 S Vincennes","owner type code":"LG","ng fill type code":null,"date last confirmed":"05/31/2012","longitude":-87.6570273,"id":"agfvyxhfdye8","groups with access code":"Private access only","geocode status":"200-8","state":"IL"},"type":"Feature","geometry":{"type":"Point","coordinates":[-87.6570273,41.7040205]}},{"properties":{"city":"Chicago","station name":"Millennium Park Garage","zip":"60601","latitude":41.88238,"fuel type code":"ELEC","ng psi":null,"access days time":"24 hours daily","cards accepted":null,"bd blends":null,"street address":"5 S Columbus Dr","owner type code":"P","ng fill type code":null,"date last confirmed":"11/30/2012","longitude":-87.6205,"id":"agfvyxegv65h","groups with access code":"Public - see hours","geocode status":"GPS","state":"IL"},"type":"Feature","geometry":{"type":"Point","coordinates":[-87.6205,41.88238]}},{"properties":{"city":"Chicago","station name":"InterPark - Adams &amp; Wabash Self-Park Garage","zip":"60603","latitude":41.87931,"fuel type code":"ELEC","ng psi":null,"access days time":"24 hours daily","cards accepted":null,"bd blends":null,"street address":"17 E Adams St","owner type code":"P","ng fill type code":null,"date last confirmed":"11/30/2012","longitude":-87.6264,"id":"agfvyxehidma","groups with access code":"Public - see hours","geocode status":"GPS","state":"IL"},"type":"Feature","geometry":{"type":"Point","coordinates":[-87.6264,41.87931]}},{"properties":{"city":"Chicago","station name":"InterPark - Traders Self-Park Garage","zip":"60606","latitude":41.87763,"fuel type code":"ELEC","ng psi":null,"access days time":"24 hours daily","cards accepted":null,"bd blends":null,"street address":"326 S Wells St","owner type code":"P","ng fill type code":null,"date last confirmed":"11/30/2012","longitude":-87.6341,"id":"agfvyxbc75xe","groups with access code":"Public - see hours","geocode status":"GPS","state":"IL"},"type":"Feature","geometry":{"type":"Point","coordinates":[-87.6341,41.87763]}},{"properties":{"city":"Chicago","station name":"InterPark - Willis Tower","zip":"60606","latitude":41.87883,"fuel type code":"ELEC","ng psi":null,"access days time":"24 hours daily","cards accepted":null,"bd blends":null,"street address":"211 W Adams St","owner type code":"P","ng fill type code":null,"date last confirmed":"11/30/2012","longitude":-87.6349,"id":"agfvyxo3m6r3","groups with access code":"Public - see hours","geocode status":"GPS","state":"IL"},"type":"Feature","geometry":{"type":"Point","coordinates":[-87.6349,41.87883]}},{"properties":{"city":"Chicago","station name":"InterPark - Washington Wells Self-Park Garage","zip":"60606","latitude":41.88306,"fuel type code":"ELEC","ng psi":null,"access days time":"24 hours daily","cards accepted":null,"bd blends":null,"street address":"217 W Washington St","owner type code":"P","ng fill type code":null,"date last confirmed":"05/31/2013","longitude":-87.634,"id":"agfvyxeqxrw0","groups with access code":"Public - see hours","geocode status":"GPS","state":"IL"},"type":"Feature","geometry":{"type":"Point","coordinates":[-87.634,41.88306]}},{"properties":{"city":"Chicago","station name":"InterPark - Wabash-Randolph Self-Park Garage","zip":"60601","latitude":41.88473,"fuel type code":"ELEC","ng psi":null,"access days time":"24 hours daily","cards accepted":null,"bd blends":null,"street address":"20 E Randolph St","owner type code":"P","ng fill type code":null,"date last confirmed":"11/30/2012","longitude":-87.6268,"id":"agfvyxfc0ct5","groups with access code":"Public - see hours","geocode status":"GPS","state":"IL"},"type":"Feature","geometry":{"type":"Point","coordinates":[-87.6268,41.88473]}},{"properties":{"city":"Chicago","station name":"InterPark - Government Center Self-Park Garage","zip":"60601","latitude":41.88541,"fuel type code":"ELEC","ng psi":null,"access days time":"24 hours daily","cards accepted":null,"bd blends":null,"street address":"181 N Clark St","owner type code":"P","ng fill type code":null,"date last confirmed":"11/30/2012","longitude":-87.6307,"id":"agfvyxcqgro7","groups with access code":"Public - see hours","geocode status":"GPS","state":"IL"},"type":"Feature","geometry":{"type":"Point","coordinates":[-87.6307,41.88541]}},{"properties":{"city":"Chicago","station name":"InterPark - Lake Wells Self-Park Garage","zip":"60606","latitude":41.88522,"fuel type code":"ELEC","ng psi":null,"access days time":"24 hours daily","cards accepted":null,"bd blends":null,"street address":"177 N Wells St","owner type code":"P","ng fill type code":null,"date last confirmed":"11/30/2012","longitude":-87.6338,"id":"agfvyxp6s89h","groups with access code":"Public - see hours","geocode status":"GPS","state":"IL"},"type":"Feature","geometry":{"type":"Point","coordinates":[-87.6338,41.88522]}},{"properties":{"city":"Chicago","station name":"InterPark - 203 North LaSalle Self-Park Garage","zip":"60601","latitude":41.88591,"fuel type code":"ELEC","ng psi":null,"access days time":"24 hours daily","cards accepted":null,"bd blends":null,"street address":"203 N LaSalle St","owner type code":"P","ng fill type code":null,"date last confirmed":"11/30/2012","longitude":-87.6318,"id":"agfvyxgfnc72","groups with access code":"Public - see hours","geocode status":"GPS","state":"IL"},"type":"Feature","geometry":{"type":"Point","coordinates":[-87.6318,41.88591]}},{"properties":{"city":"Chicago","station name":"InterPark - Rush-Ohio-Wabash Self-Park Garage","zip":"60611","latitude":41.89277,"fuel type code":"ELEC","ng psi":null,"access days time":"24 hours daily","cards accepted":null,"bd blends":null,"street address":"50 E Ohio","owner type code":"P","ng fill type code":null,"date last confirmed":"11/30/2012","longitude":-87.6257,"id":"agfvyxiw8n2k","groups with access code":"Public - see hours","geocode status":"GPS","state":"IL"},"type":"Feature","geometry":{"type":"Point","coordinates":[-87.6257,41.89277]}},{"properties":{"city":"Chicago","station name":"Mobil","zip":"60637","latitude":41.7804875,"fuel type code":"E85","ng psi":null,"access days time":"24 hours daily","cards accepted":"Cash A D M V FuelMan Voyager Wright_Exp","bd blends":null,"street address":"850 E 63rd St","owner type code":"P","ng fill type code":null,"date last confirmed":"11/30/2012","longitude":-87.6043084,"id":"agfvyxkazmjb","groups with access code":"Public - see hours","geocode status":"200-8","state":"IL"},"type":"Feature","geometry":{"type":"Point","coordinates":[-87.6043084,41.7804875]}},{"properties":{"city":"Chicago","station name":"InterPark - South Loop Self-Park Garage","zip":"60604","latitude":41.8772,"fuel type code":"ELEC","ng psi":null,"access days time":"24 hours daily","cards accepted":null,"bd blends":null,"street address":"318 S Federal St","owner type code":"P","ng fill type code":null,"date last confirmed":"11/30/2012","longitude":-87.63,"id":"agfvyxd9su9z","groups with access code":"Public - see hours","geocode status":"GPS","state":"IL"},"type":"Feature","geometry":{"type":"Point","coordinates":[-87.63,41.8772]}},{"properties":{"city":"Chicago","station name":"InterPark - Theatre District Self-Park Garage","zip":"60601","latitude":41.88543,"fuel type code":"ELEC","ng psi":null,"access days time":"24 hours daily","cards accepted":null,"bd blends":null,"street address":"181 N Dearborn St","owner type code":"P","ng fill type code":null,"date last confirmed":"11/30/2012","longitude":-87.6291,"id":"agfvyxb2dds1","groups with access code":"Public - see hours","geocode status":"GPS","state":"IL"},"type":"Feature","geometry":{"type":"Point","coordinates":[-87.6291,41.88543]}},{"properties":{"city":"Chicago","station name":"Chicago Parks Solar Plug","zip":"60605","latitude":41.86050034,"fuel type code":"ELEC","ng psi":null,"access days time":"24 hours daily","cards accepted":null,"bd blends":null,"street address":"1400 S Lynn White Dr","owner type code":"LG","ng fill type code":null,"date last confirmed":"05/31/2012","longitude":-87.61056,"id":"agfvyxonblen","groups with access code":"Public - see hours","geocode status":"GPS","state":"IL"},"type":"Feature","geometry":{"type":"Point","coordinates":[-87.61056,41.86050034]}},{"properties":{"city":"Chicago","station name":"ComEd","zip":"60618","latitude":41.94629288,"fuel type code":"ELEC","ng psi":null,"access days time":null,"cards accepted":null,"bd blends":null,"street address":"3500 N California Ave","owner type code":"T","ng fill type code":null,"date last confirmed":"05/31/2012","longitude":-87.69982,"id":"agfvyxh7yeq1","groups with access code":"Private access only","geocode status":"GPS","state":"IL"},"type":"Feature","geometry":{"type":"Point","coordinates":[-87.69982,41.94629288]}},{"properties":{"city":"Chicago","station name":"ComEd","zip":"60652","latitude":41.75497055,"fuel type code":"ELEC","ng psi":null,"access days time":null,"cards accepted":null,"bd blends":null,"street address":"7601 S Lawndale Ave","owner type code":"T","ng fill type code":null,"date last confirmed":"05/31/2012","longitude":-87.71321,"id":"agfvyxdngp0z","groups with access code":"Private access only","geocode status":"GPS","state":"IL"},"type":"Feature","geometry":{"type":"Point","coordinates":[-87.71321,41.75497055]}},{"properties":{"city":"Chicago","station name":"Shops of 900 North Michigan","zip":"60611","latitude":41.89958,"fuel type code":"ELEC","ng psi":null,"access days time":"24 hours daily","cards accepted":null,"bd blends":null,"street address":"900 N Michigan Ave","owner type code":"P","ng fill type code":null,"date last confirmed":"11/30/2012","longitude":-87.6263,"id":"agfvyxd4fufp","groups with access code":"Public - see hours","geocode status":"GPS","state":"IL"},"type":"Feature","geometry":{"type":"Point","coordinates":[-87.6263,41.89958]}},{"properties":{"city":"Chicago","station name":"Clean Energy - GrandSlam Marathon","zip":"60618","latitude":41.93754,"fuel type code":"CNG","ng psi":"3600","access days time":"24 hours daily","cards accepted":"M V CleanEnergy","bd blends":null,"street address":"3145 N Western Ave","owner type code":"P","ng fill type code":"Q","date last confirmed":"08/31/2012","longitude":-87.688,"id":"agfvyxmdvn5p","groups with access code":"Public - credit card at all times","geocode status":"200-8","state":"IL"},"type":"Feature","geometry":{"type":"Point","coordinates":[-87.688,41.93754]}},{"properties":{"city":"Chicago","station name":"Midway Airport - Short Term Parking","zip":"60638","latitude":41.78827667,"fuel type code":"ELEC","ng psi":null,"access days time":"24 hours daily","cards accepted":null,"bd blends":null,"street address":"4799 W 58th Pl","owner type code":"P","ng fill type code":null,"date last confirmed":"04/30/2012","longitude":-87.74088287,"id":"agfvyxdhcsma","groups with access code":"Public - see hours","geocode status":"GPS","state":"IL"},"type":"Feature","geometry":{"type":"Point","coordinates":[-87.74088287,41.78827667]}},{"properties":{"city":"Chicago","station name":"O'Hare Airport - Short Term Parking","zip":"60666","latitude":41.98129,"fuel type code":"ELEC","ng psi":null,"access days time":"24 hours daily","cards accepted":null,"bd blends":null,"street address":"10000 Bessie Coleman Dr","owner type code":"P","ng fill type code":null,"date last confirmed":"11/30/2012","longitude":-87.8851,"id":"agfvyxp72kit","groups with access code":"Public - see hours","geocode status":"200-8","state":"IL"},"type":"Feature","geometry":{"type":"Point","coordinates":[-87.8851,41.98129]}},{"properties":{"city":"Chicago","station name":"Walgreens","zip":"60618","latitude":41.9395,"fuel type code":"ELEC","ng psi":null,"access days time":"24 hours daily","cards accepted":null,"bd blends":null,"street address":"3222 N Milwaukee Ave","owner type code":"P","ng fill type code":null,"date last confirmed":"11/30/2012","longitude":-87.725,"id":"agfvyxnffn3t","groups with access code":"Public - see hours","geocode status":"GPS","state":"IL"},"type":"Feature","geometry":{"type":"Point","coordinates":[-87.725,41.9395]}},{"properties":{"city":"Chicago","station name":"Walgreens","zip":"60631","latitude":41.98456,"fuel type code":"ELEC","ng psi":null,"access days time":"24 hours daily","cards accepted":null,"bd blends":null,"street address":"5753 N Canfield Ave","owner type code":"P","ng fill type code":null,"date last confirmed":"11/30/2012","longitude":-87.8228,"id":"agfvyxdd7uih","groups with access code":"Public - see hours","geocode status":"GPS","state":"IL"},"type":"Feature","geometry":{"type":"Point","coordinates":[-87.8228,41.98456]}},{"properties":{"city":"Chicago","station name":"Walgreens","zip":"60632","latitude":41.81348,"fuel type code":"ELEC","ng psi":null,"access days time":"24 hours daily","cards accepted":null,"bd blends":null,"street address":"4385 S Archer","owner type code":"P","ng fill type code":null,"date last confirmed":"11/30/2012","longitude":-87.7046,"id":"agfvyxl86ex9","groups with access code":"Public - see hours","geocode status":"200-8","state":"IL"},"type":"Feature","geometry":{"type":"Point","coordinates":[-87.7046,41.81348]}},{"properties":{"city":"Chicago","station name":"Walgreens","zip":"60639","latitude":41.90979,"fuel type code":"ELEC","ng psi":null,"access days time":"24 hours daily","cards accepted":null,"bd blends":null,"street address":"4748 W North Ave","owner type code":"P","ng fill type code":null,"date last confirmed":"11/30/2012","longitude":-87.7452,"id":"agfvyxnny81i","groups with access code":"Public - see hours","geocode status":"200-8","state":"IL"},"type":"Feature","geometry":{"type":"Point","coordinates":[-87.7452,41.90979]}},{"properties":{"city":"Chicago","station name":"Walgreens","zip":"60647","latitude":41.91816,"fuel type code":"ELEC","ng psi":null,"access days time":"24 hours daily","cards accepted":null,"bd blends":null,"street address":"2001 N Milwaukee Ave","owner type code":"P","ng fill type code":null,"date last confirmed":"11/30/2012","longitude":-87.6887,"id":"agfvyxowkvjm","groups with access code":"Public - see hours","geocode status":"GPS","state":"IL"},"type":"Feature","geometry":{"type":"Point","coordinates":[-87.6887,41.91816]}},{"properties":{"city":"Chicago","station name":"Walgreens","zip":"60647","latitude":41.93142,"fuel type code":"ELEC","ng psi":null,"access days time":"24 hours daily","cards accepted":null,"bd blends":null,"street address":"2744 N California","owner type code":"P","ng fill type code":null,"date last confirmed":"11/30/2012","longitude":-87.6979,"id":"agfvyxo92xq0","groups with access code":"Public - see hours","geocode status":"200-8","state":"IL"},"type":"Feature","geometry":{"type":"Point","coordinates":[-87.6979,41.93142]}},{"properties":{"city":"Chicago","station name":"Walgreens","zip":"60657","latitude":41.93967,"fuel type code":"ELEC","ng psi":null,"access days time":"24 hours daily","cards accepted":null,"bd blends":null,"street address":"1649 W Belmont Ave","owner type code":"P","ng fill type code":null,"date last confirmed":"11/30/2012","longitude":-87.6704,"id":"agfvyxbuzoaq","groups with access code":"Public - see hours","geocode status":"200-8","state":"IL"},"type":"Feature","geometry":{"type":"Point","coordinates":[-87.6704,41.93967]}},{"properties":{"city":"Chicago","station name":"Walgreens","zip":"60659","latitude":41.98976,"fuel type code":"ELEC","ng psi":null,"access days time":"24 hours daily","cards accepted":null,"bd blends":null,"street address":"3019 W Peterson","owner type code":"P","ng fill type code":null,"date last confirmed":"11/30/2012","longitude":-87.7056,"id":"agfvyx9u0nvi","groups with access code":"Public - see hours","geocode status":"200-8","state":"IL"},"type":"Feature","geometry":{"type":"Point","coordinates":[-87.7056,41.98976]}},{"properties":{"city":"Chicago","station name":"Walgreens","zip":"60659","latitude":41.99353,"fuel type code":"ELEC","ng psi":null,"access days time":"24 hours daily","cards accepted":null,"bd blends":null,"street address":"6140 N Western","owner type code":"P","ng fill type code":null,"date last confirmed":"11/30/2012","longitude":-87.6901,"id":"agfvyxe3twm9","groups with access code":"Public - see hours","geocode status":"GPS","state":"IL"},"type":"Feature","geometry":{"type":"Point","coordinates":[-87.6901,41.99353]}},{"properties":{"city":"Chicago","station name":"Walgreens","zip":"60614","latitude":41.92546,"fuel type code":"ELEC","ng psi":null,"access days time":"24 hours daily","cards accepted":null,"bd blends":null,"street address":"1520 W Fullerton","owner type code":"P","ng fill type code":null,"date last confirmed":"11/30/2012","longitude":-87.6663,"id":"agfvyxafpjt0","groups with access code":"Public - see hours","geocode status":"200-8","state":"IL"},"type":"Feature","geometry":{"type":"Point","coordinates":[-87.6663,41.92546]}},{"properties":{"city":"Chicago","station name":"Walgreens - Greektown","zip":"60661","latitude":41.8799,"fuel type code":"ELEC","ng psi":null,"access days time":"24 hours daily","cards accepted":null,"bd blends":null,"street address":"111 S Halsted St","owner type code":"P","ng fill type code":null,"date last confirmed":"11/30/2012","longitude":-87.6472,"id":"agfvyxlhw0uv","groups with access code":"Public - see hours","geocode status":"200-8","state":"IL"},"type":"Feature","geometry":{"type":"Point","coordinates":[-87.6472,41.8799]}},{"properties":{"city":"Chicago","station name":"Green Wheels EV - Windfree Energy","zip":"60622","latitude":41.90968,"fuel type code":"ELEC","ng psi":null,"access days time":"24 hours daily","cards accepted":null,"bd blends":null,"street address":"1540 N Western Ave","owner type code":"P","ng fill type code":null,"date last confirmed":"11/30/2012","longitude":-87.6876,"id":"agfvyxp8cv5q","groups with access code":"Public - see hours","geocode status":"GPS","state":"IL"},"type":"Feature","geometry":{"type":"Point","coordinates":[-87.6876,41.90968]}},{"properties":{"city":"Chicago","station name":"Soldier Field - Level 3","zip":"60605","latitude":41.8638,"fuel type code":"ELEC","ng psi":null,"access days time":"24 hours daily","cards accepted":null,"bd blends":null,"street address":"1448-1468 Museum Campus Dr","owner type code":"P","ng fill type code":null,"date last confirmed":"11/30/2012","longitude":-87.6157,"id":"agfvyxghhk8o","groups with access code":"Public - see hours","geocode status":"GPS","state":"IL"},"type":"Feature","geometry":{"type":"Point","coordinates":[-87.6157,41.8638]}},{"properties":{"city":"Chicago","station name":"Soldier Field - Level 4","zip":"60605","latitude":41.86415,"fuel type code":"ELEC","ng psi":null,"access days time":"24 hours daily","cards accepted":null,"bd blends":null,"street address":"448-484 E McFetridge Dr","owner type code":"P","ng fill type code":null,"date last confirmed":"11/30/2012","longitude":-87.6166,"id":"agfvyxobx0xm","groups with access code":"Public - see hours","geocode status":"GPS","state":"IL"},"type":"Feature","geometry":{"type":"Point","coordinates":[-87.6166,41.86415]}},{"properties":{"city":"Chicago","station name":"Sears","zip":"60619","latitude":41.7514352,"fuel type code":"ELEC","ng psi":null,"access days time":"24 hours daily","cards accepted":null,"bd blends":null,"street address":"1334 E 79th St","owner type code":"P","ng fill type code":null,"date last confirmed":"04/25/2012","longitude":-87.5913288,"id":"agfvyxbdjvdd","groups with access code":"Public - see hours","geocode status":"200-8","state":"IL"},"type":"Feature","geometry":{"type":"Point","coordinates":[-87.5913288,41.7514352]}},{"properties":{"city":"Chicago","station name":"Sears","zip":"60641","latitude":41.95489,"fuel type code":"ELEC","ng psi":null,"access days time":"24 hours daily","cards accepted":null,"bd blends":null,"street address":"4730 W Irving Park","owner type code":"P","ng fill type code":null,"date last confirmed":"11/30/2012","longitude":-87.7465,"id":"agfvyxnlo5v9","groups with access code":"Public - see hours","geocode status":"200-8","state":"IL"},"type":"Feature","geometry":{"type":"Point","coordinates":[-87.7465,41.95489]}},{"properties":{"city":"Chicago","station name":"Standard Parking","zip":"60610","latitude":41.9070514,"fuel type code":"ELEC","ng psi":null,"access days time":"24 hours daily","cards accepted":null,"bd blends":null,"street address":"1350 Lake Shore Dr","owner type code":"P","ng fill type code":null,"date last confirmed":"04/25/2012","longitude":-87.6264591,"id":"agfvyxh89os6","groups with access code":"Public - see hours","geocode status":"200-8","state":"IL"},"type":"Feature","geometry":{"type":"Point","coordinates":[-87.6264591,41.9070514]}},{"properties":{"city":"Chicago","station name":"Standard Parking","zip":"60605","latitude":41.8686,"fuel type code":"ELEC","ng psi":null,"access days time":"24 hours daily","cards accepted":null,"bd blends":null,"street address":"1130 S Michigan Ave","owner type code":"P","ng fill type code":null,"date last confirmed":"11/30/2012","longitude":-87.6247,"id":"agfvyxb5dmab","groups with access code":"Public - see hours","geocode status":"GPS","state":"IL"},"type":"Feature","geometry":{"type":"Point","coordinates":[-87.6247,41.8686]}},{"properties":{"city":"Chicago","station name":"The Chicagoan - Standard Parking","zip":"60611","latitude":41.89647,"fuel type code":"ELEC","ng psi":null,"access days time":"24 hours daily","cards accepted":null,"bd blends":null,"street address":"750 N Rush Av","owner type code":"P","ng fill type code":null,"date last confirmed":"11/30/2012","longitude":-87.6259,"id":"agfvyxca6d2h","groups with access code":"Public - see hours","geocode status":"200-8","state":"IL"},"type":"Feature","geometry":{"type":"Point","coordinates":[-87.6259,41.89647]}},{"properties":{"city":"Chicago","station name":"Andersonville Apartments","zip":"60640","latitude":41.9813,"fuel type code":"ELEC","ng psi":null,"access days time":"24 hours daily","cards accepted":null,"bd blends":null,"street address":"5450 N Clark St","owner type code":"P","ng fill type code":null,"date last confirmed":"11/30/2012","longitude":-87.6688,"id":"agfvyxj0m1st","groups with access code":"Public - see hours","geocode status":"GPS","state":"IL"},"type":"Feature","geometry":{"type":"Point","coordinates":[-87.6688,41.9813]}},{"properties":{"city":"Chicago","station name":"Illinois Institute of Technology - I-GO","zip":"60616","latitude":41.83545303,"fuel type code":"ELEC","ng psi":null,"access days time":"I-GO vehicles only","cards accepted":null,"bd blends":null,"street address":"3201 S State St","owner type code":"P","ng fill type code":null,"date last confirmed":"03/31/2013","longitude":-87.62598419,"id":"agfvyxbifdbd","groups with access code":"Private - fleet customers only","geocode status":"GPS","state":"IL"},"type":"Feature","geometry":{"type":"Point","coordinates":[-87.62598419,41.83545303]}},{"properties":{"city":"Chicago","station name":"Jewel-Osco - I-GO","zip":"60620","latitude":41.73614,"fuel type code":"ELEC","ng psi":null,"access days time":"Two spaces reserved for I-GO, two available to the public","cards accepted":null,"bd blends":null,"street address":"101 W 87th St","owner type code":"P","ng fill type code":null,"date last confirmed":"11/30/2012","longitude":-87.626,"id":"agfvyxh39im7","groups with access code":"PLANNED - not yet accessible","geocode status":"200-8","state":"IL"},"type":"Feature","geometry":{"type":"Point","coordinates":[-87.626,41.73614]}},{"properties":{"city":"Chicago","station name":"Jewel-Osco - I-GO","zip":"60640","latitude":41.98212,"fuel type code":"ELEC","ng psi":null,"access days time":"Two spaces reserved for I-GO, two available to the public","cards accepted":null,"bd blends":null,"street address":"5516 N Clark","owner type code":"P","ng fill type code":null,"date last confirmed":"11/30/2012","longitude":-87.6685,"id":"agfvyxk98po2","groups with access code":"PLANNED - not yet accessible","geocode status":"200-8","state":"IL"},"type":"Feature","geometry":{"type":"Point","coordinates":[-87.6685,41.98212]}},{"properties":{"city":"Chicago","station name":"Jewel-Osco - I-GO","zip":"60640","latitude":41.97868,"fuel type code":"ELEC","ng psi":null,"access days time":"Two spaces reserved for I-GO, two available to the public","cards accepted":null,"bd blends":null,"street address":"5343 N Broadway","owner type code":"P","ng fill type code":null,"date last confirmed":"11/30/2012","longitude":-87.6599,"id":"agfvyxcj2gdc","groups with access code":"PLANNED - not yet accessible","geocode status":"200-8","state":"IL"},"type":"Feature","geometry":{"type":"Point","coordinates":[-87.6599,41.97868]}},{"properties":{"city":"Chicago","station name":"Uncommon Ground - I-GO","zip":"60660","latitude":41.997949,"fuel type code":"ELEC","ng psi":null,"access days time":"Two spaces reserved for I-GO, two available to the public","cards accepted":null,"bd blends":null,"street address":"1401 W Devon","owner type code":"P","ng fill type code":null,"date last confirmed":"12/25/2012","longitude":-87.6657199,"id":"agfvyxakka6r","groups with access code":"PLANNED - not yet accessible","geocode status":"200-8","state":"IL"},"type":"Feature","geometry":{"type":"Point","coordinates":[-87.6657199,41.997949]}},{"properties":{"city":"Chicago","station name":"Whole Foods Market","zip":"60607","latitude":41.86839,"fuel type code":"ELEC","ng psi":null,"access days time":"Market business hours; pay lot","cards accepted":null,"bd blends":null,"street address":"1101 S Canal St","owner type code":"P","ng fill type code":null,"date last confirmed":"11/30/2012","longitude":-87.6387,"id":"agfvyxmo18hw","groups with access code":"Public - see hours","geocode status":"GPS","state":"IL"},"type":"Feature","geometry":{"type":"Point","coordinates":[-87.6387,41.86839]}},{"properties":{"city":"Chicago","station name":"Whole Foods Market - ChargePoint","zip":"60613","latitude":41.94847,"fuel type code":"ELEC","ng psi":null,"access days time":"Market business hours; pay lot","cards accepted":null,"bd blends":null,"street address":"3640 N Halsted St","owner type code":"P","ng fill type code":null,"date last confirmed":"06/30/2013","longitude":-87.6499,"id":"agfvyxfv1vgy","groups with access code":"Public - see hours","geocode status":"GPS","state":"IL"},"type":"Feature","geometry":{"type":"Point","coordinates":[-87.6499,41.94847]}},{"properties":{"city":"Chicago","station name":"Whole Foods Market - ChargePoint","zip":"60642","latitude":41.90883255,"fuel type code":"ELEC","ng psi":null,"access days time":"Market business hours; pay lot","cards accepted":null,"bd blends":null,"street address":"1550 N Kingsbury St","owner type code":"P","ng fill type code":null,"date last confirmed":"05/25/2012","longitude":-87.65276337,"id":"agfvyxnaz67j","groups with access code":"Public - see hours","geocode status":"GPS","state":"IL"},"type":"Feature","geometry":{"type":"Point","coordinates":[-87.65276337,41.90883255]}},{"properties":{"city":"Chicago","station name":"Whole Foods Market - ChargePoint","zip":"60646","latitude":41.99093246,"fuel type code":"ELEC","ng psi":null,"access days time":"Market business hours; pay lot","cards accepted":null,"bd blends":null,"street address":"6020 N Cicero Ave","owner type code":"P","ng fill type code":null,"date last confirmed":"05/25/2012","longitude":-87.74816895,"id":"agfvyxfq2jrw","groups with access code":"Public - see hours","geocode status":"GPS","state":"IL"},"type":"Feature","geometry":{"type":"Point","coordinates":[-87.74816895,41.99093246]}},{"properties":{"city":"Chicago","station name":"Whole Foods Market - ChargePoint","zip":"60654","latitude":41.89500046,"fuel type code":"ELEC","ng psi":null,"access days time":"Market business hours; pay lot","cards accepted":null,"bd blends":null,"street address":"30 W Huron St","owner type code":"P","ng fill type code":null,"date last confirmed":"05/25/2012","longitude":-87.62918091,"id":"agfvyxoas7xx","groups with access code":"Public - see hours","geocode status":"GPS","state":"IL"},"type":"Feature","geometry":{"type":"Point","coordinates":[-87.62918091,41.89500046]}},{"properties":{"city":"Chicago","station name":"Whole Foods Market","zip":"60657","latitude":41.94181,"fuel type code":"ELEC","ng psi":null,"access days time":"Market business hours; pay lot","cards accepted":null,"bd blends":null,"street address":"3300 N Ashland Ave","owner type code":"P","ng fill type code":null,"date last confirmed":"11/30/2012","longitude":-87.6693,"id":"agfvyxli34i2","groups with access code":"Public - see hours","geocode status":"GPS","state":"IL"},"type":"Feature","geometry":{"type":"Point","coordinates":[-87.6693,41.94181]}},{"properties":{"city":"Chicago","station name":"Zipcar - N Wells Parking Garage","zip":"60606","latitude":41.88609,"fuel type code":"ELEC","ng psi":null,"access days time":"24 hours daily; pay lot; Zipcar use only","cards accepted":null,"bd blends":null,"street address":"210 N Wells St","owner type code":"P","ng fill type code":null,"date last confirmed":"11/30/2012","longitude":-87.6339,"id":"agfvyxhwc2q9","groups with access code":"Private - fleet customers only","geocode status":"GPS","state":"IL"},"type":"Feature","geometry":{"type":"Point","coordinates":[-87.6339,41.88609]}},{"properties":{"city":"Chicago","station name":"Maxwell Street Parking Garage - ChargePoint","zip":"60607","latitude":41.8647995,"fuel type code":"ELEC","ng psi":null,"access days time":"Garage business hours; pay lot","cards accepted":null,"bd blends":null,"street address":"709 W Maxwell St","owner type code":"P","ng fill type code":null,"date last confirmed":"04/30/2012","longitude":-87.64544678,"id":"agfvyxc78p4i","groups with access code":"Public - see hours","geocode status":"GPS","state":"IL"},"type":"Feature","geometry":{"type":"Point","coordinates":[-87.64544678,41.8647995]}},{"properties":{"city":"Chicago","station name":"Walgreens","zip":"60618","latitude":41.9539032,"fuel type code":"ELEC","ng psi":null,"access days time":"24 hours daily","cards accepted":null,"bd blends":null,"street address":"2301 W Irving Park Rd","owner type code":"P","ng fill type code":null,"date last confirmed":"04/25/2012","longitude":-87.68643188,"id":"agfvyxl8egqi","groups with access code":"Public - see hours","geocode status":"GPS","state":"IL"},"type":"Feature","geometry":{"type":"Point","coordinates":[-87.68643188,41.9539032]}},{"properties":{"city":"Chicago","station name":"Zipcar - Maxwell Street Parking Garage","zip":"60607","latitude":41.8648,"fuel type code":"ELEC","ng psi":null,"access days time":"24 hours daily; pay lot; Zipcar use only","cards accepted":null,"bd blends":null,"street address":"709 W Maxwell St","owner type code":"P","ng fill type code":null,"date last confirmed":"11/30/2012","longitude":-87.6454,"id":"agfvyxctljk1","groups with access code":"Private - fleet customers only","geocode status":"GPS","state":"IL"},"type":"Feature","geometry":{"type":"Point","coordinates":[-87.6454,41.8648]}},{"properties":{"city":"Chicago","station name":"Northwestern University","zip":"60654","latitude":41.894894,"fuel type code":"ELEC","ng psi":null,"access days time":"24 hours daily","cards accepted":null,"bd blends":null,"street address":"222 W Huron St","owner type code":"P","ng fill type code":null,"date last confirmed":"04/25/2012","longitude":-87.635178,"id":"agfvyxpu5a2k","groups with access code":"Public - see hours","geocode status":"GPS","state":"IL"},"type":"Feature","geometry":{"type":"Point","coordinates":[-87.635178,41.894894]}},{"properties":{"city":"Chicago","station name":"University of Illinois at Chicago - Halsted Garage","zip":"60607","latitude":41.869717,"fuel type code":"ELEC","ng psi":null,"access days time":"24 hours daily; pay lot","cards accepted":null,"bd blends":null,"street address":"760 W Taylor","owner type code":"P","ng fill type code":null,"date last confirmed":"04/25/2012","longitude":-87.645851,"id":"agfvyxafcflx","groups with access code":"Public - see hours","geocode status":"GPS","state":"IL"},"type":"Feature","geometry":{"type":"Point","coordinates":[-87.645851,41.869717]}},{"properties":{"city":"Chicago","station name":"University of Illinois at Chicago - Paulina Garage","zip":"60608","latitude":41.869755,"fuel type code":"ELEC","ng psi":null,"access days time":"24 hours daily; pay lot","cards accepted":null,"bd blends":null,"street address":"915 S Paulina St","owner type code":"P","ng fill type code":null,"date last confirmed":"01/31/2012","longitude":-87.668762,"id":"agfvyxad918c","groups with access code":"Public - see hours","geocode status":"GPS","state":"IL"},"type":"Feature","geometry":{"type":"Point","coordinates":[-87.668762,41.869755]}},{"properties":{"city":"Chicago","station name":"Walgreens","zip":"60640","latitude":41.98119,"fuel type code":"ELEC","ng psi":null,"access days time":"24 hours daily","cards accepted":null,"bd blends":null,"street address":"5440 N Clark","owner type code":"P","ng fill type code":null,"date last confirmed":"04/25/2012","longitude":-87.668773,"id":"agfvyxjyhi5r","groups with access code":"Public - see hours","geocode status":"200-8","state":"IL"},"type":"Feature","geometry":{"type":"Point","coordinates":[-87.668773,41.98119]}},{"properties":{"city":"Chicago","station name":"Walgreens","zip":"60639","latitude":41.910397,"fuel type code":"ELEC","ng psi":null,"access days time":"24 hours daily","cards accepted":null,"bd blends":null,"street address":"1627 N Pulaski Rd","owner type code":"P","ng fill type code":null,"date last confirmed":"04/25/2012","longitude":-87.726326,"id":"agfvyx9qit4d","groups with access code":"Public - see hours","geocode status":"GPS","state":"IL"},"type":"Feature","geometry":{"type":"Point","coordinates":[-87.726326,41.910397]}},{"properties":{"city":"Chicago","station name":"Zipcar - Chestnut Street Garage","zip":"60611","latitude":41.898827,"fuel type code":"ELEC","ng psi":null,"access days time":"24 hours daily; pay lot; Zipcar use only","cards accepted":null,"bd blends":null,"street address":"260 E Chestnut St","owner type code":"P","ng fill type code":null,"date last confirmed":"04/25/2012","longitude":-87.619598,"id":"agfvyxekch9a","groups with access code":"Private - fleet customers only","geocode status":"GPS","state":"IL"},"type":"Feature","geometry":{"type":"Point","coordinates":[-87.619598,41.898827]}},{"properties":{"city":"Chicago","station name":"Zipcar - McClurg Court Garage","zip":"60611","latitude":41.889069,"fuel type code":"ELEC","ng psi":null,"access days time":"24 hours daily; pay lot; Zipcar use only","cards accepted":null,"bd blends":null,"street address":"400 N McClurg Ct","owner type code":"P","ng fill type code":null,"date last confirmed":"04/25/2012","longitude":-87.617874,"id":"agfvyxdt619a","groups with access code":"Private - fleet customers only","geocode status":"GPS","state":"IL"},"type":"Feature","geometry":{"type":"Point","coordinates":[-87.617874,41.889069]}},{"properties":{"city":"Chicago","station name":"Zipcar - University of Illinois at Chicago, Halsted Garage","zip":"60607","latitude":41.869716,"fuel type code":"ELEC","ng psi":null,"access days time":"24 hours daily; pay lot; Zipcar use only","cards accepted":null,"bd blends":null,"street address":"760 W Taylor","owner type code":"P","ng fill type code":null,"date last confirmed":"01/31/2012","longitude":-87.645852,"id":"agfvyxf3zbl6","groups with access code":"Private - fleet customers only","geocode status":"200-8","state":"IL"},"type":"Feature","geometry":{"type":"Point","coordinates":[-87.645852,41.869716]}},{"properties":{"city":"Chicago","station name":"Zipcar - University of Illinois at Chicago - Paulina Garage","zip":"60608","latitude":41.8605641,"fuel type code":"ELEC","ng psi":null,"access days time":"24 hours daily; pay lot; Zipcar use only","cards accepted":null,"bd blends":null,"street address":"915 S Paulina St","owner type code":"P","ng fill type code":null,"date last confirmed":"04/25/2012","longitude":-87.6686961,"id":"agfvyxgtt41p","groups with access code":"Private - fleet customers only","geocode status":"200-8","state":"IL"},"type":"Feature","geometry":{"type":"Point","coordinates":[-87.6686961,41.8605641]}},{"properties":{"city":"Chicago","station name":"Midway Airport - Cell Phone Waiting Lot - ChargePoint","zip":"60629","latitude":41.78018951,"fuel type code":"ELEC","ng psi":null,"access days time":"24 hours daily; pay lot","cards accepted":null,"bd blends":null,"street address":"6201 S Cicero Ave","owner type code":"P","ng fill type code":null,"date last confirmed":"04/30/2012","longitude":-87.74221802,"id":"agfvyxoonien","groups with access code":"Public - see hours","geocode status":"GPS","state":"IL"},"type":"Feature","geometry":{"type":"Point","coordinates":[-87.74221802,41.78018951]}},{"properties":{"city":"Chicago","station name":"Midway Airport - Long Term Parking","zip":"60629","latitude":41.79506302,"fuel type code":"ELEC","ng psi":null,"access days time":"24 hours daily; pay lot","cards accepted":null,"bd blends":null,"street address":"4799 W 54th St","owner type code":"P","ng fill type code":null,"date last confirmed":"05/31/2012","longitude":-87.74867,"id":"agfvyxkd8ngk","groups with access code":"Public - see hours","geocode status":"GPS","state":"IL"},"type":"Feature","geometry":{"type":"Point","coordinates":[-87.74867,41.79506302]}},{"properties":{"city":"Chicago","station name":"Midway Airport - Short Term Parking - ChargePoint","zip":"60629","latitude":41.78827667,"fuel type code":"ELEC","ng psi":null,"access days time":"24 hours daily; pay lot","cards accepted":null,"bd blends":null,"street address":"4799 W 58th Pl","owner type code":"P","ng fill type code":null,"date last confirmed":"12/25/2012","longitude":-87.74088,"id":"agfvyxfcugtf","groups with access code":"Public - see hours","geocode status":"GPS","state":"IL"},"type":"Feature","geometry":{"type":"Point","coordinates":[-87.74088,41.78827667]}},{"properties":{"city":"Chicago","station name":"Northwestern University","zip":"60611","latitude":41.894211,"fuel type code":"ELEC","ng psi":null,"access days time":"24 hours daily; pay lot","cards accepted":null,"bd blends":null,"street address":"321 E Erie St","owner type code":"P","ng fill type code":null,"date last confirmed":"04/25/2012","longitude":-87.61956,"id":"agfvyxgs430i","groups with access code":"Public - see hours","geocode status":"GPS","state":"IL"},"type":"Feature","geometry":{"type":"Point","coordinates":[-87.61956,41.894211]}},{"properties":{"city":"Chicago","station name":"Midway Airport - Cell Phone Waiting Lot - DC Fast","zip":"60629","latitude":41.78018951,"fuel type code":"ELEC","ng psi":null,"access days time":"24 hours daily","cards accepted":null,"bd blends":null,"street address":"6201 S Cicero Ave","owner type code":"P","ng fill type code":null,"date last confirmed":"05/25/2012","longitude":-87.74221802,"id":"agfvyxni21uk","groups with access code":"Public - see hours","geocode status":"GPS","state":"IL"},"type":"Feature","geometry":{"type":"Point","coordinates":[-87.74221802,41.78018951]}},{"properties":{"city":"Chicago","station name":"Clean Energy - Chicago Stevenson Expy","zip":"60632","latitude":41.8273129,"fuel type code":"LNG","ng psi":null,"access days time":"Call 562-546-0306 for accessibility details","cards accepted":"CleanEnergy","bd blends":null,"street address":"4220 W 36th St","owner type code":"P","ng fill type code":null,"date last confirmed":"03/31/2013","longitude":-87.7289759,"id":"agfvyxnab78c","groups with access code":"PLANNED - not yet accessible","geocode status":"200-8","state":"IL"},"type":"Feature","geometry":{"type":"Point","coordinates":[-87.7289759,41.8273129]}},{"properties":{"city":"Chicago","station name":"Walgreens - ChargePoint","zip":"60660","latitude":41.984311,"fuel type code":"ELEC","ng psi":null,"access days time":"24 hours daily","cards accepted":null,"bd blends":null,"street address":"5625 N Ridge","owner type code":"P","ng fill type code":null,"date last confirmed":"05/25/2012","longitude":-87.660361,"id":"agfvyxpalhxk","groups with access code":"Public - see hours","geocode status":"200-8","state":"IL"},"type":"Feature","geometry":{"type":"Point","coordinates":[-87.660361,41.984311]}},{"properties":{"city":"Chicago","station name":"Walgreens - ChargePoint","zip":"60625","latitude":41.9757,"fuel type code":"ELEC","ng psi":null,"access days time":"Public - see hours; 24 hours daily","cards accepted":null,"bd blends":null,"street address":"5158 N Lincoln","owner type code":"P","ng fill type code":null,"date last confirmed":"04/25/2013","longitude":-87.692813,"id":"agfvyxdssi94","groups with access code":"PLANNED - not yet accessible","geocode status":"200-8","state":"IL"},"type":"Feature","geometry":{"type":"Point","coordinates":[-87.692813,41.9757]}},{"properties":{"city":"Chicago","station name":"Walgreens - DC Fast","zip":"60625","latitude":41.9757,"fuel type code":"ELEC","ng psi":null,"access days time":"Public - see hours; 24 hours daily","cards accepted":null,"bd blends":null,"street address":"5158 N Lincoln","owner type code":"P","ng fill type code":null,"date last confirmed":"04/25/2013","longitude":-87.692813,"id":"agfvyxb2ib48","groups with access code":"PLANNED - not yet accessible","geocode status":"200-8","state":"IL"},"type":"Feature","geometry":{"type":"Point","coordinates":[-87.692813,41.9757]}},{"properties":{"city":"Chicago","station name":"I-GO","zip":"60619","latitude":41.9480204,"fuel type code":"ELEC","ng psi":null,"access days time":"24 hours daily","cards accepted":null,"bd blends":null,"street address":"3630 N Southport Ave","owner type code":"P","ng fill type code":null,"date last confirmed":"09/25/2012","longitude":-87.6642181,"id":"agfvyxd6iq5f","groups with access code":"Public - see hours","geocode status":"200-8","state":"IL"},"type":"Feature","geometry":{"type":"Point","coordinates":[-87.6642181,41.9480204]}},{"properties":{"city":"Chicago","station name":"Jewel-Osco - DC Fast","zip":"60618","latitude":41.9434828,"fuel type code":"ELEC","ng psi":null,"access days time":"24 hours daily","cards accepted":null,"bd blends":null,"street address":"3400 N Western Ave","owner type code":"P","ng fill type code":null,"date last confirmed":"09/25/2012","longitude":-87.6897844,"id":"agfvyxgya8br","groups with access code":"Public - see hours","geocode status":"200-8","state":"IL"},"type":"Feature","geometry":{"type":"Point","coordinates":[-87.6897844,41.9434828]}},{"properties":{"city":"Chicago","station name":"Walgreens - DC Fast","zip":"60614","latitude":41.92546,"fuel type code":"ELEC","ng psi":null,"access days time":"24 hours daily","cards accepted":null,"bd blends":null,"street address":"1520 W Fullerton","owner type code":"P","ng fill type code":null,"date last confirmed":"11/30/2012","longitude":-87.6663,"id":"agfvyxk8181f","groups with access code":"Public - see hours","geocode status":"200-8","state":"IL"},"type":"Feature","geometry":{"type":"Point","coordinates":[-87.6663,41.92546]}},{"properties":{"city":"Chicago","station name":"Maxwell Street Parking Garage - DC Fast","zip":"60607","latitude":41.8647995,"fuel type code":"ELEC","ng psi":null,"access days time":"Garage business hours; pay lot","cards accepted":null,"bd blends":null,"street address":"709 W Maxwell St","owner type code":"P","ng fill type code":null,"date last confirmed":"05/25/2012","longitude":-87.64544678,"id":"agfvyxhxgsmd","groups with access code":"Public - see hours","geocode status":"GPS","state":"IL"},"type":"Feature","geometry":{"type":"Point","coordinates":[-87.64544678,41.8647995]}},{"properties":{"city":"Chicago","station name":"Whole Foods Market - DC Fast","zip":"60646","latitude":41.9906281,"fuel type code":"ELEC","ng psi":null,"access days time":"Market business hours; pay lot","cards accepted":null,"bd blends":null,"street address":"6020 N Cicero Ave","owner type code":"P","ng fill type code":null,"date last confirmed":"05/25/2012","longitude":-87.7485888,"id":"agfvyxnc3pa7","groups with access code":"Public - see hours","geocode status":"200-8","state":"IL"},"type":"Feature","geometry":{"type":"Point","coordinates":[-87.7485888,41.9906281]}},{"properties":{"city":"Chicago","station name":"Whole Foods Market - DC Fast","zip":"60642","latitude":41.9096064,"fuel type code":"ELEC","ng psi":null,"access days time":"Market business hours; pay lot","cards accepted":null,"bd blends":null,"street address":"1550 N Kingsbury St","owner type code":"P","ng fill type code":null,"date last confirmed":"05/25/2012","longitude":-87.6531734,"id":"agfvyxizwnxe","groups with access code":"Public - see hours","geocode status":"200-8","state":"IL"},"type":"Feature","geometry":{"type":"Point","coordinates":[-87.6531734,41.9096064]}},{"properties":{"city":"Chicago","station name":"Whole Foods Market - DC Fast","zip":"60613","latitude":41.9484723,"fuel type code":"ELEC","ng psi":null,"access days time":"Market business hours; pay lot","cards accepted":null,"bd blends":null,"street address":"3640 N Halsted St","owner type code":"P","ng fill type code":null,"date last confirmed":"05/25/2012","longitude":-87.6498712,"id":"agfvyx9mr3ns","groups with access code":"Public - see hours","geocode status":"200-8","state":"IL"},"type":"Feature","geometry":{"type":"Point","coordinates":[-87.6498712,41.9484723]}},{"properties":{"city":"Chicago","station name":"Whole Foods Market - DC Fast","zip":"60654","latitude":41.895,"fuel type code":"ELEC","ng psi":null,"access days time":"Market business hours; pay lot","cards accepted":null,"bd blends":null,"street address":"30 W Huron","owner type code":"P","ng fill type code":null,"date last confirmed":"05/25/2012","longitude":-87.629182,"id":"agfvyxn0bi31","groups with access code":"Public - see hours","geocode status":"200-8","state":"IL"},"type":"Feature","geometry":{"type":"Point","coordinates":[-87.629182,41.895]}},{"properties":{"city":"Chicago","station name":"O'Hare International Airport - ChargePoint","zip":"60666","latitude":41.98563766,"fuel type code":"ELEC","ng psi":null,"access days time":"24 hours daily; pay lot","cards accepted":null,"bd blends":null,"street address":"10000 Bessie Coleman Dr","owner type code":"P","ng fill type code":null,"date last confirmed":"03/31/2012","longitude":-87.88509369,"id":"agfvyx9wif89","groups with access code":"Public - see hours","geocode status":"GPS","state":"IL"},"type":"Feature","geometry":{"type":"Point","coordinates":[-87.88509369,41.98563766]}},{"properties":{"city":"Chicago","station name":"Walsh Construction","zip":"60607","latitude":41.87757111,"fuel type code":"ELEC","ng psi":null,"access days time":"Employee use only","cards accepted":null,"bd blends":null,"street address":"925 W Jackson Blvd","owner type code":"P","ng fill type code":null,"date last confirmed":"03/31/2012","longitude":-87.65041351,"id":"agfvyxj12jzl","groups with access code":"Private access only","geocode status":"GPS","state":"IL"},"type":"Feature","geometry":{"type":"Point","coordinates":[-87.65041351,41.87757111]}},{"properties":{"city":"Chicago","station name":"Jewel-Osco - ChargePoint","zip":"60618","latitude":41.943064,"fuel type code":"ELEC","ng psi":null,"access days time":"24 hours daily","cards accepted":null,"bd blends":null,"street address":"3400 N Western Ave","owner type code":"P","ng fill type code":null,"date last confirmed":"04/25/2012","longitude":-87.688289,"id":"agfvyxg6mp7k","groups with access code":"Public - see hours","geocode status":"GPS","state":"IL"},"type":"Feature","geometry":{"type":"Point","coordinates":[-87.688289,41.943064]}},{"properties":{"city":"Chicago","station name":"Maxwell Street Parking Garage - DC Fast","zip":"60607","latitude":41.8647995,"fuel type code":"ELEC","ng psi":null,"access days time":"Garage business hours; pay lot","cards accepted":null,"bd blends":null,"street address":"709 W Maxwell St","owner type code":"P","ng fill type code":null,"date last confirmed":"04/30/2012","longitude":-87.64544678,"id":"agfvyxeo6yuf","groups with access code":"Public - see hours","geocode status":"GPS","state":"IL"},"type":"Feature","geometry":{"type":"Point","coordinates":[-87.64544678,41.8647995]}},{"properties":{"city":"Chicago","station name":"Mid City Nissan","zip":"60641","latitude":41.953683,"fuel type code":"ELEC","ng psi":null,"access days time":"Dealership business hours","cards accepted":null,"bd blends":null,"street address":"4444 W Irving Park Rd","owner type code":"P","ng fill type code":null,"date last confirmed":"04/30/2012","longitude":-87.7396481,"id":"agfvyxhvy8bx","groups with access code":"Public - see hours","geocode status":"200-8","state":"IL"},"type":"Feature","geometry":{"type":"Point","coordinates":[-87.7396481,41.953683]}},{"properties":{"city":"Chicago","station name":"Mid City Nissan - Service Center","zip":"60641","latitude":41.953683,"fuel type code":"ELEC","ng psi":null,"access days time":null,"cards accepted":null,"bd blends":null,"street address":"4444 W Irving Park Rd","owner type code":"P","ng fill type code":null,"date last confirmed":"04/30/2012","longitude":-87.7396481,"id":"agfvyxesrpie","groups with access code":"Private access only","geocode status":"200-8","state":"IL"},"type":"Feature","geometry":{"type":"Point","coordinates":[-87.7396481,41.953683]}},{"properties":{"city":"Chicago","station name":"Walgreens - DC Fast","zip":"60660","latitude":41.984311,"fuel type code":"ELEC","ng psi":null,"access days time":"24 hours daily","cards accepted":null,"bd blends":null,"street address":"5625 N Ridge","owner type code":"P","ng fill type code":null,"date last confirmed":"05/25/2012","longitude":-87.660361,"id":"agfvyxfozmrq","groups with access code":"Public - see hours","geocode status":"200-8","state":"IL"},"type":"Feature","geometry":{"type":"Point","coordinates":[-87.660361,41.984311]}},{"properties":{"city":"Chicago","station name":"Illinois Institute of Technology","zip":"60616","latitude":41.835453,"fuel type code":"ELEC","ng psi":null,"access days time":"24 hours daily","cards accepted":null,"bd blends":null,"street address":"3201 S State St","owner type code":"P","ng fill type code":null,"date last confirmed":"09/25/2012","longitude":-87.6259875,"id":"agfvyxlj5v64","groups with access code":"Public - see hours","geocode status":"200-8","state":"IL"},"type":"Feature","geometry":{"type":"Point","coordinates":[-87.6259875,41.835453]}},{"properties":{"city":"Chicago","station name":"Clean Energy - Yellow Cab","zip":"60616","latitude":41.868414,"fuel type code":"CNG","ng psi":"3600","access days time":"24 hours daily","cards accepted":"A D M V Voyager Wright_Exp CleanEnergy","bd blends":null,"street address":"540 W Grenshaw","owner type code":"P","ng fill type code":"Q","date last confirmed":"07/31/2012","longitude":-87.641917,"id":"agfvyxduyksm","groups with access code":"Public - credit card at all times","geocode status":"GPS","state":"IL"},"type":"Feature","geometry":{"type":"Point","coordinates":[-87.641917,41.868414]}},{"properties":{"city":"Chicago","station name":"400 East Randolph Street Condominiums","zip":"60601","latitude":41.88372421,"fuel type code":"ELEC","ng psi":null,"access days time":"Resident and guest use only","cards accepted":null,"bd blends":null,"street address":"400 E Randolph St","owner type code":"P","ng fill type code":null,"date last confirmed":"06/30/2012","longitude":-87.61614,"id":"agfvyxcv8kt3","groups with access code":"Private access only","geocode status":"GPS","state":"IL"},"type":"Feature","geometry":{"type":"Point","coordinates":[-87.61614,41.88372421]}},{"properties":{"city":"Chicago","station name":"Ozinga Energy - Lumber Street","zip":"60616","latitude":41.851903,"fuel type code":"CNG","ng psi":"3600","access days time":null,"cards accepted":null,"bd blends":null,"street address":"2242 S Lumber St","owner type code":"P","ng fill type code":"Q","date last confirmed":"06/30/2013","longitude":-87.643101,"id":"agfvyxiqv130","groups with access code":"Private access only","geocode status":"200-8","state":"IL"},"type":"Feature","geometry":{"type":"Point","coordinates":[-87.643101,41.851903]}},{"properties":{"city":"Chicago","station name":"AMLI 900 Garage - I-GO","zip":"60605","latitude":41.87043,"fuel type code":"ELEC","ng psi":null,"access days time":"I-GO vehicles only","cards accepted":null,"bd blends":null,"street address":"900 S Clark St","owner type code":"P","ng fill type code":null,"date last confirmed":"11/30/2012","longitude":-87.6306,"id":"agfvyxlr027p","groups with access code":"Private - fleet customers only","geocode status":"200-8","state":"IL"},"type":"Feature","geometry":{"type":"Point","coordinates":[-87.6306,41.87043]}},{"properties":{"city":"Chicago","station name":"Standard Parking","zip":"60626","latitude":42.01745,"fuel type code":"ELEC","ng psi":null,"access days time":"Garage business hours; pay lot","cards accepted":null,"bd blends":null,"street address":"7474 N Rogers","owner type code":"P","ng fill type code":null,"date last confirmed":"11/30/2012","longitude":-87.6725,"id":"agfvyxjzoyx0","groups with access code":"Public - see hours","geocode status":"200-8","state":"IL"},"type":"Feature","geometry":{"type":"Point","coordinates":[-87.6725,42.01745]}},{"properties":{"city":"Chicago","station name":"Standard Parking - US Equity Garage","zip":"60642","latitude":41.91061,"fuel type code":"ELEC","ng psi":null,"access days time":"Garage business hours; pay lot","cards accepted":null,"bd blends":null,"street address":"939 W North Ave","owner type code":"P","ng fill type code":null,"date last confirmed":"11/30/2012","longitude":-87.6529,"id":"agfvyxo43lk2","groups with access code":"Public - see hours","geocode status":"200-8","state":"IL"},"type":"Feature","geometry":{"type":"Point","coordinates":[-87.6529,41.91061]}},{"properties":{"city":"Chicago","station name":"Zipcar - 30 South Wacker Garage","zip":"60606","latitude":41.88087,"fuel type code":"ELEC","ng psi":null,"access days time":"24 hours daily; pay lot; Zipcar use only","cards accepted":null,"bd blends":null,"street address":"30 S Wacker Dr","owner type code":"P","ng fill type code":null,"date last confirmed":"11/30/2012","longitude":-87.6373,"id":"agfvyxo3ge2n","groups with access code":"Private - fleet customers only","geocode status":"200-8","state":"IL"},"type":"Feature","geometry":{"type":"Point","coordinates":[-87.6373,41.88087]}},{"properties":{"city":"Chicago","station name":"Zipcar - Monroe Street Garage","zip":"60661","latitude":41.88047,"fuel type code":"ELEC","ng psi":null,"access days time":"24 hours daily; pay lot; Zipcar use only","cards accepted":null,"bd blends":null,"street address":"525 W Monroe St","owner type code":"P","ng fill type code":null,"date last confirmed":"11/30/2012","longitude":-87.6398,"id":"agfvyxgcxom7","groups with access code":"Private - fleet customers only","geocode status":"200-8","state":"IL"},"type":"Feature","geometry":{"type":"Point","coordinates":[-87.6398,41.88047]}},{"properties":{"city":"Chicago","station name":"InterPark - Inland Steel","zip":"60603","latitude":41.880724,"fuel type code":"ELEC","ng psi":null,"access days time":"24 hours daily","cards accepted":null,"bd blends":null,"street address":"30 W Monroe St","owner type code":"P","ng fill type code":null,"date last confirmed":"12/31/2012","longitude":-87.6291,"id":"agfvyxd3fh6v","groups with access code":"Public - see hours","geocode status":"GPS","state":"IL"},"type":"Feature","geometry":{"type":"Point","coordinates":[-87.6291,41.880724]}},{"properties":{"city":"Chicago","station name":"Public Parking Garage","zip":"60654","latitude":41.8936163,"fuel type code":"ELEC","ng psi":null,"access days time":"24 hours daily; pay lot","cards accepted":null,"bd blends":null,"street address":"640 N La Salle Dr","owner type code":"P","ng fill type code":null,"date last confirmed":"12/31/2012","longitude":-87.63269,"id":"agfvyxeajelh","groups with access code":"Public - see hours","geocode status":"GPS","state":"IL"},"type":"Feature","geometry":{"type":"Point","coordinates":[-87.63269,41.8936163]}},{"properties":{"city":"Chicago","station name":"InterPark - St Clair St","zip":"60611","latitude":41.89315499,"fuel type code":"ELEC","ng psi":null,"access days time":"24 hours daily","cards accepted":null,"bd blends":null,"street address":"614 N Saint Clair St","owner type code":"P","ng fill type code":null,"date last confirmed":"01/31/2013","longitude":-87.62310281,"id":"agfvyxc2louv","groups with access code":"Public - see hours","geocode status":"GPS","state":"IL"},"type":"Feature","geometry":{"type":"Point","coordinates":[-87.62310281,41.89315499]}},{"properties":{"city":"Chicago","station name":"InterContinental Hotel - Chicago Magnificent Mile","zip":"60611","latitude":41.8913113,"fuel type code":"ELEC","ng psi":null,"access days time":"24 hours daily; network card required","cards accepted":null,"bd blends":null,"street address":"505 N Michigan Ave","owner type code":"P","ng fill type code":null,"date last confirmed":"05/25/2013","longitude":-87.6240589,"id":"agfvyxavim6g","groups with access code":"Public - card key at all times","geocode status":"GPS","state":"IL"},"type":"Feature","geometry":{"type":"Point","coordinates":[-87.6240589,41.8913113]}},{"properties":{"city":"Chicago","station name":"Navy Pier - West Garage","zip":"60611","latitude":41.8919806,"fuel type code":"ELEC","ng psi":null,"access days time":"24 hours daily","cards accepted":null,"bd blends":null,"street address":"600 E Grand Ave","owner type code":"P","ng fill type code":null,"date last confirmed":"05/31/2013","longitude":-87.6095976,"id":"agfvyxjla9pi","groups with access code":"Public - see hours","geocode status":"GPS","state":"IL"},"type":"Feature","geometry":{"type":"Point","coordinates":[-87.6095976,41.8919806]}},{"properties":{"city":"Chicago","station name":"Testa Produce","zip":"60609","latitude":41.810473,"fuel type code":"ELEC","ng psi":null,"access days time":"24 hours daily; network card required","cards accepted":null,"bd blends":null,"street address":"4555 S Racine Ave","owner type code":"P","ng fill type code":null,"date last confirmed":"06/25/2013","longitude":-87.654082,"id":"agfvyxc6793f","groups with access code":"Public - card key at all times","geocode status":"GPS","state":"IL"},"type":"Feature","geometry":{"type":"Point","coordinates":[-87.654082,41.810473]}}],"is_temporal":false,"author":{"url":"","metadata":null,"contact_name":null,"contact_address":null,"source":null,"contact_phone":null},"source":"","pagination":{"sort":null,"start":0,"total":136,"limit":1000000},"state":"complete","tags":"","published":"2014-08-16T20:06:24-04:00","id":385919}