{"type":"FeatureCollection","data_type":"Dataset","url_type":null,"permissions":[{"permissions":{"download":true,"view":true},"group_id":"everyone"}],"classification":null,"title":"findnsavefootprintcsvformat","count":419,"stream_id":386241,"contributor":{"url":"http://geocommons.com/users/79852","name":"jweber"},"data_attributes":null,"calculation_params":null,"icon_link":null,"link":"http://geocommons.com/overlays/386241.json","extent":[-139.887,0.233333,104.15,79.9853],"geometry_types":["point"],"unique_name":null,"name":"findnsavefootprintcsvformat","feature_count":419,"description":"","next_feature":null,"is_raster":false,"short_classification":"Y","stats":{},"features":[{"properties":{"city":"Charlotte","geo_score":0.0,"id":"aggq3zhxb3k9","geo_precision":"unmatched","state":"North Carolina"},"type":"Feature","geometry":null},{"properties":{"city":"Houston","geo_score":0.0,"id":"aggq3z6bgmmh","geo_precision":"unmatched","state":"Texas"},"type":"Feature","geometry":null},{"properties":{"city":"Bradenton","geo_score":0.0,"id":"aggq3zhubznf","geo_precision":"unmatched","state":"Florida"},"type":"Feature","geometry":null},{"properties":{"city":"Belleville","geo_score":0.0,"id":"aggq3z1vkkvo","geo_precision":"unmatched","state":"Illinois"},"type":"Feature","geometry":null},{"properties":{"city":"State College","geo_score":0.857,"id":"aggq3ze4fib2","geo_precision":"zip","state":"Pennsylvania"},"type":"Feature","geometry":{"type":"Point","coordinates":[-81.8666667,8.9]}},{"properties":{"city":"Fort Worth","geo_score":0.0,"id":"aggq3z6j5t1g","geo_precision":"unmatched","state":"Texas"},"type":"Feature","geometry":null},{"properties":{"city":"Kansas City","geo_score":0.0,"id":"aggq3zbn47i1","geo_precision":"unmatched","state":"Missouri"},"type":"Feature","geometry":null},{"properties":{"city":"Wichita","geo_score":0.0,"id":"aggq3z72dkl8","geo_precision":"unmatched","state":"Kansas"},"type":"Feature","geometry":null},{"properties":{"city":"Lexington","geo_score":0.0,"id":"aggq3ze0w2p6","geo_precision":"unmatched","state":"Kentucky"},"type":"Feature","geometry":null},{"properties":{"city":"Columbus","geo_score":0.0,"id":"aggq3zft6ni5","geo_precision":"unmatched","state":"Georgia"},"type":"Feature","geometry":null},{"properties":{"city":"Macon","geo_score":0.857,"id":"aggq3z538bdb","geo_precision":"zip","state":"Georgia"},"type":"Feature","geometry":{"type":"Point","coordinates":[10.6333333,0.2333333]}},{"properties":{"city":"Miami","geo_score":0.0,"id":"aggq3z6lyxbl","geo_precision":"unmatched","state":"Florida"},"type":"Feature","geometry":null},{"properties":{"city":"Myrtle Beach","geo_score":0.0,"id":"aggq3z5k00aa","geo_precision":"unmatched","state":"South Carolina"},"type":"Feature","geometry":null},{"properties":{"city":"San Luis Obispo","geo_score":0.857,"id":"aggq3z5asute","geo_precision":"zip","state":"California"},"type":"Feature","geometry":{"type":"Point","coordinates":[-73.734174418,46.256476309]}},{"properties":{"city":"Biloxi","geo_score":0.0,"id":"aggq3z782r66","geo_precision":"unmatched","state":"Mississippi"},"type":"Feature","geometry":null},{"properties":{"city":"Columbia","geo_score":0.0,"id":"aggq3z5swcxt","geo_precision":"unmatched","state":"South Carolina"},"type":"Feature","geometry":null},{"properties":{"city":"San Jose","geo_score":0.857,"id":"aggq3z7lsxui","geo_precision":"zip","state":"California"},"type":"Feature","geometry":{"type":"Point","coordinates":[-76.832710082,48.30017534]}},{"properties":{"city":"Providence","geo_score":0.0,"id":"aggq3z6e4wxh","geo_precision":"unmatched","state":"Rhode Island"},"type":"Feature","geometry":null},{"properties":{"city":"Oakland","geo_score":0.857,"id":"aggq3z7z45h0","geo_precision":"zip","state":"California"},"type":"Feature","geometry":{"type":"Point","coordinates":[-111.851794128,51.383417908]}},{"properties":{"city":"New Brunswick","geo_score":0.0,"id":"aggq3z8quadx","geo_precision":"unmatched","state":"New Jersey"},"type":"Feature","geometry":null},{"properties":{"city":"Ann Arbor","geo_score":0.0,"id":"aggq3z4mw0dd","geo_precision":"unmatched","state":"Michigan"},"type":"Feature","geometry":null},{"properties":{"city":"Winston-Salem","geo_score":0.0,"id":"aggq3z1xcplm","geo_precision":"unmatched","state":"North Carolina"},"type":"Feature","geometry":null},{"properties":{"city":"Richmond","geo_score":0.0,"id":"aggq3z9lyr2z","geo_precision":"unmatched","state":"Virginia"},"type":"Feature","geometry":null},{"properties":{"city":"Tampa","geo_score":0.0,"id":"aggq3z5b91o2","geo_precision":"unmatched","state":"Florida"},"type":"Feature","geometry":null},{"properties":{"city":"Syracuse","geo_score":0.0,"id":"aggq3zg9m08t","geo_precision":"unmatched","state":"New York"},"type":"Feature","geometry":null},{"properties":{"city":"Harrisburg","geo_score":0.0,"id":"aggq3zfer72g","geo_precision":"unmatched","state":"Pennsylvania"},"type":"Feature","geometry":null},{"properties":{"city":"New Orleans","geo_score":0.857,"id":"aggq3z7w24ss","geo_precision":"zip","state":"Louisiana"},"type":"Feature","geometry":{"type":"Point","coordinates":[104.15,20.6166667]}},{"properties":{"city":"Staten Island","geo_score":0.0,"id":"aggq3z577ou2","geo_precision":"unmatched","state":"New York"},"type":"Feature","geometry":null},{"properties":{"city":"Easton","geo_score":0.0,"id":"aggq3z83i9sn","geo_precision":"unmatched","state":"Pennsylvania"},"type":"Feature","geometry":null},{"properties":{"city":"Erie","geo_score":0.0,"id":"aggq3z6otpnp","geo_precision":"unmatched","state":"Pennsylvania"},"type":"Feature","geometry":null},{"properties":{"city":"Fresno","geo_score":0.857,"id":"aggq3z6j465p","geo_precision":"zip","state":"California"},"type":"Feature","geometry":{"type":"Point","coordinates":[-58.748210046,51.300121117]}},{"properties":{"city":"Bluffton","geo_score":0.0,"id":"aggq3zfmnudd","geo_precision":"unmatched","state":"South Carolina"},"type":"Feature","geometry":null},{"properties":{"city":"Modesto","geo_score":0.857,"id":"aggq3zadzuiz","geo_precision":"zip","state":"California"},"type":"Feature","geometry":{"type":"Point","coordinates":[-79.749646949,46.383396729]}},{"properties":{"city":"Raleigh","geo_score":0.0,"id":"aggq3zfkzj3x","geo_precision":"unmatched","state":"North Carolina"},"type":"Feature","geometry":null},{"properties":{"city":"Rock Hill","geo_score":0.0,"id":"aggq3z71zpsp","geo_precision":"unmatched","state":"South Carolina"},"type":"Feature","geometry":null},{"properties":{"city":"Sacramento","geo_score":0.857,"id":"aggq3z5k6vg2","geo_precision":"zip","state":"California"},"type":"Feature","geometry":{"type":"Point","coordinates":[-118.385598186,50.449832005]}},{"properties":{"city":"Tacoma","geo_score":0.0,"id":"aggq3z2op9hf","geo_precision":"unmatched","state":"Washington"},"type":"Feature","geometry":null},{"properties":{"city":"Rochester","geo_score":0.0,"id":"aggq3z46o3m9","geo_precision":"unmatched","state":"New York"},"type":"Feature","geometry":null},{"properties":{"city":"Merced","geo_score":0.857,"id":"aggq3zbjch8g","geo_precision":"zip","state":"California"},"type":"Feature","geometry":{"type":"Point","coordinates":[-79.949701298,48.23346806]}},{"properties":{"city":"Rockford","geo_score":0.0,"id":"aggq3ze8a8ln","geo_precision":"unmatched","state":"Illinois"},"type":"Feature","geometry":null},{"properties":{"city":"Des Moines","geo_score":0.0,"id":"aggq3z5xfae0","geo_precision":"unmatched","state":"Iowa"},"type":"Feature","geometry":null},{"properties":{"city":"York","geo_score":0.0,"id":"aggq3zh6hgnh","geo_precision":"unmatched","state":"Pennsylvania"},"type":"Feature","geometry":null},{"properties":{"city":"Sterling Heights","geo_score":0.0,"id":"aggq3za3g7i4","geo_precision":"unmatched","state":"Michigan"},"type":"Feature","geometry":null},{"properties":{"city":"Saginaw","geo_score":0.0,"id":"aggq3zhvvf8s","geo_precision":"unmatched","state":"Michigan"},"type":"Feature","geometry":null},{"properties":{"city":"Pascagoula","geo_score":0.0,"id":"aggq3zfhp0q6","geo_precision":"unmatched","state":"Mississippi"},"type":"Feature","geometry":null},{"properties":{"city":"Springfield","geo_score":0.0,"id":"aggq3zcodlkg","geo_precision":"unmatched","state":"Massachusetts"},"type":"Feature","geometry":null},{"properties":{"city":"Dallas","geo_score":0.0,"id":"aggq3z7oekrv","geo_precision":"unmatched","state":"Texas"},"type":"Feature","geometry":null},{"properties":{"city":"Riverside","geo_score":0.857,"id":"aggq3zbk3uxp","geo_precision":"zip","state":"California"},"type":"Feature","geometry":{"type":"Point","coordinates":[-75.13260965,44.933397312]}},{"properties":{"city":"Sacramento","geo_score":0.857,"id":"aggq3zg5u5mw","geo_precision":"zip","state":"California"},"type":"Feature","geometry":{"type":"Point","coordinates":[-118.385598186,50.449832005]}},{"properties":{"city":"Phoenix","geo_score":0.857,"id":"aggq3zhc3gu3","geo_precision":"zip","state":"Arizona"},"type":"Feature","geometry":{"type":"Point","coordinates":[46.5430556,39.7611111]}},{"properties":{"city":"Huntsville","geo_score":0.0,"id":"aggq3zetn1vy","geo_precision":"unmatched","state":"Alabama"},"type":"Feature","geometry":null},{"properties":{"city":"Woodland Hills","geo_score":0.857,"id":"aggq3z8iyti6","geo_precision":"zip","state":"California"},"type":"Feature","geometry":{"type":"Point","coordinates":[-122.919332157,49.332967234]}},{"properties":{"city":"San Diego","geo_score":0.857,"id":"aggq3z5iagyu","geo_precision":"zip","state":"California"},"type":"Feature","geometry":{"type":"Point","coordinates":[-101.584220585,51.399979807]}},{"properties":{"city":"San Francisco","geo_score":0.857,"id":"aggq3z3p7elw","geo_precision":"zip","state":"California"},"type":"Feature","geometry":{"type":"Point","coordinates":[-80.466445516,48.350174128]}},{"properties":{"city":"Hartford","geo_score":0.0,"id":"aggq3z5e261q","geo_precision":"unmatched","state":"Connecticut"},"type":"Feature","geometry":null},{"properties":{"city":"Washington","geo_score":0.0,"id":"aggq3zdpkrzi","geo_precision":"unmatched","state":"District of Columbia"},"type":"Feature","geometry":null},{"properties":{"city":"Jacksonville","geo_score":0.0,"id":"aggq3z7q4uc0","geo_precision":"unmatched","state":"Florida"},"type":"Feature","geometry":null},{"properties":{"city":"Orlando","geo_score":0.0,"id":"aggq3z3gwabs","geo_precision":"unmatched","state":"Florida"},"type":"Feature","geometry":null},{"properties":{"city":"West Palm Beach","geo_score":0.0,"id":"aggq3z2u3yeo","geo_precision":"unmatched","state":"Florida"},"type":"Feature","geometry":null},{"properties":{"city":"Atlanta","geo_score":0.0,"id":"aggq3z872twr","geo_precision":"unmatched","state":"Georgia"},"type":"Feature","geometry":null},{"properties":{"city":"Chicago","geo_score":0.0,"id":"aggq3z9x3jq2","geo_precision":"unmatched","state":"Illinois"},"type":"Feature","geometry":null},{"properties":{"city":"Indianapolis","geo_score":0.0,"id":"aggq3zc86o48","geo_precision":"unmatched","state":"Indiana"},"type":"Feature","geometry":null},{"properties":{"city":"Louisville","geo_score":0.0,"id":"aggq3z6js8uz","geo_precision":"unmatched","state":"Kentucky"},"type":"Feature","geometry":null},{"properties":{"city":"Boston","geo_score":0.857,"id":"aggq3z6gtmjl","geo_precision":"zip","state":"Massachusetts"},"type":"Feature","geometry":{"type":"Point","coordinates":[-4.23,34.11]}},{"properties":{"city":"Baltimore","geo_score":0.0,"id":"aggq3za8b3bs","geo_precision":"unmatched","state":"Maryland"},"type":"Feature","geometry":null},{"properties":{"city":"Detroit","geo_score":0.0,"id":"aggq3zayrm2v","geo_precision":"unmatched","state":"Michigan"},"type":"Feature","geometry":null},{"properties":{"city":"Grand Rapids","geo_score":0.0,"id":"aggq3ztl751v","geo_precision":"unmatched","state":"Michigan"},"type":"Feature","geometry":null},{"properties":{"city":"St. Paul","geo_score":0.0,"id":"aggq3zt8vz3g","geo_precision":"unmatched","state":"Minnesota"},"type":"Feature","geometry":null},{"properties":{"city":"Saint Louis","geo_score":0.0,"id":"aggq3znh7cay","geo_precision":"unmatched","state":"Missouri"},"type":"Feature","geometry":null},{"properties":{"city":"Greenville","geo_score":0.0,"id":"aggq3zvw75fl","geo_precision":"unmatched","state":"North Carolina"},"type":"Feature","geometry":null},{"properties":{"city":"Albuquerque","geo_score":0.0,"id":"aggq3zspn1i7","geo_precision":"unmatched","state":"New Mexico"},"type":"Feature","geometry":null},{"properties":{"city":"Las Vegas","geo_score":0.0,"id":"aggq3zqmd8ac","geo_precision":"unmatched","state":"Nevada"},"type":"Feature","geometry":null},{"properties":{"city":"New York","geo_score":0.0,"id":"aggq3zpyknls","geo_precision":"unmatched","state":"New York"},"type":"Feature","geometry":null},{"properties":{"city":"Cincinnati","geo_score":0.0,"id":"aggq3zn4905z","geo_precision":"unmatched","state":"Ohio"},"type":"Feature","geometry":null},{"properties":{"city":"Cleveland","geo_score":0.0,"id":"aggq3zuzvoj9","geo_precision":"unmatched","state":"Ohio"},"type":"Feature","geometry":null},{"properties":{"city":"Oklahoma City","geo_score":0.0,"id":"aggq3zyjh5sf","geo_precision":"unmatched","state":"Oklahoma"},"type":"Feature","geometry":null},{"properties":{"city":"Philadelphia","geo_score":0.857,"id":"aggq3zrrcryf","geo_precision":"zip","state":"Pennsylvania"},"type":"Feature","geometry":{"type":"Point","coordinates":[-81.4,7.9833333]}},{"properties":{"city":"Pittsburgh","geo_score":0.0,"id":"aggq3zii7gvz","geo_precision":"unmatched","state":"Pennsylvania"},"type":"Feature","geometry":null},{"properties":{"city":"Norfolk","geo_score":0.0,"id":"aggq3zr4or4i","geo_precision":"unmatched","state":"Virginia"},"type":"Feature","geometry":null},{"properties":{"city":"Memphis","geo_score":0.0,"id":"aggq3zo4o5us","geo_precision":"unmatched","state":"Tennessee"},"type":"Feature","geometry":null},{"properties":{"city":"Nashville","geo_score":0.0,"id":"aggq3zxo0u8z","geo_precision":"unmatched","state":"Tennessee"},"type":"Feature","geometry":null},{"properties":{"city":"Austin","geo_score":0.0,"id":"aggq3zj5otww","geo_precision":"unmatched","state":"Texas"},"type":"Feature","geometry":null},{"properties":{"city":"San Antonio","geo_score":0.0,"id":"aggq3zsk8zl5","geo_precision":"unmatched","state":"Texas"},"type":"Feature","geometry":null},{"properties":{"city":"Milwaukee","geo_score":0.0,"id":"aggq3zv61utc","geo_precision":"unmatched","state":"Wisconsin"},"type":"Feature","geometry":null},{"properties":{"city":"Chico","geo_score":0.857,"id":"aggq3zobu08o","geo_precision":"zip","state":"California"},"type":"Feature","geometry":{"type":"Point","coordinates":[-79.966357012,44.216806961]}},{"properties":{"city":"Eureka","geo_score":0.857,"id":"aggq3zs1f7s4","geo_precision":"zip","state":"California"},"type":"Feature","geometry":{"type":"Point","coordinates":[-85.949306383,79.985335122]}},{"properties":{"city":"Lakeport","geo_score":0.857,"id":"aggq3zqbfj46","geo_precision":"zip","state":"California"},"type":"Feature","geometry":{"type":"Point","coordinates":[-76.266084129,45.709507853]}},{"properties":{"city":"Mobile","geo_score":0.0,"id":"aggq3zoohe1f","geo_precision":"unmatched","state":"Alabama"},"type":"Feature","geometry":null},{"properties":{"city":"Birmingham","geo_score":0.0,"id":"aggq3zv9taju","geo_precision":"unmatched","state":"Alabama"},"type":"Feature","geometry":null},{"properties":{"city":"Bay City","geo_score":0.0,"id":"aggq3zkn7x5o","geo_precision":"unmatched","state":"Michigan"},"type":"Feature","geometry":null},{"properties":{"city":"Flint","geo_score":0.0,"id":"aggq3zpgnbvz","geo_precision":"unmatched","state":"Michigan"},"type":"Feature","geometry":null},{"properties":{"city":"Jackson","geo_score":0.0,"id":"aggq3zy0obpw","geo_precision":"unmatched","state":"Michigan"},"type":"Feature","geometry":null},{"properties":{"city":"Kalamazoo","geo_score":0.0,"id":"aggq3zu0ej2h","geo_precision":"unmatched","state":"Michigan"},"type":"Feature","geometry":null},{"properties":{"city":"Muskegon","geo_score":0.0,"id":"aggq3zwyzzwc","geo_precision":"unmatched","state":"Michigan"},"type":"Feature","geometry":null},{"properties":{"city":"Oroville","geo_score":0.857,"id":"aggq3ziwrbgq","geo_precision":"zip","state":"California"},"type":"Feature","geometry":{"type":"Point","coordinates":[-79.766344924,45.383399211]}},{"properties":{"city":"Red Bluff","geo_score":0.857,"id":"aggq3zoxdcn8","geo_precision":"zip","state":"California"},"type":"Feature","geometry":{"type":"Point","coordinates":[-75.111724303,47.382927588]}},{"properties":{"city":"Woodland","geo_score":0.857,"id":"aggq3zqru6k1","geo_precision":"zip","state":"California"},"type":"Feature","geometry":{"type":"Point","coordinates":[-122.919332157,49.332967234]}},{"properties":{"city":"Ukiah","geo_score":0.857,"id":"aggq3zt795hy","geo_precision":"zip","state":"California"},"type":"Feature","geometry":{"type":"Point","coordinates":[-62.815364831,46.166811522]}},{"properties":{"city":"Bridgeport","geo_score":0.0,"id":"aggq3zoa3gs5","geo_precision":"unmatched","state":"Connecticut"},"type":"Feature","geometry":null},{"properties":{"city":"Albany","geo_score":0.0,"id":"aggq3zxs45sj","geo_precision":"unmatched","state":"New York"},"type":"Feature","geometry":null},{"properties":{"city":"Beaumont","geo_score":0.0,"id":"aggq3zub63wl","geo_precision":"unmatched","state":"Texas"},"type":"Feature","geometry":null},{"properties":{"city":"Greenwich","geo_score":0.0,"id":"aggq3zq34n4p","geo_precision":"unmatched","state":"Connecticut"},"type":"Feature","geometry":null},{"properties":{"city":"Danbury","geo_score":0.0,"id":"aggq3zlrzjj6","geo_precision":"unmatched","state":"Connecticut"},"type":"Feature","geometry":null},{"properties":{"city":"Stamford","geo_score":0.0,"id":"aggq3zi37uwj","geo_precision":"unmatched","state":"Connecticut"},"type":"Feature","geometry":null},{"properties":{"city":"Walnut Creek","geo_score":0.857,"id":"aggq3zopgntz","geo_precision":"zip","state":"California"},"type":"Feature","geometry":{"type":"Point","coordinates":[-99.297209934,49.979427842]}},{"properties":{"city":"Monterey","geo_score":0.857,"id":"aggq3ztot8xd","geo_precision":"zip","state":"California"},"type":"Feature","geometry":{"type":"Point","coordinates":[-120.085895609,53.333251756]}},{"properties":{"city":"San Rafael","geo_score":0.857,"id":"aggq3zxdanc7","geo_precision":"zip","state":"California"},"type":"Feature","geometry":{"type":"Point","coordinates":[-72.663826756,45.751466312]}},{"properties":{"city":"Scotts Valley","geo_score":0.857,"id":"aggq3zsxs5m7","geo_precision":"zip","state":"California"},"type":"Feature","geometry":{"type":"Point","coordinates":[-61.148512705,46.183441596]}},{"properties":{"city":"New Haven","geo_score":0.0,"id":"aggq3zr66oxn","geo_precision":"unmatched","state":"Connecticut"},"type":"Feature","geometry":null},{"properties":{"city":"Middletown","geo_score":0.0,"id":"aggq3zxjmeyr","geo_precision":"unmatched","state":"Connecticut"},"type":"Feature","geometry":null},{"properties":{"city":"Torrington","geo_score":0.0,"id":"aggq3zyl95yi","geo_precision":"unmatched","state":"Connecticut"},"type":"Feature","geometry":null},{"properties":{"city":"Troy","geo_score":0.0,"id":"aggq3zlbhkaj","geo_precision":"unmatched","state":"New York"},"type":"Feature","geometry":null},{"properties":{"city":"Saratoga Springs","geo_score":0.0,"id":"aggq3zv2n5w6","geo_precision":"unmatched","state":"New York"},"type":"Feature","geometry":null},{"properties":{"city":"Kingston","geo_score":0.0,"id":"aggq3zj6bnvu","geo_precision":"unmatched","state":"New York"},"type":"Feature","geometry":null},{"properties":{"city":"Oneida","geo_score":0.0,"id":"aggq3zx5rybj","geo_precision":"unmatched","state":"New York"},"type":"Feature","geometry":null},{"properties":{"city":"Fitchburg","geo_score":0.0,"id":"aggq3zx6oyyj","geo_precision":"unmatched","state":"Massachusetts"},"type":"Feature","geometry":null},{"properties":{"city":"Lowell","geo_score":0.0,"id":"aggq3zno7f1w","geo_precision":"unmatched","state":"Massachusetts"},"type":"Feature","geometry":null},{"properties":{"city":"North Adams","geo_score":0.857,"id":"aggq3zuwn9s0","geo_precision":"zip","state":"Massachusetts"},"type":"Feature","geometry":{"type":"Point","coordinates":[-4.76,33.15]}},{"properties":{"city":"Pittsfield","geo_score":0.0,"id":"aggq3zimjkv4","geo_precision":"unmatched","state":"Massachusetts"},"type":"Feature","geometry":null},{"properties":{"city":"Bennington","geo_score":0.0,"id":"aggq3zj79yy5","geo_precision":"unmatched","state":"Vermont"},"type":"Feature","geometry":null},{"properties":{"city":"Brattleboro","geo_score":0.0,"id":"aggq3zt0i2dh","geo_precision":"unmatched","state":"Vermont"},"type":"Feature","geometry":null},{"properties":{"city":"Alamogordo","geo_score":0.0,"id":"aggq3zqy79rr","geo_precision":"unmatched","state":"New Mexico"},"type":"Feature","geometry":null},{"properties":{"city":"Carlsbad","geo_score":0.0,"id":"aggq3zotww9q","geo_precision":"unmatched","state":"New Mexico"},"type":"Feature","geometry":null},{"properties":{"city":"Deming","geo_score":0.0,"id":"aggq3zsdgn44","geo_precision":"unmatched","state":"New Mexico"},"type":"Feature","geometry":null},{"properties":{"city":"Farmington","geo_score":0.0,"id":"aggq3ziu72ba","geo_precision":"unmatched","state":"New Mexico"},"type":"Feature","geometry":null},{"properties":{"city":"Las Cruces","geo_score":0.0,"id":"aggq3zu5nvvx","geo_precision":"unmatched","state":"New Mexico"},"type":"Feature","geometry":null},{"properties":{"city":"El Paso","geo_score":0.0,"id":"aggq3zvmh7y2","geo_precision":"unmatched","state":"Texas"},"type":"Feature","geometry":null},{"properties":{"city":"Denton","geo_score":0.0,"id":"aggq3zmx5fmt","geo_precision":"unmatched","state":"Texas"},"type":"Feature","geometry":null},{"properties":{"city":"Long Beach","geo_score":0.857,"id":"aggq3zk9hqs3","geo_precision":"zip","state":"California"},"type":"Feature","geometry":{"type":"Point","coordinates":[-125.719574576,49.049611442]}},{"properties":{"city":"Torrance","geo_score":0.857,"id":"aggq3zvmsisf","geo_precision":"zip","state":"California"},"type":"Feature","geometry":{"type":"Point","coordinates":[-79.566336821,45.000102432]}},{"properties":{"city":"Ontario","geo_score":0.857,"id":"aggq3zoy4ya9","geo_precision":"zip","state":"California"},"type":"Feature","geometry":{"type":"Point","coordinates":[-79.082884803,44.250117447]}},{"properties":{"city":"San Bernardino","geo_score":0.857,"id":"aggq3zu70gqp","geo_precision":"zip","state":"California"},"type":"Feature","geometry":{"type":"Point","coordinates":[-99.485506572,51.783323269]}},{"properties":{"city":"Redlands","geo_score":0.857,"id":"aggq3zsn06lz","geo_precision":"zip","state":"California"},"type":"Feature","geometry":{"type":"Point","coordinates":[-114.13809945,51.020945945]}},{"properties":{"city":"West Covina","geo_score":0.857,"id":"aggq3znqlcyx","geo_precision":"zip","state":"California"},"type":"Feature","geometry":{"type":"Point","coordinates":[-105.001145132,51.300073649]}},{"properties":{"city":"Pasadena","geo_score":0.857,"id":"aggq3zxklqr3","geo_precision":"zip","state":"California"},"type":"Feature","geometry":{"type":"Point","coordinates":[-57.598368708,49.016714544]}},{"properties":{"city":"Whittier","geo_score":0.857,"id":"aggq3zldd2fz","geo_precision":"zip","state":"California"},"type":"Feature","geometry":{"type":"Point","coordinates":[-106.717931231,49.700058136]}},{"properties":{"city":"Primos","geo_score":0.0,"id":"aggq3zj2sb8i","geo_precision":"unmatched","state":"Pennsylvania"},"type":"Feature","geometry":null},{"properties":{"city":"West Chester","geo_score":0.0,"id":"aggq3zta6pxx","geo_precision":"unmatched","state":"Pennsylvania"},"type":"Feature","geometry":null},{"properties":{"city":"Pottstown","geo_score":0.0,"id":"aggq3zie3r6q","geo_precision":"unmatched","state":"Pennsylvania"},"type":"Feature","geometry":null},{"properties":{"city":"Norristown","geo_score":0.0,"id":"aggq3zxgy355","geo_precision":"unmatched","state":"Pennsylvania"},"type":"Feature","geometry":null},{"properties":{"city":"Lansdale","geo_score":0.0,"id":"aggq3zvhmkc8","geo_precision":"unmatched","state":"Pennsylvania"},"type":"Feature","geometry":null},{"properties":{"city":"Trenton","geo_score":0.0,"id":"aggq3zwertjm","geo_precision":"unmatched","state":"New Jersey"},"type":"Feature","geometry":null},{"properties":{"city":"Dayton","geo_score":0.0,"id":"aggq3zlckk8d","geo_precision":"unmatched","state":"Ohio"},"type":"Feature","geometry":null},{"properties":{"city":"Pontiac","geo_score":0.0,"id":"aggq3zwt9yir","geo_precision":"unmatched","state":"Michigan"},"type":"Feature","geometry":null},{"properties":{"city":"Mt Clemens","geo_score":0.0,"id":"aggq3zo63ev1","geo_precision":"unmatched","state":"Michigan"},"type":"Feature","geometry":null},{"properties":{"city":"Royal Oak","geo_score":0.0,"id":"aggq3zkgzy3k","geo_precision":"unmatched","state":"Michigan"},"type":"Feature","geometry":null},{"properties":{"city":"Mt Pleasant","geo_score":0.0,"id":"aggq3zm0z3jo","geo_precision":"unmatched","state":"Michigan"},"type":"Feature","geometry":null},{"properties":{"city":"Willoughby","geo_score":0.0,"id":"aggq3zpm2csm","geo_precision":"unmatched","state":"Ohio"},"type":"Feature","geometry":null},{"properties":{"city":"Lorain","geo_score":0.0,"id":"aggq3zsikh63","geo_precision":"unmatched","state":"Ohio"},"type":"Feature","geometry":null},{"properties":{"city":"Vacaville","geo_score":0.0,"id":"aggq3zststqx","geo_precision":"unmatched","state":"California"},"type":"Feature","geometry":null},{"properties":{"city":"Vallejo","geo_score":0.0,"id":"aggq3zn9gb4a","geo_precision":"unmatched","state":"California"},"type":"Feature","geometry":null},{"properties":{"city":"Ashland","geo_score":0.0,"id":"aggq3znd6lta","geo_precision":"unmatched","state":"Kentucky"},"type":"Feature","geometry":null},{"properties":{"city":"Beckley","geo_score":0.0,"id":"aggq3zm5dxm5","geo_precision":"unmatched","state":"West Virginia"},"type":"Feature","geometry":null},{"properties":{"city":"Johnstown","geo_score":0.0,"id":"aggq3zpntyd3","geo_precision":"unmatched","state":"Pennsylvania"},"type":"Feature","geometry":null},{"properties":{"city":"Mankato","geo_score":0.0,"id":"aggq3ztszl25","geo_precision":"unmatched","state":"Minnesota"},"type":"Feature","geometry":null},{"properties":{"city":"Sunbury","geo_score":0.0,"id":"aggq3ztg7ey2","geo_precision":"unmatched","state":"Pennsylvania"},"type":"Feature","geometry":null},{"properties":{"city":"Terre Haute","geo_score":0.857,"id":"aggq3zlf7i35","geo_precision":"zip","state":"Indiana"},"type":"Feature","geometry":{"type":"Point","coordinates":[83.7402778,26.7461111]}},{"properties":{"city":"Traverse City","geo_score":0.0,"id":"aggq3zvaezqt","geo_precision":"unmatched","state":"Michigan"},"type":"Feature","geometry":null},{"properties":{"city":"Valdosta","geo_score":0.0,"id":"aggq3zr1d9yd","geo_precision":"unmatched","state":"Georgia"},"type":"Feature","geometry":null},{"properties":{"city":"Ada","geo_score":0.0,"id":"aggq3zxiizim","geo_precision":"unmatched","state":"Oklahoma"},"type":"Feature","geometry":null},{"properties":{"city":"Anderson","geo_score":0.857,"id":"aggq3zrzudhi","geo_precision":"zip","state":"Indiana"},"type":"Feature","geometry":{"type":"Point","coordinates":[92.7166667,12.7666667]}},{"properties":{"city":"Ashtabula","geo_score":0.0,"id":"aggq3zqydc9m","geo_precision":"unmatched","state":"Ohio"},"type":"Feature","geometry":null},{"properties":{"city":"Athens","geo_score":0.0,"id":"aggq3zqxw2tg","geo_precision":"unmatched","state":"Texas"},"type":"Feature","geometry":null},{"properties":{"city":"Athens","geo_score":0.0,"id":"aggq3zxb5jht","geo_precision":"unmatched","state":"Alabama"},"type":"Feature","geometry":null},{"properties":{"city":"Bluefield","geo_score":0.0,"id":"aggq3zlj0014","geo_precision":"unmatched","state":"West Virginia"},"type":"Feature","geometry":null},{"properties":{"city":"Chickasha","geo_score":0.0,"id":"aggq3zwv0dfd","geo_precision":"unmatched","state":"Oklahoma"},"type":"Feature","geometry":null},{"properties":{"city":"Claremore","geo_score":0.0,"id":"aggq3zkzgkwp","geo_precision":"unmatched","state":"Oklahoma"},"type":"Feature","geometry":null},{"properties":{"city":"Cleburne","geo_score":0.0,"id":"aggq3zordx96","geo_precision":"unmatched","state":"Texas"},"type":"Feature","geometry":null},{"properties":{"city":"Clinton","geo_score":0.0,"id":"aggq3zwr7l4u","geo_precision":"unmatched","state":"Iowa"},"type":"Feature","geometry":null},{"properties":{"city":"Corbin","geo_score":0.0,"id":"aggq3zl3ew8i","geo_precision":"unmatched","state":"Kentucky"},"type":"Feature","geometry":null},{"properties":{"city":"Corsicana","geo_score":0.0,"id":"aggq3zuont4k","geo_precision":"unmatched","state":"Texas"},"type":"Feature","geometry":null},{"properties":{"city":"Cullman","geo_score":0.0,"id":"aggq3zqkn2kl","geo_precision":"unmatched","state":"Alabama"},"type":"Feature","geometry":null},{"properties":{"city":"Cumberland","geo_score":0.0,"id":"aggq3zsabnnu","geo_precision":"unmatched","state":"Maryland"},"type":"Feature","geometry":null},{"properties":{"city":"Dalton","geo_score":0.0,"id":"aggq3zmepl54","geo_precision":"unmatched","state":"Georgia"},"type":"Feature","geometry":null},{"properties":{"city":"Danville","geo_score":0.0,"id":"aggq3zxw3ujb","geo_precision":"unmatched","state":"Illinois"},"type":"Feature","geometry":null},{"properties":{"city":"Duncan","geo_score":0.0,"id":"aggq3zucmm6l","geo_precision":"unmatched","state":"Oklahoma"},"type":"Feature","geometry":null},{"properties":{"city":"Effingham","geo_score":0.0,"id":"aggq3zvcwtop","geo_precision":"unmatched","state":"Illinois"},"type":"Feature","geometry":null},{"properties":{"city":"Fairmont","geo_score":0.0,"id":"aggq3zubl1qn","geo_precision":"unmatched","state":"West Virginia"},"type":"Feature","geometry":null},{"properties":{"city":"Gainesville","geo_score":0.0,"id":"aggq3zxo0na7","geo_precision":"unmatched","state":"Texas"},"type":"Feature","geometry":null},{"properties":{"city":"Glasgow","geo_score":0.0,"id":"aggq3zip6lce","geo_precision":"unmatched","state":"Kentucky"},"type":"Feature","geometry":null},{"properties":{"city":"Gloucester","geo_score":0.0,"id":"aggq3znbsxws","geo_precision":"unmatched","state":"Massachusetts"},"type":"Feature","geometry":null},{"properties":{"city":"Goshen","geo_score":0.857,"id":"aggq3zmmu3vv","geo_precision":"zip","state":"Indiana"},"type":"Feature","geometry":{"type":"Point","coordinates":[88.0166667,25.6333333]}},{"properties":{"city":"Greensburg","geo_score":0.0,"id":"aggq3zr1klpk","geo_precision":"unmatched","state":"Indiana"},"type":"Feature","geometry":null},{"properties":{"city":"Greenville","geo_score":0.0,"id":"aggq3zigzti4","geo_precision":"unmatched","state":"Texas"},"type":"Feature","geometry":null},{"properties":{"city":"Huntsville","geo_score":0.0,"id":"aggq3zqe519e","geo_precision":"unmatched","state":"Texas"},"type":"Feature","geometry":null},{"properties":{"city":"Jacksonville","geo_score":0.0,"id":"aggq3zret5o3","geo_precision":"unmatched","state":"Texas"},"type":"Feature","geometry":null},{"properties":{"city":"Jeffersonville","geo_score":0.0,"id":"aggq3ziz1r2g","geo_precision":"unmatched","state":"Kentucky"},"type":"Feature","geometry":null},{"properties":{"city":"Kokomo","geo_score":0.857,"id":"aggq3zi5zl93","geo_precision":"zip","state":"Indiana"},"type":"Feature","geometry":{"type":"Point","coordinates":[69.7666667,23.2166667]}},{"properties":{"city":"Lebanon","geo_score":0.0,"id":"aggq3zxalzeo","geo_precision":"unmatched","state":"Indiana"},"type":"Feature","geometry":null},{"properties":{"city":"Lockport","geo_score":0.0,"id":"aggq3zib98bg","geo_precision":"unmatched","state":"New York"},"type":"Feature","geometry":null},{"properties":{"city":"Logansport","geo_score":0.0,"id":"aggq3zvtxtrf","geo_precision":"unmatched","state":"Indiana"},"type":"Feature","geometry":null},{"properties":{"city":"Meadville","geo_score":0.0,"id":"aggq3zs0yksg","geo_precision":"unmatched","state":"Pennsylvania"},"type":"Feature","geometry":null},{"properties":{"city":"Medina","geo_score":0.0,"id":"aggq3zvntu3n","geo_precision":"unmatched","state":"New York"},"type":"Feature","geometry":null},{"properties":{"city":"Meridian","geo_score":0.0,"id":"aggq3zpvx4dy","geo_precision":"unmatched","state":"Mississippi"},"type":"Feature","geometry":null},{"properties":{"city":"Milledgeville","geo_score":0.0,"id":"aggq3zj87cf9","geo_precision":"unmatched","state":"Georgia"},"type":"Feature","geometry":null},{"properties":{"city":"Mineral Wells","geo_score":0.0,"id":"aggq3zud6zxp","geo_precision":"unmatched","state":"Texas"},"type":"Feature","geometry":null},{"properties":{"city":"Moultrie","geo_score":0.0,"id":"aggq3zlg0rlk","geo_precision":"unmatched","state":"Georgia"},"type":"Feature","geometry":null},{"properties":{"city":"Mt. Vernon","geo_score":0.857,"id":"aggq3zrufaov","geo_precision":"zip","state":"Illinois"},"type":"Feature","geometry":{"type":"Point","coordinates":[35.0666667,31.7166667]}},{"properties":{"city":"New Castle","geo_score":0.857,"id":"aggq3zjxgwem","geo_precision":"zip","state":"Pennsylvania"},"type":"Feature","geometry":{"type":"Point","coordinates":[-81.05,8.2166667]}},{"properties":{"city":"Newburyport","geo_score":0.0,"id":"aggq3znbhu6k","geo_precision":"unmatched","state":"Massachusetts"},"type":"Feature","geometry":null},{"properties":{"city":"Niagara Falls","geo_score":0.0,"id":"aggq3zsko2f2","geo_precision":"unmatched","state":"New York"},"type":"Feature","geometry":null},{"properties":{"city":"Norman","geo_score":0.0,"id":"aggq3zrl1l69","geo_precision":"unmatched","state":"Oklahoma"},"type":"Feature","geometry":null},{"properties":{"city":"North Andover","geo_score":0.857,"id":"aggq3zoa901i","geo_precision":"zip","state":"Massachusetts"},"type":"Feature","geometry":{"type":"Point","coordinates":[-10.38,28.38]}},{"properties":{"city":"North Tonawanda","geo_score":0.0,"id":"aggq3zl4p6ln","geo_precision":"unmatched","state":"New York"},"type":"Feature","geometry":null},{"properties":{"city":"Oneonta","geo_score":0.0,"id":"aggq3znvfw0d","geo_precision":"unmatched","state":"New York"},"type":"Feature","geometry":null},{"properties":{"city":"Palestine","geo_score":0.0,"id":"aggq3zq04h3a","geo_precision":"unmatched","state":"Texas"},"type":"Feature","geometry":null},{"properties":{"city":"Picayune","geo_score":0.0,"id":"aggq3zqskgg9","geo_precision":"unmatched","state":"Mississippi"},"type":"Feature","geometry":null},{"properties":{"city":"Port Arthur","geo_score":0.0,"id":"aggq3zkq0w1n","geo_precision":"unmatched","state":"Texas"},"type":"Feature","geometry":null},{"properties":{"city":"Richmond","geo_score":0.0,"id":"aggq3zw76i9n","geo_precision":"unmatched","state":"Kentucky"},"type":"Feature","geometry":null},{"properties":{"city":"Salem","geo_score":0.857,"id":"aggq3zo3nohu","geo_precision":"zip","state":"Massachusetts"},"type":"Feature","geometry":{"type":"Point","coordinates":[-7.86,31.75]}},{"properties":{"city":"San Marcos","geo_score":0.0,"id":"aggq3ztjh0dm","geo_precision":"unmatched","state":"Texas"},"type":"Feature","geometry":null},{"properties":{"city":"Sharon","geo_score":0.0,"id":"aggq3zp8w6s3","geo_precision":"unmatched","state":"Pennsylvania"},"type":"Feature","geometry":null},{"properties":{"city":"Somerset","geo_score":0.0,"id":"aggq3zrwrelr","geo_precision":"unmatched","state":"Kentucky"},"type":"Feature","geometry":null},{"properties":{"city":"Stillwater","geo_score":0.0,"id":"aggq3zu0vcsu","geo_precision":"unmatched","state":"Oklahoma"},"type":"Feature","geometry":null},{"properties":{"city":"Tarboro","geo_score":0.0,"id":"aggq3zjuoe5p","geo_precision":"unmatched","state":"North Carolina"},"type":"Feature","geometry":null},{"properties":{"city":"Thomasville","geo_score":0.0,"id":"aggq3zxtq718","geo_precision":"unmatched","state":"Georgia"},"type":"Feature","geometry":null},{"properties":{"city":"Tifton","geo_score":0.0,"id":"aggq3zwa167w","geo_precision":"unmatched","state":"Georgia"},"type":"Feature","geometry":null},{"properties":{"city":"Washington","geo_score":0.0,"id":"aggq3zmj33xv","geo_precision":"unmatched","state":"Indiana"},"type":"Feature","geometry":null},{"properties":{"city":"Weatherford","geo_score":0.0,"id":"aggq3zo0u7g4","geo_precision":"unmatched","state":"Texas"},"type":"Feature","geometry":null},{"properties":{"city":"Hanover","geo_score":0.0,"id":"aggq3zy4o2bc","geo_precision":"unmatched","state":"Pennsylvania"},"type":"Feature","geometry":null},{"properties":{"city":"Lebanon","geo_score":0.0,"id":"aggq3zvmv6b6","geo_precision":"unmatched","state":"Pennsylvania"},"type":"Feature","geometry":null},{"properties":{"city":"Chambersburg","geo_score":0.857,"id":"aggq3zmcbdv0","geo_precision":"zip","state":"Pennsylvania"},"type":"Feature","geometry":{"type":"Point","coordinates":[-78.95,9.2166667]}},{"properties":{"city":"Levittown","geo_score":0.0,"id":"aggq3zxwd56c","geo_precision":"unmatched","state":"Pennsylvania"},"type":"Feature","geometry":null},{"properties":{"city":"Galveston","geo_score":0.0,"id":"aggq3zkfo2fs","geo_precision":"unmatched","state":"Texas"},"type":"Feature","geometry":null},{"properties":{"city":"Peoria","geo_score":0.0,"id":"aggq3zlm6flp","geo_precision":"unmatched","state":"Illinois"},"type":"Feature","geometry":null},{"properties":{"city":"Canton","geo_score":0.0,"id":"aggq3znfec3p","geo_precision":"unmatched","state":"Ohio"},"type":"Feature","geometry":null},{"properties":{"city":"Utica","geo_score":0.0,"id":"aggq3zjhcdxt","geo_precision":"unmatched","state":"New York"},"type":"Feature","geometry":null},{"properties":{"city":"Norwich","geo_score":0.0,"id":"aggq3zjrb0ae","geo_precision":"unmatched","state":"Connecticut"},"type":"Feature","geometry":null},{"properties":{"city":"Canandaigua","geo_score":0.0,"id":"aggq3zlcdjgu","geo_precision":"unmatched","state":"New York"},"type":"Feature","geometry":null},{"properties":{"city":"New Philadelphia","geo_score":0.0,"id":"aggq3zpg3ht1","geo_precision":"unmatched","state":"Ohio"},"type":"Feature","geometry":null},{"properties":{"city":"Massillon","geo_score":0.0,"id":"aggq3zja28ur","geo_precision":"unmatched","state":"Ohio"},"type":"Feature","geometry":null},{"properties":{"city":"Herkimer","geo_score":0.0,"id":"aggq3zwp3v75","geo_precision":"unmatched","state":"New York"},"type":"Feature","geometry":null},{"properties":{"city":"Little Falls","geo_score":0.0,"id":"aggq3zp4jl09","geo_precision":"unmatched","state":"New York"},"type":"Feature","geometry":null},{"properties":{"city":"Springfield","geo_score":0.0,"id":"aggq3zmqrbum","geo_precision":"unmatched","state":"Illinois"},"type":"Feature","geometry":null},{"properties":{"city":"Boston","geo_score":0.857,"id":"aggq3zygxv8u","geo_precision":"zip","state":"Massachusetts"},"type":"Feature","geometry":{"type":"Point","coordinates":[-4.23,34.11]}},{"properties":{"city":"Holland","geo_score":0.0,"id":"aggq3zrcdcbv","geo_precision":"unmatched","state":"Michigan"},"type":"Feature","geometry":null},{"properties":{"city":"Downers Grove","geo_score":0.0,"id":"aggq3zmuhxc3","geo_precision":"unmatched","state":"Illinois"},"type":"Feature","geometry":null},{"properties":{"city":"Freeport","geo_score":0.0,"id":"aggq3zweqn2v","geo_precision":"unmatched","state":"Illinois"},"type":"Feature","geometry":null},{"properties":{"city":"Lincoln","geo_score":0.0,"id":"aggq3zjtamqw","geo_precision":"unmatched","state":"Illinois"},"type":"Feature","geometry":null},{"properties":{"city":"Arlington Heights","geo_score":0.0,"id":"aggq3zqaogh1","geo_precision":"unmatched","state":"Illinois"},"type":"Feature","geometry":null},{"properties":{"city":"Maryville","geo_score":0.0,"id":"aggq3zsuyyc5","geo_precision":"unmatched","state":"Missouri"},"type":"Feature","geometry":null},{"properties":{"city":"Benton","geo_score":0.0,"id":"aggq3zph1vb1","geo_precision":"unmatched","state":"Illinois"},"type":"Feature","geometry":null},{"properties":{"city":"Canton","geo_score":0.0,"id":"aggq3zt4447m","geo_precision":"unmatched","state":"Illinois"},"type":"Feature","geometry":null},{"properties":{"city":"Honesdale","geo_score":0.0,"id":"aggq3zx22n5e","geo_precision":"unmatched","state":"Pennsylvania"},"type":"Feature","geometry":null},{"properties":{"city":"Carmi","geo_score":0.0,"id":"aggq3zkf43zm","geo_precision":"unmatched","state":"Illinois"},"type":"Feature","geometry":null},{"properties":{"city":"Crookston","geo_score":0.0,"id":"aggq3zwbabjd","geo_precision":"unmatched","state":"Minnesota"},"type":"Feature","geometry":null},{"properties":{"city":"Devils Lake","geo_score":0.0,"id":"aggq3zw2adwx","geo_precision":"unmatched","state":"North Dakota"},"type":"Feature","geometry":null},{"properties":{"city":"Du Quoin","geo_score":0.0,"id":"aggq3ztzzyor","geo_precision":"unmatched","state":"Illinois"},"type":"Feature","geometry":null},{"properties":{"city":"Harrisburg","geo_score":0.0,"id":"aggq3zy0cg4v","geo_precision":"unmatched","state":"Illinois"},"type":"Feature","geometry":null},{"properties":{"city":"Hope","geo_score":0.0,"id":"aggq3znyjpaf","geo_precision":"unmatched","state":"Arkansas"},"type":"Feature","geometry":null},{"properties":{"city":"Kewanee","geo_score":0.0,"id":"aggq3zud5uji","geo_precision":"unmatched","state":"Illinois"},"type":"Feature","geometry":null},{"properties":{"city":"Keyser","geo_score":0.0,"id":"aggq3znok1fk","geo_precision":"unmatched","state":"West Virginia"},"type":"Feature","geometry":null},{"properties":{"city":"Leavenworth","geo_score":0.0,"id":"aggq3zna92ru","geo_precision":"unmatched","state":"Kansas"},"type":"Feature","geometry":null},{"properties":{"city":"Macomb","geo_score":0.0,"id":"aggq3zpgvvke","geo_precision":"unmatched","state":"Illinois"},"type":"Feature","geometry":null},{"properties":{"city":"Marion","geo_score":0.857,"id":"aggq3zubgom7","geo_precision":"zip","state":"Illinois"},"type":"Feature","geometry":{"type":"Point","coordinates":[35.4402778,32.9888889]}},{"properties":{"city":"Maryville","geo_score":0.0,"id":"aggq3zxeig39","geo_precision":"unmatched","state":"Missouri"},"type":"Feature","geometry":null},{"properties":{"city":"Oak Ridge","geo_score":0.0,"id":"aggq3zyb95vt","geo_precision":"unmatched","state":"Tennessee"},"type":"Feature","geometry":null},{"properties":{"city":"Olney","geo_score":0.0,"id":"aggq3zndsi9f","geo_precision":"unmatched","state":"Illinois"},"type":"Feature","geometry":null},{"properties":{"city":"Pontiac","geo_score":0.0,"id":"aggq3zsbjxa2","geo_precision":"unmatched","state":"Illinois"},"type":"Feature","geometry":null},{"properties":{"city":"Ridgecrest","geo_score":0.0,"id":"aggq3zi66ex0","geo_precision":"unmatched","state":"California"},"type":"Feature","geometry":null},{"properties":{"city":"Waynesboro","geo_score":0.0,"id":"aggq3zmzdf5q","geo_precision":"unmatched","state":"Pennsylvania"},"type":"Feature","geometry":null},{"properties":{"city":"Waynesville","geo_score":0.0,"id":"aggq3zsk66uu","geo_precision":"unmatched","state":"Missouri"},"type":"Feature","geometry":null},{"properties":{"city":"Wellington","geo_score":0.0,"id":"aggq3zk48yh2","geo_precision":"unmatched","state":"Kansas"},"type":"Feature","geometry":null},{"properties":{"city":"West Frankfort","geo_score":0.0,"id":"aggq3zrgzzoy","geo_precision":"unmatched","state":"Illinois"},"type":"Feature","geometry":null},{"properties":{"city":"Davenport","geo_score":0.0,"id":"aggq3ztm7063","geo_precision":"unmatched","state":"Iowa"},"type":"Feature","geometry":null},{"properties":{"city":"Americus","geo_score":0.0,"id":"aggq3zqo0mbt","geo_precision":"unmatched","state":"Georgia"},"type":"Feature","geometry":null},{"properties":{"city":"Cordele","geo_score":0.0,"id":"aggq3zqf7v9n","geo_precision":"unmatched","state":"Georgia"},"type":"Feature","geometry":null},{"properties":{"city":"Gardendale","geo_score":0.0,"id":"aggq3zvj8ybk","geo_precision":"unmatched","state":"Alabama"},"type":"Feature","geometry":null},{"properties":{"city":"Live Oak","geo_score":0.0,"id":"aggq3zv4uynq","geo_precision":"unmatched","state":"Florida"},"type":"Feature","geometry":null},{"properties":{"city":"Pell City","geo_score":0.857,"id":"aggq3zsdk66m","geo_precision":"zip","state":"Alabama"},"type":"Feature","geometry":{"type":"Point","coordinates":[20.0511111,39.8505556]}},{"properties":{"city":"Albemarle","geo_score":0.0,"id":"aggq3zwz4uxb","geo_precision":"unmatched","state":"North Carolina"},"type":"Feature","geometry":null},{"properties":{"city":"London","geo_score":0.0,"id":"aggq3zj9nayk","geo_precision":"unmatched","state":"Kentucky"},"type":"Feature","geometry":null},{"properties":{"city":"Crossville","geo_score":0.0,"id":"aggq3zmylqpi","geo_precision":"unmatched","state":"Tennessee"},"type":"Feature","geometry":null},{"properties":{"city":"Edmond","geo_score":0.0,"id":"aggq3zyiaabd","geo_precision":"unmatched","state":"Oklahoma"},"type":"Feature","geometry":null},{"properties":{"city":"Kosciusko","geo_score":0.0,"id":"aggq3zplw3wl","geo_precision":"unmatched","state":"Mississippi"},"type":"Feature","geometry":null},{"properties":{"city":"Brookfield","geo_score":0.0,"id":"aggq3zwv7bxs","geo_precision":"unmatched","state":"Missouri"},"type":"Feature","geometry":null},{"properties":{"city":"Kirksville","geo_score":0.0,"id":"aggq3zu83hxx","geo_precision":"unmatched","state":"Missouri"},"type":"Feature","geometry":null},{"properties":{"city":"Pekin","geo_score":0.0,"id":"aggq3ztovtni","geo_precision":"unmatched","state":"Illinois"},"type":"Feature","geometry":null},{"properties":{"city":"Adrian","geo_score":0.0,"id":"aggq3zyj3dey","geo_precision":"unmatched","state":"Michigan"},"type":"Feature","geometry":null},{"properties":{"city":"Coldwater","geo_score":0.0,"id":"aggq3znxatys","geo_precision":"unmatched","state":"Michigan"},"type":"Feature","geometry":null},{"properties":{"city":"Hillsdale","geo_score":0.0,"id":"aggq3zouv7f2","geo_precision":"unmatched","state":"Michigan"},"type":"Feature","geometry":null},{"properties":{"city":"Sturgis","geo_score":0.0,"id":"aggq3zw01cv0","geo_precision":"unmatched","state":"Michigan"},"type":"Feature","geometry":null},{"properties":{"city":"Camdenton","geo_score":0.0,"id":"aggq3zsjaimj","geo_precision":"unmatched","state":"Missouri"},"type":"Feature","geometry":null},{"properties":{"city":"Ardmore","geo_score":0.0,"id":"aggq3zwztmtz","geo_precision":"unmatched","state":"Oklahoma"},"type":"Feature","geometry":null},{"properties":{"city":"Shawnee","geo_score":0.0,"id":"aggq3zr1fa6n","geo_precision":"unmatched","state":"Oklahoma"},"type":"Feature","geometry":null},{"properties":{"city":"Galesburg","geo_score":0.0,"id":"aggq3zq5dli4","geo_precision":"unmatched","state":"Illinois"},"type":"Feature","geometry":null},{"properties":{"city":"Brockton","geo_score":0.0,"id":"aggq3zsje5w8","geo_precision":"unmatched","state":"Massachusetts"},"type":"Feature","geometry":null},{"properties":{"city":"Fall River","geo_score":0.0,"id":"aggq3zvor3mf","geo_precision":"unmatched","state":"Massachusetts"},"type":"Feature","geometry":null},{"properties":{"city":"Framingham","geo_score":0.0,"id":"aggq3zrvgaou","geo_precision":"unmatched","state":"Massachusetts"},"type":"Feature","geometry":null},{"properties":{"city":"Milford","geo_score":0.0,"id":"aggq3zv99iwg","geo_precision":"unmatched","state":"Massachusetts"},"type":"Feature","geometry":null},{"properties":{"city":"Quincy","geo_score":0.0,"id":"aggq3zpmlai6","geo_precision":"unmatched","state":"Massachusetts"},"type":"Feature","geometry":null},{"properties":{"city":"Taunton","geo_score":0.857,"id":"aggq3zxym2k2","geo_precision":"zip","state":"Massachusetts"},"type":"Feature","geometry":{"type":"Point","coordinates":[-9.43,29.33]}},{"properties":{"city":"Independence","geo_score":0.0,"id":"aggq3zs2njvy","geo_precision":"unmatched","state":"Missouri"},"type":"Feature","geometry":null},{"properties":{"city":"Corning","geo_score":0.0,"id":"aggq3ztepl5f","geo_precision":"unmatched","state":"New York"},"type":"Feature","geometry":null},{"properties":{"city":"Hornell","geo_score":0.0,"id":"aggq3zpy14iy","geo_precision":"unmatched","state":"New York"},"type":"Feature","geometry":null},{"properties":{"city":"Orange","geo_score":0.0,"id":"aggq3zo93ygz","geo_precision":"unmatched","state":"Texas"},"type":"Feature","geometry":null},{"properties":{"city":"Pauls Valley","geo_score":0.0,"id":"aggq3znyc28j","geo_precision":"unmatched","state":"Oklahoma"},"type":"Feature","geometry":null},{"properties":{"city":"Munster","geo_score":0.857,"id":"aggq3zu34ner","geo_precision":"zip","state":"Indiana"},"type":"Feature","geometry":{"type":"Point","coordinates":[88.6019,27.3319]}},{"properties":{"city":"Madison","geo_score":0.0,"id":"aggq3zk9ieg4","geo_precision":"unmatched","state":"Wisconsin"},"type":"Feature","geometry":null},{"properties":{"city":"Tucson","geo_score":0.0,"id":"aggq3zlu5xum","geo_precision":"unmatched","state":"Arizona"},"type":"Feature","geometry":null},{"properties":{"city":"Lincoln","geo_score":0.857,"id":"aggq3zojimaq","geo_precision":"zip","state":"Nebraska"},"type":"Feature","geometry":{"type":"Point","coordinates":[1.2033,13.6944]}},{"properties":{"city":"Billings","geo_score":0.0,"id":"aggq3zizka97","geo_precision":"unmatched","state":"Montana"},"type":"Feature","geometry":null},{"properties":{"city":"Bloomington","geo_score":0.0,"id":"aggq3zj30rht","geo_precision":"unmatched","state":"Illinois"},"type":"Feature","geometry":null},{"properties":{"city":"Decatur","geo_score":0.0,"id":"aggq3zr4thhx","geo_precision":"unmatched","state":"Illinois"},"type":"Feature","geometry":null},{"properties":{"city":"Avon","geo_score":0.857,"id":"aggq3znjspbw","geo_precision":"zip","state":"Indiana"},"type":"Feature","geometry":{"type":"Point","coordinates":[76.1166667,33.2833333]}},{"properties":{"city":"Batesville","geo_score":0.0,"id":"aggq3zlazndn","geo_precision":"unmatched","state":"Indiana"},"type":"Feature","geometry":null},{"properties":{"city":"Rushville","geo_score":0.857,"id":"aggq3zjfu91g","geo_precision":"zip","state":"Indiana"},"type":"Feature","geometry":{"type":"Point","coordinates":[78.5,14.95]}},{"properties":{"city":"Melbourne","geo_score":0.0,"id":"aggq3zrv3u6q","geo_precision":"unmatched","state":"Florida"},"type":"Feature","geometry":null},{"properties":{"city":"Fort Myers","geo_score":0.0,"id":"aggq3zlcn4iw","geo_precision":"unmatched","state":"Florida"},"type":"Feature","geometry":null},{"properties":{"city":"White Plains","geo_score":0.0,"id":"aggq3zifeqqv","geo_precision":"unmatched","state":"New York"},"type":"Feature","geometry":null},{"properties":{"city":"Shreveport","geo_score":0.0,"id":"aggq3zl7oa13","geo_precision":"unmatched","state":"Louisiana"},"type":"Feature","geometry":null},{"properties":{"city":"Charleston","geo_score":0.0,"id":"aggq3zuaq9do","geo_precision":"unmatched","state":"South Carolina"},"type":"Feature","geometry":null},{"properties":{"city":"Howell","geo_score":0.0,"id":"aggq3zo2999a","geo_precision":"unmatched","state":"New Jersey"},"type":"Feature","geometry":null},{"properties":{"city":"Jackson","geo_score":0.0,"id":"aggq3zlr2z08","geo_precision":"unmatched","state":"Mississippi"},"type":"Feature","geometry":null},{"properties":{"city":"Burlington","geo_score":0.0,"id":"aggq3zjmz4ae","geo_precision":"unmatched","state":"Vermont"},"type":"Feature","geometry":null},{"properties":{"city":"Tallahassee","geo_score":0.0,"id":"aggq3zxxwl68","geo_precision":"unmatched","state":"Florida"},"type":"Feature","geometry":null},{"properties":{"city":"Springfield","geo_score":0.0,"id":"aggq3zrw94gb","geo_precision":"unmatched","state":"Missouri"},"type":"Feature","geometry":null},{"properties":{"city":"New Castle","geo_score":0.857,"id":"aggq3zvfh1rb","geo_precision":"zip","state":"Delaware"},"type":"Feature","geometry":{"type":"Point","coordinates":[11.2833333,50.2333333]}},{"properties":{"city":"Palm Springs","geo_score":0.857,"id":"aggq3zju25yo","geo_precision":"zip","state":"California"},"type":"Feature","geometry":{"type":"Point","coordinates":[-139.887340619,61.116038814]}},{"properties":{"city":"Lansing","geo_score":0.0,"id":"aggq3zrjmq1e","geo_precision":"unmatched","state":"Michigan"},"type":"Feature","geometry":null},{"properties":{"city":"Binghamton","geo_score":0.0,"id":"aggq3zo0tfpo","geo_precision":"unmatched","state":"New York"},"type":"Feature","geometry":null},{"properties":{"city":"Elmira","geo_score":0.0,"id":"aggq3zl5rtqm","geo_precision":"unmatched","state":"New York"},"type":"Feature","geometry":null},{"properties":{"city":"Ithaca","geo_score":0.0,"id":"aggq3zxtrz2u","geo_precision":"unmatched","state":"New York"},"type":"Feature","geometry":null},{"properties":{"city":"Reno","geo_score":0.0,"id":"aggq3zsorjo9","geo_precision":"unmatched","state":"Nevada"},"type":"Feature","geometry":null},{"properties":{"city":"Cherry Hill","geo_score":0.0,"id":"aggq3zt5ju21","geo_precision":"unmatched","state":"New Jersey"},"type":"Feature","geometry":null},{"properties":{"city":"Pensacola","geo_score":0.0,"id":"aggq3zrz9cym","geo_precision":"unmatched","state":"Florida"},"type":"Feature","geometry":null},{"properties":{"city":"Appleton","geo_score":0.0,"id":"aggq3zqaq3tg","geo_precision":"unmatched","state":"Wisconsin"},"type":"Feature","geometry":null},{"properties":{"city":"Fond du Lac","geo_score":0.0,"id":"aggq3znryc0h","geo_precision":"unmatched","state":"Wisconsin"},"type":"Feature","geometry":null},{"properties":{"city":"Green Bay","geo_score":0.0,"id":"aggq3zifsof4","geo_precision":"unmatched","state":"Wisconsin"},"type":"Feature","geometry":null},{"properties":{"city":"Manitowoc","geo_score":0.0,"id":"aggq3ziqdt6v","geo_precision":"unmatched","state":"Wisconsin"},"type":"Feature","geometry":null},{"properties":{"city":"Oshkosh","geo_score":0.0,"id":"aggq3zjvs4a7","geo_precision":"unmatched","state":"Wisconsin"},"type":"Feature","geometry":null},{"properties":{"city":"Sheboygan","geo_score":0.0,"id":"aggq3zw2s2l6","geo_precision":"unmatched","state":"Wisconsin"},"type":"Feature","geometry":null},{"properties":{"city":"Asheville","geo_score":0.0,"id":"aggq3zrsckrp","geo_precision":"unmatched","state":"North Carolina"},"type":"Feature","geometry":null},{"properties":{"city":"Newark","geo_score":0.0,"id":"aggq3zy1w510","geo_precision":"unmatched","state":"Ohio"},"type":"Feature","geometry":null},{"properties":{"city":"Chillicothe","geo_score":0.0,"id":"aggq3zm0quk7","geo_precision":"unmatched","state":"Ohio"},"type":"Feature","geometry":null},{"properties":{"city":"Bucyrus","geo_score":0.0,"id":"aggq3zk9vl9d","geo_precision":"unmatched","state":"Ohio"},"type":"Feature","geometry":null},{"properties":{"city":"Coshocton","geo_score":0.0,"id":"aggq3zw1oamp","geo_precision":"unmatched","state":"Ohio"},"type":"Feature","geometry":null},{"properties":{"city":"Fremont","geo_score":0.0,"id":"aggq3zi9hl37","geo_precision":"unmatched","state":"Ohio"},"type":"Feature","geometry":null},{"properties":{"city":"Lancaster","geo_score":0.0,"id":"aggq3zxqfzng","geo_precision":"unmatched","state":"Ohio"},"type":"Feature","geometry":null},{"properties":{"city":"Mansfield","geo_score":0.0,"id":"aggq3zpkuiqa","geo_precision":"unmatched","state":"Ohio"},"type":"Feature","geometry":null},{"properties":{"city":"Marion","geo_score":0.0,"id":"aggq3zkxwigb","geo_precision":"unmatched","state":"Ohio"},"type":"Feature","geometry":null},{"properties":{"city":"Port Clinton","geo_score":0.0,"id":"aggq3zk7211l","geo_precision":"unmatched","state":"Ohio"},"type":"Feature","geometry":null},{"properties":{"city":"Zanesville","geo_score":0.0,"id":"aggq3zl5vtya","geo_precision":"unmatched","state":"Ohio"},"type":"Feature","geometry":null},{"properties":{"city":"Lafayette","geo_score":0.0,"id":"aggq3zscquzf","geo_precision":"unmatched","state":"Louisiana"},"type":"Feature","geometry":null},{"properties":{"city":"Lubbock","geo_score":0.0,"id":"aggq3zjfus3z","geo_precision":"unmatched","state":"Texas"},"type":"Feature","geometry":null},{"properties":{"city":"Tucson","geo_score":0.0,"id":"aggq3zxknp5h","geo_precision":"unmatched","state":"Arizona"},"type":"Feature","geometry":null},{"properties":{"city":"Fort Myers","geo_score":0.0,"id":"aggq3ztrbf4r","geo_precision":"unmatched","state":"Florida"},"type":"Feature","geometry":null},{"properties":{"city":"Tampa","geo_score":0.0,"id":"aggq3zp5mabh","geo_precision":"unmatched","state":"Florida"},"type":"Feature","geometry":null},{"properties":{"city":"West Palm Beach","geo_score":0.0,"id":"aggq3ztpuuz8","geo_precision":"unmatched","state":"Florida"},"type":"Feature","geometry":null},{"properties":{"city":"Columbus","geo_score":0.0,"id":"aggq3zlqyslm","geo_precision":"unmatched","state":"Ohio"},"type":"Feature","geometry":null},{"properties":{"city":"Honolulu","geo_score":0.0,"id":"aggq3zuiagfi","geo_precision":"unmatched","state":"Hawaii"},"type":"Feature","geometry":null},{"properties":{"city":"Cedar Rapids","geo_score":0.0,"id":"aggq3zvgmhyv","geo_precision":"unmatched","state":"Iowa"},"type":"Feature","geometry":null},{"properties":{"city":"Davenport","geo_score":0.0,"id":"aggq3zxbt74f","geo_precision":"unmatched","state":"Iowa"},"type":"Feature","geometry":null},{"properties":{"city":"Paducah","geo_score":0.0,"id":"aggq3zmzq169","geo_precision":"unmatched","state":"Kentucky"},"type":"Feature","geometry":null},{"properties":{"city":"Indianapolis","geo_score":0.0,"id":"aggq3znwr5qm","geo_precision":"unmatched","state":"Indiana"},"type":"Feature","geometry":null},{"properties":{"city":"South Bend","geo_score":0.857,"id":"aggq3znv3jbr","geo_precision":"zip","state":"Indiana"},"type":"Feature","geometry":{"type":"Point","coordinates":[75.8333333,25.5]}},{"properties":{"city":"Portland","geo_score":0.0,"id":"aggq3zk3ykmm","geo_precision":"unmatched","state":"Maine"},"type":"Feature","geometry":null},{"properties":{"city":"Cadillac","geo_score":0.0,"id":"aggq3zumq3fb","geo_precision":"unmatched","state":"Michigan"},"type":"Feature","geometry":null},{"properties":{"city":"Minneapolis - Saint Paul","geo_score":0.857,"id":"aggq3zrsz6dr","geo_precision":"zip","state":"Minnesota"},"type":"Feature","geometry":{"type":"Point","coordinates":[103.839340209961,46.0860906404336]}},{"properties":{"city":"Jackson","geo_score":0.0,"id":"aggq3zvy7wh8","geo_precision":"unmatched","state":"Mississippi"},"type":"Feature","geometry":null},{"properties":{"city":"Butte","geo_score":0.0,"id":"aggq3zj48qfv","geo_precision":"unmatched","state":"Montana"},"type":"Feature","geometry":null},{"properties":{"city":"Missoula","geo_score":0.0,"id":"aggq3zpqplzp","geo_precision":"unmatched","state":"Montana"},"type":"Feature","geometry":null},{"properties":{"city":"Greensboro","geo_score":0.0,"id":"aggq3zi2oqiy","geo_precision":"unmatched","state":"North Carolina"},"type":"Feature","geometry":null},{"properties":{"city":"Greenville","geo_score":0.0,"id":"aggq3zswny1a","geo_precision":"unmatched","state":"South Carolina"},"type":"Feature","geometry":null},{"properties":{"city":"Greenville","geo_score":0.0,"id":"aggq3zvvuetk","geo_precision":"unmatched","state":"North Carolina"},"type":"Feature","geometry":null},{"properties":{"city":"Omaha","geo_score":0.0,"id":"aggq3zm0npi0","geo_precision":"unmatched","state":"Nebraska"},"type":"Feature","geometry":null},{"properties":{"city":"Toledo","geo_score":0.0,"id":"aggq3zpw0csz","geo_precision":"unmatched","state":"Ohio"},"type":"Feature","geometry":null},{"properties":{"city":"Tulsa","geo_score":0.0,"id":"aggq3zlk4niy","geo_precision":"unmatched","state":"Oklahoma"},"type":"Feature","geometry":null},{"properties":{"city":"Harrisburg","geo_score":0.0,"id":"aggq3zx23lq9","geo_precision":"unmatched","state":"Pennsylvania"},"type":"Feature","geometry":null},{"properties":{"city":"Wilkes-Barre","geo_score":0.0,"id":"aggq3ziudbyr","geo_precision":"unmatched","state":"Pennsylvania"},"type":"Feature","geometry":null},{"properties":{"city":"Chattanooga","geo_score":0.857,"id":"aggq3znwpab4","geo_precision":"zip","state":"Tennessee"},"type":"Feature","geometry":{"type":"Point","coordinates":[8.7847222,33.7575]}},{"properties":{"city":"Knoxville","geo_score":0.0,"id":"aggq3zn8ykhb","geo_precision":"unmatched","state":"Tennessee"},"type":"Feature","geometry":null},{"properties":{"city":"Nashville","geo_score":0.0,"id":"aggq3zl0hp0w","geo_precision":"unmatched","state":"Tennessee"},"type":"Feature","geometry":null},{"properties":{"city":"Tri-Cities","geo_score":0.857,"id":"aggq3zts0esd","geo_precision":"zip","state":"Tennessee"},"type":"Feature","geometry":{"type":"Point","coordinates":[10.2869444,35.7316667]}},{"properties":{"city":"McAllen","geo_score":0.0,"id":"aggq3zwbu20f","geo_precision":"unmatched","state":"Texas"},"type":"Feature","geometry":null},{"properties":{"city":"Waco","geo_score":0.0,"id":"aggq3zvj8bjd","geo_precision":"unmatched","state":"Texas"},"type":"Feature","geometry":null},{"properties":{"city":"Norfolk","geo_score":0.0,"id":"aggq3zklg9w2","geo_precision":"unmatched","state":"Virginia"},"type":"Feature","geometry":null},{"properties":{"city":"Richmond","geo_score":0.0,"id":"aggq3zpwq3v7","geo_precision":"unmatched","state":"Virginia"},"type":"Feature","geometry":null},{"properties":{"city":"Roanoke","geo_score":0.0,"id":"aggq3zovq7qw","geo_precision":"unmatched","state":"Virginia"},"type":"Feature","geometry":null},{"properties":{"city":"Burlington","geo_score":0.0,"id":"aggq3zrnempo","geo_precision":"unmatched","state":"Vermont"},"type":"Feature","geometry":null},{"properties":{"city":"Madison","geo_score":0.0,"id":"aggq3zqvqpye","geo_precision":"unmatched","state":"Wisconsin"},"type":"Feature","geometry":null},{"properties":{"city":"Charleston","geo_score":0.0,"id":"aggq3zplcguf","geo_precision":"unmatched","state":"West Virginia"},"type":"Feature","geometry":null},{"properties":{"city":"Santa Rosa","geo_score":0.857,"id":"aggq3znoxuwq","geo_precision":"zip","state":"California"},"type":"Feature","geometry":{"type":"Point","coordinates":[-82.733162269,45.766767706]}},{"properties":{"city":"Atlanta","geo_score":0.0,"id":"aggq3zw3str7","geo_precision":"unmatched","state":"Georgia"},"type":"Feature","geometry":null},{"properties":{"city":"Costa Mesa","geo_score":0.857,"id":"aggq3zssdhmj","geo_precision":"zip","state":"California"},"type":"Feature","geometry":{"type":"Point","coordinates":[-123.886001997,49.049630101]}},{"properties":{"city":"Los Angeles","geo_score":0.857,"id":"aggq3zk1lhyy","geo_precision":"zip","state":"California"},"type":"Feature","geometry":{"type":"Point","coordinates":[-73.734174418,46.256476309]}},{"properties":{"city":"Montgomery","geo_score":0.0,"id":"aggq3ztdxjjy","geo_precision":"unmatched","state":"Alabama"},"type":"Feature","geometry":null},{"properties":{"city":"Lafayette","geo_score":0.0,"id":"aggq3zxy807l","geo_precision":"unmatched","state":"Indiana"},"type":"Feature","geometry":null},{"properties":{"city":"Poughkeepsie","geo_score":0.0,"id":"aggq3zwwvm2j","geo_precision":"unmatched","state":"New York"},"type":"Feature","geometry":null},{"properties":{"city":"St. Cloud","geo_score":0.857,"id":"aggq3zr3cbi3","geo_precision":"zip","state":"Minnesota"},"type":"Feature","geometry":{"type":"Point","coordinates":[100.143985748291,46.6917237238042]}},{"properties":{"city":"Tiffin","geo_score":0.0,"id":"aggq3zxsf5vu","geo_precision":"unmatched","state":"Ohio"},"type":"Feature","geometry":null},{"properties":{"city":"Edwardsville","geo_score":0.0,"id":"aggq3zxp9dlm","geo_precision":"unmatched","state":"Illinois"},"type":"Feature","geometry":null},{"properties":{"city":"Midland","geo_score":0.0,"id":"aggq3zw3axoq","geo_precision":"unmatched","state":"Texas"},"type":"Feature","geometry":null},{"properties":{"city":"Plainview","geo_score":0.0,"id":"aggq3ziwiann","geo_precision":"unmatched","state":"Texas"},"type":"Feature","geometry":null},{"properties":{"city":"Waterloo","geo_score":0.0,"id":"aggq3zsds8b9","geo_precision":"unmatched","state":"Iowa"},"type":"Feature","geometry":null},{"properties":{"city":"Glens Falls","geo_score":0.0,"id":"aggq3zs60cw3","geo_precision":"unmatched","state":"New York"},"type":"Feature","geometry":null},{"properties":{"city":"Missoula","geo_score":0.0,"id":"aggq3zoijntt","geo_precision":"unmatched","state":"Montana"},"type":"Feature","geometry":null},{"properties":{"city":"Carbondale","geo_score":0.0,"id":"aggq3zni2hew","geo_precision":"unmatched","state":"Illinois"},"type":"Feature","geometry":null},{"properties":{"city":"Bismarck","geo_score":0.0,"id":"aggq3zl6p7dz","geo_precision":"unmatched","state":"North Dakota"},"type":"Feature","geometry":null},{"properties":{"city":"Racine","geo_score":0.0,"id":"aggq3zjdtp23","geo_precision":"unmatched","state":"Wisconsin"},"type":"Feature","geometry":null},{"properties":{"city":"Harrisonburg","geo_score":0.0,"id":"aggq3zr6jowc","geo_precision":"unmatched","state":"Virginia"},"type":"Feature","geometry":null},{"properties":{"city":"Winchester","geo_score":0.0,"id":"aggq3zoap3sg","geo_precision":"unmatched","state":"Virginia"},"type":"Feature","geometry":null},{"properties":{"city":"Shelbyville","geo_score":0.0,"id":"aggq3zvqh7ss","geo_precision":"unmatched","state":"Illinois"},"type":"Feature","geometry":null},{"properties":{"city":"Bridgewater","geo_score":0.0,"id":"aggq3zn2d80l","geo_precision":"unmatched","state":"New Jersey"},"type":"Feature","geometry":null},{"properties":{"city":"Great Falls","geo_score":0.857,"id":"aggq3zxd6ibe","geo_precision":"zip","state":"Montana"},"type":"Feature","geometry":{"type":"Point","coordinates":[14.3180556,36.0488889]}},{"properties":{"city":"Iowa City","geo_score":0.0,"id":"aggq3zr2khcz","geo_precision":"unmatched","state":"Iowa"},"type":"Feature","geometry":null},{"properties":{"city":"Jackson","geo_score":0.0,"id":"aggq3zpjifde","geo_precision":"unmatched","state":"Tennessee"},"type":"Feature","geometry":null},{"properties":{"city":"Monroe","geo_score":0.0,"id":"aggq3zvknlw1","geo_precision":"unmatched","state":"Louisiana"},"type":"Feature","geometry":null},{"properties":{"city":"Morristown","geo_score":0.0,"id":"aggq3zkadany","geo_precision":"unmatched","state":"New Jersey"},"type":"Feature","geometry":null},{"properties":{"city":"Salisbury","geo_score":0.0,"id":"aggq3zp4tp8b","geo_precision":"unmatched","state":"Maryland"},"type":"Feature","geometry":null},{"properties":{"city":"Vineland","geo_score":0.0,"id":"aggq3zpqmama","geo_precision":"unmatched","state":"New Jersey"},"type":"Feature","geometry":null},{"properties":{"city":"Opelousas","geo_score":0.0,"id":"aggq3zoy5t0y","geo_precision":"unmatched","state":"Louisiana"},"type":"Feature","geometry":null},{"properties":{"city":"Hattiesburg","geo_score":0.0,"id":"aggq3zxnll6v","geo_precision":"unmatched","state":"Mississippi"},"type":"Feature","geometry":null},{"properties":{"city":"Port Huron","geo_score":0.0,"id":"aggq3zwxwoy7","geo_precision":"unmatched","state":"Michigan"},"type":"Feature","geometry":null},{"properties":{"city":"Alexandria","geo_score":0.0,"id":"aggq3zv7qi5t","geo_precision":"unmatched","state":"Louisiana"},"type":"Feature","geometry":null},{"properties":{"city":"Muncie","geo_score":0.857,"id":"aggq3zl3gh6c","geo_precision":"zip","state":"Indiana"},"type":"Feature","geometry":{"type":"Point","coordinates":[72.6666667,23.4333333]}},{"properties":{"city":"Visalia","geo_score":0.857,"id":"aggq3zmjxltj","geo_precision":"zip","state":"California"},"type":"Feature","geometry":{"type":"Point","coordinates":[-77.649491274,48.783483746]}},{"properties":{"city":"Salinas","geo_score":0.0,"id":"aggq3zlfva9s","geo_precision":"unmatched","state":"California"},"type":"Feature","geometry":null},{"properties":{"city":"Battle Creek","geo_score":0.0,"id":"aggq3zunlb3u","geo_precision":"unmatched","state":"Michigan"},"type":"Feature","geometry":null}],"is_temporal":false,"author":{"url":"","metadata":null,"contact_name":null,"contact_address":null,"source":null,"contact_phone":null},"source":"","pagination":{"sort":null,"start":0,"total":419,"limit":1000000},"state":"complete","tags":"","published":"2014-08-16T20:30:06-04:00","id":386241}