{"type":"FeatureCollection","data_type":"Dataset","url_type":null,"permissions":[{"permissions":{"download":true,"view":true},"group_id":"everyone"}],"classification":null,"title":"findnsavefootprintcsvformat","count":419,"stream_id":386240,"contributor":{"url":"http://geocommons.com/users/79852","name":"jweber"},"data_attributes":null,"calculation_params":null,"icon_link":null,"link":"http://geocommons.com/overlays/386240.json","extent":[-139.887,0.233333,104.15,79.9853],"geometry_types":["point"],"unique_name":null,"name":"findnsavefootprintcsvformat","feature_count":419,"description":"","next_feature":null,"is_raster":false,"short_classification":"Y","stats":{},"features":[{"properties":{"city":"Charlotte","geo_score":0.0,"id":"aggq2gjtawx4","geo_precision":"unmatched","state":"North Carolina"},"type":"Feature","geometry":null},{"properties":{"city":"Houston","geo_score":0.0,"id":"aggq2glsqfky","geo_precision":"unmatched","state":"Texas"},"type":"Feature","geometry":null},{"properties":{"city":"Bradenton","geo_score":0.0,"id":"aggq2gmgjk5a","geo_precision":"unmatched","state":"Florida"},"type":"Feature","geometry":null},{"properties":{"city":"Belleville","geo_score":0.0,"id":"aggq2gfs2n8r","geo_precision":"unmatched","state":"Illinois"},"type":"Feature","geometry":null},{"properties":{"city":"State College","geo_score":0.857,"id":"aggq2ghq0bdz","geo_precision":"zip","state":"Pennsylvania"},"type":"Feature","geometry":{"type":"Point","coordinates":[-81.8666667,8.9]}},{"properties":{"city":"Fort Worth","geo_score":0.0,"id":"aggq2gemnjj0","geo_precision":"unmatched","state":"Texas"},"type":"Feature","geometry":null},{"properties":{"city":"Kansas City","geo_score":0.0,"id":"aggq2gkv0tje","geo_precision":"unmatched","state":"Missouri"},"type":"Feature","geometry":null},{"properties":{"city":"Wichita","geo_score":0.0,"id":"aggq2gpzjhxg","geo_precision":"unmatched","state":"Kansas"},"type":"Feature","geometry":null},{"properties":{"city":"Lexington","geo_score":0.0,"id":"aggq2ghw0s43","geo_precision":"unmatched","state":"Kentucky"},"type":"Feature","geometry":null},{"properties":{"city":"Columbus","geo_score":0.0,"id":"aggq2gjdy0ru","geo_precision":"unmatched","state":"Georgia"},"type":"Feature","geometry":null},{"properties":{"city":"Macon","geo_score":0.857,"id":"aggq2ghfpzcs","geo_precision":"zip","state":"Georgia"},"type":"Feature","geometry":{"type":"Point","coordinates":[10.6333333,0.2333333]}},{"properties":{"city":"Miami","geo_score":0.0,"id":"aggq2gg9acyy","geo_precision":"unmatched","state":"Florida"},"type":"Feature","geometry":null},{"properties":{"city":"Myrtle Beach","geo_score":0.0,"id":"aggq2gh5zuj1","geo_precision":"unmatched","state":"South Carolina"},"type":"Feature","geometry":null},{"properties":{"city":"San Luis Obispo","geo_score":0.857,"id":"aggq2ghvvi9p","geo_precision":"zip","state":"California"},"type":"Feature","geometry":{"type":"Point","coordinates":[-73.734174418,46.256476309]}},{"properties":{"city":"Biloxi","geo_score":0.0,"id":"aggq2gfjasb9","geo_precision":"unmatched","state":"Mississippi"},"type":"Feature","geometry":null},{"properties":{"city":"Columbia","geo_score":0.0,"id":"aggq2gg16e3r","geo_precision":"unmatched","state":"South Carolina"},"type":"Feature","geometry":null},{"properties":{"city":"San Jose","geo_score":0.857,"id":"aggq2gitkeaa","geo_precision":"zip","state":"California"},"type":"Feature","geometry":{"type":"Point","coordinates":[-76.832710082,48.30017534]}},{"properties":{"city":"Providence","geo_score":0.0,"id":"aggq2gh5axcv","geo_precision":"unmatched","state":"Rhode Island"},"type":"Feature","geometry":null},{"properties":{"city":"Oakland","geo_score":0.857,"id":"aggq2gktjffh","geo_precision":"zip","state":"California"},"type":"Feature","geometry":{"type":"Point","coordinates":[-111.851794128,51.383417908]}},{"properties":{"city":"New Brunswick","geo_score":0.0,"id":"aggq2gsgayn0","geo_precision":"unmatched","state":"New Jersey"},"type":"Feature","geometry":null},{"properties":{"city":"Ann Arbor","geo_score":0.0,"id":"aggq2gtixd34","geo_precision":"unmatched","state":"Michigan"},"type":"Feature","geometry":null},{"properties":{"city":"Winston-Salem","geo_score":0.0,"id":"aggq2gdu4xkb","geo_precision":"unmatched","state":"North Carolina"},"type":"Feature","geometry":null},{"properties":{"city":"Richmond","geo_score":0.0,"id":"aggq2gi2rivs","geo_precision":"unmatched","state":"Virginia"},"type":"Feature","geometry":null},{"properties":{"city":"Tampa","geo_score":0.0,"id":"aggq2ggvb1dy","geo_precision":"unmatched","state":"Florida"},"type":"Feature","geometry":null},{"properties":{"city":"Syracuse","geo_score":0.0,"id":"aggq2ghnd1ou","geo_precision":"unmatched","state":"New York"},"type":"Feature","geometry":null},{"properties":{"city":"Harrisburg","geo_score":0.0,"id":"aggq2gehcd15","geo_precision":"unmatched","state":"Pennsylvania"},"type":"Feature","geometry":null},{"properties":{"city":"New Orleans","geo_score":0.857,"id":"aggq2gtgdqmj","geo_precision":"zip","state":"Louisiana"},"type":"Feature","geometry":{"type":"Point","coordinates":[104.15,20.6166667]}},{"properties":{"city":"Staten Island","geo_score":0.0,"id":"aggq2gpey431","geo_precision":"unmatched","state":"New York"},"type":"Feature","geometry":null},{"properties":{"city":"Easton","geo_score":0.0,"id":"aggq2gk7fsaz","geo_precision":"unmatched","state":"Pennsylvania"},"type":"Feature","geometry":null},{"properties":{"city":"Erie","geo_score":0.0,"id":"aggq2grrxrh7","geo_precision":"unmatched","state":"Pennsylvania"},"type":"Feature","geometry":null},{"properties":{"city":"Fresno","geo_score":0.857,"id":"aggq2glebjl4","geo_precision":"zip","state":"California"},"type":"Feature","geometry":{"type":"Point","coordinates":[-58.748210046,51.300121117]}},{"properties":{"city":"Bluffton","geo_score":0.0,"id":"aggq2gtzdh1r","geo_precision":"unmatched","state":"South Carolina"},"type":"Feature","geometry":null},{"properties":{"city":"Modesto","geo_score":0.857,"id":"aggq2gl5r9r5","geo_precision":"zip","state":"California"},"type":"Feature","geometry":{"type":"Point","coordinates":[-79.749646949,46.383396729]}},{"properties":{"city":"Raleigh","geo_score":0.0,"id":"aggq2gs0xxg8","geo_precision":"unmatched","state":"North Carolina"},"type":"Feature","geometry":null},{"properties":{"city":"Rock Hill","geo_score":0.0,"id":"aggq2gem94fq","geo_precision":"unmatched","state":"South Carolina"},"type":"Feature","geometry":null},{"properties":{"city":"Sacramento","geo_score":0.857,"id":"aggq2ge3igyd","geo_precision":"zip","state":"California"},"type":"Feature","geometry":{"type":"Point","coordinates":[-118.385598186,50.449832005]}},{"properties":{"city":"Tacoma","geo_score":0.0,"id":"aggq2giv21vl","geo_precision":"unmatched","state":"Washington"},"type":"Feature","geometry":null},{"properties":{"city":"Rochester","geo_score":0.0,"id":"aggq2go7eul7","geo_precision":"unmatched","state":"New York"},"type":"Feature","geometry":null},{"properties":{"city":"Merced","geo_score":0.857,"id":"aggq2geisvni","geo_precision":"zip","state":"California"},"type":"Feature","geometry":{"type":"Point","coordinates":[-79.949701298,48.23346806]}},{"properties":{"city":"Rockford","geo_score":0.0,"id":"aggq2gtkg6pi","geo_precision":"unmatched","state":"Illinois"},"type":"Feature","geometry":null},{"properties":{"city":"Des Moines","geo_score":0.0,"id":"aggq2gs2rsxd","geo_precision":"unmatched","state":"Iowa"},"type":"Feature","geometry":null},{"properties":{"city":"York","geo_score":0.0,"id":"aggq2gh6loec","geo_precision":"unmatched","state":"Pennsylvania"},"type":"Feature","geometry":null},{"properties":{"city":"Sterling Heights","geo_score":0.0,"id":"aggq2gk8gdl2","geo_precision":"unmatched","state":"Michigan"},"type":"Feature","geometry":null},{"properties":{"city":"Saginaw","geo_score":0.0,"id":"aggq2ggxgbsx","geo_precision":"unmatched","state":"Michigan"},"type":"Feature","geometry":null},{"properties":{"city":"Pascagoula","geo_score":0.0,"id":"aggq2gm3k8gg","geo_precision":"unmatched","state":"Mississippi"},"type":"Feature","geometry":null},{"properties":{"city":"Springfield","geo_score":0.0,"id":"aggq2greojjd","geo_precision":"unmatched","state":"Massachusetts"},"type":"Feature","geometry":null},{"properties":{"city":"Dallas","geo_score":0.0,"id":"aggq2gfxjgjt","geo_precision":"unmatched","state":"Texas"},"type":"Feature","geometry":null},{"properties":{"city":"Riverside","geo_score":0.857,"id":"aggq2gmoyxi3","geo_precision":"zip","state":"California"},"type":"Feature","geometry":{"type":"Point","coordinates":[-75.13260965,44.933397312]}},{"properties":{"city":"Sacramento","geo_score":0.857,"id":"aggq2gf5ycx1","geo_precision":"zip","state":"California"},"type":"Feature","geometry":{"type":"Point","coordinates":[-118.385598186,50.449832005]}},{"properties":{"city":"Phoenix","geo_score":0.857,"id":"aggq2gj1vdla","geo_precision":"zip","state":"Arizona"},"type":"Feature","geometry":{"type":"Point","coordinates":[46.5430556,39.7611111]}},{"properties":{"city":"Huntsville","geo_score":0.0,"id":"aggq2ggaj1i5","geo_precision":"unmatched","state":"Alabama"},"type":"Feature","geometry":null},{"properties":{"city":"Woodland Hills","geo_score":0.857,"id":"aggq2glbe1w5","geo_precision":"zip","state":"California"},"type":"Feature","geometry":{"type":"Point","coordinates":[-122.919332157,49.332967234]}},{"properties":{"city":"San Diego","geo_score":0.857,"id":"aggq2gdrxd6k","geo_precision":"zip","state":"California"},"type":"Feature","geometry":{"type":"Point","coordinates":[-101.584220585,51.399979807]}},{"properties":{"city":"San Francisco","geo_score":0.857,"id":"aggq2ge91zx6","geo_precision":"zip","state":"California"},"type":"Feature","geometry":{"type":"Point","coordinates":[-80.466445516,48.350174128]}},{"properties":{"city":"Hartford","geo_score":0.0,"id":"aggq2gffzz35","geo_precision":"unmatched","state":"Connecticut"},"type":"Feature","geometry":null},{"properties":{"city":"Washington","geo_score":0.0,"id":"aggq2gg99ffb","geo_precision":"unmatched","state":"District of Columbia"},"type":"Feature","geometry":null},{"properties":{"city":"Jacksonville","geo_score":0.0,"id":"aggq2gi9mqay","geo_precision":"unmatched","state":"Florida"},"type":"Feature","geometry":null},{"properties":{"city":"Orlando","geo_score":0.0,"id":"aggq2gnjxeyp","geo_precision":"unmatched","state":"Florida"},"type":"Feature","geometry":null},{"properties":{"city":"West Palm Beach","geo_score":0.0,"id":"aggq2giexsvw","geo_precision":"unmatched","state":"Florida"},"type":"Feature","geometry":null},{"properties":{"city":"Atlanta","geo_score":0.0,"id":"aggq2giclpfh","geo_precision":"unmatched","state":"Georgia"},"type":"Feature","geometry":null},{"properties":{"city":"Chicago","geo_score":0.0,"id":"aggq2gkenlxa","geo_precision":"unmatched","state":"Illinois"},"type":"Feature","geometry":null},{"properties":{"city":"Indianapolis","geo_score":0.0,"id":"aggq2gf334ow","geo_precision":"unmatched","state":"Indiana"},"type":"Feature","geometry":null},{"properties":{"city":"Louisville","geo_score":0.0,"id":"aggq2ggz1id9","geo_precision":"unmatched","state":"Kentucky"},"type":"Feature","geometry":null},{"properties":{"city":"Boston","geo_score":0.857,"id":"aggq2gg1el5u","geo_precision":"zip","state":"Massachusetts"},"type":"Feature","geometry":{"type":"Point","coordinates":[-4.23,34.11]}},{"properties":{"city":"Baltimore","geo_score":0.0,"id":"aggq2gq822w0","geo_precision":"unmatched","state":"Maryland"},"type":"Feature","geometry":null},{"properties":{"city":"Detroit","geo_score":0.0,"id":"aggq2gllud70","geo_precision":"unmatched","state":"Michigan"},"type":"Feature","geometry":null},{"properties":{"city":"Grand Rapids","geo_score":0.0,"id":"aggq2gggr43g","geo_precision":"unmatched","state":"Michigan"},"type":"Feature","geometry":null},{"properties":{"city":"St. Paul","geo_score":0.0,"id":"aggq2gjq0oww","geo_precision":"unmatched","state":"Minnesota"},"type":"Feature","geometry":null},{"properties":{"city":"Saint Louis","geo_score":0.0,"id":"aggq2gkoxwev","geo_precision":"unmatched","state":"Missouri"},"type":"Feature","geometry":null},{"properties":{"city":"Greenville","geo_score":0.0,"id":"aggq2gdk4ore","geo_precision":"unmatched","state":"North Carolina"},"type":"Feature","geometry":null},{"properties":{"city":"Albuquerque","geo_score":0.0,"id":"aggq2gjup8n1","geo_precision":"unmatched","state":"New Mexico"},"type":"Feature","geometry":null},{"properties":{"city":"Las Vegas","geo_score":0.0,"id":"aggq2gt6iov0","geo_precision":"unmatched","state":"Nevada"},"type":"Feature","geometry":null},{"properties":{"city":"New York","geo_score":0.0,"id":"aggq2gfvsbze","geo_precision":"unmatched","state":"New York"},"type":"Feature","geometry":null},{"properties":{"city":"Cincinnati","geo_score":0.0,"id":"aggq2gogiep3","geo_precision":"unmatched","state":"Ohio"},"type":"Feature","geometry":null},{"properties":{"city":"Cleveland","geo_score":0.0,"id":"aggq2gjy0yv5","geo_precision":"unmatched","state":"Ohio"},"type":"Feature","geometry":null},{"properties":{"city":"Oklahoma City","geo_score":0.0,"id":"aggq2gm04gxe","geo_precision":"unmatched","state":"Oklahoma"},"type":"Feature","geometry":null},{"properties":{"city":"Philadelphia","geo_score":0.857,"id":"aggq2grkbadl","geo_precision":"zip","state":"Pennsylvania"},"type":"Feature","geometry":{"type":"Point","coordinates":[-81.4,7.9833333]}},{"properties":{"city":"Pittsburgh","geo_score":0.0,"id":"aggq2gtij6rn","geo_precision":"unmatched","state":"Pennsylvania"},"type":"Feature","geometry":null},{"properties":{"city":"Norfolk","geo_score":0.0,"id":"aggq2gkleh28","geo_precision":"unmatched","state":"Virginia"},"type":"Feature","geometry":null},{"properties":{"city":"Memphis","geo_score":0.0,"id":"aggq2gmwmp8z","geo_precision":"unmatched","state":"Tennessee"},"type":"Feature","geometry":null},{"properties":{"city":"Nashville","geo_score":0.0,"id":"aggq2gfys76b","geo_precision":"unmatched","state":"Tennessee"},"type":"Feature","geometry":null},{"properties":{"city":"Austin","geo_score":0.0,"id":"aggq2gmdjzw9","geo_precision":"unmatched","state":"Texas"},"type":"Feature","geometry":null},{"properties":{"city":"San Antonio","geo_score":0.0,"id":"aggq2gmfbdzr","geo_precision":"unmatched","state":"Texas"},"type":"Feature","geometry":null},{"properties":{"city":"Milwaukee","geo_score":0.0,"id":"aggq2gje4nl0","geo_precision":"unmatched","state":"Wisconsin"},"type":"Feature","geometry":null},{"properties":{"city":"Chico","geo_score":0.857,"id":"aggq2ghvnbuh","geo_precision":"zip","state":"California"},"type":"Feature","geometry":{"type":"Point","coordinates":[-79.966357012,44.216806961]}},{"properties":{"city":"Eureka","geo_score":0.857,"id":"aggq2ged0mzo","geo_precision":"zip","state":"California"},"type":"Feature","geometry":{"type":"Point","coordinates":[-85.949306383,79.985335122]}},{"properties":{"city":"Lakeport","geo_score":0.857,"id":"aggq2gldau6a","geo_precision":"zip","state":"California"},"type":"Feature","geometry":{"type":"Point","coordinates":[-76.266084129,45.709507853]}},{"properties":{"city":"Mobile","geo_score":0.0,"id":"aggq2gkggy08","geo_precision":"unmatched","state":"Alabama"},"type":"Feature","geometry":null},{"properties":{"city":"Birmingham","geo_score":0.0,"id":"aggq2gfirh0q","geo_precision":"unmatched","state":"Alabama"},"type":"Feature","geometry":null},{"properties":{"city":"Bay City","geo_score":0.0,"id":"aggq2gkh2kue","geo_precision":"unmatched","state":"Michigan"},"type":"Feature","geometry":null},{"properties":{"city":"Flint","geo_score":0.0,"id":"aggq2gf9iqev","geo_precision":"unmatched","state":"Michigan"},"type":"Feature","geometry":null},{"properties":{"city":"Jackson","geo_score":0.0,"id":"aggq2gjtoboi","geo_precision":"unmatched","state":"Michigan"},"type":"Feature","geometry":null},{"properties":{"city":"Kalamazoo","geo_score":0.0,"id":"aggq2gr83kk3","geo_precision":"unmatched","state":"Michigan"},"type":"Feature","geometry":null},{"properties":{"city":"Muskegon","geo_score":0.0,"id":"aggq2gl3yrlj","geo_precision":"unmatched","state":"Michigan"},"type":"Feature","geometry":null},{"properties":{"city":"Oroville","geo_score":0.857,"id":"aggq2grixxfa","geo_precision":"zip","state":"California"},"type":"Feature","geometry":{"type":"Point","coordinates":[-79.766344924,45.383399211]}},{"properties":{"city":"Red Bluff","geo_score":0.857,"id":"aggq2gs0jkno","geo_precision":"zip","state":"California"},"type":"Feature","geometry":{"type":"Point","coordinates":[-75.111724303,47.382927588]}},{"properties":{"city":"Woodland","geo_score":0.857,"id":"aggq2gg8xf6y","geo_precision":"zip","state":"California"},"type":"Feature","geometry":{"type":"Point","coordinates":[-122.919332157,49.332967234]}},{"properties":{"city":"Ukiah","geo_score":0.857,"id":"aggq2gkjxveq","geo_precision":"zip","state":"California"},"type":"Feature","geometry":{"type":"Point","coordinates":[-62.815364831,46.166811522]}},{"properties":{"city":"Bridgeport","geo_score":0.0,"id":"aggq2gflodc0","geo_precision":"unmatched","state":"Connecticut"},"type":"Feature","geometry":null},{"properties":{"city":"Albany","geo_score":0.0,"id":"aggq2ghsd8q6","geo_precision":"unmatched","state":"New York"},"type":"Feature","geometry":null},{"properties":{"city":"Beaumont","geo_score":0.0,"id":"aggq2gf75kl7","geo_precision":"unmatched","state":"Texas"},"type":"Feature","geometry":null},{"properties":{"city":"Greenwich","geo_score":0.0,"id":"aggq2gm0wf3m","geo_precision":"unmatched","state":"Connecticut"},"type":"Feature","geometry":null},{"properties":{"city":"Danbury","geo_score":0.0,"id":"aggq2gqvmf6r","geo_precision":"unmatched","state":"Connecticut"},"type":"Feature","geometry":null},{"properties":{"city":"Stamford","geo_score":0.0,"id":"aggq2gsm1sd7","geo_precision":"unmatched","state":"Connecticut"},"type":"Feature","geometry":null},{"properties":{"city":"Walnut Creek","geo_score":0.857,"id":"aggq2gfk49m1","geo_precision":"zip","state":"California"},"type":"Feature","geometry":{"type":"Point","coordinates":[-99.297209934,49.979427842]}},{"properties":{"city":"Monterey","geo_score":0.857,"id":"aggq2geu66z0","geo_precision":"zip","state":"California"},"type":"Feature","geometry":{"type":"Point","coordinates":[-120.085895609,53.333251756]}},{"properties":{"city":"San Rafael","geo_score":0.857,"id":"aggq2gq18n44","geo_precision":"zip","state":"California"},"type":"Feature","geometry":{"type":"Point","coordinates":[-72.663826756,45.751466312]}},{"properties":{"city":"Scotts Valley","geo_score":0.857,"id":"aggq2gnuwd8i","geo_precision":"zip","state":"California"},"type":"Feature","geometry":{"type":"Point","coordinates":[-61.148512705,46.183441596]}},{"properties":{"city":"New Haven","geo_score":0.0,"id":"aggq2gtt7vdw","geo_precision":"unmatched","state":"Connecticut"},"type":"Feature","geometry":null},{"properties":{"city":"Middletown","geo_score":0.0,"id":"aggq2gf2zarj","geo_precision":"unmatched","state":"Connecticut"},"type":"Feature","geometry":null},{"properties":{"city":"Torrington","geo_score":0.0,"id":"aggq2gh60yfz","geo_precision":"unmatched","state":"Connecticut"},"type":"Feature","geometry":null},{"properties":{"city":"Troy","geo_score":0.0,"id":"aggq2gnsvonl","geo_precision":"unmatched","state":"New York"},"type":"Feature","geometry":null},{"properties":{"city":"Saratoga Springs","geo_score":0.0,"id":"aggq2gj2el2o","geo_precision":"unmatched","state":"New York"},"type":"Feature","geometry":null},{"properties":{"city":"Kingston","geo_score":0.0,"id":"aggq2gl4earo","geo_precision":"unmatched","state":"New York"},"type":"Feature","geometry":null},{"properties":{"city":"Oneida","geo_score":0.0,"id":"aggq2geaj0ed","geo_precision":"unmatched","state":"New York"},"type":"Feature","geometry":null},{"properties":{"city":"Fitchburg","geo_score":0.0,"id":"aggq2gjstl9k","geo_precision":"unmatched","state":"Massachusetts"},"type":"Feature","geometry":null},{"properties":{"city":"Lowell","geo_score":0.0,"id":"aggq2geerc0g","geo_precision":"unmatched","state":"Massachusetts"},"type":"Feature","geometry":null},{"properties":{"city":"North Adams","geo_score":0.857,"id":"aggq2gfs27zx","geo_precision":"zip","state":"Massachusetts"},"type":"Feature","geometry":{"type":"Point","coordinates":[-4.76,33.15]}},{"properties":{"city":"Pittsfield","geo_score":0.0,"id":"aggq2gq1y8f1","geo_precision":"unmatched","state":"Massachusetts"},"type":"Feature","geometry":null},{"properties":{"city":"Bennington","geo_score":0.0,"id":"aggq2gfowo21","geo_precision":"unmatched","state":"Vermont"},"type":"Feature","geometry":null},{"properties":{"city":"Brattleboro","geo_score":0.0,"id":"aggq2grf8tkz","geo_precision":"unmatched","state":"Vermont"},"type":"Feature","geometry":null},{"properties":{"city":"Alamogordo","geo_score":0.0,"id":"aggq2gl23wd9","geo_precision":"unmatched","state":"New Mexico"},"type":"Feature","geometry":null},{"properties":{"city":"Carlsbad","geo_score":0.0,"id":"aggq2gk7bggq","geo_precision":"unmatched","state":"New Mexico"},"type":"Feature","geometry":null},{"properties":{"city":"Deming","geo_score":0.0,"id":"aggq2giv3kkp","geo_precision":"unmatched","state":"New Mexico"},"type":"Feature","geometry":null},{"properties":{"city":"Farmington","geo_score":0.0,"id":"aggq2gh06mtb","geo_precision":"unmatched","state":"New Mexico"},"type":"Feature","geometry":null},{"properties":{"city":"Las Cruces","geo_score":0.0,"id":"aggq2gr59272","geo_precision":"unmatched","state":"New Mexico"},"type":"Feature","geometry":null},{"properties":{"city":"El Paso","geo_score":0.0,"id":"aggq2gdnj3kj","geo_precision":"unmatched","state":"Texas"},"type":"Feature","geometry":null},{"properties":{"city":"Denton","geo_score":0.0,"id":"aggq2ggul0u3","geo_precision":"unmatched","state":"Texas"},"type":"Feature","geometry":null},{"properties":{"city":"Long Beach","geo_score":0.857,"id":"aggq2gg1qk0r","geo_precision":"zip","state":"California"},"type":"Feature","geometry":{"type":"Point","coordinates":[-125.719574576,49.049611442]}},{"properties":{"city":"Torrance","geo_score":0.857,"id":"aggq2gfvqgx6","geo_precision":"zip","state":"California"},"type":"Feature","geometry":{"type":"Point","coordinates":[-79.566336821,45.000102432]}},{"properties":{"city":"Ontario","geo_score":0.857,"id":"aggq2gs4dern","geo_precision":"zip","state":"California"},"type":"Feature","geometry":{"type":"Point","coordinates":[-79.082884803,44.250117447]}},{"properties":{"city":"San Bernardino","geo_score":0.857,"id":"aggq2gf73vn7","geo_precision":"zip","state":"California"},"type":"Feature","geometry":{"type":"Point","coordinates":[-99.485506572,51.783323269]}},{"properties":{"city":"Redlands","geo_score":0.857,"id":"aggq2gor64oa","geo_precision":"zip","state":"California"},"type":"Feature","geometry":{"type":"Point","coordinates":[-114.13809945,51.020945945]}},{"properties":{"city":"West Covina","geo_score":0.857,"id":"aggq2ghuw9aj","geo_precision":"zip","state":"California"},"type":"Feature","geometry":{"type":"Point","coordinates":[-105.001145132,51.300073649]}},{"properties":{"city":"Pasadena","geo_score":0.857,"id":"aggq2gt05ofq","geo_precision":"zip","state":"California"},"type":"Feature","geometry":{"type":"Point","coordinates":[-57.598368708,49.016714544]}},{"properties":{"city":"Whittier","geo_score":0.857,"id":"aggq2gf4qwq4","geo_precision":"zip","state":"California"},"type":"Feature","geometry":{"type":"Point","coordinates":[-106.717931231,49.700058136]}},{"properties":{"city":"Primos","geo_score":0.0,"id":"aggq2ge2yvsh","geo_precision":"unmatched","state":"Pennsylvania"},"type":"Feature","geometry":null},{"properties":{"city":"West Chester","geo_score":0.0,"id":"aggq2giojeqj","geo_precision":"unmatched","state":"Pennsylvania"},"type":"Feature","geometry":null},{"properties":{"city":"Pottstown","geo_score":0.0,"id":"aggq2gi8s60t","geo_precision":"unmatched","state":"Pennsylvania"},"type":"Feature","geometry":null},{"properties":{"city":"Norristown","geo_score":0.0,"id":"aggq2gdi0ebo","geo_precision":"unmatched","state":"Pennsylvania"},"type":"Feature","geometry":null},{"properties":{"city":"Lansdale","geo_score":0.0,"id":"aggq2gt55jp2","geo_precision":"unmatched","state":"Pennsylvania"},"type":"Feature","geometry":null},{"properties":{"city":"Trenton","geo_score":0.0,"id":"aggq2gmq3qks","geo_precision":"unmatched","state":"New Jersey"},"type":"Feature","geometry":null},{"properties":{"city":"Dayton","geo_score":0.0,"id":"aggq2gqry0ao","geo_precision":"unmatched","state":"Ohio"},"type":"Feature","geometry":null},{"properties":{"city":"Pontiac","geo_score":0.0,"id":"aggq2gmrp8st","geo_precision":"unmatched","state":"Michigan"},"type":"Feature","geometry":null},{"properties":{"city":"Mt Clemens","geo_score":0.0,"id":"aggq2gnl6sya","geo_precision":"unmatched","state":"Michigan"},"type":"Feature","geometry":null},{"properties":{"city":"Royal Oak","geo_score":0.0,"id":"aggq2ghlba7i","geo_precision":"unmatched","state":"Michigan"},"type":"Feature","geometry":null},{"properties":{"city":"Mt Pleasant","geo_score":0.0,"id":"aggq2grb0zyk","geo_precision":"unmatched","state":"Michigan"},"type":"Feature","geometry":null},{"properties":{"city":"Willoughby","geo_score":0.0,"id":"aggq2gr6dsoh","geo_precision":"unmatched","state":"Ohio"},"type":"Feature","geometry":null},{"properties":{"city":"Lorain","geo_score":0.0,"id":"aggq2gqsapar","geo_precision":"unmatched","state":"Ohio"},"type":"Feature","geometry":null},{"properties":{"city":"Vacaville","geo_score":0.0,"id":"aggq2ghoboez","geo_precision":"unmatched","state":"California"},"type":"Feature","geometry":null},{"properties":{"city":"Vallejo","geo_score":0.0,"id":"aggq2gtt9864","geo_precision":"unmatched","state":"California"},"type":"Feature","geometry":null},{"properties":{"city":"Ashland","geo_score":0.0,"id":"aggq2ghdv97q","geo_precision":"unmatched","state":"Kentucky"},"type":"Feature","geometry":null},{"properties":{"city":"Beckley","geo_score":0.0,"id":"aggq2gh7wbwb","geo_precision":"unmatched","state":"West Virginia"},"type":"Feature","geometry":null},{"properties":{"city":"Johnstown","geo_score":0.0,"id":"aggq2gpcux4r","geo_precision":"unmatched","state":"Pennsylvania"},"type":"Feature","geometry":null},{"properties":{"city":"Mankato","geo_score":0.0,"id":"aggq2gsnjbmw","geo_precision":"unmatched","state":"Minnesota"},"type":"Feature","geometry":null},{"properties":{"city":"Sunbury","geo_score":0.0,"id":"aggq2gpceuzp","geo_precision":"unmatched","state":"Pennsylvania"},"type":"Feature","geometry":null},{"properties":{"city":"Terre Haute","geo_score":0.857,"id":"aggq2gq182jn","geo_precision":"zip","state":"Indiana"},"type":"Feature","geometry":{"type":"Point","coordinates":[83.7402778,26.7461111]}},{"properties":{"city":"Traverse City","geo_score":0.0,"id":"aggq2gfi0p6r","geo_precision":"unmatched","state":"Michigan"},"type":"Feature","geometry":null},{"properties":{"city":"Valdosta","geo_score":0.0,"id":"aggq2gqi3xrr","geo_precision":"unmatched","state":"Georgia"},"type":"Feature","geometry":null},{"properties":{"city":"Ada","geo_score":0.0,"id":"aggq2ghghqdr","geo_precision":"unmatched","state":"Oklahoma"},"type":"Feature","geometry":null},{"properties":{"city":"Anderson","geo_score":0.857,"id":"aggq2govski7","geo_precision":"zip","state":"Indiana"},"type":"Feature","geometry":{"type":"Point","coordinates":[92.7166667,12.7666667]}},{"properties":{"city":"Ashtabula","geo_score":0.0,"id":"aggq2ggc22ph","geo_precision":"unmatched","state":"Ohio"},"type":"Feature","geometry":null},{"properties":{"city":"Athens","geo_score":0.0,"id":"aggq2ge98xr5","geo_precision":"unmatched","state":"Texas"},"type":"Feature","geometry":null},{"properties":{"city":"Athens","geo_score":0.0,"id":"aggq2gjbvqq6","geo_precision":"unmatched","state":"Alabama"},"type":"Feature","geometry":null},{"properties":{"city":"Bluefield","geo_score":0.0,"id":"aggq2gmcpboq","geo_precision":"unmatched","state":"West Virginia"},"type":"Feature","geometry":null},{"properties":{"city":"Chickasha","geo_score":0.0,"id":"aggq2gdlppmp","geo_precision":"unmatched","state":"Oklahoma"},"type":"Feature","geometry":null},{"properties":{"city":"Claremore","geo_score":0.0,"id":"aggq2ggmv00d","geo_precision":"unmatched","state":"Oklahoma"},"type":"Feature","geometry":null},{"properties":{"city":"Cleburne","geo_score":0.0,"id":"aggq2ggmwih4","geo_precision":"unmatched","state":"Texas"},"type":"Feature","geometry":null},{"properties":{"city":"Clinton","geo_score":0.0,"id":"aggq2gr52spb","geo_precision":"unmatched","state":"Iowa"},"type":"Feature","geometry":null},{"properties":{"city":"Corbin","geo_score":0.0,"id":"aggq2gogun8j","geo_precision":"unmatched","state":"Kentucky"},"type":"Feature","geometry":null},{"properties":{"city":"Corsicana","geo_score":0.0,"id":"aggq2ggjz356","geo_precision":"unmatched","state":"Texas"},"type":"Feature","geometry":null},{"properties":{"city":"Cullman","geo_score":0.0,"id":"aggq2goaov75","geo_precision":"unmatched","state":"Alabama"},"type":"Feature","geometry":null},{"properties":{"city":"Cumberland","geo_score":0.0,"id":"aggq2gpthc0d","geo_precision":"unmatched","state":"Maryland"},"type":"Feature","geometry":null},{"properties":{"city":"Dalton","geo_score":0.0,"id":"aggq2gh9miqx","geo_precision":"unmatched","state":"Georgia"},"type":"Feature","geometry":null},{"properties":{"city":"Danville","geo_score":0.0,"id":"aggq2gej9hcy","geo_precision":"unmatched","state":"Illinois"},"type":"Feature","geometry":null},{"properties":{"city":"Duncan","geo_score":0.0,"id":"aggq2geh4bm2","geo_precision":"unmatched","state":"Oklahoma"},"type":"Feature","geometry":null},{"properties":{"city":"Effingham","geo_score":0.0,"id":"aggq2gobjtyb","geo_precision":"unmatched","state":"Illinois"},"type":"Feature","geometry":null},{"properties":{"city":"Fairmont","geo_score":0.0,"id":"aggq2ghmnnwb","geo_precision":"unmatched","state":"West Virginia"},"type":"Feature","geometry":null},{"properties":{"city":"Gainesville","geo_score":0.0,"id":"aggq2gogbonu","geo_precision":"unmatched","state":"Texas"},"type":"Feature","geometry":null},{"properties":{"city":"Glasgow","geo_score":0.0,"id":"aggq2grh5miq","geo_precision":"unmatched","state":"Kentucky"},"type":"Feature","geometry":null},{"properties":{"city":"Gloucester","geo_score":0.0,"id":"aggq2gdhcmid","geo_precision":"unmatched","state":"Massachusetts"},"type":"Feature","geometry":null},{"properties":{"city":"Goshen","geo_score":0.857,"id":"aggq2gigxn9b","geo_precision":"zip","state":"Indiana"},"type":"Feature","geometry":{"type":"Point","coordinates":[88.0166667,25.6333333]}},{"properties":{"city":"Greensburg","geo_score":0.0,"id":"aggq2gnuc9xy","geo_precision":"unmatched","state":"Indiana"},"type":"Feature","geometry":null},{"properties":{"city":"Greenville","geo_score":0.0,"id":"aggq2gr25ucs","geo_precision":"unmatched","state":"Texas"},"type":"Feature","geometry":null},{"properties":{"city":"Huntsville","geo_score":0.0,"id":"aggq2gkfgqm6","geo_precision":"unmatched","state":"Texas"},"type":"Feature","geometry":null},{"properties":{"city":"Jacksonville","geo_score":0.0,"id":"aggq2gkp9doa","geo_precision":"unmatched","state":"Texas"},"type":"Feature","geometry":null},{"properties":{"city":"Jeffersonville","geo_score":0.0,"id":"aggq2gqcrllx","geo_precision":"unmatched","state":"Kentucky"},"type":"Feature","geometry":null},{"properties":{"city":"Kokomo","geo_score":0.857,"id":"aggq2grdcqn0","geo_precision":"zip","state":"Indiana"},"type":"Feature","geometry":{"type":"Point","coordinates":[69.7666667,23.2166667]}},{"properties":{"city":"Lebanon","geo_score":0.0,"id":"aggq2gjvzpaa","geo_precision":"unmatched","state":"Indiana"},"type":"Feature","geometry":null},{"properties":{"city":"Lockport","geo_score":0.0,"id":"aggq2goamgcn","geo_precision":"unmatched","state":"New York"},"type":"Feature","geometry":null},{"properties":{"city":"Logansport","geo_score":0.0,"id":"aggq2gia7tip","geo_precision":"unmatched","state":"Indiana"},"type":"Feature","geometry":null},{"properties":{"city":"Meadville","geo_score":0.0,"id":"aggq2gqanxsg","geo_precision":"unmatched","state":"Pennsylvania"},"type":"Feature","geometry":null},{"properties":{"city":"Medina","geo_score":0.0,"id":"aggq2glq0omy","geo_precision":"unmatched","state":"New York"},"type":"Feature","geometry":null},{"properties":{"city":"Meridian","geo_score":0.0,"id":"aggq2gobmifa","geo_precision":"unmatched","state":"Mississippi"},"type":"Feature","geometry":null},{"properties":{"city":"Milledgeville","geo_score":0.0,"id":"aggq2gn6y4mb","geo_precision":"unmatched","state":"Georgia"},"type":"Feature","geometry":null},{"properties":{"city":"Mineral Wells","geo_score":0.0,"id":"aggq2gdrt03x","geo_precision":"unmatched","state":"Texas"},"type":"Feature","geometry":null},{"properties":{"city":"Moultrie","geo_score":0.0,"id":"aggq2gin6vrp","geo_precision":"unmatched","state":"Georgia"},"type":"Feature","geometry":null},{"properties":{"city":"Mt. Vernon","geo_score":0.857,"id":"aggq2gqo4cxn","geo_precision":"zip","state":"Illinois"},"type":"Feature","geometry":{"type":"Point","coordinates":[35.0666667,31.7166667]}},{"properties":{"city":"New Castle","geo_score":0.857,"id":"aggq2gijsf4s","geo_precision":"zip","state":"Pennsylvania"},"type":"Feature","geometry":{"type":"Point","coordinates":[-81.05,8.2166667]}},{"properties":{"city":"Newburyport","geo_score":0.0,"id":"aggq2gqwvuvg","geo_precision":"unmatched","state":"Massachusetts"},"type":"Feature","geometry":null},{"properties":{"city":"Niagara Falls","geo_score":0.0,"id":"aggq2gglv5q3","geo_precision":"unmatched","state":"New York"},"type":"Feature","geometry":null},{"properties":{"city":"Norman","geo_score":0.0,"id":"aggq2gnigg0g","geo_precision":"unmatched","state":"Oklahoma"},"type":"Feature","geometry":null},{"properties":{"city":"North Andover","geo_score":0.857,"id":"aggq2gsxyisj","geo_precision":"zip","state":"Massachusetts"},"type":"Feature","geometry":{"type":"Point","coordinates":[-10.38,28.38]}},{"properties":{"city":"North Tonawanda","geo_score":0.0,"id":"aggq2glq5n3s","geo_precision":"unmatched","state":"New York"},"type":"Feature","geometry":null},{"properties":{"city":"Oneonta","geo_score":0.0,"id":"aggq2gok7c6h","geo_precision":"unmatched","state":"New York"},"type":"Feature","geometry":null},{"properties":{"city":"Palestine","geo_score":0.0,"id":"aggq2gm8ilvg","geo_precision":"unmatched","state":"Texas"},"type":"Feature","geometry":null},{"properties":{"city":"Picayune","geo_score":0.0,"id":"aggq2ge4k5wm","geo_precision":"unmatched","state":"Mississippi"},"type":"Feature","geometry":null},{"properties":{"city":"Port Arthur","geo_score":0.0,"id":"aggq2grrjapr","geo_precision":"unmatched","state":"Texas"},"type":"Feature","geometry":null},{"properties":{"city":"Richmond","geo_score":0.0,"id":"aggq2go80305","geo_precision":"unmatched","state":"Kentucky"},"type":"Feature","geometry":null},{"properties":{"city":"Salem","geo_score":0.857,"id":"aggq2gny3g5a","geo_precision":"zip","state":"Massachusetts"},"type":"Feature","geometry":{"type":"Point","coordinates":[-7.86,31.75]}},{"properties":{"city":"San Marcos","geo_score":0.0,"id":"aggq2gq1qbzn","geo_precision":"unmatched","state":"Texas"},"type":"Feature","geometry":null},{"properties":{"city":"Sharon","geo_score":0.0,"id":"aggq2gppqgcs","geo_precision":"unmatched","state":"Pennsylvania"},"type":"Feature","geometry":null},{"properties":{"city":"Somerset","geo_score":0.0,"id":"aggq2grfte4f","geo_precision":"unmatched","state":"Kentucky"},"type":"Feature","geometry":null},{"properties":{"city":"Stillwater","geo_score":0.0,"id":"aggq2gq8juww","geo_precision":"unmatched","state":"Oklahoma"},"type":"Feature","geometry":null},{"properties":{"city":"Tarboro","geo_score":0.0,"id":"aggq2gs1ze7r","geo_precision":"unmatched","state":"North Carolina"},"type":"Feature","geometry":null},{"properties":{"city":"Thomasville","geo_score":0.0,"id":"aggq2gi2oztu","geo_precision":"unmatched","state":"Georgia"},"type":"Feature","geometry":null},{"properties":{"city":"Tifton","geo_score":0.0,"id":"aggq2gtfz2xk","geo_precision":"unmatched","state":"Georgia"},"type":"Feature","geometry":null},{"properties":{"city":"Washington","geo_score":0.0,"id":"aggq2gschtxb","geo_precision":"unmatched","state":"Indiana"},"type":"Feature","geometry":null},{"properties":{"city":"Weatherford","geo_score":0.0,"id":"aggq2gtxzas0","geo_precision":"unmatched","state":"Texas"},"type":"Feature","geometry":null},{"properties":{"city":"Hanover","geo_score":0.0,"id":"aggq2gl0aa5m","geo_precision":"unmatched","state":"Pennsylvania"},"type":"Feature","geometry":null},{"properties":{"city":"Lebanon","geo_score":0.0,"id":"aggq2gocbrdf","geo_precision":"unmatched","state":"Pennsylvania"},"type":"Feature","geometry":null},{"properties":{"city":"Chambersburg","geo_score":0.857,"id":"aggq2gpdylal","geo_precision":"zip","state":"Pennsylvania"},"type":"Feature","geometry":{"type":"Point","coordinates":[-78.95,9.2166667]}},{"properties":{"city":"Levittown","geo_score":0.0,"id":"aggq2ghgj2ce","geo_precision":"unmatched","state":"Pennsylvania"},"type":"Feature","geometry":null},{"properties":{"city":"Galveston","geo_score":0.0,"id":"aggq2ghnhs19","geo_precision":"unmatched","state":"Texas"},"type":"Feature","geometry":null},{"properties":{"city":"Peoria","geo_score":0.0,"id":"aggq2gka4pjw","geo_precision":"unmatched","state":"Illinois"},"type":"Feature","geometry":null},{"properties":{"city":"Canton","geo_score":0.0,"id":"aggq2gtm3hyb","geo_precision":"unmatched","state":"Ohio"},"type":"Feature","geometry":null},{"properties":{"city":"Utica","geo_score":0.0,"id":"aggq2gi21tsx","geo_precision":"unmatched","state":"New York"},"type":"Feature","geometry":null},{"properties":{"city":"Norwich","geo_score":0.0,"id":"aggq2gkolvfc","geo_precision":"unmatched","state":"Connecticut"},"type":"Feature","geometry":null},{"properties":{"city":"Canandaigua","geo_score":0.0,"id":"aggq2gno76ex","geo_precision":"unmatched","state":"New York"},"type":"Feature","geometry":null},{"properties":{"city":"New Philadelphia","geo_score":0.0,"id":"aggq2gkmu2u2","geo_precision":"unmatched","state":"Ohio"},"type":"Feature","geometry":null},{"properties":{"city":"Massillon","geo_score":0.0,"id":"aggq2gh2d71t","geo_precision":"unmatched","state":"Ohio"},"type":"Feature","geometry":null},{"properties":{"city":"Herkimer","geo_score":0.0,"id":"aggq2gjxhym3","geo_precision":"unmatched","state":"New York"},"type":"Feature","geometry":null},{"properties":{"city":"Little Falls","geo_score":0.0,"id":"aggq2gt39p6r","geo_precision":"unmatched","state":"New York"},"type":"Feature","geometry":null},{"properties":{"city":"Springfield","geo_score":0.0,"id":"aggq2gmaro0s","geo_precision":"unmatched","state":"Illinois"},"type":"Feature","geometry":null},{"properties":{"city":"Boston","geo_score":0.857,"id":"aggq2ggzumqn","geo_precision":"zip","state":"Massachusetts"},"type":"Feature","geometry":{"type":"Point","coordinates":[-4.23,34.11]}},{"properties":{"city":"Holland","geo_score":0.0,"id":"aggq2gm3m0vp","geo_precision":"unmatched","state":"Michigan"},"type":"Feature","geometry":null},{"properties":{"city":"Downers Grove","geo_score":0.0,"id":"aggq2gkdgcr8","geo_precision":"unmatched","state":"Illinois"},"type":"Feature","geometry":null},{"properties":{"city":"Freeport","geo_score":0.0,"id":"aggq2gkogbyb","geo_precision":"unmatched","state":"Illinois"},"type":"Feature","geometry":null},{"properties":{"city":"Lincoln","geo_score":0.0,"id":"aggq2gtmkbiz","geo_precision":"unmatched","state":"Illinois"},"type":"Feature","geometry":null},{"properties":{"city":"Arlington Heights","geo_score":0.0,"id":"aggq2gouanuj","geo_precision":"unmatched","state":"Illinois"},"type":"Feature","geometry":null},{"properties":{"city":"Maryville","geo_score":0.0,"id":"aggq2ghpheuh","geo_precision":"unmatched","state":"Missouri"},"type":"Feature","geometry":null},{"properties":{"city":"Benton","geo_score":0.0,"id":"aggq2gdo0i2h","geo_precision":"unmatched","state":"Illinois"},"type":"Feature","geometry":null},{"properties":{"city":"Canton","geo_score":0.0,"id":"aggq2gjalv7o","geo_precision":"unmatched","state":"Illinois"},"type":"Feature","geometry":null},{"properties":{"city":"Honesdale","geo_score":0.0,"id":"aggq2gnvdi8m","geo_precision":"unmatched","state":"Pennsylvania"},"type":"Feature","geometry":null},{"properties":{"city":"Carmi","geo_score":0.0,"id":"aggq2ggtr8b7","geo_precision":"unmatched","state":"Illinois"},"type":"Feature","geometry":null},{"properties":{"city":"Crookston","geo_score":0.0,"id":"aggq2gexznrs","geo_precision":"unmatched","state":"Minnesota"},"type":"Feature","geometry":null},{"properties":{"city":"Devils Lake","geo_score":0.0,"id":"aggq2gnlpt9t","geo_precision":"unmatched","state":"North Dakota"},"type":"Feature","geometry":null},{"properties":{"city":"Du Quoin","geo_score":0.0,"id":"aggq2glohh4p","geo_precision":"unmatched","state":"Illinois"},"type":"Feature","geometry":null},{"properties":{"city":"Harrisburg","geo_score":0.0,"id":"aggq2gj8odmn","geo_precision":"unmatched","state":"Illinois"},"type":"Feature","geometry":null},{"properties":{"city":"Hope","geo_score":0.0,"id":"aggq2grc0h5y","geo_precision":"unmatched","state":"Arkansas"},"type":"Feature","geometry":null},{"properties":{"city":"Kewanee","geo_score":0.0,"id":"aggq2gnjpqce","geo_precision":"unmatched","state":"Illinois"},"type":"Feature","geometry":null},{"properties":{"city":"Keyser","geo_score":0.0,"id":"aggq2gq34faq","geo_precision":"unmatched","state":"West Virginia"},"type":"Feature","geometry":null},{"properties":{"city":"Leavenworth","geo_score":0.0,"id":"aggq2ghngv7w","geo_precision":"unmatched","state":"Kansas"},"type":"Feature","geometry":null},{"properties":{"city":"Macomb","geo_score":0.0,"id":"aggq2ggrnxem","geo_precision":"unmatched","state":"Illinois"},"type":"Feature","geometry":null},{"properties":{"city":"Marion","geo_score":0.857,"id":"aggq2gtsq5y1","geo_precision":"zip","state":"Illinois"},"type":"Feature","geometry":{"type":"Point","coordinates":[35.4402778,32.9888889]}},{"properties":{"city":"Maryville","geo_score":0.0,"id":"aggq2gqtnlly","geo_precision":"unmatched","state":"Missouri"},"type":"Feature","geometry":null},{"properties":{"city":"Oak Ridge","geo_score":0.0,"id":"aggq2gkzmigb","geo_precision":"unmatched","state":"Tennessee"},"type":"Feature","geometry":null},{"properties":{"city":"Olney","geo_score":0.0,"id":"aggq2gqhtk92","geo_precision":"unmatched","state":"Illinois"},"type":"Feature","geometry":null},{"properties":{"city":"Pontiac","geo_score":0.0,"id":"aggq2gqwkm89","geo_precision":"unmatched","state":"Illinois"},"type":"Feature","geometry":null},{"properties":{"city":"Ridgecrest","geo_score":0.0,"id":"aggq2gryz2oe","geo_precision":"unmatched","state":"California"},"type":"Feature","geometry":null},{"properties":{"city":"Waynesboro","geo_score":0.0,"id":"aggq2gpri6ot","geo_precision":"unmatched","state":"Pennsylvania"},"type":"Feature","geometry":null},{"properties":{"city":"Waynesville","geo_score":0.0,"id":"aggq2gs0ifdj","geo_precision":"unmatched","state":"Missouri"},"type":"Feature","geometry":null},{"properties":{"city":"Wellington","geo_score":0.0,"id":"aggq2gf3r4ga","geo_precision":"unmatched","state":"Kansas"},"type":"Feature","geometry":null},{"properties":{"city":"West Frankfort","geo_score":0.0,"id":"aggq2gm463wu","geo_precision":"unmatched","state":"Illinois"},"type":"Feature","geometry":null},{"properties":{"city":"Davenport","geo_score":0.0,"id":"aggq2gkcns5b","geo_precision":"unmatched","state":"Iowa"},"type":"Feature","geometry":null},{"properties":{"city":"Americus","geo_score":0.0,"id":"aggq2gecczob","geo_precision":"unmatched","state":"Georgia"},"type":"Feature","geometry":null},{"properties":{"city":"Cordele","geo_score":0.0,"id":"aggq2gdipbwv","geo_precision":"unmatched","state":"Georgia"},"type":"Feature","geometry":null},{"properties":{"city":"Gardendale","geo_score":0.0,"id":"aggq2ge7x8ab","geo_precision":"unmatched","state":"Alabama"},"type":"Feature","geometry":null},{"properties":{"city":"Live Oak","geo_score":0.0,"id":"aggq2gp2mo5x","geo_precision":"unmatched","state":"Florida"},"type":"Feature","geometry":null},{"properties":{"city":"Pell City","geo_score":0.857,"id":"aggq2gnohjq8","geo_precision":"zip","state":"Alabama"},"type":"Feature","geometry":{"type":"Point","coordinates":[20.0511111,39.8505556]}},{"properties":{"city":"Albemarle","geo_score":0.0,"id":"aggq2ge00epp","geo_precision":"unmatched","state":"North Carolina"},"type":"Feature","geometry":null},{"properties":{"city":"London","geo_score":0.0,"id":"aggq2gojaqrq","geo_precision":"unmatched","state":"Kentucky"},"type":"Feature","geometry":null},{"properties":{"city":"Crossville","geo_score":0.0,"id":"aggq2gtyt3j0","geo_precision":"unmatched","state":"Tennessee"},"type":"Feature","geometry":null},{"properties":{"city":"Edmond","geo_score":0.0,"id":"aggq2gjb039q","geo_precision":"unmatched","state":"Oklahoma"},"type":"Feature","geometry":null},{"properties":{"city":"Kosciusko","geo_score":0.0,"id":"aggq2gis7163","geo_precision":"unmatched","state":"Mississippi"},"type":"Feature","geometry":null},{"properties":{"city":"Brookfield","geo_score":0.0,"id":"aggq2gm7y00w","geo_precision":"unmatched","state":"Missouri"},"type":"Feature","geometry":null},{"properties":{"city":"Kirksville","geo_score":0.0,"id":"aggq2gmlh7xn","geo_precision":"unmatched","state":"Missouri"},"type":"Feature","geometry":null},{"properties":{"city":"Pekin","geo_score":0.0,"id":"aggq2gtk4vld","geo_precision":"unmatched","state":"Illinois"},"type":"Feature","geometry":null},{"properties":{"city":"Adrian","geo_score":0.0,"id":"aggq2gr4l448","geo_precision":"unmatched","state":"Michigan"},"type":"Feature","geometry":null},{"properties":{"city":"Coldwater","geo_score":0.0,"id":"aggq2ghfqwul","geo_precision":"unmatched","state":"Michigan"},"type":"Feature","geometry":null},{"properties":{"city":"Hillsdale","geo_score":0.0,"id":"aggq2gfuv3j6","geo_precision":"unmatched","state":"Michigan"},"type":"Feature","geometry":null},{"properties":{"city":"Sturgis","geo_score":0.0,"id":"aggq2gekc3ya","geo_precision":"unmatched","state":"Michigan"},"type":"Feature","geometry":null},{"properties":{"city":"Camdenton","geo_score":0.0,"id":"aggq2gr7m2t9","geo_precision":"unmatched","state":"Missouri"},"type":"Feature","geometry":null},{"properties":{"city":"Ardmore","geo_score":0.0,"id":"aggq2gogaoa5","geo_precision":"unmatched","state":"Oklahoma"},"type":"Feature","geometry":null},{"properties":{"city":"Shawnee","geo_score":0.0,"id":"aggq2ghh8wj5","geo_precision":"unmatched","state":"Oklahoma"},"type":"Feature","geometry":null},{"properties":{"city":"Galesburg","geo_score":0.0,"id":"aggq2gmg6pyr","geo_precision":"unmatched","state":"Illinois"},"type":"Feature","geometry":null},{"properties":{"city":"Brockton","geo_score":0.0,"id":"aggq2gl3rbmf","geo_precision":"unmatched","state":"Massachusetts"},"type":"Feature","geometry":null},{"properties":{"city":"Fall River","geo_score":0.0,"id":"aggq2ghb814t","geo_precision":"unmatched","state":"Massachusetts"},"type":"Feature","geometry":null},{"properties":{"city":"Framingham","geo_score":0.0,"id":"aggq2glcao4n","geo_precision":"unmatched","state":"Massachusetts"},"type":"Feature","geometry":null},{"properties":{"city":"Milford","geo_score":0.0,"id":"aggq2gqibwcv","geo_precision":"unmatched","state":"Massachusetts"},"type":"Feature","geometry":null},{"properties":{"city":"Quincy","geo_score":0.0,"id":"aggq2gfqzjdp","geo_precision":"unmatched","state":"Massachusetts"},"type":"Feature","geometry":null},{"properties":{"city":"Taunton","geo_score":0.857,"id":"aggq2gqdqnht","geo_precision":"zip","state":"Massachusetts"},"type":"Feature","geometry":{"type":"Point","coordinates":[-9.43,29.33]}},{"properties":{"city":"Independence","geo_score":0.0,"id":"aggq2gqecyim","geo_precision":"unmatched","state":"Missouri"},"type":"Feature","geometry":null},{"properties":{"city":"Corning","geo_score":0.0,"id":"aggq2gsrczh2","geo_precision":"unmatched","state":"New York"},"type":"Feature","geometry":null},{"properties":{"city":"Hornell","geo_score":0.0,"id":"aggq2goob3gb","geo_precision":"unmatched","state":"New York"},"type":"Feature","geometry":null},{"properties":{"city":"Orange","geo_score":0.0,"id":"aggq2gkpu79m","geo_precision":"unmatched","state":"Texas"},"type":"Feature","geometry":null},{"properties":{"city":"Pauls Valley","geo_score":0.0,"id":"aggq2geoc583","geo_precision":"unmatched","state":"Oklahoma"},"type":"Feature","geometry":null},{"properties":{"city":"Munster","geo_score":0.857,"id":"aggq2gj2mogr","geo_precision":"zip","state":"Indiana"},"type":"Feature","geometry":{"type":"Point","coordinates":[88.6019,27.3319]}},{"properties":{"city":"Madison","geo_score":0.0,"id":"aggq2grftrgs","geo_precision":"unmatched","state":"Wisconsin"},"type":"Feature","geometry":null},{"properties":{"city":"Tucson","geo_score":0.0,"id":"aggq2gf9cmbd","geo_precision":"unmatched","state":"Arizona"},"type":"Feature","geometry":null},{"properties":{"city":"Lincoln","geo_score":0.857,"id":"aggq2go82v40","geo_precision":"zip","state":"Nebraska"},"type":"Feature","geometry":{"type":"Point","coordinates":[1.2033,13.6944]}},{"properties":{"city":"Billings","geo_score":0.0,"id":"aggq2gfj1q7j","geo_precision":"unmatched","state":"Montana"},"type":"Feature","geometry":null},{"properties":{"city":"Bloomington","geo_score":0.0,"id":"aggq2glafebn","geo_precision":"unmatched","state":"Illinois"},"type":"Feature","geometry":null},{"properties":{"city":"Decatur","geo_score":0.0,"id":"aggq2gs0w8ja","geo_precision":"unmatched","state":"Illinois"},"type":"Feature","geometry":null},{"properties":{"city":"Avon","geo_score":0.857,"id":"aggq2gmi9bop","geo_precision":"zip","state":"Indiana"},"type":"Feature","geometry":{"type":"Point","coordinates":[76.1166667,33.2833333]}},{"properties":{"city":"Batesville","geo_score":0.0,"id":"aggq2gl6p67c","geo_precision":"unmatched","state":"Indiana"},"type":"Feature","geometry":null},{"properties":{"city":"Rushville","geo_score":0.857,"id":"aggq2gmqxs2g","geo_precision":"zip","state":"Indiana"},"type":"Feature","geometry":{"type":"Point","coordinates":[78.5,14.95]}},{"properties":{"city":"Melbourne","geo_score":0.0,"id":"aggq2grpmxz4","geo_precision":"unmatched","state":"Florida"},"type":"Feature","geometry":null},{"properties":{"city":"Fort Myers","geo_score":0.0,"id":"aggq2ghnj4l1","geo_precision":"unmatched","state":"Florida"},"type":"Feature","geometry":null},{"properties":{"city":"White Plains","geo_score":0.0,"id":"aggq2gp8wvzm","geo_precision":"unmatched","state":"New York"},"type":"Feature","geometry":null},{"properties":{"city":"Shreveport","geo_score":0.0,"id":"aggq2gnnqhw5","geo_precision":"unmatched","state":"Louisiana"},"type":"Feature","geometry":null},{"properties":{"city":"Charleston","geo_score":0.0,"id":"aggq2gm2antn","geo_precision":"unmatched","state":"South Carolina"},"type":"Feature","geometry":null},{"properties":{"city":"Howell","geo_score":0.0,"id":"aggq2gnmfby3","geo_precision":"unmatched","state":"New Jersey"},"type":"Feature","geometry":null},{"properties":{"city":"Jackson","geo_score":0.0,"id":"aggq2gsn8vhb","geo_precision":"unmatched","state":"Mississippi"},"type":"Feature","geometry":null},{"properties":{"city":"Burlington","geo_score":0.0,"id":"aggq2geegm4o","geo_precision":"unmatched","state":"Vermont"},"type":"Feature","geometry":null},{"properties":{"city":"Tallahassee","geo_score":0.0,"id":"aggq2ghkuf80","geo_precision":"unmatched","state":"Florida"},"type":"Feature","geometry":null},{"properties":{"city":"Springfield","geo_score":0.0,"id":"aggq2gfcebby","geo_precision":"unmatched","state":"Missouri"},"type":"Feature","geometry":null},{"properties":{"city":"New Castle","geo_score":0.857,"id":"aggq2gjhai4c","geo_precision":"zip","state":"Delaware"},"type":"Feature","geometry":{"type":"Point","coordinates":[11.2833333,50.2333333]}},{"properties":{"city":"Palm Springs","geo_score":0.857,"id":"aggq2grue3kr","geo_precision":"zip","state":"California"},"type":"Feature","geometry":{"type":"Point","coordinates":[-139.887340619,61.116038814]}},{"properties":{"city":"Lansing","geo_score":0.0,"id":"aggq2gdpj3qw","geo_precision":"unmatched","state":"Michigan"},"type":"Feature","geometry":null},{"properties":{"city":"Binghamton","geo_score":0.0,"id":"aggq2githgb3","geo_precision":"unmatched","state":"New York"},"type":"Feature","geometry":null},{"properties":{"city":"Elmira","geo_score":0.0,"id":"aggq2gtm4vo0","geo_precision":"unmatched","state":"New York"},"type":"Feature","geometry":null},{"properties":{"city":"Ithaca","geo_score":0.0,"id":"aggq2grmccfg","geo_precision":"unmatched","state":"New York"},"type":"Feature","geometry":null},{"properties":{"city":"Reno","geo_score":0.0,"id":"aggq2gqwucbr","geo_precision":"unmatched","state":"Nevada"},"type":"Feature","geometry":null},{"properties":{"city":"Cherry Hill","geo_score":0.0,"id":"aggq2gqqr2lm","geo_precision":"unmatched","state":"New Jersey"},"type":"Feature","geometry":null},{"properties":{"city":"Pensacola","geo_score":0.0,"id":"aggq2giibrhx","geo_precision":"unmatched","state":"Florida"},"type":"Feature","geometry":null},{"properties":{"city":"Appleton","geo_score":0.0,"id":"aggq2gfoeive","geo_precision":"unmatched","state":"Wisconsin"},"type":"Feature","geometry":null},{"properties":{"city":"Fond du Lac","geo_score":0.0,"id":"aggq2gdp4nfn","geo_precision":"unmatched","state":"Wisconsin"},"type":"Feature","geometry":null},{"properties":{"city":"Green Bay","geo_score":0.0,"id":"aggq2gg88ik2","geo_precision":"unmatched","state":"Wisconsin"},"type":"Feature","geometry":null},{"properties":{"city":"Manitowoc","geo_score":0.0,"id":"aggq2ggjxdoj","geo_precision":"unmatched","state":"Wisconsin"},"type":"Feature","geometry":null},{"properties":{"city":"Oshkosh","geo_score":0.0,"id":"aggq2gfrmlvn","geo_precision":"unmatched","state":"Wisconsin"},"type":"Feature","geometry":null},{"properties":{"city":"Sheboygan","geo_score":0.0,"id":"aggq2grk50dx","geo_precision":"unmatched","state":"Wisconsin"},"type":"Feature","geometry":null},{"properties":{"city":"Asheville","geo_score":0.0,"id":"aggq2gilbt5l","geo_precision":"unmatched","state":"North Carolina"},"type":"Feature","geometry":null},{"properties":{"city":"Newark","geo_score":0.0,"id":"aggq2gtjh609","geo_precision":"unmatched","state":"Ohio"},"type":"Feature","geometry":null},{"properties":{"city":"Chillicothe","geo_score":0.0,"id":"aggq2gooai7x","geo_precision":"unmatched","state":"Ohio"},"type":"Feature","geometry":null},{"properties":{"city":"Bucyrus","geo_score":0.0,"id":"aggq2gs3nfi0","geo_precision":"unmatched","state":"Ohio"},"type":"Feature","geometry":null},{"properties":{"city":"Coshocton","geo_score":0.0,"id":"aggq2gha586t","geo_precision":"unmatched","state":"Ohio"},"type":"Feature","geometry":null},{"properties":{"city":"Fremont","geo_score":0.0,"id":"aggq2gmz55gp","geo_precision":"unmatched","state":"Ohio"},"type":"Feature","geometry":null},{"properties":{"city":"Lancaster","geo_score":0.0,"id":"aggq2gee58ri","geo_precision":"unmatched","state":"Ohio"},"type":"Feature","geometry":null},{"properties":{"city":"Mansfield","geo_score":0.0,"id":"aggq2gn8nmd3","geo_precision":"unmatched","state":"Ohio"},"type":"Feature","geometry":null},{"properties":{"city":"Marion","geo_score":0.0,"id":"aggq2glnqs5b","geo_precision":"unmatched","state":"Ohio"},"type":"Feature","geometry":null},{"properties":{"city":"Port Clinton","geo_score":0.0,"id":"aggq2ggftgov","geo_precision":"unmatched","state":"Ohio"},"type":"Feature","geometry":null},{"properties":{"city":"Zanesville","geo_score":0.0,"id":"aggq2gq9ksxx","geo_precision":"unmatched","state":"Ohio"},"type":"Feature","geometry":null},{"properties":{"city":"Lafayette","geo_score":0.0,"id":"aggq2gfyjpps","geo_precision":"unmatched","state":"Louisiana"},"type":"Feature","geometry":null},{"properties":{"city":"Lubbock","geo_score":0.0,"id":"aggq2gkq4ctc","geo_precision":"unmatched","state":"Texas"},"type":"Feature","geometry":null},{"properties":{"city":"Tucson","geo_score":0.0,"id":"aggq2gky54zz","geo_precision":"unmatched","state":"Arizona"},"type":"Feature","geometry":null},{"properties":{"city":"Fort Myers","geo_score":0.0,"id":"aggq2gim3egs","geo_precision":"unmatched","state":"Florida"},"type":"Feature","geometry":null},{"properties":{"city":"Tampa","geo_score":0.0,"id":"aggq2gpx4l4a","geo_precision":"unmatched","state":"Florida"},"type":"Feature","geometry":null},{"properties":{"city":"West Palm Beach","geo_score":0.0,"id":"aggq2glqbl9n","geo_precision":"unmatched","state":"Florida"},"type":"Feature","geometry":null},{"properties":{"city":"Columbus","geo_score":0.0,"id":"aggq2gpdjtto","geo_precision":"unmatched","state":"Ohio"},"type":"Feature","geometry":null},{"properties":{"city":"Honolulu","geo_score":0.0,"id":"aggq2go3m4tm","geo_precision":"unmatched","state":"Hawaii"},"type":"Feature","geometry":null},{"properties":{"city":"Cedar Rapids","geo_score":0.0,"id":"aggq2gif9354","geo_precision":"unmatched","state":"Iowa"},"type":"Feature","geometry":null},{"properties":{"city":"Davenport","geo_score":0.0,"id":"aggq2gq4bcfl","geo_precision":"unmatched","state":"Iowa"},"type":"Feature","geometry":null},{"properties":{"city":"Paducah","geo_score":0.0,"id":"aggq2gtllr11","geo_precision":"unmatched","state":"Kentucky"},"type":"Feature","geometry":null},{"properties":{"city":"Indianapolis","geo_score":0.0,"id":"aggq2gpw00vh","geo_precision":"unmatched","state":"Indiana"},"type":"Feature","geometry":null},{"properties":{"city":"South Bend","geo_score":0.857,"id":"aggq2gfj5e43","geo_precision":"zip","state":"Indiana"},"type":"Feature","geometry":{"type":"Point","coordinates":[75.8333333,25.5]}},{"properties":{"city":"Portland","geo_score":0.0,"id":"aggq2gs16zzh","geo_precision":"unmatched","state":"Maine"},"type":"Feature","geometry":null},{"properties":{"city":"Cadillac","geo_score":0.0,"id":"aggq2gr21v22","geo_precision":"unmatched","state":"Michigan"},"type":"Feature","geometry":null},{"properties":{"city":"Minneapolis - Saint Paul","geo_score":0.857,"id":"aggq2gfbvr5q","geo_precision":"zip","state":"Minnesota"},"type":"Feature","geometry":{"type":"Point","coordinates":[103.839340209961,46.0860906404336]}},{"properties":{"city":"Jackson","geo_score":0.0,"id":"aggq2gh7cnfe","geo_precision":"unmatched","state":"Mississippi"},"type":"Feature","geometry":null},{"properties":{"city":"Butte","geo_score":0.0,"id":"aggq2gntn7ma","geo_precision":"unmatched","state":"Montana"},"type":"Feature","geometry":null},{"properties":{"city":"Missoula","geo_score":0.0,"id":"aggq2ggls38x","geo_precision":"unmatched","state":"Montana"},"type":"Feature","geometry":null},{"properties":{"city":"Greensboro","geo_score":0.0,"id":"aggq2gj5xng2","geo_precision":"unmatched","state":"North Carolina"},"type":"Feature","geometry":null},{"properties":{"city":"Greenville","geo_score":0.0,"id":"aggq2gdne25d","geo_precision":"unmatched","state":"South Carolina"},"type":"Feature","geometry":null},{"properties":{"city":"Greenville","geo_score":0.0,"id":"aggq2go244m8","geo_precision":"unmatched","state":"North Carolina"},"type":"Feature","geometry":null},{"properties":{"city":"Omaha","geo_score":0.0,"id":"aggq2gq0l6jf","geo_precision":"unmatched","state":"Nebraska"},"type":"Feature","geometry":null},{"properties":{"city":"Toledo","geo_score":0.0,"id":"aggq2gq8z05j","geo_precision":"unmatched","state":"Ohio"},"type":"Feature","geometry":null},{"properties":{"city":"Tulsa","geo_score":0.0,"id":"aggq2gi3ocum","geo_precision":"unmatched","state":"Oklahoma"},"type":"Feature","geometry":null},{"properties":{"city":"Harrisburg","geo_score":0.0,"id":"aggq2gjsss6g","geo_precision":"unmatched","state":"Pennsylvania"},"type":"Feature","geometry":null},{"properties":{"city":"Wilkes-Barre","geo_score":0.0,"id":"aggq2gdoehhf","geo_precision":"unmatched","state":"Pennsylvania"},"type":"Feature","geometry":null},{"properties":{"city":"Chattanooga","geo_score":0.857,"id":"aggq2grjqssk","geo_precision":"zip","state":"Tennessee"},"type":"Feature","geometry":{"type":"Point","coordinates":[8.7847222,33.7575]}},{"properties":{"city":"Knoxville","geo_score":0.0,"id":"aggq2gte3csj","geo_precision":"unmatched","state":"Tennessee"},"type":"Feature","geometry":null},{"properties":{"city":"Nashville","geo_score":0.0,"id":"aggq2gtrdrjc","geo_precision":"unmatched","state":"Tennessee"},"type":"Feature","geometry":null},{"properties":{"city":"Tri-Cities","geo_score":0.857,"id":"aggq2gdigmqh","geo_precision":"zip","state":"Tennessee"},"type":"Feature","geometry":{"type":"Point","coordinates":[10.2869444,35.7316667]}},{"properties":{"city":"McAllen","geo_score":0.0,"id":"aggq2gtjhi81","geo_precision":"unmatched","state":"Texas"},"type":"Feature","geometry":null},{"properties":{"city":"Waco","geo_score":0.0,"id":"aggq2gkd0323","geo_precision":"unmatched","state":"Texas"},"type":"Feature","geometry":null},{"properties":{"city":"Norfolk","geo_score":0.0,"id":"aggq2gjljje9","geo_precision":"unmatched","state":"Virginia"},"type":"Feature","geometry":null},{"properties":{"city":"Richmond","geo_score":0.0,"id":"aggq2gne7h1l","geo_precision":"unmatched","state":"Virginia"},"type":"Feature","geometry":null},{"properties":{"city":"Roanoke","geo_score":0.0,"id":"aggq2gkha5lw","geo_precision":"unmatched","state":"Virginia"},"type":"Feature","geometry":null},{"properties":{"city":"Burlington","geo_score":0.0,"id":"aggq2gsbuhiq","geo_precision":"unmatched","state":"Vermont"},"type":"Feature","geometry":null},{"properties":{"city":"Madison","geo_score":0.0,"id":"aggq2go1sp11","geo_precision":"unmatched","state":"Wisconsin"},"type":"Feature","geometry":null},{"properties":{"city":"Charleston","geo_score":0.0,"id":"aggq2gqxr244","geo_precision":"unmatched","state":"West Virginia"},"type":"Feature","geometry":null},{"properties":{"city":"Santa Rosa","geo_score":0.857,"id":"aggq2geplbbv","geo_precision":"zip","state":"California"},"type":"Feature","geometry":{"type":"Point","coordinates":[-82.733162269,45.766767706]}},{"properties":{"city":"Atlanta","geo_score":0.0,"id":"aggq2ghzsj3g","geo_precision":"unmatched","state":"Georgia"},"type":"Feature","geometry":null},{"properties":{"city":"Costa Mesa","geo_score":0.857,"id":"aggq2gl3536e","geo_precision":"zip","state":"California"},"type":"Feature","geometry":{"type":"Point","coordinates":[-123.886001997,49.049630101]}},{"properties":{"city":"Los Angeles","geo_score":0.857,"id":"aggq2gq9hf8p","geo_precision":"zip","state":"California"},"type":"Feature","geometry":{"type":"Point","coordinates":[-73.734174418,46.256476309]}},{"properties":{"city":"Montgomery","geo_score":0.0,"id":"aggq2ggr3uag","geo_precision":"unmatched","state":"Alabama"},"type":"Feature","geometry":null},{"properties":{"city":"Lafayette","geo_score":0.0,"id":"aggq2gnx7dj1","geo_precision":"unmatched","state":"Indiana"},"type":"Feature","geometry":null},{"properties":{"city":"Poughkeepsie","geo_score":0.0,"id":"aggq2gpcza0v","geo_precision":"unmatched","state":"New York"},"type":"Feature","geometry":null},{"properties":{"city":"St. Cloud","geo_score":0.857,"id":"aggq2gtdc7w6","geo_precision":"zip","state":"Minnesota"},"type":"Feature","geometry":{"type":"Point","coordinates":[100.143985748291,46.6917237238042]}},{"properties":{"city":"Tiffin","geo_score":0.0,"id":"aggq2gsc9xiu","geo_precision":"unmatched","state":"Ohio"},"type":"Feature","geometry":null},{"properties":{"city":"Edwardsville","geo_score":0.0,"id":"aggq2gqa35r4","geo_precision":"unmatched","state":"Illinois"},"type":"Feature","geometry":null},{"properties":{"city":"Midland","geo_score":0.0,"id":"aggq2gjqc2iq","geo_precision":"unmatched","state":"Texas"},"type":"Feature","geometry":null},{"properties":{"city":"Plainview","geo_score":0.0,"id":"aggq2go6z9q5","geo_precision":"unmatched","state":"Texas"},"type":"Feature","geometry":null},{"properties":{"city":"Waterloo","geo_score":0.0,"id":"aggq2gp5hg8s","geo_precision":"unmatched","state":"Iowa"},"type":"Feature","geometry":null},{"properties":{"city":"Glens Falls","geo_score":0.0,"id":"aggq2gj79xhx","geo_precision":"unmatched","state":"New York"},"type":"Feature","geometry":null},{"properties":{"city":"Missoula","geo_score":0.0,"id":"aggq2glmygtz","geo_precision":"unmatched","state":"Montana"},"type":"Feature","geometry":null},{"properties":{"city":"Carbondale","geo_score":0.0,"id":"aggq2gf8whpr","geo_precision":"unmatched","state":"Illinois"},"type":"Feature","geometry":null},{"properties":{"city":"Bismarck","geo_score":0.0,"id":"aggq2ggkqf4l","geo_precision":"unmatched","state":"North Dakota"},"type":"Feature","geometry":null},{"properties":{"city":"Racine","geo_score":0.0,"id":"aggq2gruuvst","geo_precision":"unmatched","state":"Wisconsin"},"type":"Feature","geometry":null},{"properties":{"city":"Harrisonburg","geo_score":0.0,"id":"aggq2gksejry","geo_precision":"unmatched","state":"Virginia"},"type":"Feature","geometry":null},{"properties":{"city":"Winchester","geo_score":0.0,"id":"aggq2gmiwdmo","geo_precision":"unmatched","state":"Virginia"},"type":"Feature","geometry":null},{"properties":{"city":"Shelbyville","geo_score":0.0,"id":"aggq2ge6hn80","geo_precision":"unmatched","state":"Illinois"},"type":"Feature","geometry":null},{"properties":{"city":"Bridgewater","geo_score":0.0,"id":"aggq2gmb4ztz","geo_precision":"unmatched","state":"New Jersey"},"type":"Feature","geometry":null},{"properties":{"city":"Great Falls","geo_score":0.857,"id":"aggq2gj66a0x","geo_precision":"zip","state":"Montana"},"type":"Feature","geometry":{"type":"Point","coordinates":[14.3180556,36.0488889]}},{"properties":{"city":"Iowa City","geo_score":0.0,"id":"aggq2gt65q2y","geo_precision":"unmatched","state":"Iowa"},"type":"Feature","geometry":null},{"properties":{"city":"Jackson","geo_score":0.0,"id":"aggq2gs7pnj7","geo_precision":"unmatched","state":"Tennessee"},"type":"Feature","geometry":null},{"properties":{"city":"Monroe","geo_score":0.0,"id":"aggq2giy11rf","geo_precision":"unmatched","state":"Louisiana"},"type":"Feature","geometry":null},{"properties":{"city":"Morristown","geo_score":0.0,"id":"aggq2gkt4n26","geo_precision":"unmatched","state":"New Jersey"},"type":"Feature","geometry":null},{"properties":{"city":"Salisbury","geo_score":0.0,"id":"aggq2gj3zkft","geo_precision":"unmatched","state":"Maryland"},"type":"Feature","geometry":null},{"properties":{"city":"Vineland","geo_score":0.0,"id":"aggq2ginqhnr","geo_precision":"unmatched","state":"New Jersey"},"type":"Feature","geometry":null},{"properties":{"city":"Opelousas","geo_score":0.0,"id":"aggq2gdzo0zq","geo_precision":"unmatched","state":"Louisiana"},"type":"Feature","geometry":null},{"properties":{"city":"Hattiesburg","geo_score":0.0,"id":"aggq2gfauunq","geo_precision":"unmatched","state":"Mississippi"},"type":"Feature","geometry":null},{"properties":{"city":"Port Huron","geo_score":0.0,"id":"aggq2gk4x0ke","geo_precision":"unmatched","state":"Michigan"},"type":"Feature","geometry":null},{"properties":{"city":"Alexandria","geo_score":0.0,"id":"aggq2gspwsh6","geo_precision":"unmatched","state":"Louisiana"},"type":"Feature","geometry":null},{"properties":{"city":"Muncie","geo_score":0.857,"id":"aggq2gknxwsk","geo_precision":"zip","state":"Indiana"},"type":"Feature","geometry":{"type":"Point","coordinates":[72.6666667,23.4333333]}},{"properties":{"city":"Visalia","geo_score":0.857,"id":"aggq2glbjehw","geo_precision":"zip","state":"California"},"type":"Feature","geometry":{"type":"Point","coordinates":[-77.649491274,48.783483746]}},{"properties":{"city":"Salinas","geo_score":0.0,"id":"aggq2glcezmr","geo_precision":"unmatched","state":"California"},"type":"Feature","geometry":null},{"properties":{"city":"Battle Creek","geo_score":0.0,"id":"aggq2gtn9s61","geo_precision":"unmatched","state":"Michigan"},"type":"Feature","geometry":null}],"is_temporal":false,"author":{"url":"","metadata":null,"contact_name":null,"contact_address":null,"source":null,"contact_phone":null},"source":"","pagination":{"sort":null,"start":0,"total":419,"limit":1000000},"state":"complete","tags":"","published":"2014-08-16T20:30:04-04:00","id":386240}