{"type":"FeatureCollection","data_type":"Dataset","url_type":null,"permissions":[{"permissions":{"download":true,"view":true},"group_id":"everyone"}],"classification":null,"title":"50 US Inst with Most Intl Grad Students in Engineering","count":50,"stream_id":387165,"contributor":{"url":"http://geocommons.com/users/79369","name":"ykono"},"data_attributes":null,"calculation_params":null,"icon_link":null,"link":"http://geocommons.com/overlays/387165.json","extent":[-122.312,28.5986,-71.0897,47.6562],"geometry_types":["point"],"unique_name":null,"name":"50 US Inst with Most Intl Grad Students in Engineering","feature_count":50,"description":"","next_feature":null,"is_raster":false,"short_classification":"Y","stats":{"type":{"count":2,"counts_by_value":{"Public":36,"Private not-for-profit":14},"list":["Public","Private not-for-profit"]},"international graduate students in engineering (2011)":{"max":1635,"variance":134480.710612245,"mean":720.94,"stdev":366.716117197274,"min":338,"median":616}},"features":[{"properties":{"city":"Tempe","% international of total graduate students in engineering (2011)":"71%","zip":"85287","institution":"Arizona State University","type":"Public","geo_score":0.643,"id":"agj7wl2stwur","address":"University Drive and Mill Avenue","geo_precision":"street","state":"Arizona","international graduate students in engineering (2011)":973},"type":"Feature","geometry":{"type":"Point","coordinates":[-111.831444,33.422328]}},{"properties":{"city":"Pittsburgh","% international of total graduate students in engineering (2011)":"62%","zip":"15213","institution":"Carnegie Mellon University","type":"Private not-for-profit","geo_score":0.805,"id":"agj7wkuy8hz9","address":"5000 Forbes Avenue","geo_precision":"street","state":"Pennsylvania","international graduate students in engineering (2011)":740},"type":"Feature","geometry":{"type":"Point","coordinates":[-79.943782,40.444622]}},{"properties":{"city":"Clemson","% international of total graduate students in engineering (2011)":"60%","zip":"29634","institution":"Clemson University","type":"Public","geo_score":0.698,"id":"agj7wkpq9kew","address":"201 Sikes Hall","geo_precision":"range","state":"South Carolina","international graduate students in engineering (2011)":546},"type":"Feature","geometry":{"type":"Point","coordinates":[-82.283318,34.7799]}},{"properties":{"city":"New York","% international of total graduate students in engineering (2011)":"71%","zip":"10027","institution":"Columbia University in the City of New York","type":"Private not-for-profit","geo_score":0.633,"id":"agj7wkuvnlzc","address":"West 116 St and Broadway","geo_precision":"street","state":"New York","international graduate students in engineering (2011)":974},"type":"Feature","geometry":{"type":"Point","coordinates":[-73.956918,40.815545]}},{"properties":{"city":"Ithaca","% international of total graduate students in engineering (2011)":"46%","zip":"14853","institution":"Cornell University","type":"Private not-for-profit","geo_score":0.756,"id":"agj7wkrtlt8o","address":"300 Day Hall","geo_precision":"range","state":"New York","international graduate students in engineering (2011)":665},"type":"Feature","geometry":{"type":"Point","coordinates":[-76.841629,42.175115]}},{"properties":{"city":"Atlanta","% international of total graduate students in engineering (2011)":"50%","zip":"30332","institution":"Georgia Institute of Technology","type":"Public","geo_score":0.732,"id":"agj7wku95o2e","address":"225 North Ave","geo_precision":"range","state":"Georgia","international graduate students in engineering (2011)":1496},"type":"Feature","geometry":{"type":"Point","coordinates":[-84.420465,33.768923]}},{"properties":{"city":"Chicago","% international of total graduate students in engineering (2011)":"84%","zip":"60616","institution":"Illinois Institute of Technology","type":"Private not-for-profit","geo_score":0.709,"id":"agj7wkylxlqz","address":"3300 S Federal St","geo_precision":"street","state":"Illinois","international graduate students in engineering (2011)":752},"type":"Feature","geometry":{"type":"Point","coordinates":[-87.628954,41.838274]}},{"properties":{"city":"Ames","% international of total graduate students in engineering (2011)":"61%","zip":"50011","institution":"Iowa State University","type":"Public","geo_score":0.473,"id":"agj7wl0z49k8","address":"3410 Beardshear Hall","geo_precision":"street","state":"Iowa","international graduate students in engineering (2011)":421},"type":"Feature","geometry":{"type":"Point","coordinates":[-93.535935,40.689372]}},{"properties":{"city":"Baltimore","% international of total graduate students in engineering (2011)":"44%","zip":"21218","institution":"Johns Hopkins University","type":"Private not-for-profit","geo_score":0.756,"id":"agj7wkqtgj1v","address":"3400 N Charles St  Mason Hall","geo_precision":"range","state":"Maryland","international graduate students in engineering (2011)":393},"type":"Feature","geometry":{"type":"Point","coordinates":[-76.617983,39.33255]}},{"properties":{"city":"Baton Rouge","% international of total graduate students in engineering (2011)":"69%","zip":"70803","institution":"Louisiana State University","type":"Public","geo_score":0.756,"id":"agj7wl2j5tcu","address":"156 Thomas Boyd Hall","geo_precision":"range","state":"Louisiana","international graduate students in engineering (2011)":358},"type":"Feature","geometry":{"type":"Point","coordinates":[-91.202756,30.550433]}},{"properties":{"city":"Cambridge","% international of total graduate students in engineering (2011)":"43%","zip":"2139","institution":"Massachusetts Institute of Technology","type":"Private not-for-profit","geo_score":0.902,"id":"agj7wkv2lr7y","address":"77 Massachusetts Avenue","geo_precision":"range","state":"Massachusetts","international graduate students in engineering (2011)":1112},"type":"Feature","geometry":{"type":"Point","coordinates":[-71.093793,42.359299]}},{"properties":{"city":"East Lansing","% international of total graduate students in engineering (2011)":"66%","zip":"48824","institution":"Michigan State University","type":"Public","geo_score":0.585,"id":"agj7wkzjsr1u","address":"426 Auditorium Rd","geo_precision":"zip","state":"Michigan","international graduate students in engineering (2011)":338},"type":"Feature","geometry":{"type":"Point","coordinates":[-84.488226,42.728334]}},{"properties":{"city":"Houghton","% international of total graduate students in engineering (2011)":"67%","zip":"49931","institution":"Michigan Technological University","type":"Public","geo_score":0.902,"id":"agj7wkriqwqa","address":"1400 Townsend Drive","geo_precision":"range","state":"Michigan","international graduate students in engineering (2011)":384},"type":"Feature","geometry":{"type":"Point","coordinates":[-88.533583,47.112463]}},{"properties":{"city":"Rolla","% international of total graduate students in engineering (2011)":"56%","zip":"65409","institution":"Missouri University of Science and Technology","type":"Public","geo_score":0.503,"id":"agj7wl0420nk","address":"1870 Miner Circle","geo_precision":"street","state":"Missouri","international graduate students in engineering (2011)":471},"type":"Feature","geometry":{"type":"Point","coordinates":[-91.410289,38.058935]}},{"properties":{"city":"Newark","% international of total graduate students in engineering (2011)":"70%","zip":"7102","institution":"New Jersey Institute of Technology","type":"Public","geo_score":0.765,"id":"agj7wl0to3t8","address":"University Heights","geo_precision":"street","state":"New Jersey","international graduate students in engineering (2011)":538},"type":"Feature","geometry":{"type":"Point","coordinates":[-74.170784,40.747786]}},{"properties":{"city":"Raleigh","% international of total graduate students in engineering (2011)":"57%","zip":"27695","institution":"North Carolina State University at Raleigh","type":"Public","geo_score":0.902,"id":"agj7wkymh789","address":"2101 Hillsborough Street","geo_precision":"range","state":"North Carolina","international graduate students in engineering (2011)":1075},"type":"Feature","geometry":{"type":"Point","coordinates":[-78.664029,35.786653]}},{"properties":{"city":"Boston","% international of total graduate students in engineering (2011)":"78%","zip":"2115","institution":"Northeastern University","type":"Private not-for-profit","geo_score":0.902,"id":"agj7wksw8e5h","address":"360 Huntington Ave","geo_precision":"range","state":"Massachusetts","international graduate students in engineering (2011)":906},"type":"Feature","geometry":{"type":"Point","coordinates":[-71.089692,42.339929]}},{"properties":{"city":"Evanston","% international of total graduate students in engineering (2011)":"48%","zip":"60208","institution":"Northwestern University","type":"Private not-for-profit","geo_score":0.902,"id":"agj7wl3ayzrv","address":"633 Clark St","geo_precision":"range","state":"Illinois","international graduate students in engineering (2011)":436},"type":"Feature","geometry":{"type":"Point","coordinates":[-87.678401,42.04961]}},{"properties":{"city":"Columbus","% international of total graduate students in engineering (2011)":"54%","zip":"43210","institution":"Ohio State University (All Campuses)","type":"Public","geo_score":0.468,"id":"agj7wktwq5o2","address":"190 N. Oval Mall","geo_precision":"street","state":"Ohio","international graduate students in engineering (2011)":688},"type":"Feature","geometry":{"type":"Point","coordinates":[-83.010272,40.000381]}},{"properties":{"city":"Stillwater","% international of total graduate students in engineering (2011)":"80%","zip":"74078","institution":"Oklahoma State University (All Campuses)","type":"Public","geo_score":0.488,"id":"agj7wl144l75","address":"107 Whitehurst","geo_precision":"zip","state":"Oklahoma","international graduate students in engineering (2011)":428},"type":"Feature","geometry":{"type":"Point","coordinates":[-96.987458,36.093665]}},{"properties":{"city":"University Park","% international of total graduate students in engineering (2011)":"60%","zip":"16802","institution":"Pennsylvania State University (All Campuses)","type":"Public","geo_score":0.756,"id":"agj7wl0awzak","address":"201 Old Main","geo_precision":"range","state":"Pennsylvania","international graduate students in engineering (2011)":956},"type":"Feature","geometry":{"type":"Point","coordinates":[-78.204263,41.100841]}},{"properties":{"city":"Brooklyn","% international of total graduate students in engineering (2011)":"76%","zip":"11201","institution":"Polytechnic Institute of New York University","type":"Private not-for-profit","geo_score":0.723,"id":"agj7wkxjcpmz","address":"Six Metrotech Ctr","geo_precision":"street","state":"New York","international graduate students in engineering (2011)":493},"type":"Feature","geometry":{"type":"Point","coordinates":[-73.985168,40.694359]}},{"properties":{"city":"West Lafayette","% international of total graduate students in engineering (2011)":"57%","zip":"47907","institution":"Purdue University (All Campuses)","type":"Public","geo_score":0.551,"id":"agj7wl1uo6ma","address":"Hovde Hall of Administration","geo_precision":"street","state":"Indiana","international graduate students in engineering (2011)":1112},"type":"Feature","geometry":{"type":"Point","coordinates":[-87.44533,40.778052]}},{"properties":{"city":"New Brunswick","% international of total graduate students in engineering (2011)":"66%","zip":"8901","institution":"Rutgers University (All Campuses)","type":"Public","geo_score":0.902,"id":"agj7wkqgf8oh","address":"83 Somerset St","geo_precision":"range","state":"New Jersey","international graduate students in engineering (2011)":368},"type":"Feature","geometry":{"type":"Point","coordinates":[-74.446013,40.498145]}},{"properties":{"city":"San Jose","% international of total graduate students in engineering (2011)":"64%","zip":"95192","institution":"San Jose State University","type":"Public","geo_score":0.687,"id":"agj7wknw8ud3","address":"1 Washington Sq","geo_precision":"street","state":"California","international graduate students in engineering (2011)":362},"type":"Feature","geometry":{"type":"Point","coordinates":[-121.89115,37.344654]}},{"properties":{"city":"Stanford","% international of total graduate students in engineering (2011)":"46%","zip":"94305","institution":"Stanford University","type":"Private not-for-profit","geo_score":0.689,"id":"agj7wky9dxkq","address":"450 Serra Mall","geo_precision":"street","state":"California","international graduate students in engineering (2011)":1378},"type":"Feature","geometry":{"type":"Point","coordinates":[-122.1607,37.42705]}},{"properties":{"city":"Hoboken","% international of total graduate students in engineering (2011)":"80%","zip":"7030","institution":"Stevens Institute of Technology","type":"Private not-for-profit","geo_score":0.632,"id":"agj7wl2o8nor","address":"Castle Point On Hudson","geo_precision":"street","state":"New Jersey","international graduate students in engineering (2011)":425},"type":"Feature","geometry":{"type":"Point","coordinates":[-74.02614,40.745564]}},{"properties":{"city":"Buffalo","% international of total graduate students in engineering (2011)":"77%","zip":"14222","institution":"SUNY at Buffalo","type":"Public","geo_score":0.902,"id":"agj7wkth70id","address":"1300 Elmwood Ave","geo_precision":"range","state":"New York","international graduate students in engineering (2011)":579},"type":"Feature","geometry":{"type":"Point","coordinates":[-78.876989,42.931655]}},{"properties":{"city":"Stony Brook","% international of total graduate students in engineering (2011)":"77%","zip":"11794","institution":"SUNY at Stony Brook","type":"Public","geo_score":0.488,"id":"agj7wkx46qvg","address":"310 Administration Building","geo_precision":"zip","state":"New York","international graduate students in engineering (2011)":370},"type":"Feature","geometry":{"type":"Point","coordinates":[-72.637078,40.922326]}},{"properties":{"city":"Syracuse","% international of total graduate students in engineering (2011)":"86%","zip":"13210","institution":"Syracuse University","type":"Private not-for-profit","geo_score":0.524,"id":"agj7wl0hlgsi","address":"Crouse Hinds Hall Suite 600","geo_precision":"street","state":"New York","international graduate students in engineering (2011)":520},"type":"Feature","geometry":{"type":"Point","coordinates":[-76.136468,43.050278]}},{"properties":{"city":"College Station","% international of total graduate students in engineering (2011)":"68%","zip":"77843","institution":"Texas A &amp; M University (All Campuses)","type":"Public","geo_score":0.537,"id":"agj7wks9mv9t","address":"805 Rudder Tower","geo_precision":"street","state":"Texas","international graduate students in engineering (2011)":1605},"type":"Feature","geometry":{"type":"Point","coordinates":[-96.300306,30.533247]}},{"properties":{"city":"Bridgeport","% international of total graduate students in engineering (2011)":"96%","zip":"06604-5620","institution":"University of Bridgeport","type":"Private not-for-profit","geo_score":0.894,"id":"agj7wkteprgg","address":"126 Park Avenue","geo_precision":"range","state":"Connecticut","international graduate students in engineering (2011)":354},"type":"Feature","geometry":{"type":"Point","coordinates":[-73.191123,41.165134]}},{"properties":{"city":"Berkeley","% international of total graduate students in engineering (2011)":"34%","zip":"94720","institution":"University of California-Berkeley","type":"Public","geo_score":0.629,"id":"agj7wksw6n20","address":"200 California Hall","geo_precision":"street","state":"California","international graduate students in engineering (2011)":501},"type":"Feature","geometry":{"type":"Point","coordinates":[-122.281596,37.880632]}},{"properties":{"city":"Irvine","% international of total graduate students in engineering (2011)":"58%","zip":"92697","institution":"University of California-Irvine","type":"Public","geo_score":0.634,"id":"agj7wkwtkfza","address":"501 Aldrich Hall","geo_precision":"street","state":"California","international graduate students in engineering (2011)":434},"type":"Feature","geometry":{"type":"Point","coordinates":[-117.9894,33.72897]}},{"properties":{"city":"Los Angeles","% international of total graduate students in engineering (2011)":"41%","zip":"90095-1405","institution":"University of California-Los Angeles","type":"Public","geo_score":0.805,"id":"agj7wl2zbsvo","address":"405 Hilgard Ave","geo_precision":"street","state":"California","international graduate students in engineering (2011)":622},"type":"Feature","geometry":{"type":"Point","coordinates":[-118.437979,34.074279]}},{"properties":{"city":"La Jolla","% international of total graduate students in engineering (2011)":"50%","zip":"92093","institution":"University of California-San Diego","type":"Public","geo_score":0.902,"id":"agj7wkt9gsie","address":"9500 Gilman Dr","geo_precision":"range","state":"California","international graduate students in engineering (2011)":465},"type":"Feature","geometry":{"type":"Point","coordinates":[-117.234045,32.87699]}},{"properties":{"city":"Cincinnati","% international of total graduate students in engineering (2011)":"69%","zip":"45221-0063","institution":"University of Cincinnati (All Campuses)","type":"Public","geo_score":0.902,"id":"agj7wkrgvmyy","address":"2624 Clifton Avenue","geo_precision":"range","state":"Ohio","international graduate students in engineering (2011)":627},"type":"Feature","geometry":{"type":"Point","coordinates":[-84.520413,39.131084]}},{"properties":{"city":"Boulder","% international of total graduate students in engineering (2011)":"29%","zip":"0309-0017","institution":"University of Colorado (All Campuses)","type":"Public","geo_score":0.452,"id":"agj7wkuwz9y2","address":"Regent Drive at Broadway","geo_precision":"street","state":"Colorado","international graduate students in engineering (2011)":404},"type":"Feature","geometry":{"type":"Point","coordinates":[-105.266185,40.003879]}},{"properties":{"city":"Gainesville","% international of total graduate students in engineering (2011)":"67%","zip":"32611-3115","institution":"University of Florida","type":"Public","geo_score":0.663,"id":"agj7wkruggf5","address":"355 Tigert Hall","geo_precision":"range","state":"Florida","international graduate students in engineering (2011)":1635},"type":"Feature","geometry":{"type":"Point","coordinates":[-82.025395,29.78354]}},{"properties":{"city":"Houston","% international of total graduate students in engineering (2011)":"80%","zip":"77204-2018","institution":"University of Houston","type":"Public","geo_score":0.714,"id":"agj7wkx8a9wl","address":"212 E. Cullen Building","geo_precision":"zip","state":"Texas","international graduate students in engineering (2011)":388},"type":"Feature","geometry":{"type":"Point","coordinates":[-95.434241,29.83399]}},{"properties":{"city":"Champaign","% international of total graduate students in engineering (2011)":"58%","zip":"61820","institution":"University of Illinois at Urbana-Champaign","type":"Public","geo_score":0.893,"id":"agj7wl26s9rx","address":"601 E John Street","geo_precision":"range","state":"Illinois","international graduate students in engineering (2011)":1147},"type":"Feature","geometry":{"type":"Point","coordinates":[-88.228875,40.109083]}},{"properties":{"city":"College Park","% international of total graduate students in engineering (2011)":"61%","zip":"20742","institution":"University of Maryland at College Park","type":"Public","geo_score":0.902,"id":"agj7wkzzl2ue","address":"8082 Baltimore Ave","geo_precision":"range","state":"Maryland","international graduate students in engineering (2011)":797},"type":"Feature","geometry":{"type":"Point","coordinates":[-76.936349,38.987075]}},{"properties":{"city":"Ann Arbor","% international of total graduate students in engineering (2011)":"56%","zip":"48109","institution":"University of Michigan (All Campuses)","type":"Public","geo_score":0.893,"id":"agj7wkupvfcm","address":"503 Thompson Street","geo_precision":"range","state":"Michigan","international graduate students in engineering (2011)":1248},"type":"Feature","geometry":{"type":"Point","coordinates":[-83.743054,42.275555]}},{"properties":{"city":"Minneapolis","% international of total graduate students in engineering (2011)":"58%","zip":"55455","institution":"University of Minnesota (All Campuses)","type":"Public","geo_score":0.894,"id":"agj7wkof7hh7","address":"100 Church Street SE","geo_precision":"range","state":"Minnesota","international graduate students in engineering (2011)":668},"type":"Feature","geometry":{"type":"Point","coordinates":[-93.233875,44.973891]}},{"properties":{"city":"Los Angeles","% international of total graduate students in engineering (2011)":"76%","zip":"90089","institution":"University of Southern California","type":"Private not-for-profit","geo_score":0.76,"id":"agj7wksswf17","address":"University Park","geo_precision":"street","state":"California","international graduate students in engineering (2011)":1523},"type":"Feature","geometry":{"type":"Point","coordinates":[-118.280388,34.028749]}},{"properties":{"city":"Arlington","% international of total graduate students in engineering (2011)":"83%","zip":"76013","institution":"University of Texas at Arlington","type":"Public","geo_score":0.445,"id":"agj7wkpv0ca7","address":"701 S. Nedderman Dr.","geo_precision":"street","state":"Texas","international graduate students in engineering (2011)":616},"type":"Feature","geometry":{"type":"Point","coordinates":[-97.116374,32.734155]}},{"properties":{"city":"Austin","% international of total graduate students in engineering (2011)":"54%","zip":"78712","institution":"University of Texas at Austin","type":"Public","geo_score":0.81,"id":"agj7wktv0aw0","address":"2400 Inner Campus Drive","geo_precision":"range","state":"Texas","international graduate students in engineering (2011)":989},"type":"Feature","geometry":{"type":"Point","coordinates":[-97.729951,30.287502]}},{"properties":{"city":"Richardson","% international of total graduate students in engineering (2011)":"81%","zip":"75080","institution":"University of Texas at Dallas","type":"Public","geo_score":0.894,"id":"agj7wkzug85b","address":"800 West Campbell Road","geo_precision":"range","state":"Texas","international graduate students in engineering (2011)":505},"type":"Feature","geometry":{"type":"Point","coordinates":[-96.75089,32.978114]}},{"properties":{"city":"Madison","% international of total graduate students in engineering (2011)":"47%","zip":"53706","institution":"University of Wisconsin-Madison","type":"Public","geo_score":0.89,"id":"agj7wkqmqoup","address":"500 Lincoln Dr","geo_precision":"range","state":"Wisconsin","international graduate students in engineering (2011)":564},"type":"Feature","geometry":{"type":"Point","coordinates":[-89.403266,43.074833]}},{"properties":{"city":"Blacksburg","% international of total graduate students in engineering (2011)":"47%","zip":"24061","institution":"Virginia Polytechnic Institute and State University","type":"Public","geo_score":0.61,"id":"agj7wkwmayyz","address":"222 Burruss Hall","geo_precision":"street","state":"Virginia","international graduate students in engineering (2011)":698},"type":"Feature","geometry":{"type":"Point","coordinates":[-80.430388,37.233775]}}],"is_temporal":false,"author":{"url":"","metadata":"","contact_name":"","contact_address":"","source":"National Science Foundation, Survey of Graduate Students and Postdoctorate.","contact_phone":""},"source":"","pagination":{"sort":null,"start":0,"total":50,"limit":1000000},"state":"complete","tags":"","published":"2014-08-16T21:19:30-04:00","id":387165}