{"type":"FeatureCollection","data_type":"Dataset","url_type":null,"permissions":[{"permissions":{"download":true,"view":true},"group_id":"everyone"}],"classification":null,"title":"zip_codes_and_counties","count":493,"stream_id":387234,"contributor":{"url":"http://geocommons.com/users/80116","name":"nikkimadsen"},"data_attributes":null,"calculation_params":null,"icon_link":null,"link":"http://geocommons.com/overlays/387234.json","extent":[-122.444,29.3507,-73.9345,48.9282],"geometry_types":["point"],"unique_name":null,"name":"zip_codes_and_counties","feature_count":493,"description":"","next_feature":null,"is_raster":false,"short_classification":"Y","stats":{},"features":[{"properties":{"zip":"11101","county":null,"geo_score":0.714,"id":"agjbylsz7npx","geo_precision":"zip"},"type":"Feature","geometry":{"type":"Point","coordinates":[-73.934502,40.744622]}},{"properties":{"zip":"13201","county":null,"geo_score":0.714,"id":"agjbylktg7d0","geo_precision":"zip"},"type":"Feature","geometry":{"type":"Point","coordinates":[-76.197701,43.02143]}},{"properties":{"zip":"18421","county":null,"geo_score":0.714,"id":"agjbylifsohg","geo_precision":"zip"},"type":"Feature","geometry":{"type":"Point","coordinates":[-75.481572,41.637305]}},{"properties":{"zip":"20013","county":null,"geo_score":0.714,"id":"agjbyllt1dtn","geo_precision":"zip"},"type":"Feature","geometry":{"type":"Point","coordinates":[-77.014647,38.893311]}},{"properties":{"zip":"20787","county":null,"geo_score":0.714,"id":"agjbylwb6k9i","geo_precision":"zip"},"type":"Feature","geometry":{"type":"Point","coordinates":[-76.982405,38.98707]}},{"properties":{"zip":"20883","county":null,"geo_score":0.714,"id":"agjbylrjjcqm","geo_precision":"zip"},"type":"Feature","geometry":{"type":"Point","coordinates":[-77.201371,39.143441]}},{"properties":{"zip":"21203","county":null,"geo_score":0.714,"id":"agjbyliqmxah","geo_precision":"zip"},"type":"Feature","geometry":{"type":"Point","coordinates":[-76.620489,39.284707]}},{"properties":{"zip":"22980","county":null,"geo_score":0.714,"id":"agjbylir3r9a","geo_precision":"zip"},"type":"Feature","geometry":{"type":"Point","coordinates":[-78.88058,38.139578]}},{"properties":{"zip":"23218","county":null,"geo_score":0.714,"id":"agjbylntfk43","geo_precision":"zip"},"type":"Feature","geometry":{"type":"Point","coordinates":[-77.493157,37.524246]}},{"properties":{"zip":"23218","county":null,"geo_score":0.714,"id":"agjbylw2u8dn","geo_precision":"zip"},"type":"Feature","geometry":{"type":"Point","coordinates":[-77.493157,37.524246]}},{"properties":{"zip":"23218","county":null,"geo_score":0.714,"id":"agjbylqohe7d","geo_precision":"zip"},"type":"Feature","geometry":{"type":"Point","coordinates":[-77.493157,37.524246]}},{"properties":{"zip":"24416","county":null,"geo_score":0.714,"id":"agjbylio24m1","geo_precision":"zip"},"type":"Feature","geometry":{"type":"Point","coordinates":[-79.283367,37.901243]}},{"properties":{"zip":"27602","county":null,"geo_score":0.714,"id":"agjbylspmse1","geo_precision":"zip"},"type":"Feature","geometry":{"type":"Point","coordinates":[-78.671089,35.758667]}},{"properties":{"zip":"28150","county":null,"geo_score":0.714,"id":"agjbylhnhfaz","geo_precision":"zip"},"type":"Feature","geometry":{"type":"Point","coordinates":[-81.629261,35.330961]}},{"properties":{"zip":"29731","county":null,"geo_score":0.714,"id":"agjbylpk2nzb","geo_precision":"zip"},"type":"Feature","geometry":{"type":"Point","coordinates":[-81.178712,34.992612]}},{"properties":{"zip":"30302","county":null,"geo_score":0.714,"id":"agjbylxg3tsv","geo_precision":"zip"},"type":"Feature","geometry":{"type":"Point","coordinates":[-84.47405,33.844371]}},{"properties":{"zip":"31902","county":null,"geo_score":0.714,"id":"agjbylnet4ua","geo_precision":"zip"},"type":"Feature","geometry":{"type":"Point","coordinates":[-84.955843,32.524252]}},{"properties":{"zip":"32203","county":null,"geo_score":0.714,"id":"agjbylw413v4","geo_precision":"zip"},"type":"Feature","geometry":{"type":"Point","coordinates":[-81.547044,30.32281]}},{"properties":{"zip":"32302","county":null,"geo_score":0.714,"id":"agjbylpr4u0k","geo_precision":"zip"},"type":"Feature","geometry":{"type":"Point","coordinates":[-84.346204,30.479347]}},{"properties":{"zip":"32302","county":null,"geo_score":0.714,"id":"agjbylvsrplp","geo_precision":"zip"},"type":"Feature","geometry":{"type":"Point","coordinates":[-84.346204,30.479347]}},{"properties":{"zip":"34692","county":null,"geo_score":0.0,"id":"agjbylt709tj","geo_precision":"unmatched"},"type":"Feature","geometry":null},{"properties":{"zip":"38101","county":null,"geo_score":0.714,"id":"agjbyljp4ezo","geo_precision":"zip"},"type":"Feature","geometry":{"type":"Point","coordinates":[-89.847782,35.050667]}},{"properties":{"zip":"45201","county":null,"geo_score":0.714,"id":"agjbyljgsd62","geo_precision":"zip"},"type":"Feature","geometry":{"type":"Point","coordinates":[-84.53822,39.166759]}},{"properties":{"zip":"45805","county":null,"geo_score":0.714,"id":"agjbylqq2uge","geo_precision":"zip"},"type":"Feature","geometry":{"type":"Point","coordinates":[-84.169749,40.733043]}},{"properties":{"zip":"48082","county":null,"geo_score":0.714,"id":"agjbyliivwlz","geo_precision":"zip"},"type":"Feature","geometry":{"type":"Point","coordinates":[-82.884117,42.526935]}},{"properties":{"zip":"50047","county":"Warren","geo_score":0.714,"id":"agjbylvgkdl7","geo_precision":"zip"},"type":"Feature","geometry":{"type":"Point","coordinates":[-93.520445,41.416785]}},{"properties":{"zip":"50131","county":"Polk","geo_score":0.714,"id":"agjbylrx3ii5","geo_precision":"zip"},"type":"Feature","geometry":{"type":"Point","coordinates":[-93.732559,41.714435]}},{"properties":{"zip":"50138","county":"Marion","geo_score":0.714,"id":"agjbylm47nbq","geo_precision":"zip"},"type":"Feature","geometry":{"type":"Point","coordinates":[-93.104232,41.295893]}},{"properties":{"zip":"50301","county":"Polk","geo_score":0.714,"id":"agjbylnvo4i0","geo_precision":"zip"},"type":"Feature","geometry":{"type":"Point","coordinates":[-93.572173,41.672687]}},{"properties":{"zip":"50301","county":"Polk","geo_score":0.714,"id":"agjbylpehchi","geo_precision":"zip"},"type":"Feature","geometry":{"type":"Point","coordinates":[-93.572173,41.672687]}},{"properties":{"zip":"50306","county":"Polk","geo_score":0.714,"id":"agjbylmx3nik","geo_precision":"zip"},"type":"Feature","geometry":{"type":"Point","coordinates":[-93.572173,41.672687]}},{"properties":{"zip":"50311","county":"Polk","geo_score":0.714,"id":"agjbyluq4mhj","geo_precision":"zip"},"type":"Feature","geometry":{"type":"Point","coordinates":[-93.71657,41.63998]}},{"properties":{"zip":"50311","county":"Polk","geo_score":0.714,"id":"agjbylp3x9qc","geo_precision":"zip"},"type":"Feature","geometry":{"type":"Point","coordinates":[-93.71657,41.63998]}},{"properties":{"zip":"50313","county":"Polk","geo_score":0.714,"id":"agjbylqtje2u","geo_precision":"zip"},"type":"Feature","geometry":{"type":"Point","coordinates":[-93.600773,41.656655]}},{"properties":{"zip":"50313","county":"Polk","geo_score":0.714,"id":"agjbylpjkyp4","geo_precision":"zip"},"type":"Feature","geometry":{"type":"Point","coordinates":[-93.600773,41.656655]}},{"properties":{"zip":"50704","county":"Black Hawk","geo_score":0.714,"id":"agjbylwao2n8","geo_precision":"zip"},"type":"Feature","geometry":{"type":"Point","coordinates":[-92.309475,42.469768]}},{"properties":{"zip":"51105","county":"Woodbury","geo_score":0.714,"id":"agjbylnuhtg6","geo_precision":"zip"},"type":"Feature","geometry":{"type":"Point","coordinates":[-96.403691,42.481003]}},{"properties":{"zip":"51247","county":"Sioux","geo_score":0.714,"id":"agjbylnsd2s1","geo_precision":"zip"},"type":"Feature","geometry":{"type":"Point","coordinates":[-96.204802,43.084636]}},{"properties":{"zip":"52244","county":"Johnson","geo_score":0.714,"id":"agjbyloafhjl","geo_precision":"zip"},"type":"Feature","geometry":{"type":"Point","coordinates":[-91.661901,41.572682]}},{"properties":{"zip":"52246","county":"Johnson","geo_score":0.714,"id":"agjbylhynelc","geo_precision":"zip"},"type":"Feature","geometry":{"type":"Point","coordinates":[-91.556835,41.655016]}},{"properties":{"zip":"52402","county":"Linn","geo_score":0.714,"id":"agjbylp3uuny","geo_precision":"zip"},"type":"Feature","geometry":{"type":"Point","coordinates":[-91.681029,42.020105]}},{"properties":{"zip":"52403","county":"Linn","geo_score":0.714,"id":"agjbylrr07s5","geo_precision":"zip"},"type":"Feature","geometry":{"type":"Point","coordinates":[-91.58127,41.972936]}},{"properties":{"zip":"52601","county":"Des Moines","geo_score":0.714,"id":"agjbylpyc42j","geo_precision":"zip"},"type":"Feature","geometry":{"type":"Point","coordinates":[-91.158202,40.739762]}},{"properties":{"zip":"52632","county":"Lee","geo_score":0.714,"id":"agjbylsnu4s5","geo_precision":"zip"},"type":"Feature","geometry":{"type":"Point","coordinates":[-91.471682,40.584716]}},{"properties":{"zip":"52761","county":"Muscatine","geo_score":0.714,"id":"agjbylqb7ssx","geo_precision":"zip"},"type":"Feature","geometry":{"type":"Point","coordinates":[-90.872091,41.524474]}},{"properties":{"zip":"52805","county":"Scott","geo_score":0.714,"id":"agjbyls9g0f3","geo_precision":"zip"},"type":"Feature","geometry":{"type":"Point","coordinates":[-90.679029,41.465588]}},{"properties":{"zip":"53141","county":"Kenosha","geo_score":0.714,"id":"agjbylltbznc","geo_precision":"zip"},"type":"Feature","geometry":{"type":"Point","coordinates":[-87.662878,42.58098]}},{"properties":{"zip":"54002","county":"St. Croix","geo_score":0.714,"id":"agjbylkd3uxr","geo_precision":"zip"},"type":"Feature","geometry":{"type":"Point","coordinates":[-92.441061,44.969171]}},{"properties":{"zip":"54016","county":"St. Croix","geo_score":0.714,"id":"agjbylsd7sxa","geo_precision":"zip"},"type":"Feature","geometry":{"type":"Point","coordinates":[-92.667146,45.021634]}},{"properties":{"zip":"54021","county":"Pierce","geo_score":0.714,"id":"agjbyllkuj9h","geo_precision":"zip"},"type":"Feature","geometry":{"type":"Point","coordinates":[-92.640483,44.747209]}},{"properties":{"zip":"54024","county":"Polk","geo_score":0.714,"id":"agjbyllbul0q","geo_precision":"zip"},"type":"Feature","geometry":{"type":"Point","coordinates":[-92.722711,45.55607]}},{"properties":{"zip":"54451","county":"Taylor","geo_score":0.714,"id":"agjbylx0ajdy","geo_precision":"zip"},"type":"Feature","geometry":{"type":"Point","coordinates":[-90.61486,45.204139]}},{"properties":{"zip":"54559","county":"Iron","geo_score":0.714,"id":"agjbylw3k5sz","geo_precision":"zip"},"type":"Feature","geometry":{"type":"Point","coordinates":[-90.402719,46.502552]}},{"properties":{"zip":"54603","county":"LaCrosse","geo_score":0.714,"id":"agjbylq10an4","geo_precision":"zip"},"type":"Feature","geometry":{"type":"Point","coordinates":[-91.246238,43.853763]}},{"properties":{"zip":"54615","county":"Jackson","geo_score":0.714,"id":"agjbylhxt51p","geo_precision":"zip"},"type":"Feature","geometry":{"type":"Point","coordinates":[-90.754863,44.346073]}},{"properties":{"zip":"54650","county":"LaCrosse","geo_score":0.714,"id":"agjbylqumxah","geo_precision":"zip"},"type":"Feature","geometry":{"type":"Point","coordinates":[-91.257919,43.92913]}},{"properties":{"zip":"54702","county":"Eau Claire","geo_score":0.714,"id":"agjbylmmiard","geo_precision":"zip"},"type":"Feature","geometry":{"type":"Point","coordinates":[-91.285931,44.726626]}},{"properties":{"zip":"54702","county":"Eau Claire","geo_score":0.714,"id":"agjbyll08wg0","geo_precision":"zip"},"type":"Feature","geometry":{"type":"Point","coordinates":[-91.285931,44.726626]}},{"properties":{"zip":"54703","county":"Eau Claire","geo_score":0.714,"id":"agjbylxsuvc1","geo_precision":"zip"},"type":"Feature","geometry":{"type":"Point","coordinates":[-91.477897,44.80456]}},{"properties":{"zip":"54703","county":"Eau Claire","geo_score":0.714,"id":"agjbylijeng1","geo_precision":"zip"},"type":"Feature","geometry":{"type":"Point","coordinates":[-91.477897,44.80456]}},{"properties":{"zip":"54703","county":"Eau Claire","geo_score":0.714,"id":"agjbylo1ivuf","geo_precision":"zip"},"type":"Feature","geometry":{"type":"Point","coordinates":[-91.477897,44.80456]}},{"properties":{"zip":"54703","county":"Eau Claire","geo_score":0.714,"id":"agjbylutzrgg","geo_precision":"zip"},"type":"Feature","geometry":{"type":"Point","coordinates":[-91.477897,44.80456]}},{"properties":{"zip":"54729","county":"Chippewa","geo_score":0.714,"id":"agjbylqpjdzp","geo_precision":"zip"},"type":"Feature","geometry":{"type":"Point","coordinates":[-91.26793,44.931073]}},{"properties":{"zip":"54736","county":"Pepin","geo_score":0.714,"id":"agjbylwt6mr2","geo_precision":"zip"},"type":"Feature","geometry":{"type":"Point","coordinates":[-91.843221,44.596631]}},{"properties":{"zip":"54748","county":"Chippewa","geo_score":0.714,"id":"agjbylm1wjp2","geo_precision":"zip"},"type":"Feature","geometry":{"type":"Point","coordinates":[-91.256794,45.088875]}},{"properties":{"zip":"54751","county":"Dunn","geo_score":0.714,"id":"agjbylk17cw7","geo_precision":"zip"},"type":"Feature","geometry":{"type":"Point","coordinates":[-91.931843,44.897741]}},{"properties":{"zip":"54829","county":"Barron","geo_score":0.714,"id":"agjbyls3d6wt","geo_precision":"zip"},"type":"Feature","geometry":{"type":"Point","coordinates":[-91.899489,45.42772]}},{"properties":{"zip":"54830","county":"Burnett","geo_score":0.714,"id":"agjbylu6x69t","geo_precision":"zip"},"type":"Feature","geometry":{"type":"Point","coordinates":[-92.132688,46.009388]}},{"properties":{"zip":"54837","county":"Polk","geo_score":0.714,"id":"agjbyllm85pa","geo_precision":"zip"},"type":"Feature","geometry":{"type":"Point","coordinates":[-92.592981,45.689676]}},{"properties":{"zip":"54847","county":"Bayfield","geo_score":0.714,"id":"agjbylk6avl0","geo_precision":"zip"},"type":"Feature","geometry":{"type":"Point","coordinates":[-91.437437,46.599552]}},{"properties":{"zip":"54848","county":"Rusk","geo_score":0.714,"id":"agjbyltominf","geo_precision":"zip"},"type":"Feature","geometry":{"type":"Point","coordinates":[-91.0943,45.490835]}},{"properties":{"zip":"54853","county":"Polk","geo_score":0.714,"id":"agjbylu0gi16","geo_precision":"zip"},"type":"Feature","geometry":{"type":"Point","coordinates":[-92.59076,45.635511]}},{"properties":{"zip":"54861","county":"Ashland","geo_score":0.714,"id":"agjbylkd8uon","geo_precision":"zip"},"type":"Feature","geometry":{"type":"Point","coordinates":[-90.575461,46.53828]}},{"properties":{"zip":"54880","county":"Douglas","geo_score":0.714,"id":"agjbyljyqk9v","geo_precision":"zip"},"type":"Feature","geometry":{"type":"Point","coordinates":[-92.124358,46.718274]}},{"properties":{"zip":"54880","county":"Douglas","geo_score":0.714,"id":"agjbylo25x5v","geo_precision":"zip"},"type":"Feature","geometry":{"type":"Point","coordinates":[-92.124358,46.718274]}},{"properties":{"zip":"54880","county":"Douglas","geo_score":0.714,"id":"agjbylvayqtb","geo_precision":"zip"},"type":"Feature","geometry":{"type":"Point","coordinates":[-92.124358,46.718274]}},{"properties":{"zip":"54880","county":"Douglas","geo_score":0.714,"id":"agjbyllleip9","geo_precision":"zip"},"type":"Feature","geometry":{"type":"Point","coordinates":[-92.124358,46.718274]}},{"properties":{"zip":"55008","county":"Isanti","geo_score":0.714,"id":"agjbyljp8xbr","geo_precision":"zip"},"type":"Feature","geometry":{"type":"Point","coordinates":[-93.38912,45.557742]}},{"properties":{"zip":"55009","county":"Goodhue","geo_score":0.714,"id":"agjbyltcb8ba","geo_precision":"zip"},"type":"Feature","geometry":{"type":"Point","coordinates":[-92.885609,44.483189]}},{"properties":{"zip":"55011","county":"Anoka","geo_score":0.714,"id":"agjbylpv51m7","geo_precision":"zip"},"type":"Feature","geometry":{"type":"Point","coordinates":[-93.235026,45.341448]}},{"properties":{"zip":"55012","county":"Chisago","geo_score":0.714,"id":"agjbylkqwrm1","geo_precision":"zip"},"type":"Feature","geometry":{"type":"Point","coordinates":[-92.789369,45.448211]}},{"properties":{"zip":"55014","county":"Anoka","geo_score":0.714,"id":"agjbylwybbej","geo_precision":"zip"},"type":"Feature","geometry":{"type":"Point","coordinates":[-93.129272,45.185565]}},{"properties":{"zip":"55014","county":"Anoka","geo_score":0.714,"id":"agjbyloyc6gt","geo_precision":"zip"},"type":"Feature","geometry":{"type":"Point","coordinates":[-93.129272,45.185565]}},{"properties":{"zip":"55016","county":"Washington","geo_score":0.714,"id":"agjbyloc8kwu","geo_precision":"zip"},"type":"Feature","geometry":{"type":"Point","coordinates":[-92.881597,44.841634]}},{"properties":{"zip":"55016","county":"Washington","geo_score":0.714,"id":"agjbylhu16z9","geo_precision":"zip"},"type":"Feature","geometry":{"type":"Point","coordinates":[-92.881597,44.841634]}},{"properties":{"zip":"55021","county":"Rice","geo_score":0.714,"id":"agjbylkk01mt","geo_precision":"zip"},"type":"Feature","geometry":{"type":"Point","coordinates":[-93.267456,44.36287]}},{"properties":{"zip":"55021","county":"Rice","geo_score":0.714,"id":"agjbyls8tabl","geo_precision":"zip"},"type":"Feature","geometry":{"type":"Point","coordinates":[-93.267456,44.36287]}},{"properties":{"zip":"55021","county":"Rice","geo_score":0.714,"id":"agjbylnsj61m","geo_precision":"zip"},"type":"Feature","geometry":{"type":"Point","coordinates":[-93.267456,44.36287]}},{"properties":{"zip":"55024","county":"Dakota","geo_score":0.714,"id":"agjbylq1z8sy","geo_precision":"zip"},"type":"Feature","geometry":{"type":"Point","coordinates":[-93.014657,44.659134]}},{"properties":{"zip":"55033","county":"Dakota","geo_score":0.714,"id":"agjbylrihtiy","geo_precision":"zip"},"type":"Feature","geometry":{"type":"Point","coordinates":[-92.817981,44.751079]}},{"properties":{"zip":"55038","county":"Washington","geo_score":0.714,"id":"agjbylhj2ozg","geo_precision":"zip"},"type":"Feature","geometry":{"type":"Point","coordinates":[-92.945218,45.182366]}},{"properties":{"zip":"55044","county":"Dakota","geo_score":0.714,"id":"agjbylkz8gax","geo_precision":"zip"},"type":"Feature","geometry":{"type":"Point","coordinates":[-93.265499,44.66302]}},{"properties":{"zip":"55046","county":"Rice","geo_score":0.714,"id":"agjbylrhnjn4","geo_precision":"zip"},"type":"Feature","geometry":{"type":"Point","coordinates":[-93.425156,44.447704]}},{"properties":{"zip":"55057","county":"Rice","geo_score":0.714,"id":"agjbyllxp2sc","geo_precision":"zip"},"type":"Feature","geometry":{"type":"Point","coordinates":[-93.286054,44.522464]}},{"properties":{"zip":"55060","county":"Steele","geo_score":0.714,"id":"agjbylns7dhd","geo_precision":"zip"},"type":"Feature","geometry":{"type":"Point","coordinates":[-93.18604,43.947184]}},{"properties":{"zip":"55060","county":"Steele","geo_score":0.714,"id":"agjbylwefdf3","geo_precision":"zip"},"type":"Feature","geometry":{"type":"Point","coordinates":[-93.18604,43.947184]}},{"properties":{"zip":"55066","county":"Goodhue","geo_score":0.714,"id":"agjbylj9w6t9","geo_precision":"zip"},"type":"Feature","geometry":{"type":"Point","coordinates":[-92.543801,44.491912]}},{"properties":{"zip":"55066","county":"Goodhue","geo_score":0.714,"id":"agjbyluaykwq","geo_precision":"zip"},"type":"Feature","geometry":{"type":"Point","coordinates":[-92.543801,44.491912]}},{"properties":{"zip":"55068","county":"Fairbault","geo_score":0.714,"id":"agjbylt6mp3s","geo_precision":"zip"},"type":"Feature","geometry":{"type":"Point","coordinates":[-93.076163,44.661216]}},{"properties":{"zip":"55068","county":"Fairbault","geo_score":0.714,"id":"agjbylqhz7q9","geo_precision":"zip"},"type":"Feature","geometry":{"type":"Point","coordinates":[-93.076163,44.661216]}},{"properties":{"zip":"55070","county":"Anoka","geo_score":0.714,"id":"agjbylxr6usd","geo_precision":"zip"},"type":"Feature","geometry":{"type":"Point","coordinates":[-93.357614,45.393554]}},{"properties":{"zip":"55070","county":"Anoka","geo_score":0.714,"id":"agjbyllz76q0","geo_precision":"zip"},"type":"Feature","geometry":{"type":"Point","coordinates":[-93.357614,45.393554]}},{"properties":{"zip":"55075","county":"Dakota","geo_score":0.714,"id":"agjbylmcckp3","geo_precision":"zip"},"type":"Feature","geometry":{"type":"Point","coordinates":[-93.043825,44.746078]}},{"properties":{"zip":"55077","county":"Dakota","geo_score":0.714,"id":"agjbylutf5rd","geo_precision":"zip"},"type":"Feature","geometry":{"type":"Point","coordinates":[-93.093969,44.828265]}},{"properties":{"zip":"55080","county":"Isanti","geo_score":0.714,"id":"agjbylumr6uy","geo_precision":"zip"},"type":"Feature","geometry":{"type":"Point","coordinates":[-93.306894,45.630518]}},{"properties":{"zip":"55101","county":"Ramsey","geo_score":0.714,"id":"agjbylxz8wjj","geo_precision":"zip"},"type":"Feature","geometry":{"type":"Point","coordinates":[-93.092168,44.967965]}},{"properties":{"zip":"55101","county":"Ramsey","geo_score":0.714,"id":"agjbylrt32yf","geo_precision":"zip"},"type":"Feature","geometry":{"type":"Point","coordinates":[-93.092168,44.967965]}},{"properties":{"zip":"55101","county":"Ramsey","geo_score":0.714,"id":"agjbylhh6k2v","geo_precision":"zip"},"type":"Feature","geometry":{"type":"Point","coordinates":[-93.092168,44.967965]}},{"properties":{"zip":"55101","county":"Ramsey","geo_score":0.714,"id":"agjbylqejlm3","geo_precision":"zip"},"type":"Feature","geometry":{"type":"Point","coordinates":[-93.092168,44.967965]}},{"properties":{"zip":"55101","county":"Ramsey","geo_score":0.714,"id":"agjbylsf9ven","geo_precision":"zip"},"type":"Feature","geometry":{"type":"Point","coordinates":[-93.092168,44.967965]}},{"properties":{"zip":"55101","county":"Ramsey","geo_score":0.714,"id":"agjbylslyflm","geo_precision":"zip"},"type":"Feature","geometry":{"type":"Point","coordinates":[-93.092168,44.967965]}},{"properties":{"zip":"55101","county":"Ramsey","geo_score":0.714,"id":"agjbylor1xnd","geo_precision":"zip"},"type":"Feature","geometry":{"type":"Point","coordinates":[-93.092168,44.967965]}},{"properties":{"zip":"55101","county":"Ramsey","geo_score":0.714,"id":"agjbymec35v6","geo_precision":"zip"},"type":"Feature","geometry":{"type":"Point","coordinates":[-93.092168,44.967965]}},{"properties":{"zip":"55101","county":"Ramsey","geo_score":0.714,"id":"agjbymb5baxv","geo_precision":"zip"},"type":"Feature","geometry":{"type":"Point","coordinates":[-93.092168,44.967965]}},{"properties":{"zip":"55101","county":"Ramsey","geo_score":0.714,"id":"agjbym5jwkc4","geo_precision":"zip"},"type":"Feature","geometry":{"type":"Point","coordinates":[-93.092168,44.967965]}},{"properties":{"zip":"55101","county":"Ramsey","geo_score":0.714,"id":"agjbym4mtlk7","geo_precision":"zip"},"type":"Feature","geometry":{"type":"Point","coordinates":[-93.092168,44.967965]}},{"properties":{"zip":"55101","county":"Ramsey","geo_score":0.714,"id":"agjbym6315l5","geo_precision":"zip"},"type":"Feature","geometry":{"type":"Point","coordinates":[-93.092168,44.967965]}},{"properties":{"zip":"55101","county":"Ramsey","geo_score":0.714,"id":"agjbym2qwaop","geo_precision":"zip"},"type":"Feature","geometry":{"type":"Point","coordinates":[-93.092168,44.967965]}},{"properties":{"zip":"55101","county":"Ramsey","geo_score":0.714,"id":"agjbymcinv14","geo_precision":"zip"},"type":"Feature","geometry":{"type":"Point","coordinates":[-93.092168,44.967965]}},{"properties":{"zip":"55101","county":"Ramsey","geo_score":0.714,"id":"agjbym2dfpsn","geo_precision":"zip"},"type":"Feature","geometry":{"type":"Point","coordinates":[-93.092168,44.967965]}},{"properties":{"zip":"55101","county":"Ramsey","geo_score":0.714,"id":"agjbylyw3uwr","geo_precision":"zip"},"type":"Feature","geometry":{"type":"Point","coordinates":[-93.092168,44.967965]}},{"properties":{"zip":"55101","county":"Ramsey","geo_score":0.714,"id":"agjbym18iwuw","geo_precision":"zip"},"type":"Feature","geometry":{"type":"Point","coordinates":[-93.092168,44.967965]}},{"properties":{"zip":"55101","county":"Ramsey","geo_score":0.714,"id":"agjbymarefa9","geo_precision":"zip"},"type":"Feature","geometry":{"type":"Point","coordinates":[-93.092168,44.967965]}},{"properties":{"zip":"55101","county":"Ramsey","geo_score":0.714,"id":"agjbym17puqt","geo_precision":"zip"},"type":"Feature","geometry":{"type":"Point","coordinates":[-93.092168,44.967965]}},{"properties":{"zip":"55101","county":"Ramsey","geo_score":0.714,"id":"agjbym3gh6n2","geo_precision":"zip"},"type":"Feature","geometry":{"type":"Point","coordinates":[-93.092168,44.967965]}},{"properties":{"zip":"55101","county":"Ramsey","geo_score":0.714,"id":"agjbym15uki8","geo_precision":"zip"},"type":"Feature","geometry":{"type":"Point","coordinates":[-93.092168,44.967965]}},{"properties":{"zip":"55101","county":"Ramsey","geo_score":0.714,"id":"agjbym4myjyu","geo_precision":"zip"},"type":"Feature","geometry":{"type":"Point","coordinates":[-93.092168,44.967965]}},{"properties":{"zip":"55101","county":"Ramsey","geo_score":0.714,"id":"agjbym5qrp7c","geo_precision":"zip"},"type":"Feature","geometry":{"type":"Point","coordinates":[-93.092168,44.967965]}},{"properties":{"zip":"55101","county":"Ramsey","geo_score":0.714,"id":"agjbym1b28ft","geo_precision":"zip"},"type":"Feature","geometry":{"type":"Point","coordinates":[-93.092168,44.967965]}},{"properties":{"zip":"55101","county":"Ramsey","geo_score":0.714,"id":"agjbym3tqor8","geo_precision":"zip"},"type":"Feature","geometry":{"type":"Point","coordinates":[-93.092168,44.967965]}},{"properties":{"zip":"55101","county":"Ramsey","geo_score":0.714,"id":"agjbym1eu88j","geo_precision":"zip"},"type":"Feature","geometry":{"type":"Point","coordinates":[-93.092168,44.967965]}},{"properties":{"zip":"55101","county":"Ramsey","geo_score":0.714,"id":"agjbyly3bwuc","geo_precision":"zip"},"type":"Feature","geometry":{"type":"Point","coordinates":[-93.092168,44.967965]}},{"properties":{"zip":"55101","county":"Ramsey","geo_score":0.714,"id":"agjbymbhl7lq","geo_precision":"zip"},"type":"Feature","geometry":{"type":"Point","coordinates":[-93.092168,44.967965]}},{"properties":{"zip":"55104","county":"Ramsey","geo_score":0.714,"id":"agjbym79tpww","geo_precision":"zip"},"type":"Feature","geometry":{"type":"Point","coordinates":[-93.16702,44.955615]}},{"properties":{"zip":"55104","county":"Ramsey","geo_score":0.714,"id":"agjbym4t5u4u","geo_precision":"zip"},"type":"Feature","geometry":{"type":"Point","coordinates":[-93.16702,44.955615]}},{"properties":{"zip":"55104","county":"Ramsey","geo_score":0.714,"id":"agjbym8eho0r","geo_precision":"zip"},"type":"Feature","geometry":{"type":"Point","coordinates":[-93.16702,44.955615]}},{"properties":{"zip":"55104","county":"Ramsey","geo_score":0.714,"id":"agjbym963sd4","geo_precision":"zip"},"type":"Feature","geometry":{"type":"Point","coordinates":[-93.16702,44.955615]}},{"properties":{"zip":"55105","county":"Ramsey","geo_score":0.714,"id":"agjbym375563","geo_precision":"zip"},"type":"Feature","geometry":{"type":"Point","coordinates":[-93.16097,44.934515]}},{"properties":{"zip":"55105","county":"Ramsey","geo_score":0.714,"id":"agjbylyxtrra","geo_precision":"zip"},"type":"Feature","geometry":{"type":"Point","coordinates":[-93.16097,44.934515]}},{"properties":{"zip":"55106","county":"Ramsey","geo_score":0.714,"id":"agjbym9cpke4","geo_precision":"zip"},"type":"Feature","geometry":{"type":"Point","coordinates":[-93.041616,44.957065]}},{"properties":{"zip":"55106","county":"Ramsey","geo_score":0.714,"id":"agjbymebdykg","geo_precision":"zip"},"type":"Feature","geometry":{"type":"Point","coordinates":[-93.041616,44.957065]}},{"properties":{"zip":"55106","county":"Ramsey","geo_score":0.714,"id":"agjbym4umd9d","geo_precision":"zip"},"type":"Feature","geometry":{"type":"Point","coordinates":[-93.041616,44.957065]}},{"properties":{"zip":"55106","county":"Ramsey","geo_score":0.714,"id":"agjbym80ckcw","geo_precision":"zip"},"type":"Feature","geometry":{"type":"Point","coordinates":[-93.041616,44.957065]}},{"properties":{"zip":"55106","county":"Ramsey","geo_score":0.714,"id":"agjbyly21mvk","geo_precision":"zip"},"type":"Feature","geometry":{"type":"Point","coordinates":[-93.041616,44.957065]}},{"properties":{"zip":"55106","county":"Ramsey","geo_score":0.714,"id":"agjbym5zab3w","geo_precision":"zip"},"type":"Feature","geometry":{"type":"Point","coordinates":[-93.041616,44.957065]}},{"properties":{"zip":"55107","county":"Ramsey","geo_score":0.714,"id":"agjbym91nmv3","geo_precision":"zip"},"type":"Feature","geometry":{"type":"Point","coordinates":[-93.087967,44.932465]}},{"properties":{"zip":"55109","county":"Ramsey","geo_score":0.714,"id":"agjbylz1hu8n","geo_precision":"zip"},"type":"Feature","geometry":{"type":"Point","coordinates":[-93.043771,44.999281]}},{"properties":{"zip":"55109","county":"Ramsey","geo_score":0.714,"id":"agjbym9fljwo","geo_precision":"zip"},"type":"Feature","geometry":{"type":"Point","coordinates":[-93.043771,44.999281]}},{"properties":{"zip":"55109","county":"Ramsey","geo_score":0.714,"id":"agjbymdf63n3","geo_precision":"zip"},"type":"Feature","geometry":{"type":"Point","coordinates":[-93.043771,44.999281]}},{"properties":{"zip":"55109","county":"Ramsey","geo_score":0.714,"id":"agjbymb8mjda","geo_precision":"zip"},"type":"Feature","geometry":{"type":"Point","coordinates":[-93.043771,44.999281]}},{"properties":{"zip":"55109","county":"Ramsey","geo_score":0.714,"id":"agjbymdjtv3n","geo_precision":"zip"},"type":"Feature","geometry":{"type":"Point","coordinates":[-93.043771,44.999281]}},{"properties":{"zip":"55109","county":"Ramsey","geo_score":0.714,"id":"agjbym3islzs","geo_precision":"zip"},"type":"Feature","geometry":{"type":"Point","coordinates":[-93.043771,44.999281]}},{"properties":{"zip":"55109","county":"Ramsey","geo_score":0.714,"id":"agjbymctm99b","geo_precision":"zip"},"type":"Feature","geometry":{"type":"Point","coordinates":[-93.043771,44.999281]}},{"properties":{"zip":"55110","county":"Ramsey","geo_score":0.714,"id":"agjbym7lusfv","geo_precision":"zip"},"type":"Feature","geometry":{"type":"Point","coordinates":[-92.994661,45.069688]}},{"properties":{"zip":"55110","county":"Ramsey","geo_score":0.714,"id":"agjbymberbfq","geo_precision":"zip"},"type":"Feature","geometry":{"type":"Point","coordinates":[-92.994661,45.069688]}},{"properties":{"zip":"55110","county":"Ramsey","geo_score":0.714,"id":"agjbym3u0x84","geo_precision":"zip"},"type":"Feature","geometry":{"type":"Point","coordinates":[-92.994661,45.069688]}},{"properties":{"zip":"55113","county":"Ramsey","geo_score":0.714,"id":"agjbym34076k","geo_precision":"zip"},"type":"Feature","geometry":{"type":"Point","coordinates":[-93.166333,44.991632]}},{"properties":{"zip":"55113","county":"Ramsey","geo_score":0.714,"id":"agjbymakn8ei","geo_precision":"zip"},"type":"Feature","geometry":{"type":"Point","coordinates":[-93.166333,44.991632]}},{"properties":{"zip":"55113","county":"Ramsey","geo_score":0.714,"id":"agjbymeemsm5","geo_precision":"zip"},"type":"Feature","geometry":{"type":"Point","coordinates":[-93.166333,44.991632]}},{"properties":{"zip":"55114","county":"Ramsey","geo_score":0.714,"id":"agjbym5ooxis","geo_precision":"zip"},"type":"Feature","geometry":{"type":"Point","coordinates":[-93.194872,44.964115]}},{"properties":{"zip":"55115","county":"Washington","geo_score":0.714,"id":"agjbym1iepvn","geo_precision":"zip"},"type":"Feature","geometry":{"type":"Point","coordinates":[-92.954381,45.035799]}},{"properties":{"zip":"55116","county":"Ramsey","geo_score":0.714,"id":"agjbym0lfac7","geo_precision":"zip"},"type":"Feature","geometry":{"type":"Point","coordinates":[-93.165356,44.911215]}},{"properties":{"zip":"55117","county":"Ramsey","geo_score":0.714,"id":"agjbym14rxhz","geo_precision":"zip"},"type":"Feature","geometry":{"type":"Point","coordinates":[-93.106269,45.002115]}},{"properties":{"zip":"55117","county":"Ramsey","geo_score":0.714,"id":"agjbym6r0t4q","geo_precision":"zip"},"type":"Feature","geometry":{"type":"Point","coordinates":[-93.106269,45.002115]}},{"properties":{"zip":"55117","county":"Ramsey","geo_score":0.714,"id":"agjbym30abms","geo_precision":"zip"},"type":"Feature","geometry":{"type":"Point","coordinates":[-93.106269,45.002115]}},{"properties":{"zip":"55117","county":"Ramsey","geo_score":0.714,"id":"agjbym9hntv9","geo_precision":"zip"},"type":"Feature","geometry":{"type":"Point","coordinates":[-93.106269,45.002115]}},{"properties":{"zip":"55119","county":"Ramsey","geo_score":0.714,"id":"agjbylzrvnyu","geo_precision":"zip"},"type":"Feature","geometry":{"type":"Point","coordinates":[-92.976603,44.950799]}},{"properties":{"zip":"55121","county":"Dakota","geo_score":0.714,"id":"agjbymc9q73f","geo_precision":"zip"},"type":"Feature","geometry":{"type":"Point","coordinates":[-93.220499,44.822187]}},{"properties":{"zip":"55122","county":"Dakota","geo_score":0.714,"id":"agjbylzyjp0y","geo_precision":"zip"},"type":"Feature","geometry":{"type":"Point","coordinates":[-93.196769,44.804906]}},{"properties":{"zip":"55122","county":"Dakota","geo_score":0.714,"id":"agjbym0w6rvv","geo_precision":"zip"},"type":"Feature","geometry":{"type":"Point","coordinates":[-93.196769,44.804906]}},{"properties":{"zip":"55124","county":"Dakota","geo_score":0.714,"id":"agjbym0ochzc","geo_precision":"zip"},"type":"Feature","geometry":{"type":"Point","coordinates":[-93.21772,44.731909]}},{"properties":{"zip":"55125","county":"Washington","geo_score":0.714,"id":"agjbymdwcbt5","geo_precision":"zip"},"type":"Feature","geometry":{"type":"Point","coordinates":[-92.95938,44.923855]}},{"properties":{"zip":"55126","county":"Ramsey","geo_score":0.714,"id":"agjbylzyfph0","geo_precision":"zip"},"type":"Feature","geometry":{"type":"Point","coordinates":[-93.147167,45.079133]}},{"properties":{"zip":"55128","county":"Washington","geo_score":0.714,"id":"agjbym8mbdbt","geo_precision":"zip"},"type":"Feature","geometry":{"type":"Point","coordinates":[-92.964936,44.963022]}},{"properties":{"zip":"55128","county":"Washington","geo_score":0.714,"id":"agjbym7qccbv","geo_precision":"zip"},"type":"Feature","geometry":{"type":"Point","coordinates":[-92.964936,44.963022]}},{"properties":{"zip":"55130","county":"Ramsey","geo_score":0.714,"id":"agjbylz4hmdt","geo_precision":"zip"},"type":"Feature","geometry":{"type":"Point","coordinates":[-93.093274,44.94441]}},{"properties":{"zip":"55303","county":"Anoka","geo_score":0.714,"id":"agjbym24z0hq","geo_precision":"zip"},"type":"Feature","geometry":{"type":"Point","coordinates":[-93.191893,45.279966]}},{"properties":{"zip":"55303","county":"Anoka","geo_score":0.714,"id":"agjbym39tefi","geo_precision":"zip"},"type":"Feature","geometry":{"type":"Point","coordinates":[-93.191893,45.279966]}},{"properties":{"zip":"55304","county":"Anoka","geo_score":0.714,"id":"agjbym21ks5i","geo_precision":"zip"},"type":"Feature","geometry":{"type":"Point","coordinates":[-93.249951,45.250243]}},{"properties":{"zip":"55305","county":"Hennepin","geo_score":0.714,"id":"agjbym1587mc","geo_precision":"zip"},"type":"Feature","geometry":{"type":"Point","coordinates":[-93.43723,44.952763]}},{"properties":{"zip":"55305","county":"Hennepin","geo_score":0.714,"id":"agjbym262dl5","geo_precision":"zip"},"type":"Feature","geometry":{"type":"Point","coordinates":[-93.43723,44.952763]}},{"properties":{"zip":"55306","county":"Dakota","geo_score":0.714,"id":"agjbym3vl7gi","geo_precision":"zip"},"type":"Feature","geometry":{"type":"Point","coordinates":[-93.221535,44.762208]}},{"properties":{"zip":"55306","county":"Dakota","geo_score":0.714,"id":"agjbym57r3f0","geo_precision":"zip"},"type":"Feature","geometry":{"type":"Point","coordinates":[-93.221535,44.762208]}},{"properties":{"zip":"55308","county":"Sherburne","geo_score":0.714,"id":"agjbylz432e6","geo_precision":"zip"},"type":"Feature","geometry":{"type":"Point","coordinates":[-93.842187,45.451864]}},{"properties":{"zip":"55309","county":"Sherburne","geo_score":0.714,"id":"agjbym4s8ukj","geo_precision":"zip"},"type":"Feature","geometry":{"type":"Point","coordinates":[-93.686916,45.367294]}},{"properties":{"zip":"55316","county":"Hennepin","geo_score":0.714,"id":"agjbym1hjn0v","geo_precision":"zip"},"type":"Feature","geometry":{"type":"Point","coordinates":[-93.397481,45.176914]}},{"properties":{"zip":"55317","county":"Carver","geo_score":0.714,"id":"agjbym2viuc6","geo_precision":"zip"},"type":"Feature","geometry":{"type":"Point","coordinates":[-93.572584,44.853364]}},{"properties":{"zip":"55317","county":"Carver","geo_score":0.714,"id":"agjbym3p6mo0","geo_precision":"zip"},"type":"Feature","geometry":{"type":"Point","coordinates":[-93.572584,44.853364]}},{"properties":{"zip":"55318","county":"Carver","geo_score":0.714,"id":"agjbylzpcd63","geo_precision":"zip"},"type":"Feature","geometry":{"type":"Point","coordinates":[-93.688016,44.804963]}},{"properties":{"zip":"55331","county":"Hennepin","geo_score":0.714,"id":"agjbym787gfm","geo_precision":"zip"},"type":"Feature","geometry":{"type":"Point","coordinates":[-93.623186,44.912712]}},{"properties":{"zip":"55331","county":"Hennepin","geo_score":0.714,"id":"agjbym5zet7e","geo_precision":"zip"},"type":"Feature","geometry":{"type":"Point","coordinates":[-93.623186,44.912712]}},{"properties":{"zip":"55337","county":"Dakota","geo_score":0.714,"id":"agjbym1tvk0a","geo_precision":"zip"},"type":"Feature","geometry":{"type":"Point","coordinates":[-93.226258,44.771547]}},{"properties":{"zip":"55337","county":"Dakota","geo_score":0.714,"id":"agjbym1iftir","geo_precision":"zip"},"type":"Feature","geometry":{"type":"Point","coordinates":[-93.226258,44.771547]}},{"properties":{"zip":"55337","county":"Dakota","geo_score":0.714,"id":"agjbymc0lucg","geo_precision":"zip"},"type":"Feature","geometry":{"type":"Point","coordinates":[-93.226258,44.771547]}},{"properties":{"zip":"55340","county":"Hennepin","geo_score":0.714,"id":"agjbymdqpbdg","geo_precision":"zip"},"type":"Feature","geometry":{"type":"Point","coordinates":[-93.568735,45.073663]}},{"properties":{"zip":"55343","county":"Hennepin","geo_score":0.714,"id":"agjbym6v03g3","geo_precision":"zip"},"type":"Feature","geometry":{"type":"Point","coordinates":[-93.441897,44.941075]}},{"properties":{"zip":"55343","county":"Hennepin","geo_score":0.714,"id":"agjbym8bo4xx","geo_precision":"zip"},"type":"Feature","geometry":{"type":"Point","coordinates":[-93.441897,44.941075]}},{"properties":{"zip":"55343","county":"Hennepin","geo_score":0.714,"id":"agjbymbi30fq","geo_precision":"zip"},"type":"Feature","geometry":{"type":"Point","coordinates":[-93.441897,44.941075]}},{"properties":{"zip":"55345","county":"Hennepin","geo_score":0.714,"id":"agjbylzweq7w","geo_precision":"zip"},"type":"Feature","geometry":{"type":"Point","coordinates":[-93.481749,44.916963]}},{"properties":{"zip":"55346","county":"Hennepin","geo_score":0.714,"id":"agjbym3bu9ff","geo_precision":"zip"},"type":"Feature","geometry":{"type":"Point","coordinates":[-93.47808,44.875463]}},{"properties":{"zip":"55346","county":"Hennepin","geo_score":0.714,"id":"agjbym1xatg9","geo_precision":"zip"},"type":"Feature","geometry":{"type":"Point","coordinates":[-93.47808,44.875463]}},{"properties":{"zip":"55363","county":"Wright","geo_score":0.714,"id":"agjbym90hy95","geo_precision":"zip"},"type":"Feature","geometry":{"type":"Point","coordinates":[-94.056543,45.048202]}},{"properties":{"zip":"55365","county":"Wright","geo_score":0.714,"id":"agjbym9weel5","geo_precision":"zip"},"type":"Feature","geometry":{"type":"Point","coordinates":[-93.888099,45.200875]}},{"properties":{"zip":"55369","county":"Hennepin","geo_score":0.714,"id":"agjbym0532fe","geo_precision":"zip"},"type":"Feature","geometry":{"type":"Point","coordinates":[-93.455788,45.072464]}},{"properties":{"zip":"55372","county":"Scott","geo_score":0.714,"id":"agjbym190wzf","geo_precision":"zip"},"type":"Feature","geometry":{"type":"Point","coordinates":[-93.379114,44.674408]}},{"properties":{"zip":"55375","county":"Hennepin","geo_score":0.714,"id":"agjbym7fw8bb","geo_precision":"zip"},"type":"Feature","geometry":{"type":"Point","coordinates":[-93.74904,44.904062]}},{"properties":{"zip":"55376","county":"Wright","geo_score":0.714,"id":"agjbymapouk5","geo_precision":"zip"},"type":"Feature","geometry":{"type":"Point","coordinates":[-93.893628,45.16826]}},{"properties":{"zip":"55376","county":"Wright","geo_score":0.714,"id":"agjbym32y45n","geo_precision":"zip"},"type":"Feature","geometry":{"type":"Point","coordinates":[-93.893628,45.16826]}},{"properties":{"zip":"55378","county":"Scott","geo_score":0.714,"id":"agjbym43jdho","geo_precision":"zip"},"type":"Feature","geometry":{"type":"Point","coordinates":[-93.367975,44.751113]}},{"properties":{"zip":"55378","county":"Scott","geo_score":0.714,"id":"agjbyme1250j","geo_precision":"zip"},"type":"Feature","geometry":{"type":"Point","coordinates":[-93.367975,44.751113]}},{"properties":{"zip":"55378","county":"Scott","geo_score":0.714,"id":"agjbym65tqv0","geo_precision":"zip"},"type":"Feature","geometry":{"type":"Point","coordinates":[-93.367975,44.751113]}},{"properties":{"zip":"55378","county":"Scott","geo_score":0.714,"id":"agjbym5yz549","geo_precision":"zip"},"type":"Feature","geometry":{"type":"Point","coordinates":[-93.367975,44.751113]}},{"properties":{"zip":"55378","county":"Scott","geo_score":0.714,"id":"agjbym8ib641","geo_precision":"zip"},"type":"Feature","geometry":{"type":"Point","coordinates":[-93.367975,44.751113]}},{"properties":{"zip":"55379","county":"Scott","geo_score":0.714,"id":"agjbym9i5vv8","geo_precision":"zip"},"type":"Feature","geometry":{"type":"Point","coordinates":[-93.474144,44.731113]}},{"properties":{"zip":"55379","county":"Scott","geo_score":0.714,"id":"agjbym29fkuy","geo_precision":"zip"},"type":"Feature","geometry":{"type":"Point","coordinates":[-93.474144,44.731113]}},{"properties":{"zip":"55401","county":"Hennepin","geo_score":0.714,"id":"agjbym0zt0ny","geo_precision":"zip"},"type":"Feature","geometry":{"type":"Point","coordinates":[-93.273024,44.979265]}},{"properties":{"zip":"55401","county":"Hennepin","geo_score":0.714,"id":"agjbylyfb34d","geo_precision":"zip"},"type":"Feature","geometry":{"type":"Point","coordinates":[-93.273024,44.979265]}},{"properties":{"zip":"55401","county":"Hennepin","geo_score":0.714,"id":"agjbym0s9k4w","geo_precision":"zip"},"type":"Feature","geometry":{"type":"Point","coordinates":[-93.273024,44.979265]}},{"properties":{"zip":"55401","county":"Hennepin","geo_score":0.714,"id":"agjbymb4dv97","geo_precision":"zip"},"type":"Feature","geometry":{"type":"Point","coordinates":[-93.273024,44.979265]}},{"properties":{"zip":"55401","county":"Hennepin","geo_score":0.714,"id":"agjbym7h4ba1","geo_precision":"zip"},"type":"Feature","geometry":{"type":"Point","coordinates":[-93.273024,44.979265]}},{"properties":{"zip":"55401","county":"Hennepin","geo_score":0.714,"id":"agjbym9wb0fc","geo_precision":"zip"},"type":"Feature","geometry":{"type":"Point","coordinates":[-93.273024,44.979265]}},{"properties":{"zip":"55401","county":"Hennepin","geo_score":0.714,"id":"agjbylyazlpa","geo_precision":"zip"},"type":"Feature","geometry":{"type":"Point","coordinates":[-93.273024,44.979265]}},{"properties":{"zip":"55401","county":"Hennepin","geo_score":0.714,"id":"agjbym8l4q3p","geo_precision":"zip"},"type":"Feature","geometry":{"type":"Point","coordinates":[-93.273024,44.979265]}},{"properties":{"zip":"55401","county":"Hennepin","geo_score":0.714,"id":"agjbym7erpiz","geo_precision":"zip"},"type":"Feature","geometry":{"type":"Point","coordinates":[-93.273024,44.979265]}},{"properties":{"zip":"55401","county":"Hennepin","geo_score":0.714,"id":"agjbym1z36hm","geo_precision":"zip"},"type":"Feature","geometry":{"type":"Point","coordinates":[-93.273024,44.979265]}},{"properties":{"zip":"55401","county":"Hennepin","geo_score":0.714,"id":"agjbym4caz40","geo_precision":"zip"},"type":"Feature","geometry":{"type":"Point","coordinates":[-93.273024,44.979265]}},{"properties":{"zip":"55401","county":"Hennepin","geo_score":0.714,"id":"agjbym6fdspv","geo_precision":"zip"},"type":"Feature","geometry":{"type":"Point","coordinates":[-93.273024,44.979265]}},{"properties":{"zip":"55401","county":"Hennepin","geo_score":0.714,"id":"agjbym9cddn1","geo_precision":"zip"},"type":"Feature","geometry":{"type":"Point","coordinates":[-93.273024,44.979265]}},{"properties":{"zip":"55401","county":"Hennepin","geo_score":0.714,"id":"agjbym3i3w9n","geo_precision":"zip"},"type":"Feature","geometry":{"type":"Point","coordinates":[-93.273024,44.979265]}},{"properties":{"zip":"55401","county":"Hennepin","geo_score":0.714,"id":"agjbymc0vqf3","geo_precision":"zip"},"type":"Feature","geometry":{"type":"Point","coordinates":[-93.273024,44.979265]}},{"properties":{"zip":"55401","county":"Hennepin","geo_score":0.714,"id":"agjbym7kbr6e","geo_precision":"zip"},"type":"Feature","geometry":{"type":"Point","coordinates":[-93.273024,44.979265]}},{"properties":{"zip":"55401","county":"Hennepin","geo_score":0.714,"id":"agjbym0m1dq7","geo_precision":"zip"},"type":"Feature","geometry":{"type":"Point","coordinates":[-93.273024,44.979265]}},{"properties":{"zip":"55401","county":"Hennepin","geo_score":0.714,"id":"agjbylzth26g","geo_precision":"zip"},"type":"Feature","geometry":{"type":"Point","coordinates":[-93.273024,44.979265]}},{"properties":{"zip":"55401","county":"Hennepin","geo_score":0.714,"id":"agjbym953hht","geo_precision":"zip"},"type":"Feature","geometry":{"type":"Point","coordinates":[-93.273024,44.979265]}},{"properties":{"zip":"55401","county":"Hennepin","geo_score":0.714,"id":"agjbymdkx3om","geo_precision":"zip"},"type":"Feature","geometry":{"type":"Point","coordinates":[-93.273024,44.979265]}},{"properties":{"zip":"55401","county":"Hennepin","geo_score":0.714,"id":"agjbym16fw7s","geo_precision":"zip"},"type":"Feature","geometry":{"type":"Point","coordinates":[-93.273024,44.979265]}},{"properties":{"zip":"55401","county":"Hennepin","geo_score":0.714,"id":"agjbym26kv1j","geo_precision":"zip"},"type":"Feature","geometry":{"type":"Point","coordinates":[-93.273024,44.979265]}},{"properties":{"zip":"55401","county":"Hennepin","geo_score":0.714,"id":"agjbym73rat2","geo_precision":"zip"},"type":"Feature","geometry":{"type":"Point","coordinates":[-93.273024,44.979265]}},{"properties":{"zip":"55401","county":"Hennepin","geo_score":0.714,"id":"agjbym621zx1","geo_precision":"zip"},"type":"Feature","geometry":{"type":"Point","coordinates":[-93.273024,44.979265]}},{"properties":{"zip":"55401","county":"Hennepin","geo_score":0.714,"id":"agjbymbycajv","geo_precision":"zip"},"type":"Feature","geometry":{"type":"Point","coordinates":[-93.273024,44.979265]}},{"properties":{"zip":"55401","county":"Hennepin","geo_score":0.714,"id":"agjbym22g83i","geo_precision":"zip"},"type":"Feature","geometry":{"type":"Point","coordinates":[-93.273024,44.979265]}},{"properties":{"zip":"55401","county":"Hennepin","geo_score":0.714,"id":"agjbymckar9u","geo_precision":"zip"},"type":"Feature","geometry":{"type":"Point","coordinates":[-93.273024,44.979265]}},{"properties":{"zip":"55401","county":"Hennepin","geo_score":0.714,"id":"agjbymbsugf9","geo_precision":"zip"},"type":"Feature","geometry":{"type":"Point","coordinates":[-93.273024,44.979265]}},{"properties":{"zip":"55401","county":"Hennepin","geo_score":0.714,"id":"agjbym9uoveo","geo_precision":"zip"},"type":"Feature","geometry":{"type":"Point","coordinates":[-93.273024,44.979265]}},{"properties":{"zip":"55401","county":"Hennepin","geo_score":0.714,"id":"agjbym0n2y2h","geo_precision":"zip"},"type":"Feature","geometry":{"type":"Point","coordinates":[-93.273024,44.979265]}},{"properties":{"zip":"55401","county":"Hennepin","geo_score":0.714,"id":"agjbym6zzjan","geo_precision":"zip"},"type":"Feature","geometry":{"type":"Point","coordinates":[-93.273024,44.979265]}},{"properties":{"zip":"55401","county":"Hennepin","geo_score":0.714,"id":"agjbym81zcyk","geo_precision":"zip"},"type":"Feature","geometry":{"type":"Point","coordinates":[-93.273024,44.979265]}},{"properties":{"zip":"55401","county":"Hennepin","geo_score":0.714,"id":"agjbylyc8voa","geo_precision":"zip"},"type":"Feature","geometry":{"type":"Point","coordinates":[-93.273024,44.979265]}},{"properties":{"zip":"55401","county":"Hennepin","geo_score":0.714,"id":"agjbymbxz2gx","geo_precision":"zip"},"type":"Feature","geometry":{"type":"Point","coordinates":[-93.273024,44.979265]}},{"properties":{"zip":"55401","county":"Hennepin","geo_score":0.714,"id":"agjbym0n8eaf","geo_precision":"zip"},"type":"Feature","geometry":{"type":"Point","coordinates":[-93.273024,44.979265]}},{"properties":{"zip":"55401","county":"Hennepin","geo_score":0.714,"id":"agjbymcqrstz","geo_precision":"zip"},"type":"Feature","geometry":{"type":"Point","coordinates":[-93.273024,44.979265]}},{"properties":{"zip":"55401","county":"Hennepin","geo_score":0.714,"id":"agjbym8bnotw","geo_precision":"zip"},"type":"Feature","geometry":{"type":"Point","coordinates":[-93.273024,44.979265]}},{"properties":{"zip":"55401","county":"Hennepin","geo_score":0.714,"id":"agjbym0ueti5","geo_precision":"zip"},"type":"Feature","geometry":{"type":"Point","coordinates":[-93.273024,44.979265]}},{"properties":{"zip":"55401","county":"Hennepin","geo_score":0.714,"id":"agjbym88y9e3","geo_precision":"zip"},"type":"Feature","geometry":{"type":"Point","coordinates":[-93.273024,44.979265]}},{"properties":{"zip":"55403","county":"Hennepin","geo_score":0.714,"id":"agjbym2c83qh","geo_precision":"zip"},"type":"Feature","geometry":{"type":"Point","coordinates":[-93.287275,44.972615]}},{"properties":{"zip":"55404","county":"Hennepin","geo_score":0.714,"id":"agjbymbbci6v","geo_precision":"zip"},"type":"Feature","geometry":{"type":"Point","coordinates":[-93.329926,44.948614]}},{"properties":{"zip":"55404","county":"Hennepin","geo_score":0.714,"id":"agjbym24s1ld","geo_precision":"zip"},"type":"Feature","geometry":{"type":"Point","coordinates":[-93.329926,44.948614]}},{"properties":{"zip":"55406","county":"Hennepin","geo_score":0.714,"id":"agjbylzq0keu","geo_precision":"zip"},"type":"Feature","geometry":{"type":"Point","coordinates":[-93.278975,44.976015]}},{"properties":{"zip":"55407","county":"Hennepin","geo_score":0.714,"id":"agjbyly5fi9i","geo_precision":"zip"},"type":"Feature","geometry":{"type":"Point","coordinates":[-93.254023,44.935465]}},{"properties":{"zip":"55408","county":"Hennepin","geo_score":0.714,"id":"agjbymb113pw","geo_precision":"zip"},"type":"Feature","geometry":{"type":"Point","coordinates":[-93.288975,44.947515]}},{"properties":{"zip":"55410","county":"Hennepin","geo_score":0.714,"id":"agjbymejn0v0","geo_precision":"zip"},"type":"Feature","geometry":{"type":"Point","coordinates":[-93.318825,44.912364]}},{"properties":{"zip":"55410","county":"Hennepin","geo_score":0.714,"id":"agjbym7wt0uz","geo_precision":"zip"},"type":"Feature","geometry":{"type":"Point","coordinates":[-93.318825,44.912364]}},{"properties":{"zip":"55411","county":"Hennepin","geo_score":0.714,"id":"agjbym8jlxzl","geo_precision":"zip"},"type":"Feature","geometry":{"type":"Point","coordinates":[-93.297393,44.999514]}},{"properties":{"zip":"55411","county":"Hennepin","geo_score":0.714,"id":"agjbym41oz6r","geo_precision":"zip"},"type":"Feature","geometry":{"type":"Point","coordinates":[-93.297393,44.999514]}},{"properties":{"zip":"55412","county":"Hennepin","geo_score":0.714,"id":"agjbylz3johz","geo_precision":"zip"},"type":"Feature","geometry":{"type":"Point","coordinates":[-93.298876,45.025115]}},{"properties":{"zip":"55412","county":"Hennepin","geo_score":0.714,"id":"agjbym6r79q1","geo_precision":"zip"},"type":"Feature","geometry":{"type":"Point","coordinates":[-93.298876,45.025115]}},{"properties":{"zip":"55413","county":"Hennepin","geo_score":0.714,"id":"agjbymb3uqo3","geo_precision":"zip"},"type":"Feature","geometry":{"type":"Point","coordinates":[-93.240774,44.994365]}},{"properties":{"zip":"55414","county":"Hennepin","geo_score":0.714,"id":"agjbym1yfj07","geo_precision":"zip"},"type":"Feature","geometry":{"type":"Point","coordinates":[-93.234173,44.974515]}},{"properties":{"zip":"55414","county":"Hennepin","geo_score":0.714,"id":"agjbym0nqcfn","geo_precision":"zip"},"type":"Feature","geometry":{"type":"Point","coordinates":[-93.234173,44.974515]}},{"properties":{"zip":"55416","county":"Hennepin","geo_score":0.714,"id":"agjbym3dkfqe","geo_precision":"zip"},"type":"Feature","geometry":{"type":"Point","coordinates":[-93.337326,44.949714]}},{"properties":{"zip":"55416","county":"Hennepin","geo_score":0.714,"id":"agjbym6dqyl1","geo_precision":"zip"},"type":"Feature","geometry":{"type":"Point","coordinates":[-93.337326,44.949714]}},{"properties":{"zip":"55416","county":"Hennepin","geo_score":0.714,"id":"agjbym6of3aj","geo_precision":"zip"},"type":"Feature","geometry":{"type":"Point","coordinates":[-93.337326,44.949714]}},{"properties":{"zip":"55416","county":"Hennepin","geo_score":0.714,"id":"agjbym30730w","geo_precision":"zip"},"type":"Feature","geometry":{"type":"Point","coordinates":[-93.337326,44.949714]}},{"properties":{"zip":"55418","county":"Hennepin","geo_score":0.714,"id":"agjbylyz8ocw","geo_precision":"zip"},"type":"Feature","geometry":{"type":"Point","coordinates":[-93.218002,45.020521]}},{"properties":{"zip":"55418","county":"Hennepin","geo_score":0.714,"id":"agjbymcwdkbt","geo_precision":"zip"},"type":"Feature","geometry":{"type":"Point","coordinates":[-93.218002,45.020521]}},{"properties":{"zip":"55420","county":"Hennepin","geo_score":0.714,"id":"agjbymeasd3z","geo_precision":"zip"},"type":"Feature","geometry":{"type":"Point","coordinates":[-93.29828,44.840798]}},{"properties":{"zip":"55420","county":"Hennepin","geo_score":0.714,"id":"agjbymaepysd","geo_precision":"zip"},"type":"Feature","geometry":{"type":"Point","coordinates":[-93.29828,44.840798]}},{"properties":{"zip":"55421","county":"Anoka","geo_score":0.714,"id":"agjbym9k8ogb","geo_precision":"zip"},"type":"Feature","geometry":{"type":"Point","coordinates":[-93.247448,45.053299]}},{"properties":{"zip":"55421","county":"Anoka","geo_score":0.714,"id":"agjbym73l2z3","geo_precision":"zip"},"type":"Feature","geometry":{"type":"Point","coordinates":[-93.247448,45.053299]}},{"properties":{"zip":"55421","county":"Anoka","geo_score":0.714,"id":"agjbym0ke4m5","geo_precision":"zip"},"type":"Feature","geometry":{"type":"Point","coordinates":[-93.247448,45.053299]}},{"properties":{"zip":"55422","county":"Hennepin","geo_score":0.714,"id":"agjbym8ww9h1","geo_precision":"zip"},"type":"Feature","geometry":{"type":"Point","coordinates":[-93.338561,45.032187]}},{"properties":{"zip":"55422","county":"Hennepin","geo_score":0.714,"id":"agjbym333dud","geo_precision":"zip"},"type":"Feature","geometry":{"type":"Point","coordinates":[-93.338561,45.032187]}},{"properties":{"zip":"55422","county":"Hennepin","geo_score":0.714,"id":"agjbym3zjjty","geo_precision":"zip"},"type":"Feature","geometry":{"type":"Point","coordinates":[-93.338561,45.032187]}},{"properties":{"zip":"55423","county":"Hennepin","geo_score":0.714,"id":"agjbym5erclk","geo_precision":"zip"},"type":"Feature","geometry":{"type":"Point","coordinates":[-93.283002,44.883298]}},{"properties":{"zip":"55423","county":"Hennepin","geo_score":0.714,"id":"agjbylyzbxo1","geo_precision":"zip"},"type":"Feature","geometry":{"type":"Point","coordinates":[-93.283002,44.883298]}},{"properties":{"zip":"55423","county":"Hennepin","geo_score":0.714,"id":"agjbylyllx18","geo_precision":"zip"},"type":"Feature","geometry":{"type":"Point","coordinates":[-93.283002,44.883298]}},{"properties":{"zip":"55425","county":"Hennepin","geo_score":0.714,"id":"agjbymdtypwo","geo_precision":"zip"},"type":"Feature","geometry":{"type":"Point","coordinates":[-93.236286,44.842664]}},{"properties":{"zip":"55426","county":"Hennepin","geo_score":0.714,"id":"agjbyly9zapf","geo_precision":"zip"},"type":"Feature","geometry":{"type":"Point","coordinates":[-93.382928,44.955014]}},{"properties":{"zip":"55427","county":"Hennepin","geo_score":0.714,"id":"agjbymedcigg","geo_precision":"zip"},"type":"Feature","geometry":{"type":"Point","coordinates":[-93.349117,45.009687]}},{"properties":{"zip":"55428","county":"Hennepin","geo_score":0.714,"id":"agjbymat70yu","geo_precision":"zip"},"type":"Feature","geometry":{"type":"Point","coordinates":[-93.360229,45.032743]}},{"properties":{"zip":"55428","county":"Hennepin","geo_score":0.714,"id":"agjbymdnpkqa","geo_precision":"zip"},"type":"Feature","geometry":{"type":"Point","coordinates":[-93.360229,45.032743]}},{"properties":{"zip":"55428","county":"Hennepin","geo_score":0.714,"id":"agjbymd41axc","geo_precision":"zip"},"type":"Feature","geometry":{"type":"Point","coordinates":[-93.360229,45.032743]}},{"properties":{"zip":"55428","county":"Hennepin","geo_score":0.714,"id":"agjbym4ffsf5","geo_precision":"zip"},"type":"Feature","geometry":{"type":"Point","coordinates":[-93.360229,45.032743]}},{"properties":{"zip":"55428","county":"Hennepin","geo_score":0.714,"id":"agjbylyn1ra3","geo_precision":"zip"},"type":"Feature","geometry":{"type":"Point","coordinates":[-93.360229,45.032743]}},{"properties":{"zip":"55428","county":"Hennepin","geo_score":0.714,"id":"agjbylyswfc3","geo_precision":"zip"},"type":"Feature","geometry":{"type":"Point","coordinates":[-93.360229,45.032743]}},{"properties":{"zip":"55428","county":"Hennepin","geo_score":0.714,"id":"agjbym6vdev4","geo_precision":"zip"},"type":"Feature","geometry":{"type":"Point","coordinates":[-93.360229,45.032743]}},{"properties":{"zip":"55428","county":"Hennepin","geo_score":0.714,"id":"agjbym0ew0vw","geo_precision":"zip"},"type":"Feature","geometry":{"type":"Point","coordinates":[-93.360229,45.032743]}},{"properties":{"zip":"55428","county":"Hennepin","geo_score":0.714,"id":"agjbymb8d2bc","geo_precision":"zip"},"type":"Feature","geometry":{"type":"Point","coordinates":[-93.360229,45.032743]}},{"properties":{"zip":"55428","county":"Hennepin","geo_score":0.714,"id":"agjbymcnsij5","geo_precision":"zip"},"type":"Feature","geometry":{"type":"Point","coordinates":[-93.360229,45.032743]}},{"properties":{"zip":"55428","county":"Hennepin","geo_score":0.714,"id":"agjbylyxbtao","geo_precision":"zip"},"type":"Feature","geometry":{"type":"Point","coordinates":[-93.360229,45.032743]}},{"properties":{"zip":"55429","county":"Hennepin","geo_score":0.714,"id":"agjbym1gxsm8","geo_precision":"zip"},"type":"Feature","geometry":{"type":"Point","coordinates":[-93.332728,45.076076]}},{"properties":{"zip":"55429","county":"Hennepin","geo_score":0.714,"id":"agjbymd3t4yv","geo_precision":"zip"},"type":"Feature","geometry":{"type":"Point","coordinates":[-93.332728,45.076076]}},{"properties":{"zip":"55429","county":"Hennepin","geo_score":0.714,"id":"agjbym8z7p1y","geo_precision":"zip"},"type":"Feature","geometry":{"type":"Point","coordinates":[-93.332728,45.076076]}},{"properties":{"zip":"55429","county":"Hennepin","geo_score":0.714,"id":"agjbymdnbhot","geo_precision":"zip"},"type":"Feature","geometry":{"type":"Point","coordinates":[-93.332728,45.076076]}},{"properties":{"zip":"55429","county":"Hennepin","geo_score":0.714,"id":"agjbym3sfugr","geo_precision":"zip"},"type":"Feature","geometry":{"type":"Point","coordinates":[-93.332728,45.076076]}},{"properties":{"zip":"55430","county":"Hennepin","geo_score":0.714,"id":"agjbymcnsijv","geo_precision":"zip"},"type":"Feature","geometry":{"type":"Point","coordinates":[-93.302227,45.063923]}},{"properties":{"zip":"55430","county":"Hennepin","geo_score":0.714,"id":"agjbym2ji9a9","geo_precision":"zip"},"type":"Feature","geometry":{"type":"Point","coordinates":[-93.302227,45.063923]}},{"properties":{"zip":"55431","county":"Hennepin","geo_score":0.714,"id":"agjbym1lpb5m","geo_precision":"zip"},"type":"Feature","geometry":{"type":"Point","coordinates":[-93.311823,44.828764]}},{"properties":{"zip":"55431","county":"Hennepin","geo_score":0.714,"id":"agjbym4rpyq9","geo_precision":"zip"},"type":"Feature","geometry":{"type":"Point","coordinates":[-93.311823,44.828764]}},{"properties":{"zip":"55432","county":"Anoka","geo_score":0.714,"id":"agjbym5r5854","geo_precision":"zip"},"type":"Feature","geometry":{"type":"Point","coordinates":[-93.238004,45.107743]}},{"properties":{"zip":"55432","county":"Anoka","geo_score":0.714,"id":"agjbymari3pz","geo_precision":"zip"},"type":"Feature","geometry":{"type":"Point","coordinates":[-93.238004,45.107743]}},{"properties":{"zip":"55433","county":"Anoka","geo_score":0.714,"id":"agjbym67wt2s","geo_precision":"zip"},"type":"Feature","geometry":{"type":"Point","coordinates":[-93.265783,45.168021]}},{"properties":{"zip":"55433","county":"Anoka","geo_score":0.714,"id":"agjbymc5oy45","geo_precision":"zip"},"type":"Feature","geometry":{"type":"Point","coordinates":[-93.265783,45.168021]}},{"properties":{"zip":"55433","county":"Anoka","geo_score":0.714,"id":"agjbymbaldn0","geo_precision":"zip"},"type":"Feature","geometry":{"type":"Point","coordinates":[-93.265783,45.168021]}},{"properties":{"zip":"55433","county":"Anoka","geo_score":0.714,"id":"agjbym3t60ty","geo_precision":"zip"},"type":"Feature","geometry":{"type":"Point","coordinates":[-93.265783,45.168021]}},{"properties":{"zip":"55433","county":"Anoka","geo_score":0.714,"id":"agjbym1pmqr4","geo_precision":"zip"},"type":"Feature","geometry":{"type":"Point","coordinates":[-93.265783,45.168021]}},{"properties":{"zip":"55434","county":"Anoka","geo_score":0.714,"id":"agjbylzllh41","geo_precision":"zip"},"type":"Feature","geometry":{"type":"Point","coordinates":[-93.234949,45.160799]}},{"properties":{"zip":"55434","county":"Anoka","geo_score":0.714,"id":"agjbym3o4wyp","geo_precision":"zip"},"type":"Feature","geometry":{"type":"Point","coordinates":[-93.234949,45.160799]}},{"properties":{"zip":"55434","county":"Anoka","geo_score":0.714,"id":"agjbymdhza8z","geo_precision":"zip"},"type":"Feature","geometry":{"type":"Point","coordinates":[-93.234949,45.160799]}},{"properties":{"zip":"55441","county":"Hennepin","geo_score":0.714,"id":"agjbymdkas6j","geo_precision":"zip"},"type":"Feature","geometry":{"type":"Point","coordinates":[-93.415508,44.995242]}},{"properties":{"zip":"55441","county":"Hennepin","geo_score":0.714,"id":"agjbym2z61k6","geo_precision":"zip"},"type":"Feature","geometry":{"type":"Point","coordinates":[-93.415508,44.995242]}},{"properties":{"zip":"55442","county":"Hennepin","geo_score":0.714,"id":"agjbym771s3s","geo_precision":"zip"},"type":"Feature","geometry":{"type":"Point","coordinates":[-93.431047,45.04674]}},{"properties":{"zip":"55443","county":"Hennepin","geo_score":0.714,"id":"agjbym21gsuy","geo_precision":"zip"},"type":"Feature","geometry":{"type":"Point","coordinates":[-93.356341,45.094132]}},{"properties":{"zip":"55443","county":"Hennepin","geo_score":0.714,"id":"agjbym23pktv","geo_precision":"zip"},"type":"Feature","geometry":{"type":"Point","coordinates":[-93.356341,45.094132]}},{"properties":{"zip":"55443","county":"Hennepin","geo_score":0.714,"id":"agjbymcrdlft","geo_precision":"zip"},"type":"Feature","geometry":{"type":"Point","coordinates":[-93.356341,45.094132]}},{"properties":{"zip":"55443","county":"Hennepin","geo_score":0.714,"id":"agjbym9k832n","geo_precision":"zip"},"type":"Feature","geometry":{"type":"Point","coordinates":[-93.356341,45.094132]}},{"properties":{"zip":"55443","county":"Hennepin","geo_score":0.714,"id":"agjbym37hdb8","geo_precision":"zip"},"type":"Feature","geometry":{"type":"Point","coordinates":[-93.356341,45.094132]}},{"properties":{"zip":"55444","county":"Hennepin","geo_score":0.714,"id":"agjbym4wt6d3","geo_precision":"zip"},"type":"Feature","geometry":{"type":"Point","coordinates":[-93.305378,45.117765]}},{"properties":{"zip":"55444","county":"Hennepin","geo_score":0.714,"id":"agjbymao5n3f","geo_precision":"zip"},"type":"Feature","geometry":{"type":"Point","coordinates":[-93.305378,45.117765]}},{"properties":{"zip":"55444","county":"Hennepin","geo_score":0.714,"id":"agjbym7kuaxp","geo_precision":"zip"},"type":"Feature","geometry":{"type":"Point","coordinates":[-93.305378,45.117765]}},{"properties":{"zip":"55446","county":"Hennepin","geo_score":0.714,"id":"agjbymdhm4rd","geo_precision":"zip"},"type":"Feature","geometry":{"type":"Point","coordinates":[-93.486482,45.040013]}},{"properties":{"zip":"55447","county":"Hennepin","geo_score":0.714,"id":"agjbym3s6ygz","geo_precision":"zip"},"type":"Feature","geometry":{"type":"Point","coordinates":[-93.487482,45.003335]}},{"properties":{"zip":"55448","county":"Anoka","geo_score":0.714,"id":"agjbylysa1gp","geo_precision":"zip"},"type":"Feature","geometry":{"type":"Point","coordinates":[-93.302269,45.191105]}},{"properties":{"zip":"55448","county":"Anoka","geo_score":0.714,"id":"agjbymaz2lk7","geo_precision":"zip"},"type":"Feature","geometry":{"type":"Point","coordinates":[-93.302269,45.191105]}},{"properties":{"zip":"55449","county":"Anoka","geo_score":0.714,"id":"agjbyme4fet8","geo_precision":"zip"},"type":"Feature","geometry":{"type":"Point","coordinates":[-93.19509,45.172476]}},{"properties":{"zip":"55603","county":"Lake","geo_score":0.714,"id":"agjbymaegy0o","geo_precision":"zip"},"type":"Feature","geometry":{"type":"Point","coordinates":[-91.324601,47.509633]}},{"properties":{"zip":"55614","county":"Lake","geo_score":0.714,"id":"agjbym7o72tj","geo_precision":"zip"},"type":"Feature","geometry":{"type":"Point","coordinates":[-91.110162,47.410745]}},{"properties":{"zip":"55731","county":"St. Louis","geo_score":0.714,"id":"agjbym930pmx","geo_precision":"zip"},"type":"Feature","geometry":{"type":"Point","coordinates":[-91.780417,47.910178]}},{"properties":{"zip":"55768","county":"St. Louis","geo_score":0.714,"id":"agjbym9uk152","geo_precision":"zip"},"type":"Feature","geometry":{"type":"Point","coordinates":[-92.686192,47.454993]}},{"properties":{"zip":"55777","county":"St. Louis","geo_score":0.714,"id":"agjbymb6ioh7","geo_precision":"zip"},"type":"Feature","geometry":{"type":"Point","coordinates":[-92.442797,47.640367]}},{"properties":{"zip":"55781","county":"St. Louis","geo_score":0.714,"id":"agjbym1skikq","geo_precision":"zip"},"type":"Feature","geometry":{"type":"Point","coordinates":[-92.994885,47.551459]}},{"properties":{"zip":"55801","county":"St. Louis","geo_score":0.714,"id":"agjbym0w0djr","geo_precision":"zip"},"type":"Feature","geometry":{"type":"Point","coordinates":[-92.001934,47.005566]}},{"properties":{"zip":"55801","county":"St. Louis","geo_score":0.714,"id":"agjbym0q9nq1","geo_precision":"zip"},"type":"Feature","geometry":{"type":"Point","coordinates":[-92.001934,47.005566]}},{"properties":{"zip":"55901","county":"Olmsted","geo_score":0.714,"id":"agjbymczqlq9","geo_precision":"zip"},"type":"Feature","geometry":{"type":"Point","coordinates":[-92.516916,44.075285]}},{"properties":{"zip":"55903","county":"Olmsted","geo_score":0.714,"id":"agjbym9k4p2b","geo_precision":"zip"},"type":"Feature","geometry":{"type":"Point","coordinates":[-92.540929,43.996613]}},{"properties":{"zip":"55903","county":"Olmsted","geo_score":0.714,"id":"agjbym4tehut","geo_precision":"zip"},"type":"Feature","geometry":{"type":"Point","coordinates":[-92.540929,43.996613]}},{"properties":{"zip":"55903","county":"Olmsted","geo_score":0.714,"id":"agjbyme9fht5","geo_precision":"zip"},"type":"Feature","geometry":{"type":"Point","coordinates":[-92.540929,43.996613]}},{"properties":{"zip":"55912","county":"Mower","geo_score":0.714,"id":"agjbym0ubyjz","geo_precision":"zip"},"type":"Feature","geometry":{"type":"Point","coordinates":[-92.878244,43.674686]}},{"properties":{"zip":"55912","county":"Mower","geo_score":0.714,"id":"agjbym1bk135","geo_precision":"zip"},"type":"Feature","geometry":{"type":"Point","coordinates":[-92.878244,43.674686]}},{"properties":{"zip":"55912","county":"Mower","geo_score":0.714,"id":"agjbym8f48zx","geo_precision":"zip"},"type":"Feature","geometry":{"type":"Point","coordinates":[-92.878244,43.674686]}},{"properties":{"zip":"55912","county":"Mower","geo_score":0.714,"id":"agjbym0dn2o4","geo_precision":"zip"},"type":"Feature","geometry":{"type":"Point","coordinates":[-92.878244,43.674686]}},{"properties":{"zip":"55987","county":"Winona","geo_score":0.714,"id":"agjbymbmxhb9","geo_precision":"zip"},"type":"Feature","geometry":{"type":"Point","coordinates":[-91.620146,43.933297]}},{"properties":{"zip":"55987","county":"Winona","geo_score":0.714,"id":"agjbylygkyda","geo_precision":"zip"},"type":"Feature","geometry":{"type":"Point","coordinates":[-91.620146,43.933297]}},{"properties":{"zip":"55992","county":"Goodhue","geo_score":0.714,"id":"agjbym3jzmvf","geo_precision":"zip"},"type":"Feature","geometry":{"type":"Point","coordinates":[-92.640746,44.297743]}},{"properties":{"zip":"56001","county":"Blue Earth","geo_score":0.714,"id":"agjbyme5x6y5","geo_precision":"zip"},"type":"Feature","geometry":{"type":"Point","coordinates":[-94.035234,44.151911]}},{"properties":{"zip":"56001","county":"Blue Earth","geo_score":0.714,"id":"agjbym3941c6","geo_precision":"zip"},"type":"Feature","geometry":{"type":"Point","coordinates":[-94.035234,44.151911]}},{"properties":{"zip":"56001","county":"Blue Earth","geo_score":0.714,"id":"agjbyma60jp8","geo_precision":"zip"},"type":"Feature","geometry":{"type":"Point","coordinates":[-94.035234,44.151911]}},{"properties":{"zip":"56001","county":"Blue Earth","geo_score":0.714,"id":"agjbymd9vl74","geo_precision":"zip"},"type":"Feature","geometry":{"type":"Point","coordinates":[-94.035234,44.151911]}},{"properties":{"zip":"56001","county":"Blue Earth","geo_score":0.714,"id":"agjbymeixt80","geo_precision":"zip"},"type":"Feature","geometry":{"type":"Point","coordinates":[-94.035234,44.151911]}},{"properties":{"zip":"56002","county":"Blue Earth","geo_score":0.714,"id":"agjbymaow9ss","geo_precision":"zip"},"type":"Feature","geometry":{"type":"Point","coordinates":[-94.069828,44.056047]}},{"properties":{"zip":"56002","county":"Blue Earth","geo_score":0.714,"id":"agjbym3jo8u4","geo_precision":"zip"},"type":"Feature","geometry":{"type":"Point","coordinates":[-94.069828,44.056047]}},{"properties":{"zip":"56002","county":"Blue Earth","geo_score":0.714,"id":"agjbym49i61l","geo_precision":"zip"},"type":"Feature","geometry":{"type":"Point","coordinates":[-94.069828,44.056047]}},{"properties":{"zip":"56002","county":"Blue Earth","geo_score":0.714,"id":"agjbym5n98m7","geo_precision":"zip"},"type":"Feature","geometry":{"type":"Point","coordinates":[-94.069828,44.056047]}},{"properties":{"zip":"56007","county":"Freeborn","geo_score":0.714,"id":"agjbym4gorrl","geo_precision":"zip"},"type":"Feature","geometry":{"type":"Point","coordinates":[-93.35521,43.701624]}},{"properties":{"zip":"56007","county":"Freeborn","geo_score":0.714,"id":"agjbym2nu0u8","geo_precision":"zip"},"type":"Feature","geometry":{"type":"Point","coordinates":[-93.35521,43.701624]}},{"properties":{"zip":"56036","county":"Freeborn","geo_score":0.714,"id":"agjbym6o7trn","geo_precision":"zip"},"type":"Feature","geometry":{"type":"Point","coordinates":[-93.36173,43.664991]}},{"properties":{"zip":"56058","county":"Le Seur","geo_score":0.714,"id":"agjbym0hmszp","geo_precision":"zip"},"type":"Feature","geometry":{"type":"Point","coordinates":[-93.75746,44.497742]}},{"properties":{"zip":"56081","county":"Watonwan","geo_score":0.714,"id":"agjbymblje9y","geo_precision":"zip"},"type":"Feature","geometry":{"type":"Point","coordinates":[-94.639976,44.108848]}},{"properties":{"zip":"56093","county":"Waseca","geo_score":0.714,"id":"agjbym3jm00b","geo_precision":"zip"},"type":"Feature","geometry":{"type":"Point","coordinates":[-93.550495,44.065547]}},{"properties":{"zip":"56156","county":"Rock","geo_score":0.714,"id":"agjbyly9uca1","geo_precision":"zip"},"type":"Feature","geometry":{"type":"Point","coordinates":[-96.163242,43.698546]}},{"properties":{"zip":"56175","county":"Lyon","geo_score":0.714,"id":"agjbymcu05ha","geo_precision":"zip"},"type":"Feature","geometry":{"type":"Point","coordinates":[-95.773754,44.290092]}},{"properties":{"zip":"56178","county":"Lincoln","geo_score":0.714,"id":"agjbym1gxxgn","geo_precision":"zip"},"type":"Feature","geometry":{"type":"Point","coordinates":[-96.141967,44.275371]}},{"properties":{"zip":"56201","county":"Kandiyohi","geo_score":0.714,"id":"agjbymblkl19","geo_precision":"zip"},"type":"Feature","geometry":{"type":"Point","coordinates":[-94.977723,45.147104]}},{"properties":{"zip":"56239","county":"Lyon","geo_score":0.714,"id":"agjbym6f1w5g","geo_precision":"zip"},"type":"Feature","geometry":{"type":"Point","coordinates":[-95.907811,44.485432]}},{"properties":{"zip":"56258","county":"Lyon","geo_score":0.714,"id":"agjbym3tbekd","geo_precision":"zip"},"type":"Feature","geometry":{"type":"Point","coordinates":[-95.757243,44.526903]}},{"properties":{"zip":"56283","county":"Redwood","geo_score":0.714,"id":"agjbylyjpf4l","geo_precision":"zip"},"type":"Feature","geometry":{"type":"Point","coordinates":[-95.094442,44.563293]}},{"properties":{"zip":"56302","county":"Stearns","geo_score":0.714,"id":"agjbym6rxgqb","geo_precision":"zip"},"type":"Feature","geometry":{"type":"Point","coordinates":[-94.643922,45.49343]}},{"properties":{"zip":"56302","county":"Stearns","geo_score":0.714,"id":"agjbym8edqyp","geo_precision":"zip"},"type":"Feature","geometry":{"type":"Point","coordinates":[-94.643922,45.49343]}},{"properties":{"zip":"56302","county":"Stearns","geo_score":0.714,"id":"agjbym57pmes","geo_precision":"zip"},"type":"Feature","geometry":{"type":"Point","coordinates":[-94.643922,45.49343]}},{"properties":{"zip":"56304","county":"Sherburne","geo_score":0.714,"id":"agjbym7evc3n","geo_precision":"zip"},"type":"Feature","geometry":{"type":"Point","coordinates":[-94.440969,45.544864]}},{"properties":{"zip":"56308","county":"Douglas","geo_score":0.714,"id":"agjbym85wk75","geo_precision":"zip"},"type":"Feature","geometry":{"type":"Point","coordinates":[-95.420589,45.902017]}},{"properties":{"zip":"56320","county":"Douglas","geo_score":0.714,"id":"agjbym1zenxy","geo_precision":"zip"},"type":"Feature","geometry":{"type":"Point","coordinates":[-94.393051,45.486909]}},{"properties":{"zip":"56353","county":"Mille Lacs","geo_score":0.714,"id":"agjbym5ghw3t","geo_precision":"zip"},"type":"Feature","geometry":{"type":"Point","coordinates":[-93.620355,45.90321]}},{"properties":{"zip":"56364","county":"Morrison","geo_score":0.714,"id":"agjbym50hoey","geo_precision":"zip"},"type":"Feature","geometry":{"type":"Point","coordinates":[-94.040821,46.116075]}},{"properties":{"zip":"56379","county":"Benton","geo_score":0.714,"id":"agjbym9o4w8m","geo_precision":"zip"},"type":"Feature","geometry":{"type":"Point","coordinates":[-94.110823,45.713299]}},{"properties":{"zip":"56387","county":"Stearns","geo_score":0.714,"id":"agjbymc28x2g","geo_precision":"zip"},"type":"Feature","geometry":{"type":"Point","coordinates":[-94.667422,45.510622]}},{"properties":{"zip":"56397","county":"Stearns","geo_score":0.714,"id":"agjbym3tm8rm","geo_precision":"zip"},"type":"Feature","geometry":{"type":"Point","coordinates":[-94.593338,45.52886]}},{"properties":{"zip":"56401","county":"Crow Wing","geo_score":0.714,"id":"agjbym3fhww0","geo_precision":"zip"},"type":"Feature","geometry":{"type":"Point","coordinates":[-94.2925,46.279967]}},{"properties":{"zip":"56441","county":"Crow Wing","geo_score":0.714,"id":"agjbym8a07yv","geo_precision":"zip"},"type":"Feature","geometry":{"type":"Point","coordinates":[-94.051095,46.588019]}},{"properties":{"zip":"56470","county":"Hubbard","geo_score":0.714,"id":"agjbym79q8go","geo_precision":"zip"},"type":"Feature","geometry":{"type":"Point","coordinates":[-95.010298,46.836626]}},{"properties":{"zip":"56482","county":"Wadena","geo_score":0.714,"id":"agjbymdmfx9g","geo_precision":"zip"},"type":"Feature","geometry":{"type":"Point","coordinates":[-95.082796,46.564002]}},{"properties":{"zip":"56510","county":"Norman","geo_score":0.714,"id":"agjbym749ozr","geo_precision":"zip"},"type":"Feature","geometry":{"type":"Point","coordinates":[-96.55118,47.439968]}},{"properties":{"zip":"56534","county":"Otter Tail","geo_score":0.714,"id":"agjbym7thwi9","geo_precision":"zip"},"type":"Feature","geometry":{"type":"Point","coordinates":[-96.097914,46.483858]}},{"properties":{"zip":"56537","county":"Otter Tail","geo_score":0.714,"id":"agjbym396a1s","geo_precision":"zip"},"type":"Feature","geometry":{"type":"Point","coordinates":[-96.189783,46.368293]}},{"properties":{"zip":"56538","county":"Otter Tail","geo_score":0.714,"id":"agjbym8r6v5t","geo_precision":"zip"},"type":"Feature","geometry":{"type":"Point","coordinates":[-95.713452,46.412413]}},{"properties":{"zip":"56542","county":"Polk","geo_score":0.714,"id":"agjbym2rkx5a","geo_precision":"zip"},"type":"Feature","geometry":{"type":"Point","coordinates":[-96.270444,47.597727]}},{"properties":{"zip":"56543","county":"Wilkin","geo_score":0.714,"id":"agjbym80v7b3","geo_precision":"zip"},"type":"Feature","geometry":{"type":"Point","coordinates":[-96.528032,46.326166]}},{"properties":{"zip":"56547","county":"Clay","geo_score":0.714,"id":"agjbylz6fsw9","geo_precision":"zip"},"type":"Feature","geometry":{"type":"Point","coordinates":[-96.547295,46.970795]}},{"properties":{"zip":"56548","county":"Norman","geo_score":0.714,"id":"agjbym12wnrv","geo_precision":"zip"},"type":"Feature","geometry":{"type":"Point","coordinates":[-96.82368,47.350668]}},{"properties":{"zip":"56549","county":"Clay","geo_score":0.714,"id":"agjbymbic2sl","geo_precision":"zip"},"type":"Feature","geometry":{"type":"Point","coordinates":[-96.219783,46.905237]}},{"properties":{"zip":"56557","county":"Mahnomen","geo_score":0.714,"id":"agjbym0bm9sk","geo_precision":"zip"},"type":"Feature","geometry":{"type":"Point","coordinates":[-95.551692,47.325236]}},{"properties":{"zip":"56557","county":"Mahnomen","geo_score":0.714,"id":"agjbym0dtjqb","geo_precision":"zip"},"type":"Feature","geometry":{"type":"Point","coordinates":[-95.551692,47.325236]}},{"properties":{"zip":"56560","county":"Clay","geo_score":0.714,"id":"agjbym93mn6h","geo_precision":"zip"},"type":"Feature","geometry":{"type":"Point","coordinates":[-96.557389,46.803546]}},{"properties":{"zip":"56560","county":"Clay","geo_score":0.714,"id":"agjbymcltnmy","geo_precision":"zip"},"type":"Feature","geometry":{"type":"Point","coordinates":[-96.557389,46.803546]}},{"properties":{"zip":"56560","county":"Clay","geo_score":0.714,"id":"agjbym4xqeb1","geo_precision":"zip"},"type":"Feature","geometry":{"type":"Point","coordinates":[-96.557389,46.803546]}},{"properties":{"zip":"56560","county":"Clay","geo_score":0.714,"id":"agjbylyvw699","geo_precision":"zip"},"type":"Feature","geometry":{"type":"Point","coordinates":[-96.557389,46.803546]}},{"properties":{"zip":"56561","county":"Clay","geo_score":0.714,"id":"agjbylz0ulps","geo_precision":"zip"},"type":"Feature","geometry":{"type":"Point","coordinates":[-96.506156,46.890034]}},{"properties":{"zip":"56561","county":"Clay","geo_score":0.714,"id":"agjbyme02a4l","geo_precision":"zip"},"type":"Feature","geometry":{"type":"Point","coordinates":[-96.506156,46.890034]}},{"properties":{"zip":"56573","county":"Otter Tail","geo_score":0.714,"id":"agjbym6ms6lz","geo_precision":"zip"},"type":"Feature","geometry":{"type":"Point","coordinates":[-95.523096,46.613293]}},{"properties":{"zip":"56601","county":"Beltrami","geo_score":0.714,"id":"agjbylzvl1nw","geo_precision":"zip"},"type":"Feature","geometry":{"type":"Point","coordinates":[-94.751653,47.587453]}},{"properties":{"zip":"56630","county":"Beltrami","geo_score":0.714,"id":"agjbym0n35gw","geo_precision":"zip"},"type":"Feature","geometry":{"type":"Point","coordinates":[-94.575871,47.804493]}},{"properties":{"zip":"56633","county":"Cass","geo_score":0.714,"id":"agjbym4jmcdt","geo_precision":"zip"},"type":"Feature","geometry":{"type":"Point","coordinates":[-94.416081,47.368843]}},{"properties":{"zip":"56633","county":"Cass","geo_score":0.714,"id":"agjbylyabwvc","geo_precision":"zip"},"type":"Feature","geometry":{"type":"Point","coordinates":[-94.416081,47.368843]}},{"properties":{"zip":"56636","county":"Itasca","geo_score":0.714,"id":"agjbym2w9uk0","geo_precision":"zip"},"type":"Feature","geometry":{"type":"Point","coordinates":[-93.785495,47.323004]}},{"properties":{"zip":"56636","county":"Itasca","geo_score":0.714,"id":"agjbym3jja83","geo_precision":"zip"},"type":"Feature","geometry":{"type":"Point","coordinates":[-93.785495,47.323004]}},{"properties":{"zip":"56701","county":"Pennington","geo_score":0.714,"id":"agjbymb3595s","geo_precision":"zip"},"type":"Feature","geometry":{"type":"Point","coordinates":[-96.290319,48.189416]}},{"properties":{"zip":"56725","county":"Pennington","geo_score":0.714,"id":"agjbym68c2i0","geo_precision":"zip"},"type":"Feature","geometry":{"type":"Point","coordinates":[-95.804345,48.144158]}},{"properties":{"zip":"56742","county":"Red Lake","geo_score":0.714,"id":"agjbym44l1nd","geo_precision":"zip"},"type":"Feature","geometry":{"type":"Point","coordinates":[-95.853261,47.838345]}},{"properties":{"zip":"57020","county":"Minnehaha","geo_score":0.714,"id":"agjbym987kma","geo_precision":"zip"},"type":"Feature","geometry":{"type":"Point","coordinates":[-96.822137,43.666894]}},{"properties":{"zip":"57101","county":"Minnehaha","geo_score":0.714,"id":"agjbym4m4xu1","geo_precision":"zip"},"type":"Feature","geometry":{"type":"Point","coordinates":[-96.69063,43.546358]}},{"properties":{"zip":"57101","county":"Minnehaha","geo_score":0.714,"id":"agjbym7sqy6l","geo_precision":"zip"},"type":"Feature","geometry":{"type":"Point","coordinates":[-96.69063,43.546358]}},{"properties":{"zip":"57104","county":"Minnehaha","geo_score":0.714,"id":"agjbymb6rvm4","geo_precision":"zip"},"type":"Feature","geometry":{"type":"Point","coordinates":[-96.685294,43.589218]}},{"properties":{"zip":"57106","county":"Minnehaha","geo_score":0.714,"id":"agjbymbspkep","geo_precision":"zip"},"type":"Feature","geometry":{"type":"Point","coordinates":[-96.780065,43.529244]}},{"properties":{"zip":"57106","county":"Minnehaha","geo_score":0.714,"id":"agjbym2rr06j","geo_precision":"zip"},"type":"Feature","geometry":{"type":"Point","coordinates":[-96.780065,43.529244]}},{"properties":{"zip":"57106","county":"Minnehaha","geo_score":0.714,"id":"agjbym08jz60","geo_precision":"zip"},"type":"Feature","geometry":{"type":"Point","coordinates":[-96.780065,43.529244]}},{"properties":{"zip":"57108","county":"Lincoln","geo_score":0.714,"id":"agjbym8d6oqd","geo_precision":"zip"},"type":"Feature","geometry":{"type":"Point","coordinates":[-96.696878,43.550404]}},{"properties":{"zip":"57252","county":"Grant","geo_score":0.714,"id":"agjbym15okvx","geo_precision":"zip"},"type":"Feature","geometry":{"type":"Point","coordinates":[-96.629203,45.171617]}},{"properties":{"zip":"57350","county":"Beadle","geo_score":0.714,"id":"agjbymehs4h6","geo_precision":"zip"},"type":"Feature","geometry":{"type":"Point","coordinates":[-98.206759,44.564424]}},{"properties":{"zip":"57401","county":"Brown","geo_score":0.714,"id":"agjbym6gzyid","geo_precision":"zip"},"type":"Feature","geometry":{"type":"Point","coordinates":[-98.412041,45.578584]}},{"properties":{"zip":"57401","county":"Brown","geo_score":0.714,"id":"agjbymbfn5co","geo_precision":"zip"},"type":"Feature","geometry":{"type":"Point","coordinates":[-98.412041,45.578584]}},{"properties":{"zip":"57429","county":"Spink","geo_score":0.714,"id":"agjbymdsxch6","geo_precision":"zip"},"type":"Feature","geometry":{"type":"Point","coordinates":[-98.319296,45.163452]}},{"properties":{"zip":"57501","county":"Hughes","geo_score":0.714,"id":"agjbymaej2ek","geo_precision":"zip"},"type":"Feature","geometry":{"type":"Point","coordinates":[-100.032068,44.396372]}},{"properties":{"zip":"57566","county":"Todd","geo_score":0.714,"id":"agjbym0hvmqu","geo_precision":"zip"},"type":"Feature","geometry":{"type":"Point","coordinates":[-100.713373,43.194063]}},{"properties":{"zip":"57625","county":"Dewey","geo_score":0.714,"id":"agjbylzm7t5g","geo_precision":"zip"},"type":"Feature","geometry":{"type":"Point","coordinates":[-101.245985,45.171091]}},{"properties":{"zip":"57625","county":"Dewey","geo_score":0.714,"id":"agjbym6sp6ec","geo_precision":"zip"},"type":"Feature","geometry":{"type":"Point","coordinates":[-101.245985,45.171091]}},{"properties":{"zip":"57625","county":"Dewey","geo_score":0.714,"id":"agjbym6xjcz7","geo_precision":"zip"},"type":"Feature","geometry":{"type":"Point","coordinates":[-101.245985,45.171091]}},{"properties":{"zip":"57701","county":"Pennington","geo_score":0.714,"id":"agjbym7kyg4z","geo_precision":"zip"},"type":"Feature","geometry":{"type":"Point","coordinates":[-102.913505,44.876656]}},{"properties":{"zip":"57701","county":"Pennington","geo_score":0.714,"id":"agjbym6kplmg","geo_precision":"zip"},"type":"Feature","geometry":{"type":"Point","coordinates":[-102.913505,44.876656]}},{"properties":{"zip":"57701","county":"Pennington","geo_score":0.714,"id":"agjbym46s8oi","geo_precision":"zip"},"type":"Feature","geometry":{"type":"Point","coordinates":[-102.913505,44.876656]}},{"properties":{"zip":"57701","county":"Pennington","geo_score":0.714,"id":"agjbym0aawz0","geo_precision":"zip"},"type":"Feature","geometry":{"type":"Point","coordinates":[-102.913505,44.876656]}},{"properties":{"zip":"57717","county":"Butte","geo_score":0.714,"id":"agjbymegbt99","geo_precision":"zip"},"type":"Feature","geometry":{"type":"Point","coordinates":[-104.155218,44.869987]}},{"properties":{"zip":"57770","county":"Shannon","geo_score":0.714,"id":"agjbym7gxvdb","geo_precision":"zip"},"type":"Feature","geometry":{"type":"Point","coordinates":[-102.535178,43.024319]}},{"properties":{"zip":"57770","county":"Shannon","geo_score":0.714,"id":"agjbyme2oqw7","geo_precision":"zip"},"type":"Feature","geometry":{"type":"Point","coordinates":[-102.535178,43.024319]}},{"properties":{"zip":"57783","county":"Lawrence","geo_score":0.714,"id":"agjbymcer6gv","geo_precision":"zip"},"type":"Feature","geometry":{"type":"Point","coordinates":[-103.772331,44.467137]}},{"properties":{"zip":"58074","county":"Richland","geo_score":0.714,"id":"agjbym3efi1y","geo_precision":"zip"},"type":"Feature","geometry":{"type":"Point","coordinates":[-96.917614,46.283291]}},{"properties":{"zip":"58075","county":"Richland","geo_score":0.714,"id":"agjbym2rczw1","geo_precision":"zip"},"type":"Feature","geometry":{"type":"Point","coordinates":[-96.738133,46.304125]}},{"properties":{"zip":"58075","county":"Richland","geo_score":0.714,"id":"agjbym19tfje","geo_precision":"zip"},"type":"Feature","geometry":{"type":"Point","coordinates":[-96.738133,46.304125]}},{"properties":{"zip":"58078","county":"Cass","geo_score":0.714,"id":"agjbymbcjwc4","geo_precision":"zip"},"type":"Feature","geometry":{"type":"Point","coordinates":[-96.925828,46.890692]}},{"properties":{"zip":"58078","county":"Cass","geo_score":0.714,"id":"agjbylz8gm78","geo_precision":"zip"},"type":"Feature","geometry":{"type":"Point","coordinates":[-96.925828,46.890692]}},{"properties":{"zip":"58078","county":"Cass","geo_score":0.714,"id":"agjbyma9pi3j","geo_precision":"zip"},"type":"Feature","geometry":{"type":"Point","coordinates":[-96.925828,46.890692]}},{"properties":{"zip":"58102","county":"Cass","geo_score":0.714,"id":"agjbyly4pjom","geo_precision":"zip"},"type":"Feature","geometry":{"type":"Point","coordinates":[-96.802581,46.949131]}},{"properties":{"zip":"58103","county":"Cass","geo_score":0.714,"id":"agjbylzma0aa","geo_precision":"zip"},"type":"Feature","geometry":{"type":"Point","coordinates":[-96.825841,46.832152]}},{"properties":{"zip":"58103","county":"Cass","geo_score":0.714,"id":"agjbym62pt6c","geo_precision":"zip"},"type":"Feature","geometry":{"type":"Point","coordinates":[-96.825841,46.832152]}},{"properties":{"zip":"58103","county":"Cass","geo_score":0.714,"id":"agjbym221ss1","geo_precision":"zip"},"type":"Feature","geometry":{"type":"Point","coordinates":[-96.825841,46.832152]}},{"properties":{"zip":"58103","county":"Cass","geo_score":0.714,"id":"agjbymcoyt1p","geo_precision":"zip"},"type":"Feature","geometry":{"type":"Point","coordinates":[-96.825841,46.832152]}},{"properties":{"zip":"58103","county":"Cass","geo_score":0.714,"id":"agjbym4sxo6x","geo_precision":"zip"},"type":"Feature","geometry":{"type":"Point","coordinates":[-96.825841,46.832152]}},{"properties":{"zip":"58103","county":"Cass","geo_score":0.714,"id":"agjbym3zbfhz","geo_precision":"zip"},"type":"Feature","geometry":{"type":"Point","coordinates":[-96.825841,46.832152]}},{"properties":{"zip":"58105","county":"Cass","geo_score":0.714,"id":"agjbymb16nme","geo_precision":"zip"},"type":"Feature","geometry":{"type":"Point","coordinates":[-96.967371,46.9414]}},{"properties":{"zip":"58105","county":"Cass","geo_score":0.714,"id":"agjbym5z1ruj","geo_precision":"zip"},"type":"Feature","geometry":{"type":"Point","coordinates":[-96.967371,46.9414]}},{"properties":{"zip":"58203","county":"Grand Forks","geo_score":0.714,"id":"agjbym8xf4iw","geo_precision":"zip"},"type":"Feature","geometry":{"type":"Point","coordinates":[-97.301297,47.892243]}},{"properties":{"zip":"58206","county":"Grand Forks","geo_score":0.714,"id":"agjbym2q3r5o","geo_precision":"zip"},"type":"Feature","geometry":{"type":"Point","coordinates":[-97.394446,47.933481]}},{"properties":{"zip":"58316","county":"Rolette","geo_score":0.714,"id":"agjbymbzf5xy","geo_precision":"zip"},"type":"Feature","geometry":{"type":"Point","coordinates":[-99.799919,48.777557]}},{"properties":{"zip":"58316","county":"Rolette","geo_score":0.714,"id":"agjbylzpgsy4","geo_precision":"zip"},"type":"Feature","geometry":{"type":"Point","coordinates":[-99.799919,48.777557]}},{"properties":{"zip":"58401","county":"Stutsman","geo_score":0.714,"id":"agjbym1cs7x9","geo_precision":"zip"},"type":"Feature","geometry":{"type":"Point","coordinates":[-98.851773,46.902488]}},{"properties":{"zip":"58425","county":"Griggs","geo_score":0.714,"id":"agjbym7ru7ce","geo_precision":"zip"},"type":"Feature","geometry":{"type":"Point","coordinates":[-98.13204,47.389715]}},{"properties":{"zip":"58501","county":"Burleigh","geo_score":0.714,"id":"agjbyma7x8m4","geo_precision":"zip"},"type":"Feature","geometry":{"type":"Point","coordinates":[-100.502724,46.981207]}},{"properties":{"zip":"58502","county":"Burleigh","geo_score":0.714,"id":"agjbym61clge","geo_precision":"zip"},"type":"Feature","geometry":{"type":"Point","coordinates":[-100.681855,46.8887]}},{"properties":{"zip":"58502","county":"Burleigh","geo_score":0.714,"id":"agjbym0ytwc7","geo_precision":"zip"},"type":"Feature","geometry":{"type":"Point","coordinates":[-100.681855,46.8887]}},{"properties":{"zip":"58502","county":"Burleigh","geo_score":0.714,"id":"agjbym44vf7x","geo_precision":"zip"},"type":"Feature","geometry":{"type":"Point","coordinates":[-100.681855,46.8887]}},{"properties":{"zip":"58503","county":"Burleigh","geo_score":0.714,"id":"agjbymcaidje","geo_precision":"zip"},"type":"Feature","geometry":{"type":"Point","coordinates":[-100.769066,46.810594]}},{"properties":{"zip":"58504","county":"Burleigh","geo_score":0.714,"id":"agjbym97kan5","geo_precision":"zip"},"type":"Feature","geometry":{"type":"Point","coordinates":[-100.547064,46.502216]}},{"properties":{"zip":"58504","county":"Burleigh","geo_score":0.714,"id":"agjbym416m88","geo_precision":"zip"},"type":"Feature","geometry":{"type":"Point","coordinates":[-100.547064,46.502216]}},{"properties":{"zip":"58504","county":"Burleigh","geo_score":0.714,"id":"agjbymalciue","geo_precision":"zip"},"type":"Feature","geometry":{"type":"Point","coordinates":[-100.547064,46.502216]}},{"properties":{"zip":"58701","county":"Ward","geo_score":0.714,"id":"agjbymdzcq9d","geo_precision":"zip"},"type":"Feature","geometry":{"type":"Point","coordinates":[-101.153769,48.148343]}},{"properties":{"zip":"58702","county":"Ward","geo_score":0.714,"id":"agjbym0nhdry","geo_precision":"zip"},"type":"Feature","geometry":{"type":"Point","coordinates":[-101.451285,48.336898]}},{"properties":{"zip":"58702","county":"Ward","geo_score":0.714,"id":"agjbym2y9r85","geo_precision":"zip"},"type":"Feature","geometry":{"type":"Point","coordinates":[-101.451285,48.336898]}},{"properties":{"zip":"58703","county":"Ward","geo_score":0.714,"id":"agjbym2nw606","geo_precision":"zip"},"type":"Feature","geometry":{"type":"Point","coordinates":[-101.606,48.299433]}},{"properties":{"zip":"58730","county":"Divide","geo_score":0.714,"id":"agjbymds41hs","geo_precision":"zip"},"type":"Feature","geometry":{"type":"Point","coordinates":[-103.296728,48.928166]}},{"properties":{"zip":"61265","county":null,"geo_score":0.714,"id":"agjbym9jsapy","geo_precision":"zip"},"type":"Feature","geometry":{"type":"Point","coordinates":[-90.516801,41.471423]}},{"properties":{"zip":"64755","county":null,"geo_score":0.714,"id":"agjbym7o9kil","geo_precision":"zip"},"type":"Feature","geometry":{"type":"Point","coordinates":[-94.289465,37.211097]}},{"properties":{"zip":"68104","county":null,"geo_score":0.714,"id":"agjbym16gjec","geo_precision":"zip"},"type":"Feature","geometry":{"type":"Point","coordinates":[-95.99895,41.295396]}},{"properties":{"zip":"68104","county":null,"geo_score":0.714,"id":"agjbymdp0rb3","geo_precision":"zip"},"type":"Feature","geometry":{"type":"Point","coordinates":[-95.99895,41.295396]}},{"properties":{"zip":"74848","county":null,"geo_score":0.714,"id":"agjbym16nzpf","geo_precision":"zip"},"type":"Feature","geometry":{"type":"Point","coordinates":[-96.387256,35.087498]}},{"properties":{"zip":"76101","county":null,"geo_score":0.714,"id":"agjbym2siblj","geo_precision":"zip"},"type":"Feature","geometry":{"type":"Point","coordinates":[-97.291484,32.771419]}},{"properties":{"zip":"76540","county":null,"geo_score":0.714,"id":"agjbym0fgqa4","geo_precision":"zip"},"type":"Feature","geometry":{"type":"Point","coordinates":[-97.357099,31.085833]}},{"properties":{"zip":"76702","county":null,"geo_score":0.714,"id":"agjbymd262vj","geo_precision":"zip"},"type":"Feature","geometry":{"type":"Point","coordinates":[-97.14433,31.547516]}},{"properties":{"zip":"77325","county":null,"geo_score":0.714,"id":"agjbylz6z5al","geo_precision":"zip"},"type":"Feature","geometry":{"type":"Point","coordinates":[-95.434241,29.83399]}},{"properties":{"zip":"78201","county":null,"geo_score":0.714,"id":"agjbylzzquk1","geo_precision":"zip"},"type":"Feature","geometry":{"type":"Point","coordinates":[-98.537495,29.399933]}},{"properties":{"zip":"78202","county":null,"geo_score":0.714,"id":"agjbymb1e405","geo_precision":"zip"},"type":"Feature","geometry":{"type":"Point","coordinates":[-98.462096,29.428432]}},{"properties":{"zip":"78214","county":null,"geo_score":0.714,"id":"agjbym1f35f2","geo_precision":"zip"},"type":"Feature","geometry":{"type":"Point","coordinates":[-98.483894,29.350735]}},{"properties":{"zip":"88253","county":null,"geo_score":0.714,"id":"agjbymbve83k","geo_precision":"zip"},"type":"Feature","geometry":{"type":"Point","coordinates":[-104.491621,33.026322]}},{"properties":{"zip":"98401","county":null,"geo_score":0.714,"id":"agjbymd21a1u","geo_precision":"zip"},"type":"Feature","geometry":{"type":"Point","coordinates":[-122.444335,47.253671]}},{"properties":{"zip":"98401","county":null,"geo_score":0.714,"id":"agjbym6nrifo","geo_precision":"zip"},"type":"Feature","geometry":{"type":"Point","coordinates":[-122.444335,47.253671]}}],"is_temporal":false,"author":{"url":"","metadata":null,"contact_name":null,"contact_address":null,"source":null,"contact_phone":null},"source":"","pagination":{"sort":null,"start":0,"total":493,"limit":1000000},"state":"complete","tags":"","published":"2014-08-16T21:23:35-04:00","id":387234}