{"type":"FeatureCollection","data_type":"Dataset","url_type":null,"permissions":[{"permissions":{"download":true,"view":true},"group_id":"everyone"}],"classification":null,"title":"Business sales July - Aug 16th","count":262,"stream_id":387259,"contributor":{"url":"http://geocommons.com/users/69395","name":"missedjobs"},"data_attributes":null,"calculation_params":null,"icon_link":null,"link":"http://geocommons.com/overlays/387259.json","extent":[-123.021,25.7743,-71.087,48.3162],"geometry_types":["point"],"unique_name":null,"name":"Business sales July - Aug 16th","feature_count":262,"description":"only paid / complete ","next_feature":null,"is_raster":false,"short_classification":"Y","stats":{},"features":[{"properties":{"zipcode":"2139","geo_score":0.714,"id":"agje4ayyl25g","geo_precision":"zip"},"type":"Feature","geometry":{"type":"Point","coordinates":[-71.103663,42.358431]}},{"properties":{"zipcode":"2139","geo_score":0.714,"id":"agje4avyjrl9","geo_precision":"zip"},"type":"Feature","geometry":{"type":"Point","coordinates":[-71.103663,42.358431]}},{"properties":{"zipcode":"2356","geo_score":0.714,"id":"agje4b6catvl","geo_precision":"zip"},"type":"Feature","geometry":{"type":"Point","coordinates":[-71.086992,42.066767]}},{"properties":{"zipcode":"2835","geo_score":0.714,"id":"agje4awthza4","geo_precision":"zip"},"type":"Feature","geometry":{"type":"Point","coordinates":[-71.389221,41.529824]}},{"properties":{"zipcode":"6331","geo_score":0.714,"id":"agje4ax095gn","geo_precision":"zip"},"type":"Feature","geometry":{"type":"Point","coordinates":[-72.018131,41.709543]}},{"properties":{"zipcode":"6331","geo_score":0.714,"id":"agje4atc6kzw","geo_precision":"zip"},"type":"Feature","geometry":{"type":"Point","coordinates":[-72.018131,41.709543]}},{"properties":{"zipcode":"6471","geo_score":0.714,"id":"agje4aquxoqp","geo_precision":"zip"},"type":"Feature","geometry":{"type":"Point","coordinates":[-72.780892,41.332347]}},{"properties":{"zipcode":"7002","geo_score":0.714,"id":"agje4b4bmle5","geo_precision":"zip"},"type":"Feature","geometry":{"type":"Point","coordinates":[-74.141254,40.647603]}},{"properties":{"zipcode":"7450","geo_score":0.714,"id":"agje4b4jggyd","geo_precision":"zip"},"type":"Feature","geometry":{"type":"Point","coordinates":[-74.11207,40.982247]}},{"properties":{"zipcode":"8701","geo_score":0.714,"id":"agje4b2j2mqq","geo_precision":"zip"},"type":"Feature","geometry":{"type":"Point","coordinates":[-74.21181,40.158447]}},{"properties":{"zipcode":"8861","geo_score":0.714,"id":"agje4avobrzw","geo_precision":"zip"},"type":"Feature","geometry":{"type":"Point","coordinates":[-74.279144,40.520654]}},{"properties":{"zipcode":"10014","geo_score":0.714,"id":"agje4arzmupz","geo_precision":"zip"},"type":"Feature","geometry":{"type":"Point","coordinates":[-74.005095,40.738088]}},{"properties":{"zipcode":"10017","geo_score":0.714,"id":"agje4auca9vc","geo_precision":"zip"},"type":"Feature","geometry":{"type":"Point","coordinates":[-73.973196,40.752955]}},{"properties":{"zipcode":"10312","geo_score":0.714,"id":"agje4b2qppp2","geo_precision":"zip"},"type":"Feature","geometry":{"type":"Point","coordinates":[-74.174692,40.545163]}},{"properties":{"zipcode":"11772","geo_score":0.714,"id":"agje4b3vs49d","geo_precision":"zip"},"type":"Feature","geometry":{"type":"Point","coordinates":[-73.029276,40.675655]}},{"properties":{"zipcode":"11772","geo_score":0.714,"id":"agje4b30cr0r","geo_precision":"zip"},"type":"Feature","geometry":{"type":"Point","coordinates":[-73.029276,40.675655]}},{"properties":{"zipcode":"11783","geo_score":0.714,"id":"agje4aqp1p9b","geo_precision":"zip"},"type":"Feature","geometry":{"type":"Point","coordinates":[-73.496169,40.683897]}},{"properties":{"zipcode":"11783","geo_score":0.714,"id":"agje4arm1fkt","geo_precision":"zip"},"type":"Feature","geometry":{"type":"Point","coordinates":[-73.496169,40.683897]}},{"properties":{"zipcode":"11783","geo_score":0.714,"id":"agje4aulnfiw","geo_precision":"zip"},"type":"Feature","geometry":{"type":"Point","coordinates":[-73.496169,40.683897]}},{"properties":{"zipcode":"13045","geo_score":0.714,"id":"agje4atvlsv9","geo_precision":"zip"},"type":"Feature","geometry":{"type":"Point","coordinates":[-76.194374,42.510627]}},{"properties":{"zipcode":"15068","geo_score":0.714,"id":"agje4aszkrf2","geo_precision":"zip"},"type":"Feature","geometry":{"type":"Point","coordinates":[-79.723659,40.599789]}},{"properties":{"zipcode":"15205","geo_score":0.714,"id":"agje4as65nn1","geo_precision":"zip"},"type":"Feature","geometry":{"type":"Point","coordinates":[-80.082278,40.434513]}},{"properties":{"zipcode":"15205","geo_score":0.714,"id":"agje4arqq0vm","geo_precision":"zip"},"type":"Feature","geometry":{"type":"Point","coordinates":[-80.082278,40.434513]}},{"properties":{"zipcode":"15205","geo_score":0.714,"id":"agje4b6os76j","geo_precision":"zip"},"type":"Feature","geometry":{"type":"Point","coordinates":[-80.082278,40.434513]}},{"properties":{"zipcode":"19002","geo_score":0.714,"id":"agje4b3k9ksa","geo_precision":"zip"},"type":"Feature","geometry":{"type":"Point","coordinates":[-75.206842,40.165387]}},{"properties":{"zipcode":"19083","geo_score":0.714,"id":"agje4axflpdr","geo_precision":"zip"},"type":"Feature","geometry":{"type":"Point","coordinates":[-75.288796,39.980668]}},{"properties":{"zipcode":"19132","geo_score":0.714,"id":"agje4b1ab4l9","geo_precision":"zip"},"type":"Feature","geometry":{"type":"Point","coordinates":[-75.117719,40.040111]}},{"properties":{"zipcode":"19132","geo_score":0.714,"id":"agje4ayss8n2","geo_precision":"zip"},"type":"Feature","geometry":{"type":"Point","coordinates":[-75.117719,40.040111]}},{"properties":{"zipcode":"19145","geo_score":0.714,"id":"agje4b48ru3k","geo_precision":"zip"},"type":"Feature","geometry":{"type":"Point","coordinates":[-75.1877,39.917002]}},{"properties":{"zipcode":"19146","geo_score":0.714,"id":"agje4b1u3vie","geo_precision":"zip"},"type":"Feature","geometry":{"type":"Point","coordinates":[-75.175822,39.945112]}},{"properties":{"zipcode":"19464","geo_score":0.714,"id":"agje4atwkkrb","geo_precision":"zip"},"type":"Feature","geometry":{"type":"Point","coordinates":[-75.664075,40.269262]}},{"properties":{"zipcode":"19810","geo_score":0.714,"id":"agje4arxzmxn","geo_precision":"zip"},"type":"Feature","geometry":{"type":"Point","coordinates":[-75.502421,39.818168]}},{"properties":{"zipcode":"19810","geo_score":0.714,"id":"agje4aqi9dug","geo_precision":"zip"},"type":"Feature","geometry":{"type":"Point","coordinates":[-75.502421,39.818168]}},{"properties":{"zipcode":"20175","geo_score":0.714,"id":"agje4b0p6kt4","geo_precision":"zip"},"type":"Feature","geometry":{"type":"Point","coordinates":[-77.605404,39.041987]}},{"properties":{"zipcode":"21090","geo_score":0.714,"id":"agje4b4synd3","geo_precision":"zip"},"type":"Feature","geometry":{"type":"Point","coordinates":[-76.651357,39.222607]}},{"properties":{"zipcode":"21090","geo_score":0.714,"id":"agje4athcf0s","geo_precision":"zip"},"type":"Feature","geometry":{"type":"Point","coordinates":[-76.651357,39.222607]}},{"properties":{"zipcode":"21114","geo_score":0.714,"id":"agje4avjdhku","geo_precision":"zip"},"type":"Feature","geometry":{"type":"Point","coordinates":[-76.622577,39.06436]}},{"properties":{"zipcode":"21114","geo_score":0.714,"id":"agje4ay293mj","geo_precision":"zip"},"type":"Feature","geometry":{"type":"Point","coordinates":[-76.622577,39.06436]}},{"properties":{"zipcode":"21224","geo_score":0.714,"id":"agje4b247pzr","geo_precision":"zip"},"type":"Feature","geometry":{"type":"Point","coordinates":[-76.557237,39.279207]}},{"properties":{"zipcode":"21713","geo_score":0.714,"id":"agje4awf71xi","geo_precision":"zip"},"type":"Feature","geometry":{"type":"Point","coordinates":[-77.623879,39.485378]}},{"properties":{"zipcode":"22046","geo_score":0.714,"id":"agje4b4u1hj6","geo_precision":"zip"},"type":"Feature","geometry":{"type":"Point","coordinates":[-77.200259,38.884278]}},{"properties":{"zipcode":"22602","geo_score":0.714,"id":"agje4b4qtodg","geo_precision":"zip"},"type":"Feature","geometry":{"type":"Point","coordinates":[-78.268988,39.150074]}},{"properties":{"zipcode":"23513","geo_score":0.714,"id":"agje4ay6xru4","geo_precision":"zip"},"type":"Feature","geometry":{"type":"Point","coordinates":[-76.23516,36.890747]}},{"properties":{"zipcode":"26070","geo_score":0.714,"id":"agje4azag84r","geo_precision":"zip"},"type":"Feature","geometry":{"type":"Point","coordinates":[-80.596185,40.243682]}},{"properties":{"zipcode":"27278","geo_score":0.714,"id":"agje4axxveov","geo_precision":"zip"},"type":"Feature","geometry":{"type":"Point","coordinates":[-79.119458,36.074585]}},{"properties":{"zipcode":"27278","geo_score":0.714,"id":"agje4b0qgjja","geo_precision":"zip"},"type":"Feature","geometry":{"type":"Point","coordinates":[-79.119458,36.074585]}},{"properties":{"zipcode":"27278","geo_score":0.714,"id":"agje4aqn7xuw","geo_precision":"zip"},"type":"Feature","geometry":{"type":"Point","coordinates":[-79.119458,36.074585]}},{"properties":{"zipcode":"27278","geo_score":0.714,"id":"agje4asdijrr","geo_precision":"zip"},"type":"Feature","geometry":{"type":"Point","coordinates":[-79.119458,36.074585]}},{"properties":{"zipcode":"27278","geo_score":0.714,"id":"agje4axknfji","geo_precision":"zip"},"type":"Feature","geometry":{"type":"Point","coordinates":[-79.119458,36.074585]}},{"properties":{"zipcode":"27616","geo_score":0.714,"id":"agje4b0dcidm","geo_precision":"zip"},"type":"Feature","geometry":{"type":"Point","coordinates":[-78.688301,35.805765]}},{"properties":{"zipcode":"28054","geo_score":0.714,"id":"agje4b0epxf1","geo_precision":"zip"},"type":"Feature","geometry":{"type":"Point","coordinates":[-81.110632,35.306249]}},{"properties":{"zipcode":"29349","geo_score":0.714,"id":"agje4aquk1df","geo_precision":"zip"},"type":"Feature","geometry":{"type":"Point","coordinates":[-82.176222,35.004283]}},{"properties":{"zipcode":"29349","geo_score":0.714,"id":"agje4aqfb24l","geo_precision":"zip"},"type":"Feature","geometry":{"type":"Point","coordinates":[-82.176222,35.004283]}},{"properties":{"zipcode":"29376","geo_score":0.714,"id":"agje4b038ou5","geo_precision":"zip"},"type":"Feature","geometry":{"type":"Point","coordinates":[-81.947247,34.829502]}},{"properties":{"zipcode":"29376","geo_score":0.714,"id":"agje4b3dea9h","geo_precision":"zip"},"type":"Feature","geometry":{"type":"Point","coordinates":[-81.947247,34.829502]}},{"properties":{"zipcode":"29483","geo_score":0.714,"id":"agje4arcvvro","geo_precision":"zip"},"type":"Feature","geometry":{"type":"Point","coordinates":[-80.15537,33.006838]}},{"properties":{"zipcode":"29640","geo_score":0.714,"id":"agje4av01tvl","geo_precision":"zip"},"type":"Feature","geometry":{"type":"Point","coordinates":[-82.641522,34.845949]}},{"properties":{"zipcode":"30064","geo_score":0.714,"id":"agje4b54uvvu","geo_precision":"zip"},"type":"Feature","geometry":{"type":"Point","coordinates":[-84.629241,33.923652]}},{"properties":{"zipcode":"30519","geo_score":0.714,"id":"agje4axuakx7","geo_precision":"zip"},"type":"Feature","geometry":{"type":"Point","coordinates":[-83.930765,34.079715]}},{"properties":{"zipcode":"30519","geo_score":0.714,"id":"agje4arb9l10","geo_precision":"zip"},"type":"Feature","geometry":{"type":"Point","coordinates":[-83.930765,34.079715]}},{"properties":{"zipcode":"30901","geo_score":0.714,"id":"agje4b580sn5","geo_precision":"zip"},"type":"Feature","geometry":{"type":"Point","coordinates":[-81.969184,33.456687]}},{"properties":{"zipcode":"30906","geo_score":0.714,"id":"agje4b5oc591","geo_precision":"zip"},"type":"Feature","geometry":{"type":"Point","coordinates":[-82.006783,33.414583]}},{"properties":{"zipcode":"30906","geo_score":0.714,"id":"agje4b2w9sp0","geo_precision":"zip"},"type":"Feature","geometry":{"type":"Point","coordinates":[-82.006783,33.414583]}},{"properties":{"zipcode":"31907","geo_score":0.714,"id":"agje4as0yvww","geo_precision":"zip"},"type":"Feature","geometry":{"type":"Point","coordinates":[-84.914976,32.483084]}},{"properties":{"zipcode":"31909","geo_score":0.714,"id":"agje4axeozjn","geo_precision":"zip"},"type":"Feature","geometry":{"type":"Point","coordinates":[-84.920187,32.542198]}},{"properties":{"zipcode":"32086","geo_score":0.714,"id":"agje4azy8p34","geo_precision":"zip"},"type":"Feature","geometry":{"type":"Point","coordinates":[-81.302246,29.775409]}},{"properties":{"zipcode":"32177","geo_score":0.714,"id":"agje4aunnb18","geo_precision":"zip"},"type":"Feature","geometry":{"type":"Point","coordinates":[-81.785957,29.611093]}},{"properties":{"zipcode":"32177","geo_score":0.714,"id":"agje4avg79eq","geo_precision":"zip"},"type":"Feature","geometry":{"type":"Point","coordinates":[-81.785957,29.611093]}},{"properties":{"zipcode":"32206","geo_score":0.714,"id":"agje4b1pn8nl","geo_precision":"zip"},"type":"Feature","geometry":{"type":"Point","coordinates":[-81.665918,30.352488]}},{"properties":{"zipcode":"32206","geo_score":0.714,"id":"agje4ardnths","geo_precision":"zip"},"type":"Feature","geometry":{"type":"Point","coordinates":[-81.665918,30.352488]}},{"properties":{"zipcode":"32503","geo_score":0.714,"id":"agje4au9qx05","geo_precision":"zip"},"type":"Feature","geometry":{"type":"Point","coordinates":[-87.236083,30.468808]}},{"properties":{"zipcode":"32756","geo_score":0.714,"id":"agje4b4n0rbb","geo_precision":"zip"},"type":"Feature","geometry":{"type":"Point","coordinates":[-81.653642,28.811078]}},{"properties":{"zipcode":"32756","geo_score":0.714,"id":"agje4b45bmvl","geo_precision":"zip"},"type":"Feature","geometry":{"type":"Point","coordinates":[-81.653642,28.811078]}},{"properties":{"zipcode":"32756","geo_score":0.714,"id":"agje4auh7sxi","geo_precision":"zip"},"type":"Feature","geometry":{"type":"Point","coordinates":[-81.653642,28.811078]}},{"properties":{"zipcode":"32792","geo_score":0.714,"id":"agje4au7gd3v","geo_precision":"zip"},"type":"Feature","geometry":{"type":"Point","coordinates":[-81.306457,28.600833]}},{"properties":{"zipcode":"32803","geo_score":0.714,"id":"agje4aw0wcdc","geo_precision":"zip"},"type":"Feature","geometry":{"type":"Point","coordinates":[-81.33664,28.556479]}},{"properties":{"zipcode":"33056","geo_score":0.714,"id":"agje4aw9lpg7","geo_precision":"zip"},"type":"Feature","geometry":{"type":"Point","coordinates":[-80.245068,25.949125]}},{"properties":{"zipcode":"33064","geo_score":0.714,"id":"agje4asxvbjd","geo_precision":"zip"},"type":"Feature","geometry":{"type":"Point","coordinates":[-80.125066,26.22116]}},{"properties":{"zipcode":"33069","geo_score":0.714,"id":"agje4aw1folg","geo_precision":"zip"},"type":"Feature","geometry":{"type":"Point","coordinates":[-80.191713,26.206194]}},{"properties":{"zipcode":"33069","geo_score":0.714,"id":"agje4aqlb2oz","geo_precision":"zip"},"type":"Feature","geometry":{"type":"Point","coordinates":[-80.191713,26.206194]}},{"properties":{"zipcode":"33069","geo_score":0.714,"id":"agje4arxnabm","geo_precision":"zip"},"type":"Feature","geometry":{"type":"Point","coordinates":[-80.191713,26.206194]}},{"properties":{"zipcode":"33134","geo_score":0.714,"id":"agje4az8cadf","geo_precision":"zip"},"type":"Feature","geometry":{"type":"Point","coordinates":[-80.193659,25.774266]}},{"properties":{"zipcode":"33525","geo_score":0.714,"id":"agje4b1l2g4b","geo_precision":"zip"},"type":"Feature","geometry":{"type":"Point","coordinates":[-82.170363,28.507497]}},{"properties":{"zipcode":"33525","geo_score":0.714,"id":"agje4b1sakty","geo_precision":"zip"},"type":"Feature","geometry":{"type":"Point","coordinates":[-82.170363,28.507497]}},{"properties":{"zipcode":"33525","geo_score":0.714,"id":"agje4aqsmm83","geo_precision":"zip"},"type":"Feature","geometry":{"type":"Point","coordinates":[-82.170363,28.507497]}},{"properties":{"zipcode":"33570","geo_score":0.714,"id":"agje4arxkmne","geo_precision":"zip"},"type":"Feature","geometry":{"type":"Point","coordinates":[-82.461761,27.705864]}},{"properties":{"zipcode":"33570","geo_score":0.714,"id":"agje4arg34jl","geo_precision":"zip"},"type":"Feature","geometry":{"type":"Point","coordinates":[-82.461761,27.705864]}},{"properties":{"zipcode":"33615","geo_score":0.714,"id":"agje4avgdbd7","geo_precision":"zip"},"type":"Feature","geometry":{"type":"Point","coordinates":[-82.579542,28.004464]}},{"properties":{"zipcode":"33615","geo_score":0.714,"id":"agje4asznoax","geo_precision":"zip"},"type":"Feature","geometry":{"type":"Point","coordinates":[-82.579542,28.004464]}},{"properties":{"zipcode":"33901","geo_score":0.714,"id":"agje4b49a7cq","geo_precision":"zip"},"type":"Feature","geometry":{"type":"Point","coordinates":[-81.863698,26.561465]}},{"properties":{"zipcode":"33952","geo_score":0.714,"id":"agje4b0z2fk6","geo_precision":"zip"},"type":"Feature","geometry":{"type":"Point","coordinates":[-82.156128,26.994048]}},{"properties":{"zipcode":"33952","geo_score":0.714,"id":"agje4ata8f2t","geo_precision":"zip"},"type":"Feature","geometry":{"type":"Point","coordinates":[-82.156128,26.994048]}},{"properties":{"zipcode":"33952","geo_score":0.714,"id":"agje4avppoqk","geo_precision":"zip"},"type":"Feature","geometry":{"type":"Point","coordinates":[-82.156128,26.994048]}},{"properties":{"zipcode":"33966","geo_score":0.714,"id":"agje4au0hrqn","geo_precision":"zip"},"type":"Feature","geometry":{"type":"Point","coordinates":[-82.045366,26.929784]}},{"properties":{"zipcode":"34219","geo_score":0.714,"id":"agje4axapaav","geo_precision":"zip"},"type":"Feature","geometry":{"type":"Point","coordinates":[-82.269458,27.566457]}},{"properties":{"zipcode":"34219","geo_score":0.714,"id":"agje4b22llpp","geo_precision":"zip"},"type":"Feature","geometry":{"type":"Point","coordinates":[-82.269458,27.566457]}},{"properties":{"zipcode":"34609","geo_score":0.714,"id":"agje4azqxerc","geo_precision":"zip"},"type":"Feature","geometry":{"type":"Point","coordinates":[-82.450658,28.494344]}},{"properties":{"zipcode":"34747","geo_score":0.714,"id":"agje4arpthda","geo_precision":"zip"},"type":"Feature","geometry":{"type":"Point","coordinates":[-81.533129,28.325288]}},{"properties":{"zipcode":"35756","geo_score":0.714,"id":"agje4b297irb","geo_precision":"zip"},"type":"Feature","geometry":{"type":"Point","coordinates":[-86.754233,34.651409]}},{"properties":{"zipcode":"35756","geo_score":0.714,"id":"agje4b0bzgwr","geo_precision":"zip"},"type":"Feature","geometry":{"type":"Point","coordinates":[-86.754233,34.651409]}},{"properties":{"zipcode":"36801","geo_score":0.714,"id":"agje4aw6412h","geo_precision":"zip"},"type":"Feature","geometry":{"type":"Point","coordinates":[-85.364111,32.43903]}},{"properties":{"zipcode":"36867","geo_score":0.714,"id":"agje4b00dnmv","geo_precision":"zip"},"type":"Feature","geometry":{"type":"Point","coordinates":[-85.203923,32.375318]}},{"properties":{"zipcode":"36867","geo_score":0.714,"id":"agje4b6pi1ke","geo_precision":"zip"},"type":"Feature","geometry":{"type":"Point","coordinates":[-85.203923,32.375318]}},{"properties":{"zipcode":"37407","geo_score":0.714,"id":"agje4b6378qs","geo_precision":"zip"},"type":"Feature","geometry":{"type":"Point","coordinates":[-85.279123,35.005353]}},{"properties":{"zipcode":"37412","geo_score":0.714,"id":"agje4b4y8tae","geo_precision":"zip"},"type":"Feature","geometry":{"type":"Point","coordinates":[-85.258289,35.004242]}},{"properties":{"zipcode":"37620","geo_score":0.714,"id":"agje4arb41rs","geo_precision":"zip"},"type":"Feature","geometry":{"type":"Point","coordinates":[-82.184854,36.527051]}},{"properties":{"zipcode":"37716","geo_score":0.714,"id":"agje4ax2w84t","geo_precision":"zip"},"type":"Feature","geometry":{"type":"Point","coordinates":[-84.123531,36.154801]}},{"properties":{"zipcode":"38109","geo_score":0.714,"id":"agje4ax3nka6","geo_precision":"zip"},"type":"Feature","geometry":{"type":"Point","coordinates":[-90.062592,35.097591]}},{"properties":{"zipcode":"38109","geo_score":0.714,"id":"agje4az85asu","geo_precision":"zip"},"type":"Feature","geometry":{"type":"Point","coordinates":[-90.062592,35.097591]}},{"properties":{"zipcode":"38117","geo_score":0.714,"id":"agje4b460nrs","geo_precision":"zip"},"type":"Feature","geometry":{"type":"Point","coordinates":[-89.906749,35.113588]}},{"properties":{"zipcode":"38134","geo_score":0.714,"id":"agje4av1rakk","geo_precision":"zip"},"type":"Feature","geometry":{"type":"Point","coordinates":[-89.857389,35.184469]}},{"properties":{"zipcode":"38134","geo_score":0.714,"id":"agje4avarq97","geo_precision":"zip"},"type":"Feature","geometry":{"type":"Point","coordinates":[-89.857389,35.184469]}},{"properties":{"zipcode":"39232","geo_score":0.714,"id":"agje4arccq3d","geo_precision":"zip"},"type":"Feature","geometry":{"type":"Point","coordinates":[-90.397157,32.311287]}},{"properties":{"zipcode":"39232","geo_score":0.714,"id":"agje4awpgbld","geo_precision":"zip"},"type":"Feature","geometry":{"type":"Point","coordinates":[-90.397157,32.311287]}},{"properties":{"zipcode":"39232","geo_score":0.714,"id":"agje4arwt5p6","geo_precision":"zip"},"type":"Feature","geometry":{"type":"Point","coordinates":[-90.397157,32.311287]}},{"properties":{"zipcode":"39232","geo_score":0.714,"id":"agje4avf6enn","geo_precision":"zip"},"type":"Feature","geometry":{"type":"Point","coordinates":[-90.397157,32.311287]}},{"properties":{"zipcode":"39563","geo_score":0.714,"id":"agje4ayljk6f","geo_precision":"zip"},"type":"Feature","geometry":{"type":"Point","coordinates":[-88.491681,30.413533]}},{"properties":{"zipcode":"40065","geo_score":0.714,"id":"agje4axh1aqd","geo_precision":"zip"},"type":"Feature","geometry":{"type":"Point","coordinates":[-85.291067,38.209792]}},{"properties":{"zipcode":"43953","geo_score":0.714,"id":"agje4b122czi","geo_precision":"zip"},"type":"Feature","geometry":{"type":"Point","coordinates":[-80.707579,40.334235]}},{"properties":{"zipcode":"44314","geo_score":0.714,"id":"agje4b3q0vu0","geo_precision":"zip"},"type":"Feature","geometry":{"type":"Point","coordinates":[-81.560675,41.044778]}},{"properties":{"zipcode":"44904","geo_score":0.714,"id":"agje4b3cps6o","geo_precision":"zip"},"type":"Feature","geometry":{"type":"Point","coordinates":[-82.664341,40.681169]}},{"properties":{"zipcode":"44904","geo_score":0.714,"id":"agje4b1g1kky","geo_precision":"zip"},"type":"Feature","geometry":{"type":"Point","coordinates":[-82.664341,40.681169]}},{"properties":{"zipcode":"45405","geo_score":0.714,"id":"agje4aqjeb7v","geo_precision":"zip"},"type":"Feature","geometry":{"type":"Point","coordinates":[-84.217391,39.789857]}},{"properties":{"zipcode":"45429","geo_score":0.714,"id":"agje4b2x3jfg","geo_precision":"zip"},"type":"Feature","geometry":{"type":"Point","coordinates":[-84.168827,39.689504]}},{"properties":{"zipcode":"46224","geo_score":0.714,"id":"agje4awuw44d","geo_precision":"zip"},"type":"Feature","geometry":{"type":"Point","coordinates":[-86.267213,39.802265]}},{"properties":{"zipcode":"46239","geo_score":0.714,"id":"agje4aqmo9vd","geo_precision":"zip"},"type":"Feature","geometry":{"type":"Point","coordinates":[-86.044983,39.724766]}},{"properties":{"zipcode":"46239","geo_score":0.714,"id":"agje4b2tz67m","geo_precision":"zip"},"type":"Feature","geometry":{"type":"Point","coordinates":[-86.044983,39.724766]}},{"properties":{"zipcode":"46516","geo_score":0.714,"id":"agje4b2dvcnd","geo_precision":"zip"},"type":"Feature","geometry":{"type":"Point","coordinates":[-85.897236,41.620856]}},{"properties":{"zipcode":"46613","geo_score":0.714,"id":"agje4b0ecwj0","geo_precision":"zip"},"type":"Feature","geometry":{"type":"Point","coordinates":[-86.255696,41.656573]}},{"properties":{"zipcode":"48017","geo_score":0.714,"id":"agje4b6v7vox","geo_precision":"zip"},"type":"Feature","geometry":{"type":"Point","coordinates":[-83.146427,42.536785]}},{"properties":{"zipcode":"48117","geo_score":0.714,"id":"agje4b0qu29n","geo_precision":"zip"},"type":"Feature","geometry":{"type":"Point","coordinates":[-83.428904,42.0413]}},{"properties":{"zipcode":"48124","geo_score":0.714,"id":"agje4asszidw","geo_precision":"zip"},"type":"Feature","geometry":{"type":"Point","coordinates":[-83.242577,42.299302]}},{"properties":{"zipcode":"48144","geo_score":0.714,"id":"agje4aymzo1v","geo_precision":"zip"},"type":"Feature","geometry":{"type":"Point","coordinates":[-83.618485,41.759998]}},{"properties":{"zipcode":"48169","geo_score":0.714,"id":"agje4b2vwx8b","geo_precision":"zip"},"type":"Feature","geometry":{"type":"Point","coordinates":[-83.869389,42.475312]}},{"properties":{"zipcode":"48642","geo_score":0.714,"id":"agje4asy4ww7","geo_precision":"zip"},"type":"Feature","geometry":{"type":"Point","coordinates":[-84.409165,43.589195]}},{"properties":{"zipcode":"49456","geo_score":0.714,"id":"agje4b5r42vk","geo_precision":"zip"},"type":"Feature","geometry":{"type":"Point","coordinates":[-86.19538,43.076609]}},{"properties":{"zipcode":"49519","geo_score":0.714,"id":"agje4b3osz93","geo_precision":"zip"},"type":"Feature","geometry":{"type":"Point","coordinates":[-85.668086,42.96336]}},{"properties":{"zipcode":"50014","geo_score":0.714,"id":"agje4b5vqu1x","geo_precision":"zip"},"type":"Feature","geometry":{"type":"Point","coordinates":[-93.647237,42.045748]}},{"properties":{"zipcode":"51501","geo_score":0.714,"id":"agje4axdlmyj","geo_precision":"zip"},"type":"Feature","geometry":{"type":"Point","coordinates":[-95.875086,41.23238]}},{"properties":{"zipcode":"51501","geo_score":0.714,"id":"agje4av6t55r","geo_precision":"zip"},"type":"Feature","geometry":{"type":"Point","coordinates":[-95.875086,41.23238]}},{"properties":{"zipcode":"53094","geo_score":0.714,"id":"agje4azffxcv","geo_precision":"zip"},"type":"Feature","geometry":{"type":"Point","coordinates":[-88.672047,43.076115]}},{"properties":{"zipcode":"55038","geo_score":0.714,"id":"agje4azn1mq8","geo_precision":"zip"},"type":"Feature","geometry":{"type":"Point","coordinates":[-92.945218,45.182366]}},{"properties":{"zipcode":"55038","geo_score":0.714,"id":"agje4b311fmg","geo_precision":"zip"},"type":"Feature","geometry":{"type":"Point","coordinates":[-92.945218,45.182366]}},{"properties":{"zipcode":"55038","geo_score":0.714,"id":"agje4b0qujl8","geo_precision":"zip"},"type":"Feature","geometry":{"type":"Point","coordinates":[-92.945218,45.182366]}},{"properties":{"zipcode":"55105","geo_score":0.714,"id":"agje4ax21mjd","geo_precision":"zip"},"type":"Feature","geometry":{"type":"Point","coordinates":[-93.16097,44.934515]}},{"properties":{"zipcode":"55443","geo_score":0.714,"id":"agje4b05ubtj","geo_precision":"zip"},"type":"Feature","geometry":{"type":"Point","coordinates":[-93.356341,45.094132]}},{"properties":{"zipcode":"59101","geo_score":0.714,"id":"agje4b0nmv0w","geo_precision":"zip"},"type":"Feature","geometry":{"type":"Point","coordinates":[-108.387392,45.686966]}},{"properties":{"zipcode":"60008","geo_score":0.714,"id":"agje4aw5sabz","geo_precision":"zip"},"type":"Feature","geometry":{"type":"Point","coordinates":[-88.026871,42.074226]}},{"properties":{"zipcode":"60030","geo_score":0.714,"id":"agje4azrtg0v","geo_precision":"zip"},"type":"Feature","geometry":{"type":"Point","coordinates":[-87.982577,42.351689]}},{"properties":{"zipcode":"60048","geo_score":0.714,"id":"agje4awfu43g","geo_precision":"zip"},"type":"Feature","geometry":{"type":"Point","coordinates":[-87.925906,42.233357]}},{"properties":{"zipcode":"60154","geo_score":0.714,"id":"agje4b028uxr","geo_precision":"zip"},"type":"Feature","geometry":{"type":"Point","coordinates":[-87.68732,41.811929]}},{"properties":{"zipcode":"60154","geo_score":0.714,"id":"agje4b0c97sw","geo_precision":"zip"},"type":"Feature","geometry":{"type":"Point","coordinates":[-87.68732,41.811929]}},{"properties":{"zipcode":"60174","geo_score":0.714,"id":"agje4atqlk8p","geo_precision":"zip"},"type":"Feature","geometry":{"type":"Point","coordinates":[-88.309799,41.960027]}},{"properties":{"zipcode":"60174","geo_score":0.714,"id":"agje4azklua4","geo_precision":"zip"},"type":"Feature","geometry":{"type":"Point","coordinates":[-88.309799,41.960027]}},{"properties":{"zipcode":"60301","geo_score":0.714,"id":"agje4awsmi7s","geo_precision":"zip"},"type":"Feature","geometry":{"type":"Point","coordinates":[-87.68732,41.811929]}},{"properties":{"zipcode":"60301","geo_score":0.714,"id":"agje4asxbb8c","geo_precision":"zip"},"type":"Feature","geometry":{"type":"Point","coordinates":[-87.68732,41.811929]}},{"properties":{"zipcode":"60301","geo_score":0.714,"id":"agje4argwl1q","geo_precision":"zip"},"type":"Feature","geometry":{"type":"Point","coordinates":[-87.68732,41.811929]}},{"properties":{"zipcode":"60548","geo_score":0.714,"id":"agje4as89fdk","geo_precision":"zip"},"type":"Feature","geometry":{"type":"Point","coordinates":[-88.688906,41.702091]}},{"properties":{"zipcode":"60548","geo_score":0.714,"id":"agje4b2gy1w6","geo_precision":"zip"},"type":"Feature","geometry":{"type":"Point","coordinates":[-88.688906,41.702091]}},{"properties":{"zipcode":"60803","geo_score":0.714,"id":"agje4az7etrg","geo_precision":"zip"},"type":"Feature","geometry":{"type":"Point","coordinates":[-87.68732,41.811929]}},{"properties":{"zipcode":"60803","geo_score":0.714,"id":"agje4b1o5uuk","geo_precision":"zip"},"type":"Feature","geometry":{"type":"Point","coordinates":[-87.68732,41.811929]}},{"properties":{"zipcode":"61568","geo_score":0.714,"id":"agje4b04kjmt","geo_precision":"zip"},"type":"Feature","geometry":{"type":"Point","coordinates":[-89.39676,40.555872]}},{"properties":{"zipcode":"63012","geo_score":0.714,"id":"agje4avq1adf","geo_precision":"zip"},"type":"Feature","geometry":{"type":"Point","coordinates":[-90.453027,38.334232]}},{"properties":{"zipcode":"63108","geo_score":0.714,"id":"agje4axqda1o","geo_precision":"zip"},"type":"Feature","geometry":{"type":"Point","coordinates":[-90.251962,38.644801]}},{"properties":{"zipcode":"63141","geo_score":0.714,"id":"agje4aqt31a0","geo_precision":"zip"},"type":"Feature","geometry":{"type":"Point","coordinates":[-90.422618,38.660886]}},{"properties":{"zipcode":"63141","geo_score":0.714,"id":"agje4b3yy8x7","geo_precision":"zip"},"type":"Feature","geometry":{"type":"Point","coordinates":[-90.422618,38.660886]}},{"properties":{"zipcode":"64012","geo_score":0.714,"id":"agje4b6evy4b","geo_precision":"zip"},"type":"Feature","geometry":{"type":"Point","coordinates":[-94.589399,38.759453]}},{"properties":{"zipcode":"64062","geo_score":0.714,"id":"agje4ayhojc2","geo_precision":"zip"},"type":"Feature","geometry":{"type":"Point","coordinates":[-94.154663,39.507229]}},{"properties":{"zipcode":"66101","geo_score":0.714,"id":"agje4b3a0urq","geo_precision":"zip"},"type":"Feature","geometry":{"type":"Point","coordinates":[-94.630384,39.103053]}},{"properties":{"zipcode":"66101","geo_score":0.714,"id":"agje4b6oazpn","geo_precision":"zip"},"type":"Feature","geometry":{"type":"Point","coordinates":[-94.630384,39.103053]}},{"properties":{"zipcode":"66223","geo_score":0.714,"id":"agje4b57acg7","geo_precision":"zip"},"type":"Feature","geometry":{"type":"Point","coordinates":[-94.665791,38.854452]}},{"properties":{"zipcode":"66223","geo_score":0.714,"id":"agje4aql3vxd","geo_precision":"zip"},"type":"Feature","geometry":{"type":"Point","coordinates":[-94.665791,38.854452]}},{"properties":{"zipcode":"67218","geo_score":0.714,"id":"agje4ax6waxz","geo_precision":"zip"},"type":"Feature","geometry":{"type":"Point","coordinates":[-97.280784,37.668282]}},{"properties":{"zipcode":"67218","geo_score":0.714,"id":"agje4aunkcsf","geo_precision":"zip"},"type":"Feature","geometry":{"type":"Point","coordinates":[-97.280784,37.668282]}},{"properties":{"zipcode":"68118","geo_score":0.714,"id":"agje4b2y4zbn","geo_precision":"zip"},"type":"Feature","geometry":{"type":"Point","coordinates":[-96.176419,41.264155]}},{"properties":{"zipcode":"70047","geo_score":0.714,"id":"agje4ayvzoey","geo_precision":"zip"},"type":"Feature","geometry":{"type":"Point","coordinates":[-90.368185,29.964207]}},{"properties":{"zipcode":"70084","geo_score":0.714,"id":"agje4avo6dq9","geo_precision":"zip"},"type":"Feature","geometry":{"type":"Point","coordinates":[-90.535364,30.061869]}},{"properties":{"zipcode":"70563","geo_score":0.714,"id":"agje4aynbxon","geo_precision":"zip"},"type":"Feature","geometry":{"type":"Point","coordinates":[-91.749604,30.024515]}},{"properties":{"zipcode":"72032","geo_score":0.714,"id":"agje4b3it1m4","geo_precision":"zip"},"type":"Feature","geometry":{"type":"Point","coordinates":[-92.390155,35.02342]}},{"properties":{"zipcode":"72032","geo_score":0.714,"id":"agje4au452z7","geo_precision":"zip"},"type":"Feature","geometry":{"type":"Point","coordinates":[-92.390155,35.02342]}},{"properties":{"zipcode":"74130","geo_score":0.714,"id":"agje4ayh9yr1","geo_precision":"zip"},"type":"Feature","geometry":{"type":"Point","coordinates":[-95.955453,36.242342]}},{"properties":{"zipcode":"75062","geo_score":0.714,"id":"agje4aqwgmty","geo_precision":"zip"},"type":"Feature","geometry":{"type":"Point","coordinates":[-96.604557,32.980974]}},{"properties":{"zipcode":"75074","geo_score":0.714,"id":"agje4avwm16y","geo_precision":"zip"},"type":"Feature","geometry":{"type":"Point","coordinates":[-96.578819,33.109044]}},{"properties":{"zipcode":"75074","geo_score":0.714,"id":"agje4aup98fu","geo_precision":"zip"},"type":"Feature","geometry":{"type":"Point","coordinates":[-96.578819,33.109044]}},{"properties":{"zipcode":"75075","geo_score":0.714,"id":"agje4b3hydym","geo_precision":"zip"},"type":"Feature","geometry":{"type":"Point","coordinates":[-96.71546,33.162417]}},{"properties":{"zipcode":"75075","geo_score":0.714,"id":"agje4awrwvqc","geo_precision":"zip"},"type":"Feature","geometry":{"type":"Point","coordinates":[-96.71546,33.162417]}},{"properties":{"zipcode":"75075","geo_score":0.714,"id":"agje4aw8p7ik","geo_precision":"zip"},"type":"Feature","geometry":{"type":"Point","coordinates":[-96.71546,33.162417]}},{"properties":{"zipcode":"75126","geo_score":0.714,"id":"agje4at1a771","geo_precision":"zip"},"type":"Feature","geometry":{"type":"Point","coordinates":[-96.450819,32.723931]}},{"properties":{"zipcode":"75150","geo_score":0.714,"id":"agje4awhi3mr","geo_precision":"zip"},"type":"Feature","geometry":{"type":"Point","coordinates":[-96.635868,32.790964]}},{"properties":{"zipcode":"76013","geo_score":0.714,"id":"agje4az7r726","geo_precision":"zip"},"type":"Feature","geometry":{"type":"Point","coordinates":[-97.1564,32.714299]}},{"properties":{"zipcode":"76020","geo_score":0.714,"id":"agje4b3v6uvy","geo_precision":"zip"},"type":"Feature","geometry":{"type":"Point","coordinates":[-97.599747,32.919847]}},{"properties":{"zipcode":"76028","geo_score":0.714,"id":"agje4ax31h50","geo_precision":"zip"},"type":"Feature","geometry":{"type":"Point","coordinates":[-97.235569,32.55236]}},{"properties":{"zipcode":"77057","geo_score":0.714,"id":"agje4ay4tkz8","geo_precision":"zip"},"type":"Feature","geometry":{"type":"Point","coordinates":[-95.434241,29.83399]}},{"properties":{"zipcode":"77069","geo_score":0.714,"id":"agje4b2tuofv","geo_precision":"zip"},"type":"Feature","geometry":{"type":"Point","coordinates":[-95.335551,29.781938]}},{"properties":{"zipcode":"77088","geo_score":0.714,"id":"agje4at6oasv","geo_precision":"zip"},"type":"Feature","geometry":{"type":"Point","coordinates":[-95.434241,29.83399]}},{"properties":{"zipcode":"77474","geo_score":0.714,"id":"agje4ayooi78","geo_precision":"zip"},"type":"Feature","geometry":{"type":"Point","coordinates":[-96.088293,29.753289]}},{"properties":{"zipcode":"77502","geo_score":0.714,"id":"agje4b31gnu7","geo_precision":"zip"},"type":"Feature","geometry":{"type":"Point","coordinates":[-95.202911,29.678179]}},{"properties":{"zipcode":"77502","geo_score":0.714,"id":"agje4arpnfxc","geo_precision":"zip"},"type":"Feature","geometry":{"type":"Point","coordinates":[-95.202911,29.678179]}},{"properties":{"zipcode":"77520","geo_score":0.714,"id":"agje4aqw32jr","geo_precision":"zip"},"type":"Feature","geometry":{"type":"Point","coordinates":[-95.434241,29.83399]}},{"properties":{"zipcode":"77566","geo_score":0.714,"id":"agje4auiw3ft","geo_precision":"zip"},"type":"Feature","geometry":{"type":"Point","coordinates":[-95.471609,29.057746]}},{"properties":{"zipcode":"77586","geo_score":0.714,"id":"agje4as0923a","geo_precision":"zip"},"type":"Feature","geometry":{"type":"Point","coordinates":[-95.045207,29.563563]}},{"properties":{"zipcode":"77586","geo_score":0.714,"id":"agje4aryi4av","geo_precision":"zip"},"type":"Feature","geometry":{"type":"Point","coordinates":[-95.045207,29.563563]}},{"properties":{"zipcode":"77590","geo_score":0.714,"id":"agje4b3ilzd3","geo_precision":"zip"},"type":"Feature","geometry":{"type":"Point","coordinates":[-94.944646,29.3844]}},{"properties":{"zipcode":"77590","geo_score":0.714,"id":"agje4axjre0q","geo_precision":"zip"},"type":"Feature","geometry":{"type":"Point","coordinates":[-94.944646,29.3844]}},{"properties":{"zipcode":"77590","geo_score":0.714,"id":"agje4b4hky1r","geo_precision":"zip"},"type":"Feature","geometry":{"type":"Point","coordinates":[-94.944646,29.3844]}},{"properties":{"zipcode":"77591","geo_score":0.714,"id":"agje4b05gyiy","geo_precision":"zip"},"type":"Feature","geometry":{"type":"Point","coordinates":[-94.969173,29.427468]}},{"properties":{"zipcode":"78064","geo_score":0.714,"id":"agje4avojfbf","geo_precision":"zip"},"type":"Feature","geometry":{"type":"Point","coordinates":[-98.399458,29.049969]}},{"properties":{"zipcode":"78064","geo_score":0.714,"id":"agje4b1fb152","geo_precision":"zip"},"type":"Feature","geometry":{"type":"Point","coordinates":[-98.399458,29.049969]}},{"properties":{"zipcode":"78219","geo_score":0.714,"id":"agje4b5w9fef","geo_precision":"zip"},"type":"Feature","geometry":{"type":"Point","coordinates":[-98.34464,29.449182]}},{"properties":{"zipcode":"78645","geo_score":0.714,"id":"agje4aw7u2f2","geo_precision":"zip"},"type":"Feature","geometry":{"type":"Point","coordinates":[-97.966945,30.44901]}},{"properties":{"zipcode":"78676","geo_score":0.714,"id":"agje4avq6iw3","geo_precision":"zip"},"type":"Feature","geometry":{"type":"Point","coordinates":[-98.108065,29.986048]}},{"properties":{"zipcode":"78676","geo_score":0.714,"id":"agje4b6nrkbt","geo_precision":"zip"},"type":"Feature","geometry":{"type":"Point","coordinates":[-98.108065,29.986048]}},{"properties":{"zipcode":"78759","geo_score":0.714,"id":"agje4b0rzzj9","geo_precision":"zip"},"type":"Feature","geometry":{"type":"Point","coordinates":[-97.750611,30.395586]}},{"properties":{"zipcode":"79110","geo_score":0.714,"id":"agje4axaygbl","geo_precision":"zip"},"type":"Feature","geometry":{"type":"Point","coordinates":[-101.856612,35.131403]}},{"properties":{"zipcode":"80003","geo_score":0.714,"id":"agje4auttr7r","geo_precision":"zip"},"type":"Feature","geometry":{"type":"Point","coordinates":[-105.105775,39.835086]}},{"properties":{"zipcode":"80031","geo_score":0.714,"id":"agje4aupeksg","geo_precision":"zip"},"type":"Feature","geometry":{"type":"Point","coordinates":[-105.034487,39.87529]}},{"properties":{"zipcode":"80110","geo_score":0.714,"id":"agje4b07mzcy","geo_precision":"zip"},"type":"Feature","geometry":{"type":"Point","coordinates":[-104.950814,39.61721]}},{"properties":{"zipcode":"80501","geo_score":0.714,"id":"agje4azq719f","geo_precision":"zip"},"type":"Feature","geometry":{"type":"Point","coordinates":[-104.998868,40.138873]}},{"properties":{"zipcode":"80504","geo_score":0.714,"id":"agje4auoymv9","geo_precision":"zip"},"type":"Feature","geometry":{"type":"Point","coordinates":[-104.970816,40.129416]}},{"properties":{"zipcode":"80808","geo_score":0.714,"id":"agje4b4kmr2y","geo_precision":"zip"},"type":"Feature","geometry":{"type":"Point","coordinates":[-104.386909,38.838328]}},{"properties":{"zipcode":"80829","geo_score":0.714,"id":"agje4b2xfj50","geo_precision":"zip"},"type":"Feature","geometry":{"type":"Point","coordinates":[-104.927452,38.853366]}},{"properties":{"zipcode":"80903","geo_score":0.714,"id":"agje4b0u7r1o","geo_precision":"zip"},"type":"Feature","geometry":{"type":"Point","coordinates":[-104.809929,38.828893]}},{"properties":{"zipcode":"84128","geo_score":0.714,"id":"agje4b1g5rz8","geo_precision":"zip"},"type":"Feature","geometry":{"type":"Point","coordinates":[-112.037673,40.697645]}},{"properties":{"zipcode":"84157","geo_score":0.714,"id":"agje4b22u4mq","geo_precision":"zip"},"type":"Feature","geometry":{"type":"Point","coordinates":[-111.908297,40.668068]}},{"properties":{"zipcode":"85377","geo_score":0.714,"id":"agje4aw169zp","geo_precision":"zip"},"type":"Feature","geometry":{"type":"Point","coordinates":[-112.18717,33.276539]}},{"properties":{"zipcode":"85629","geo_score":0.714,"id":"agje4awb1fe9","geo_precision":"zip"},"type":"Feature","geometry":{"type":"Point","coordinates":[-110.895188,31.932883]}},{"properties":{"zipcode":"90803","geo_score":0.714,"id":"agje4b2tt5z0","geo_precision":"zip"},"type":"Feature","geometry":{"type":"Point","coordinates":[-118.13016,33.759885]}},{"properties":{"zipcode":"91601","geo_score":0.714,"id":"agje4awoev7n","geo_precision":"zip"},"type":"Feature","geometry":{"type":"Point","coordinates":[-118.298662,33.786594]}},{"properties":{"zipcode":"91710","geo_score":0.714,"id":"agje4awxak6x","geo_precision":"zip"},"type":"Feature","geometry":{"type":"Point","coordinates":[-117.778668,33.947792]}},{"properties":{"zipcode":"91762","geo_score":0.714,"id":"agje4b2eg4wn","geo_precision":"zip"},"type":"Feature","geometry":{"type":"Point","coordinates":[-115.967051,34.839964]}},{"properties":{"zipcode":"91762","geo_score":0.714,"id":"agje4aztqq8n","geo_precision":"zip"},"type":"Feature","geometry":{"type":"Point","coordinates":[-115.967051,34.839964]}},{"properties":{"zipcode":"92627","geo_score":0.714,"id":"agje4b688lpm","geo_precision":"zip"},"type":"Feature","geometry":{"type":"Point","coordinates":[-117.763886,33.685069]}},{"properties":{"zipcode":"93245","geo_score":0.714,"id":"agje4autw5mq","geo_precision":"zip"},"type":"Feature","geometry":{"type":"Point","coordinates":[-119.817274,36.268194]}},{"properties":{"zipcode":"93277","geo_score":0.714,"id":"agje4b3yovcd","geo_precision":"zip"},"type":"Feature","geometry":{"type":"Point","coordinates":[-119.355559,36.13188]}},{"properties":{"zipcode":"93280","geo_score":0.714,"id":"agje4aux7qbe","geo_precision":"zip"},"type":"Feature","geometry":{"type":"Point","coordinates":[-119.328723,35.717733]}},{"properties":{"zipcode":"93280","geo_score":0.714,"id":"agje4atmy13l","geo_precision":"zip"},"type":"Feature","geometry":{"type":"Point","coordinates":[-119.328723,35.717733]}},{"properties":{"zipcode":"93445","geo_score":0.714,"id":"agje4b62kg7y","geo_precision":"zip"},"type":"Feature","geometry":{"type":"Point","coordinates":[-120.611142,35.106168]}},{"properties":{"zipcode":"93711","geo_score":0.714,"id":"agje4b2r57i7","geo_precision":"zip"},"type":"Feature","geometry":{"type":"Point","coordinates":[-119.82824,36.830336]}},{"properties":{"zipcode":"94530","geo_score":0.714,"id":"agje4b1wc982","geo_precision":"zip"},"type":"Feature","geometry":{"type":"Point","coordinates":[-122.30248,37.918024]}},{"properties":{"zipcode":"94587","geo_score":0.714,"id":"agje4b29huru","geo_precision":"zip"},"type":"Feature","geometry":{"type":"Point","coordinates":[-121.97362,37.589084]}},{"properties":{"zipcode":"94587","geo_score":0.714,"id":"agje4av4yhsy","geo_precision":"zip"},"type":"Feature","geometry":{"type":"Point","coordinates":[-121.97362,37.589084]}},{"properties":{"zipcode":"95008","geo_score":0.714,"id":"agje4avytlku","geo_precision":"zip"},"type":"Feature","geometry":{"type":"Point","coordinates":[-121.705327,37.189396]}},{"properties":{"zipcode":"95113","geo_score":0.714,"id":"agje4aw0tjhg","geo_precision":"zip"},"type":"Feature","geometry":{"type":"Point","coordinates":[-121.705327,37.189396]}},{"properties":{"zipcode":"95120","geo_score":0.714,"id":"agje4arvaxpr","geo_precision":"zip"},"type":"Feature","geometry":{"type":"Point","coordinates":[-121.895798,37.38478]}},{"properties":{"zipcode":"95120","geo_score":0.714,"id":"agje4asnozkf","geo_precision":"zip"},"type":"Feature","geometry":{"type":"Point","coordinates":[-121.895798,37.38478]}},{"properties":{"zipcode":"95207","geo_score":0.714,"id":"agje4b40k8b9","geo_precision":"zip"},"type":"Feature","geometry":{"type":"Point","coordinates":[-121.325487,38.018146]}},{"properties":{"zipcode":"95307","geo_score":0.714,"id":"agje4b3txykd","geo_precision":"zip"},"type":"Feature","geometry":{"type":"Point","coordinates":[-120.967976,37.561889]}},{"properties":{"zipcode":"95354","geo_score":0.714,"id":"agje4b2jj076","geo_precision":"zip"},"type":"Feature","geometry":{"type":"Point","coordinates":[-121.090835,37.533682]}},{"properties":{"zipcode":"95746","geo_score":0.714,"id":"agje4avtrvyo","geo_precision":"zip"},"type":"Feature","geometry":{"type":"Point","coordinates":[-121.183436,38.756614]}},{"properties":{"zipcode":"95746","geo_score":0.714,"id":"agje4b4obwga","geo_precision":"zip"},"type":"Feature","geometry":{"type":"Point","coordinates":[-121.183436,38.756614]}},{"properties":{"zipcode":"96080","geo_score":0.714,"id":"agje4avh2m24","geo_precision":"zip"},"type":"Feature","geometry":{"type":"Point","coordinates":[-122.340888,40.142907]}},{"properties":{"zipcode":"97005","geo_score":0.714,"id":"agje4ay69oyr","geo_precision":"zip"},"type":"Feature","geometry":{"type":"Point","coordinates":[-122.902324,45.497617]}},{"properties":{"zipcode":"98108","geo_score":0.714,"id":"agje4b5s9o2d","geo_precision":"zip"},"type":"Feature","geometry":{"type":"Point","coordinates":[-121.803388,47.432251]}},{"properties":{"zipcode":"98108","geo_score":0.714,"id":"agje4aqri33o","geo_precision":"zip"},"type":"Feature","geometry":{"type":"Point","coordinates":[-121.803388,47.432251]}},{"properties":{"zipcode":"98108","geo_score":0.714,"id":"agje4b4tamgo","geo_precision":"zip"},"type":"Feature","geometry":{"type":"Point","coordinates":[-121.803388,47.432251]}},{"properties":{"zipcode":"98273","geo_score":0.714,"id":"agje4b4vfhf5","geo_precision":"zip"},"type":"Feature","geometry":{"type":"Point","coordinates":[-122.235429,48.316214]}},{"properties":{"zipcode":"98273","geo_score":0.714,"id":"agje4arlu97o","geo_precision":"zip"},"type":"Feature","geometry":{"type":"Point","coordinates":[-122.235429,48.316214]}},{"properties":{"zipcode":"98501","geo_score":0.714,"id":"agje4ayiflp9","geo_precision":"zip"},"type":"Feature","geometry":{"type":"Point","coordinates":[-122.782412,47.0515]}},{"properties":{"zipcode":"98512","geo_score":0.714,"id":"agje4b3x1zh4","geo_precision":"zip"},"type":"Feature","geometry":{"type":"Point","coordinates":[-123.021207,46.949776]}},{"properties":{"zipcode":"98661","geo_score":0.714,"id":"agje4aqve6ty","geo_precision":"zip"},"type":"Feature","geometry":{"type":"Point","coordinates":[-122.643658,45.769989]}},{"properties":{"zipcode":"98661","geo_score":0.714,"id":"agje4ay4usp6","geo_precision":"zip"},"type":"Feature","geometry":{"type":"Point","coordinates":[-122.643658,45.769989]}},{"properties":{"zipcode":"99208","geo_score":0.714,"id":"agje4atorwsm","geo_precision":"zip"},"type":"Feature","geometry":{"type":"Point","coordinates":[-117.455375,47.780541]}}],"is_temporal":false,"author":{"url":"","metadata":"","contact_name":"","contact_address":"","source":"","contact_phone":""},"source":"","pagination":{"sort":null,"start":0,"total":262,"limit":1000000},"state":"complete","tags":"","published":"2014-08-16T21:26:19-04:00","id":387259}