{"type":"FeatureCollection","data_type":"Dataset","url_type":null,"permissions":[{"permissions":{"download":true,"view":true},"group_id":"everyone"}],"classification":null,"title":"BMW_Mapping","count":31,"stream_id":387498,"contributor":{"url":"http://geocommons.com/users/80088","name":"shijiehenmei@sohu.com"},"data_attributes":null,"calculation_params":null,"icon_link":null,"link":"http://geocommons.com/overlays/387498.json","extent":[0.0,0.0,0.0,0.0],"geometry_types":[],"unique_name":null,"name":"BMW_Mapping","feature_count":31,"description":"","next_feature":null,"is_raster":false,"short_classification":"Y","stats":{"percentage":{"max":19.1,"variance":18.5867956989247,"mean":3.22903225806452,"stdev":4.31124062178449,"min":0.1,"median":1.6}},"features":[{"properties":{"geo_score":0.0,"percentage":1.1,"id":"agkxzzmegru9","province":"Heilongjiang","geo_precision":"unmatched"},"type":"Feature","geometry":null},{"properties":{"geo_score":0.0,"percentage":0.9,"id":"agkxzzq0260o","province":"Jilin","geo_precision":"unmatched"},"type":"Feature","geometry":null},{"properties":{"geo_score":0.0,"percentage":3.3,"id":"agkxzzepr2yx","province":"Liaoning","geo_precision":"unmatched"},"type":"Feature","geometry":null},{"properties":{"geo_score":0.0,"percentage":4.4,"id":"agkxzzqkm4qk","province":"Fujian","geo_precision":"unmatched"},"type":"Feature","geometry":null},{"properties":{"geo_score":0.0,"percentage":13.1,"id":"agkxzzpsn41u","province":"Guangdong","geo_precision":"unmatched"},"type":"Feature","geometry":null},{"properties":{"geo_score":0.0,"percentage":0.5,"id":"agkxzzr8tcdb","province":"Hainan","geo_precision":"unmatched"},"type":"Feature","geometry":null},{"properties":{"geo_score":0.0,"percentage":1.8,"id":"agkxzznhawzv","province":"Chongqing","geo_precision":"unmatched"},"type":"Feature","geometry":null},{"properties":{"geo_score":0.0,"percentage":0.3,"id":"agkxzzsrmbfs","province":"Gansu","geo_precision":"unmatched"},"type":"Feature","geometry":null},{"properties":{"geo_score":0.0,"percentage":1.1,"id":"agkxzzmllnk7","province":"Guangxi","geo_precision":"unmatched"},"type":"Feature","geometry":null},{"properties":{"geo_score":0.0,"percentage":0.8,"id":"agkxzzob4su8","province":"Guizhou","geo_precision":"unmatched"},"type":"Feature","geometry":null},{"properties":{"geo_score":0.0,"percentage":1.8,"id":"agkxzzpfarqv","province":"Inner Mongolia","geo_precision":"unmatched"},"type":"Feature","geometry":null},{"properties":{"geo_score":0.0,"percentage":0.4,"id":"agkxzzox0amr","province":"Ningxia Hui","geo_precision":"unmatched"},"type":"Feature","geometry":null},{"properties":{"geo_score":0.0,"percentage":0.1,"id":"agkxzzgvtgel","province":"Qinghai","geo_precision":"unmatched"},"type":"Feature","geometry":null},{"properties":{"geo_score":0.0,"percentage":1.0,"id":"agkxzzo1x3fb","province":"Shaanxi","geo_precision":"unmatched"},"type":"Feature","geometry":null},{"properties":{"geo_score":0.0,"percentage":3.9,"id":"agkxzzs4acqa","province":"Sichuan","geo_precision":"unmatched"},"type":"Feature","geometry":null},{"properties":{"geo_score":0.0,"percentage":0.1,"id":"agkxzzeh7w0o","province":"Tibet","geo_precision":"unmatched"},"type":"Feature","geometry":null},{"properties":{"geo_score":0.0,"percentage":0.4,"id":"agkxzzkqo7pz","province":"Xinjiang","geo_precision":"unmatched"},"type":"Feature","geometry":null},{"properties":{"geo_score":0.0,"percentage":1.5,"id":"agkxzztrbsem","province":"Yunnan","geo_precision":"unmatched"},"type":"Feature","geometry":null},{"properties":{"geo_score":0.0,"percentage":9.9,"id":"agkxzzfzz5wy","province":"Beijing","geo_precision":"unmatched"},"type":"Feature","geometry":null},{"properties":{"geo_score":0.0,"percentage":2.3,"id":"agkxzztiso8g","province":"Hebei","geo_precision":"unmatched"},"type":"Feature","geometry":null},{"properties":{"geo_score":0.0,"percentage":4.1,"id":"agkxzzs2smfl","province":"Shandong","geo_precision":"unmatched"},"type":"Feature","geometry":null},{"properties":{"geo_score":0.0,"percentage":1.6,"id":"agkxzzglc49u","province":"Tianjin","geo_precision":"unmatched"},"type":"Feature","geometry":null},{"properties":{"geo_score":0.0,"percentage":1.7,"id":"agkxzzkoc41a","province":"Anhui","geo_precision":"unmatched"},"type":"Feature","geometry":null},{"properties":{"geo_score":0.0,"percentage":1.9,"id":"agkxzzj7jw8y","province":"Henan","geo_precision":"unmatched"},"type":"Feature","geometry":null},{"properties":{"geo_score":0.0,"percentage":1.6,"id":"agkxzzkxj8kb","province":"Hubei","geo_precision":"unmatched"},"type":"Feature","geometry":null},{"properties":{"geo_score":0.0,"percentage":1.5,"id":"agkxzzpqj5w2","province":"Hunan","geo_precision":"unmatched"},"type":"Feature","geometry":null},{"properties":{"geo_score":0.0,"percentage":0.9,"id":"agkxzzodl85n","province":"Jiangxi","geo_precision":"unmatched"},"type":"Feature","geometry":null},{"properties":{"geo_score":0.0,"percentage":2.2,"id":"agkxzzrt2i53","province":"Shanxi","geo_precision":"unmatched"},"type":"Feature","geometry":null},{"properties":{"geo_score":0.0,"percentage":9.8,"id":"agkxzzudprjj","province":"Jiangsu","geo_precision":"unmatched"},"type":"Feature","geometry":null},{"properties":{"geo_score":0.0,"percentage":7.0,"id":"agkxzzt63y85","province":"Shanghai","geo_precision":"unmatched"},"type":"Feature","geometry":null},{"properties":{"geo_score":0.0,"percentage":19.1,"id":"agkxzzokmrar","province":"Zhejiang","geo_precision":"unmatched"},"type":"Feature","geometry":null}],"is_temporal":false,"author":{"url":"","metadata":null,"contact_name":null,"contact_address":null,"source":null,"contact_phone":null},"source":"","pagination":{"sort":null,"start":0,"total":31,"limit":1000000},"state":"complete","tags":"","published":"2014-08-16T21:43:22-04:00","id":387498}