{"type":"FeatureCollection","data_type":"Dataset","url_type":null,"permissions":[{"permissions":{"download":true,"view":true},"group_id":"everyone"}],"classification":null,"title":"Sales data for 97215","count":52,"stream_id":3876,"contributor":{"url":"http://geocommons.com/users/778","name":"morechanges"},"data_attributes":null,"calculation_params":null,"icon_link":null,"link":"http://geocommons.com/overlays/3876.json","extent":[-122.619,45.5061,-122.586,45.5228],"geometry_types":["point"],"unique_name":null,"name":"Sales data for 97215","feature_count":52,"description":"","next_feature":null,"is_raster":false,"short_classification":"Y","stats":{"zip":{"max":97215,"mean":97215.0,"variance":0.0,"stdev":0.0,"min":97215,"median":97215},"sqft":{"max":1998,"mean":1629.03846153846,"variance":76310.8220211161,"stdev":276.244134817585,"min":1000,"median":1700},"saleprice":{"max":490000,"mean":313244.519230769,"variance":4478612846.33296,"stdev":66922.4390345492,"min":56000,"median":324000},"lat":{"max":45.522816,"mean":45.5143791346154,"variance":2.72828649030862e-05,"stdev":0.00522330019270252,"min":45.506061,"median":45.515572},"yrbuilt":{"max":2008,"mean":1938.17307692308,"variance":1198.6165158371,"stdev":34.6210415186647,"min":1890,"median":1926},"long":{"max":-122.585669,"mean":-122.6067805,"variance":0.000103273328411762,"stdev":0.0101623485677161,"min":-122.619429,"median":-122.608593},"pricesqft":{"max":327,"mean":196.807692307692,"variance":2226.78582202112,"stdev":47.1888315390529,"min":30,"median":191}},"features":[{"properties":{"city":"Portland","zip":97215,"sqft":1640,"stateid":"1S2E05DC 11100","saleprice":287000,"saledate":"03/07/08","propid":"R284506","id":"a6knhf21cct5","lat":45.506061,"address":"2318 SE 72ND AVE","yrbuilt":1925,"long":-122.588724,"state":"OR","pricesqft":175},"type":"Feature","geometry":{"type":"Point","coordinates":[-122.588724,45.506061]}},{"properties":{"city":"Portland","zip":97215,"sqft":1058,"stateid":"1S2E06DD 16900","saleprice":250000,"saledate":"02/27/08","propid":"R219752","id":"a6knhf06dflb","lat":45.506556,"address":"6206 SE SHERMAN ST","yrbuilt":1985,"long":-122.599661,"state":"OR","pricesqft":236},"type":"Feature","geometry":{"type":"Point","coordinates":[-122.599661,45.506556]}},{"properties":{"city":"Portland","zip":97215,"sqft":1569,"stateid":"1S2E05DC 10800","saleprice":335000,"saledate":"06/19/08","propid":"R284524","id":"a6knheza5qdd","lat":45.506764,"address":"2232 SE 72ND AVE","yrbuilt":1964,"long":-122.588681,"state":"OR","pricesqft":214},"type":"Feature","geometry":{"type":"Point","coordinates":[-122.588681,45.506764]}},{"properties":{"city":"Portland","zip":97215,"sqft":1696,"stateid":"1S2E06CC 5200","saleprice":270000,"saledate":"03/03/08","propid":"R153989","id":"a6knhesh7avc","lat":45.50707,"address":"2241 SE 43RD AVE","yrbuilt":1914,"long":-122.618244,"state":"OR","pricesqft":159},"type":"Feature","geometry":{"type":"Point","coordinates":[-122.618244,45.50707]}},{"properties":{"city":"Portland","zip":97215,"sqft":1538,"stateid":"1S2E06CD 4401","saleprice":334315,"saledate":"12/11/07","propid":"R589142","id":"a6knhesfsb6l","lat":45.507128,"address":"2235 SE 47TH AVE","yrbuilt":2008,"long":-122.614408,"state":"OR","pricesqft":217},"type":"Feature","geometry":{"type":"Point","coordinates":[-122.614408,45.507128]}},{"properties":{"city":"Portland","zip":97215,"sqft":1817,"stateid":"1S2E06CD 17900","saleprice":285900,"saledate":"10/05/07","propid":"R168912","id":"a6knhf6szjpe","lat":45.507238,"address":"4844 SE GRANT ST","yrbuilt":1916,"long":-122.612415,"state":"OR","pricesqft":157},"type":"Feature","geometry":{"type":"Point","coordinates":[-122.612415,45.507238]}},{"properties":{"city":"Portland","zip":97215,"sqft":1824,"stateid":"1S2E06CD 17800","saleprice":334200,"saledate":"02/28/08","propid":"R168913","id":"a6knheywd0f4","lat":45.507238,"address":"4838 SE GRANT ST","yrbuilt":1921,"long":-122.612453,"state":"OR","pricesqft":183},"type":"Feature","geometry":{"type":"Point","coordinates":[-122.612453,45.507238]}},{"properties":{"city":"Portland","zip":97215,"sqft":1700,"stateid":"1S2E06CD 3700","saleprice":240000,"saledate":"12/18/07","propid":"R282890","id":"a6knhezptxep","lat":45.507252,"address":"2210 SE 46TH AVE","yrbuilt":1956,"long":-122.614986,"state":"OR","pricesqft":141},"type":"Feature","geometry":{"type":"Point","coordinates":[-122.614986,45.507252]}},{"properties":{"city":"Portland","zip":97215,"sqft":1740,"stateid":"1S2E06CD 1200","saleprice":295000,"saledate":"11/05/07","propid":"R159583","id":"a6knhf4fppuz","lat":45.508138,"address":"4837 SE LINCOLN ST","yrbuilt":1911,"long":-122.612502,"state":"OR","pricesqft":170},"type":"Feature","geometry":{"type":"Point","coordinates":[-122.612502,45.508138]}},{"properties":{"city":"Portland","zip":97215,"sqft":1714,"stateid":"1S2E06CB 25801","saleprice":450000,"saledate":"10/11/07","propid":"R542087","id":"a6knhf3rgpzu","lat":45.50862,"address":"4418 SE HARRISON ST","yrbuilt":2005,"long":-122.616902,"state":"OR","pricesqft":263},"type":"Feature","geometry":{"type":"Point","coordinates":[-122.616902,45.50862]}},{"properties":{"city":"Portland","zip":97215,"sqft":1816,"stateid":"1S2E05CA 3600","saleprice":330000,"saledate":"10/11/07","propid":"R332666","id":"a6knhf3q2zao","lat":45.508775,"address":"2009 SE 72ND AVE","yrbuilt":1962,"long":-122.589096,"state":"OR","pricesqft":182},"type":"Feature","geometry":{"type":"Point","coordinates":[-122.589096,45.508775]}},{"properties":{"city":"Portland","zip":97215,"sqft":1910,"stateid":"1S2E06DD 1000","saleprice":365000,"saledate":"12/19/07","propid":"R191759","id":"a6knhf287jpp","lat":45.508804,"address":"2025 SE 58TH AVE","yrbuilt":1926,"long":-122.603691,"state":"OR","pricesqft":191},"type":"Feature","geometry":{"type":"Point","coordinates":[-122.603691,45.508804]}},{"properties":{"city":"Portland","zip":97215,"sqft":1836,"stateid":"1S2E06DB 21000","saleprice":398000,"saledate":"05/19/08","propid":"R172602","id":"a6knhezwi8d9","lat":45.509241,"address":"1945 SE 52ND AVE","yrbuilt":1906,"long":-122.60908,"state":"OR","pricesqft":217},"type":"Feature","geometry":{"type":"Point","coordinates":[-122.60908,45.509241]}},{"properties":{"city":"Portland","zip":97215,"sqft":1090,"stateid":"1S2E05DB 7900","saleprice":345000,"saledate":"02/27/08","propid":"R136169","id":"a6knhex21031","lat":45.509762,"address":"7403 SE STEPHENS ST","yrbuilt":1947,"long":-122.586769,"state":"OR","pricesqft":317},"type":"Feature","geometry":{"type":"Point","coordinates":[-122.586769,45.509762]}},{"properties":{"city":"Portland","zip":97215,"sqft":1839,"stateid":"1S2E06DB 14900","saleprice":56000,"saledate":"01/08/08","propid":"R143235","id":"a6knhf41n7sx","lat":45.509829,"address":"1833 SE 54TH AVE","yrbuilt":1922,"long":-122.607924,"state":"OR","pricesqft":30},"type":"Feature","geometry":{"type":"Point","coordinates":[-122.607924,45.509829]}},{"properties":{"city":"Portland","zip":97215,"sqft":1616,"stateid":"1S2E06DB 14700","saleprice":355000,"saledate":"12/14/07","propid":"R143237","id":"a6knhf6oim1j","lat":45.509924,"address":"1815 SE 54TH AVE","yrbuilt":1920,"long":-122.60793,"state":"OR","pricesqft":220},"type":"Feature","geometry":{"type":"Point","coordinates":[-122.60793,45.509924]}},{"properties":{"city":"Portland","zip":97215,"sqft":1636,"stateid":"1S2E06CA 7900","saleprice":295000,"saledate":"10/10/07","propid":"R177099","id":"a6knheurbcee","lat":45.51044,"address":"1724 SE 49TH AVE","yrbuilt":1915,"long":-122.612019,"state":"OR","pricesqft":180},"type":"Feature","geometry":{"type":"Point","coordinates":[-122.612019,45.51044]}},{"properties":{"city":"Portland","zip":97215,"sqft":1776,"stateid":"1S2E06CB 20000","saleprice":309900,"saledate":"10/17/07","propid":"R176768","id":"a6knhetoq890","lat":45.510866,"address":"1631 SE 42ND AVE","yrbuilt":1915,"long":-122.619384,"state":"OR","pricesqft":174},"type":"Feature","geometry":{"type":"Point","coordinates":[-122.619384,45.510866]}},{"properties":{"city":"Portland","zip":97215,"sqft":1700,"stateid":"1S2E06CB 8400","saleprice":340500,"saledate":"05/16/08","propid":"R176718","id":"a6knhf6lxva7","lat":45.510894,"address":"1624 SE 44TH AVE","yrbuilt":1912,"long":-122.616965,"state":"OR","pricesqft":200},"type":"Feature","geometry":{"type":"Point","coordinates":[-122.616965,45.510894]}},{"properties":{"city":"Portland","zip":97215,"sqft":1482,"stateid":"1S2E06CB 5100","saleprice":340000,"saledate":"01/08/08","propid":"R176698","id":"a6knhf6smlft","lat":45.511132,"address":"4424 SE CLAY ST","yrbuilt":1926,"long":-122.616859,"state":"OR","pricesqft":229},"type":"Feature","geometry":{"type":"Point","coordinates":[-122.616859,45.511132]}},{"properties":{"city":"Portland","zip":97215,"sqft":1783,"stateid":"1S2E06AD 9900","saleprice":399000,"saledate":"05/02/08","propid":"R332743","id":"a6knhf3uj6xk","lat":45.511914,"address":"5907 SE HAWTHORNE BLVD","yrbuilt":1909,"long":-122.602636,"state":"OR","pricesqft":224},"type":"Feature","geometry":{"type":"Point","coordinates":[-122.602636,45.511914]}},{"properties":{"city":"Portland","zip":97215,"sqft":1500,"stateid":"1S2E06BD 27400","saleprice":490000,"saledate":"03/12/08","propid":"R332792","id":"a6knhez6kany","lat":45.512212,"address":"4635 SE HAWTHORNE BLVD","yrbuilt":1926,"long":-122.614723,"state":"OR","pricesqft":327},"type":"Feature","geometry":{"type":"Point","coordinates":[-122.614723,45.512212]}},{"properties":{"city":"Portland","zip":97215,"sqft":1868,"stateid":"1S2E06BD 17600","saleprice":280000,"saledate":"03/17/08","propid":"R268804","id":"a6knhertrr2b","lat":45.51407,"address":"1254 SE 49TH AVE","yrbuilt":1925,"long":-122.612373,"state":"OR","pricesqft":150},"type":"Feature","geometry":{"type":"Point","coordinates":[-122.612373,45.51407]}},{"properties":{"city":"Portland","zip":97215,"sqft":1812,"stateid":"1S2E06BC 6900","saleprice":385000,"saledate":"04/19/08","propid":"R169608","id":"a6knhf6gx1aq","lat":45.514139,"address":"4434 SE SALMON ST","yrbuilt":1911,"long":-122.616733,"state":"OR","pricesqft":212},"type":"Feature","geometry":{"type":"Point","coordinates":[-122.616733,45.514139]}},{"properties":{"city":"Portland","zip":97215,"sqft":1680,"stateid":"1S2E06BD 8200","saleprice":330000,"saledate":"05/16/08","propid":"R233507","id":"a6knheuivl4u","lat":45.515024,"address":"1137 SE 47TH AVE","yrbuilt":1913,"long":-122.614285,"state":"OR","pricesqft":196},"type":"Feature","geometry":{"type":"Point","coordinates":[-122.614285,45.515024]}},{"properties":{"city":"Portland","zip":97215,"sqft":1684,"stateid":"1S2E06BD 8100","saleprice":379000,"saledate":"12/21/07","propid":"R233506","id":"a6knhf71riym","lat":45.515086,"address":"1125 SE 47TH AVE","yrbuilt":1913,"long":-122.614284,"state":"OR","pricesqft":225},"type":"Feature","geometry":{"type":"Point","coordinates":[-122.614284,45.515086]}},{"properties":{"city":"Portland","zip":97215,"sqft":1408,"stateid":"1S2E06BA 16500","saleprice":324000,"saledate":"05/22/08","propid":"R142471","id":"a6knheuzjjtj","lat":45.515572,"address":"5041 SE TAYLOR ST","yrbuilt":1928,"long":-122.610453,"state":"OR","pricesqft":230},"type":"Feature","geometry":{"type":"Point","coordinates":[-122.610453,45.515572]}},{"properties":{"city":"Portland","zip":97215,"sqft":1940,"stateid":"1S2E06BC 11300","saleprice":241000,"saledate":"11/12/07","propid":"R220148","id":"a6knhf0l08ee","lat":45.515589,"address":"1022 SE 42ND AVE","yrbuilt":1921,"long":-122.619213,"state":"OR","pricesqft":124},"type":"Feature","geometry":{"type":"Point","coordinates":[-122.619213,45.515589]}},{"properties":{"city":"Portland","zip":97215,"sqft":1850,"stateid":"1S2E06AA 8300","saleprice":289500,"saledate":"10/09/07","propid":"R221907","id":"a6knhetqpxth","lat":45.516888,"address":"5823 SE BELMONT ST","yrbuilt":1928,"long":-122.603799,"state":"OR","pricesqft":156},"type":"Feature","geometry":{"type":"Point","coordinates":[-122.603799,45.516888]}},{"properties":{"city":"Portland","zip":97215,"sqft":1092,"stateid":"1S2E05BA 9500","saleprice":248500,"saledate":"05/28/08","propid":"R283104","id":"a6knhf08jjxp","lat":45.517072,"address":"6731 SE BELMONT ST","yrbuilt":1979,"long":-122.593815,"state":"OR","pricesqft":228},"type":"Feature","geometry":{"type":"Point","coordinates":[-122.593815,45.517072]}},{"properties":{"city":"Portland","zip":97215,"sqft":1998,"stateid":"1S2E05BA 11200","saleprice":327000,"saledate":"03/07/08","propid":"R283077","id":"a6knhf20w9ms","lat":45.51725,"address":"825 SE 70TH AVE","yrbuilt":1956,"long":-122.591094,"state":"OR","pricesqft":164},"type":"Feature","geometry":{"type":"Point","coordinates":[-122.591094,45.51725]}},{"properties":{"city":"Portland","zip":97215,"sqft":1843,"stateid":"1S2E06BA 5800","saleprice":326500,"saledate":"12/12/07","propid":"R149818","id":"a6knhf4hqgzo","lat":45.517252,"address":"818 SE 47TH AVE","yrbuilt":1890,"long":-122.614404,"state":"OR","pricesqft":177},"type":"Feature","geometry":{"type":"Point","coordinates":[-122.614404,45.517252]}},{"properties":{"city":"Portland","zip":97215,"sqft":1636,"stateid":"1S2E05BB 7800","saleprice":409000,"saledate":"02/29/08","propid":"R283157","id":"a6knhf2ucv28","lat":45.517267,"address":"6316 SE MORRISON ST","yrbuilt":1948,"long":-122.598797,"state":"OR","pricesqft":250},"type":"Feature","geometry":{"type":"Point","coordinates":[-122.598797,45.517267]}},{"properties":{"city":"Portland","zip":97215,"sqft":1944,"stateid":"1S2E06BB 6200","saleprice":315000,"saledate":"02/26/08","propid":"R233396","id":"a6knhevgedui","lat":45.517617,"address":"727 SE 45TH AVE","yrbuilt":1890,"long":-122.616243,"state":"OR","pricesqft":162},"type":"Feature","geometry":{"type":"Point","coordinates":[-122.616243,45.517617]}},{"properties":{"city":"Portland","zip":97215,"sqft":1951,"stateid":"1S2E06BB 5100","saleprice":342500,"saledate":"03/11/08","propid":"R233395","id":"a6knhez30362","lat":45.517666,"address":"715 SE 45TH AVE","yrbuilt":1926,"long":-122.616204,"state":"OR","pricesqft":176},"type":"Feature","geometry":{"type":"Point","coordinates":[-122.616204,45.517666]}},{"properties":{"city":"Portland","zip":97215,"sqft":1916,"stateid":"1S2E06AB 3000","saleprice":295000,"saledate":"05/28/08","propid":"R332866","id":"a6knhex8d2ax","lat":45.517816,"address":"728 SE 55TH AVE","yrbuilt":1926,"long":-122.606664,"state":"OR","pricesqft":154},"type":"Feature","geometry":{"type":"Point","coordinates":[-122.606664,45.517816]}},{"properties":{"city":"Portland","zip":97215,"sqft":1844,"stateid":"1S3E01DB 4800","saleprice":242900,"saledate":"02/20/08","propid":"R282055","id":"a6knhes26zds","lat":45.518009,"address":"698 SE 42ND ST","yrbuilt":1994,"long":-122.619429,"state":"OR","pricesqft":132},"type":"Feature","geometry":{"type":"Point","coordinates":[-122.619429,45.518009]}},{"properties":{"city":"Portland","zip":97215,"sqft":1744,"stateid":"1S2E06AB 13100","saleprice":322500,"saledate":"06/16/08","propid":"R297145","id":"a6knhewu71bj","lat":45.518322,"address":"628 SE 54TH AVE","yrbuilt":1892,"long":-122.607653,"state":"OR","pricesqft":185},"type":"Feature","geometry":{"type":"Point","coordinates":[-122.607653,45.518322]}},{"properties":{"city":"Portland","zip":97215,"sqft":1017,"stateid":"1S2E06AB 14400","saleprice":264000,"saledate":"06/03/08","propid":"R297134","id":"a6knhf30yxu0","lat":45.518439,"address":"5316 SE WASHINGTON ST","yrbuilt":1988,"long":-122.608593,"state":"OR","pricesqft":260},"type":"Feature","geometry":{"type":"Point","coordinates":[-122.608593,45.518439]}},{"properties":{"city":"Portland","zip":97215,"sqft":1500,"stateid":"1S2E06AA 7407","saleprice":335000,"saledate":"04/21/08","propid":"R303228","id":"a6knheweumoo","lat":45.518857,"address":"615 SE 59TH CT","yrbuilt":1996,"long":-122.603189,"state":"OR","pricesqft":223},"type":"Feature","geometry":{"type":"Point","coordinates":[-122.603189,45.518857]}},{"properties":{"city":"Portland","zip":97215,"sqft":1466,"stateid":"1S2E06AB 18300","saleprice":315000,"saledate":"06/12/08","propid":"R297109","id":"a6knhf1r9yvv","lat":45.518981,"address":"536 SE 54TH AVE","yrbuilt":1906,"long":-122.607651,"state":"OR","pricesqft":215},"type":"Feature","geometry":{"type":"Point","coordinates":[-122.607651,45.518981]}},{"properties":{"city":"Portland","zip":97215,"sqft":1446,"stateid":"1S2E06BB 2200","saleprice":360000,"saledate":"03/05/08","propid":"R233379","id":"a6knhf3g5nrh","lat":45.519078,"address":"4434 SE STARK ST","yrbuilt":1890,"long":-122.616857,"state":"OR","pricesqft":249},"type":"Feature","geometry":{"type":"Point","coordinates":[-122.616857,45.519078]}},{"properties":{"city":"Portland","zip":97215,"sqft":1572,"stateid":"1S2E06AA 7402","saleprice":300000,"saledate":"03/12/08","propid":"R303223","id":"a6knhf5qohj4","lat":45.519091,"address":"520 SE 59TH CT","yrbuilt":1997,"long":-122.60311,"state":"OR","pricesqft":191},"type":"Feature","geometry":{"type":"Point","coordinates":[-122.60311,45.519091]}},{"properties":{"city":"Portland","zip":97215,"sqft":1848,"stateid":"1N2E32DC 18402","saleprice":344900,"saledate":"01/10/08","propid":"R589831","id":"a6knhf6h41it","lat":45.52004,"address":"334 SE 75TH AVE","yrbuilt":2007,"long":-122.585669,"state":"OR","pricesqft":187},"type":"Feature","geometry":{"type":"Point","coordinates":[-122.585669,45.52004]}},{"properties":{"city":"Portland","zip":97215,"sqft":1854,"stateid":"1N2E32DC 18403","saleprice":349900,"saledate":"11/19/07","propid":"R589832","id":"a6knhf0256yg","lat":45.520058,"address":"330 SE 75TH AVE","yrbuilt":2007,"long":-122.585669,"state":"OR","pricesqft":189},"type":"Feature","geometry":{"type":"Point","coordinates":[-122.585669,45.520058]}},{"properties":{"city":"Portland","zip":97215,"sqft":1566,"stateid":"1N2E32DC 10800","saleprice":275000,"saledate":"06/17/08","propid":"R221148","id":"a6knhf5wwebw","lat":45.520478,"address":"352 SE GILHAM AVE","yrbuilt":1922,"long":-122.589526,"state":"OR","pricesqft":176},"type":"Feature","geometry":{"type":"Point","coordinates":[-122.589526,45.520478]}},{"properties":{"city":"Portland","zip":97215,"sqft":1082,"stateid":"1N2E31CD 90012","saleprice":215000,"saledate":"01/08/08","propid":"R288563","id":"a6knheywxp98","lat":45.521567,"address":"147 SE 52ND AVE","yrbuilt":1969,"long":-122.610437,"state":"OR","pricesqft":199},"type":"Feature","geometry":{"type":"Point","coordinates":[-122.610437,45.521567]}},{"properties":{"city":"Portland","zip":97215,"sqft":1000,"stateid":"1N2E31DD 9100","saleprice":249950,"saledate":"10/08/07","propid":"R283281","id":"a6knhf4ytxav","lat":45.521787,"address":"5733 SE ASH ST","yrbuilt":1924,"long":-122.60476,"state":"OR","pricesqft":250},"type":"Feature","geometry":{"type":"Point","coordinates":[-122.60476,45.521787]}},{"properties":{"city":"Portland","zip":97215,"sqft":1398,"stateid":"1N2E31DC 1100","saleprice":269950,"saledate":"05/13/08","propid":"R222034","id":"a6knheyi40jk","lat":45.521883,"address":"5504 SE ANKENY ST","yrbuilt":1924,"long":-122.607288,"state":"OR","pricesqft":193},"type":"Feature","geometry":{"type":"Point","coordinates":[-122.607288,45.521883]}},{"properties":{"city":"Portland","zip":97215,"sqft":1934,"stateid":"1N2E31DC 12400","saleprice":368000,"saledate":"06/20/08","propid":"R216513","id":"a6knhf0etkud","lat":45.521937,"address":"101 SE 55TH AVE","yrbuilt":1904,"long":-122.607604,"state":"OR","pricesqft":190},"type":"Feature","geometry":{"type":"Point","coordinates":[-122.607604,45.521937]}},{"properties":{"city":"Portland","zip":97215,"sqft":1037,"stateid":"1N2E31DC 90008","saleprice":219800,"saledate":"10/03/07","propid":"R124432","id":"a6knhestxthu","lat":45.522206,"address":"34 SE 52ND AVE","yrbuilt":1970,"long":-122.610049,"state":"OR","pricesqft":212},"type":"Feature","geometry":{"type":"Point","coordinates":[-122.610049,45.522206]}},{"properties":{"city":"Portland","zip":97215,"sqft":1500,"stateid":"1N2E32CD 2700","saleprice":260000,"saledate":"06/18/08","propid":"R193896","id":"a6knheqpjsn5","lat":45.522816,"address":"26 SE 70TH AVE","yrbuilt":1950,"long":-122.590689,"state":"OR","pricesqft":173},"type":"Feature","geometry":{"type":"Point","coordinates":[-122.590689,45.522816]}}],"is_temporal":false,"author":{"url":"","metadata":"","contact_name":"","contact_address":"","source":"","contact_phone":""},"source":"","pagination":{"sort":null,"start":0,"total":52,"limit":1000000},"state":"complete","tags":"","published":"2014-08-11T03:06:18-04:00","id":3876}