{"type":"FeatureCollection","data_type":"Dataset","url_type":null,"permissions":[{"permissions":{"download":true,"view":true},"group_id":"everyone"}],"classification":null,"title":"ZeeMap-644178 edited","count":10,"stream_id":387664,"contributor":{"url":"http://geocommons.com/users/80205","name":"MattStromberg"},"data_attributes":null,"calculation_params":null,"icon_link":null,"link":"http://geocommons.com/overlays/387664.json","extent":[-118.382,34.0302,-118.372,34.034],"geometry_types":["point"],"unique_name":null,"name":"ZeeMap-644178 edited","feature_count":10,"description":"","next_feature":null,"is_raster":false,"short_classification":"Y","stats":{},"features":[{"properties":{"name":"Greene Exhibitions","city":"Los Angeles","photo url":"http://www.greene-exhibitions.com/","zipcode":"90034","country":"United States","geo_score":1.0,"website":"http://www.greene-exhibitions.com/","description":null,"street":"2654 La Cienega Ave","color":"red","phone":null,"id":"agluaulb96az","geo_precision":"range","state":"California","email":null},"type":"Feature","geometry":{"type":"Point","coordinates":[-118.378125,34.034029]}},{"properties":{"name":"Cognoscenti Coffee","city":"Culver City","photo url":null,"zipcode":"90232","country":"United States","geo_score":1.0,"website":"http://www.popupcoffee.com/","description":"Cognescenti on Washington Blvd is the best cup of coffee I have ever had in America. The pastries from Proof bakery that they carry can make any morning into an amazing day.","street":"6114 W Washington Blvd","color":"red","phone":"323.664.8633","id":"agluauuced90","geo_precision":"range","state":"California","email":null},"type":"Feature","geometry":{"type":"Point","coordinates":[-118.377834,34.031237]}},{"properties":{"name":"Muddy Leek","city":"Culver City","photo url":null,"zipcode":"90232","country":"United States","geo_score":1.0,"website":"http://www.muddyleek.com/","description":"I like the Muddy Leek for cocktails, and the frequently-changing (and generously economical) wine list make it a good spot for a happy hour meeting. The daily pizzetta and the merguez hot dog are my favorite snacks.","street":"8631 W Washington Blvd","color":"red","phone":"310.838.2281","id":"agluauoyhv5t","geo_precision":"range","state":"California","email":"info@muddyleek.com"},"type":"Feature","geometry":{"type":"Point","coordinates":[-118.38212,34.030228]}},{"properties":{"name":"EK Valley Restaurant","city":"Culver City","photo url":null,"zipcode":"90232","country":"United States","geo_score":1.0,"website":"http://ekvalley.net/","description":"Excellent Oaxacan cuisine. The chicken taquitos have saved me during those days where you forget to eat because you are working at such a pace.","street":"6121 W Washington Blvd","color":"red","phone":"310.838.6839","id":"agluaupo3xk9","geo_precision":"range","state":"California","email":null},"type":"Feature","geometry":{"type":"Point","coordinates":[-118.378767,34.031126]}},{"properties":{"name":"JR's BBQ","city":"Culver City","photo url":null,"zipcode":"90232","country":"United States","geo_score":1.0,"website":"http://jrs-bbq.com/","description":"There is no tricky install challenge that cannot be resolved by contemplating a rack of ribs.","street":"3055 S La Cienega Blvd","color":"red","phone":"310.837.6838","id":"agluauzbr604","geo_precision":"range","state":"California","email":null},"type":"Feature","geometry":{"type":"Point","coordinates":[-118.372134,34.030435]}},{"properties":{"name":"Blum &amp; Poe","city":"Los Angeles","photo url":null,"zipcode":"90034","country":"United States","geo_score":0.983,"website":"http://www.blumandpoe.com","description":"The first gallery to open in Culver, Blum and Poe spearheaded the move to the area in 2003. Now they are one of the most established galleries in Los Angeles, and the US, representing a wide selection of local and international artists including Takashi Murakami.","street":"2727 South La Cienega Blvd","color":"teal","phone":"310.836.2062","id":"agluav02q2iu","geo_precision":"range","state":"California","email":"info@blumandpoe.com"},"type":"Feature","geometry":{"type":"Point","coordinates":[-118.375697,34.033296]}},{"properties":{"name":"Mandrake","city":"Los Angeles","photo url":null,"zipcode":"90034","country":"United States","geo_score":1.0,"website":"http://www.mandrakebar.com/","description":"The Mandrake Bar is at the center of the Culver City Arts District. Opening in the early days of the gallery influx, this watering hole has been a consistent fixture for post-opening parties and gallery events for almost ten years. The bar has a pleasant back patio and large mural by Blum &amp; Poe artist Dave Muller.","street":"2692 S La Cienega Blvd","color":"teal","phone":"310.837.3297","id":"agluauwglb5j","geo_precision":"range","state":"California","email":"mail@mandrakebar.com"},"type":"Feature","geometry":{"type":"Point","coordinates":[-118.375646,34.033444]}},{"properties":{"name":"Carter &amp; Citizen","city":"Los Angeles","photo url":null,"zipcode":"90034","country":"United States","geo_score":1.0,"website":"http://www.carterandcitizen.com/","description":"Carter and Citizen have been the most important compliment to my programming this year! Whitney and I have so many shared interests, but our programs provide distinctly different experiences. I think our two spaces make for a can't-lose proposition for anyone willing to stoll down Little La Cienega","street":"2648 La Cienega Ave","color":"red","phone":null,"id":"agluauzr3yp1","geo_precision":"range","state":"California","email":null},"type":"Feature","geometry":{"type":"Point","coordinates":[-118.378138,34.033963]}},{"properties":{"name":"Susanne Vielmetter Los Angeles Projects","city":"Culver City","photo url":null,"zipcode":"90232","country":"United States","geo_score":1.0,"website":"http://www.vielmetter.com","description":"The third gallery to open in Culver City, Susanne Vielmetter is located off the main drag of La Cienega Boulevard on Washington.","street":"6006 W Washington Blvd","color":"teal","phone":"310.837-2117","id":"agluauv4fnto","geo_precision":"range","state":"California","email":"info@vielmetter.com"},"type":"Feature","geometry":{"type":"Point","coordinates":[-118.376208,34.031666]}},{"properties":{"name":"International Art Objects","city":"Los Angeles","photo url":null,"zipcode":"90034","country":"United States","geo_score":1.0,"website":"http://international.la/","description":"Once a mainstay of the Chinatown galleries, International Art Objects (formerly China Art Objects) relocated to Culver City in September of 2010.","street":"6086 Comey Ave","color":"teal","phone":"323.965.2264","id":"agluaupzf1te","geo_precision":"range","state":"California","email":"info@international.la"},"type":"Feature","geometry":{"type":"Point","coordinates":[-118.375402,34.034039]}}],"is_temporal":false,"author":{"url":"","metadata":"","contact_name":"","contact_address":"","source":"","contact_phone":""},"source":"","pagination":{"sort":null,"start":0,"total":10,"limit":1000000},"state":"complete","tags":"","published":"2014-08-16T21:52:27-04:00","id":387664}