{"type":"FeatureCollection","data_type":"Dataset","url_type":null,"permissions":[{"permissions":{"download":true,"view":true},"group_id":"everyone"}],"classification":null,"title":"Taggy comps","count":50,"stream_id":3880,"contributor":{"url":"http://geocommons.com/users/778","name":"morechanges"},"data_attributes":null,"calculation_params":null,"icon_link":null,"link":"http://geocommons.com/overlays/3880.json","extent":[-122.632,45.4908,-122.606,45.5086],"geometry_types":["point"],"unique_name":null,"name":"Taggy comps","feature_count":50,"description":"This is an experiment using comps for a property I am interested in purchasing.","next_feature":null,"is_raster":false,"short_classification":"Y","stats":{"zip":{"max":97215,"mean":97206.94,"variance":23.7310204081633,"stdev":4.87144951817868,"min":97202,"median":97206},"sqft":{"max":3194,"mean":1691.98,"variance":294816.836326531,"stdev":542.970382550034,"min":850,"median":1680},"saleprice":{"max":509000,"mean":348718.66,"variance":4942088075.65755,"stdev":70299.9863133525,"min":201400,"median":345000},"bd":{"max":6,"mean":2.86,"variance":0.939183673469388,"stdev":0.969114891779807,"min":1,"median":3},"lot":{"max":9000,"mean":5043.36,"variance":1379139.01061224,"stdev":1174.3674938503,"min":3036,"median":5000},"lat":{"max":45.508571,"mean":45.50129968,"variance":2.40608528342884e-05,"stdev":0.00490518632003805,"min":45.490808,"median":45.502132},"ba":{"max":5,"mean":1.52,"variance":0.673061224489796,"stdev":0.82040308659207,"min":1,"median":1},"yrbuilt":{"max":1996,"mean":1927.52,"variance":386.254693877551,"stdev":19.653363424044,"min":1889,"median":1925},"long":{"max":-122.606223,"mean":-122.61933198,"variance":4.60151535710203e-05,"stdev":0.00678344702721413,"min":-122.631541,"median":-122.618702},"pricesqft":{"max":359,"mean":220.82,"variance":3584.06897959184,"stdev":59.8670942972167,"min":94,"median":205}},"features":[{"properties":{"city":"Portland","zip":97202,"sqft":1572,"saleprice":317000,"bd":3,"saledate":"June 5 2008","lot":4900,"adderss":"4038 SE Mall St","id":"a67p5swaoe68","lat":45.490808,"ba":2,"yrbuilt":1996,"long":-122.620931,"state":"OR","pricesqft":201},"type":"Feature","geometry":{"type":"Point","coordinates":[-122.620931,45.490808]}},{"properties":{"city":"Portland","zip":97206,"sqft":1542,"saleprice":350000,"bd":3,"saledate":"March 21 2008","lot":5000,"adderss":"4420 SE 43rd Ave","id":"a67p5t88jpl2","lat":45.490986,"ba":2,"yrbuilt":1963,"long":-122.617664,"state":"OR","pricesqft":226},"type":"Feature","geometry":{"type":"Point","coordinates":[-122.617664,45.490986]}},{"properties":{"city":"Portland","zip":97202,"sqft":1772,"saleprice":274000,"bd":3,"saledate":"July 15 2008","lot":5000,"adderss":"3805 SE Mall St","id":"a67p5t2ww7jk","lat":45.491192,"ba":1.5,"yrbuilt":1911,"long":-122.623595,"state":"OR","pricesqft":154},"type":"Feature","geometry":{"type":"Point","coordinates":[-122.623595,45.491192]}},{"properties":{"city":"Portland","zip":97202,"sqft":1721,"saleprice":325000,"bd":2,"saledate":"July 31 2008","lot":5000,"adderss":"4345 SE 35th Ave","id":"a67p5t731zix","lat":45.491565,"ba":1,"yrbuilt":1949,"long":-122.628968,"state":"OR","pricesqft":203},"type":"Feature","geometry":{"type":"Point","coordinates":[-122.628968,45.491565]}},{"properties":{"city":"Portland","zip":97202,"sqft":2000,"saleprice":404900,"bd":3,"saledate":"July 25 2008","lot":5000,"adderss":"4216 SE 33rd Ave","id":"a67p5ssh7pns","lat":45.492675,"ba":2,"yrbuilt":1913,"long":-122.631541,"state":"OR","pricesqft":202},"type":"Feature","geometry":{"type":"Point","coordinates":[-122.631541,45.492675]}},{"properties":{"city":"Portland","zip":97206,"sqft":1642,"saleprice":329000,"bd":3,"saledate":"February 11 2008","lot":7500,"adderss":"4303 SE Boise St","id":"a67p5suiisl2","lat":45.492879,"ba":1,"yrbuilt":1889,"long":-122.617862,"state":"OR","pricesqft":200},"type":"Feature","geometry":{"type":"Point","coordinates":[-122.617862,45.492879]}},{"properties":{"city":"Portland","zip":97206,"sqft":1120,"saleprice":201400,"bd":3,"saledate":"June 13 2008","lot":5000,"adderss":"4004 SE 48th Ave","id":"a67p5t4a1xn5","lat":45.493976,"ba":1,"yrbuilt":1920,"long":-122.61297,"state":"OR","pricesqft":179},"type":"Feature","geometry":{"type":"Point","coordinates":[-122.61297,45.493976]}},{"properties":{"city":"Portland","zip":97202,"sqft":1004,"saleprice":279950,"bd":2,"saledate":"May 2 2008","lot":5000,"adderss":"3664 SE Francis St","id":"a67p5st19si9","lat":45.494558,"ba":1,"yrbuilt":1926,"long":-122.625392,"state":"OR","pricesqft":278},"type":"Feature","geometry":{"type":"Point","coordinates":[-122.625392,45.494558]}},{"properties":{"city":"Portland","zip":97206,"sqft":870,"saleprice":276000,"bd":2,"saledate":"March 28 2008","lot":5000,"adderss":"4536 SE Haig St","id":"a67p5sx8r13o","lat":45.498098,"ba":1,"yrbuilt":1941,"long":-122.615891,"state":"OR","pricesqft":317},"type":"Feature","geometry":{"type":"Point","coordinates":[-122.615891,45.498098]}},{"properties":{"city":"Portland","zip":97206,"sqft":2171,"saleprice":270000,"bd":5,"saledate":"July 17 2008","lot":5000,"adderss":"3404 SE 51st Ave","id":"a67p5sxj65ab","lat":45.498126,"ba":1,"yrbuilt":1908,"long":-122.610016,"state":"OR","pricesqft":124},"type":"Feature","geometry":{"type":"Point","coordinates":[-122.610016,45.498126]}},{"properties":{"city":"Portland","zip":97206,"sqft":2384,"saleprice":225000,"bd":3,"saledate":"May 30 2008","lot":5100,"adderss":"4723 SE Haig St","id":"a67p5t3crifg","lat":45.498432,"ba":1,"yrbuilt":1928,"long":-122.614159,"state":"OR","pricesqft":94},"type":"Feature","geometry":{"type":"Point","coordinates":[-122.614159,45.498432]}},{"properties":{"city":"Portland","zip":97206,"sqft":2242,"saleprice":363500,"bd":3,"saledate":"February 14 2008","lot":8000,"adderss":"3335 SE 43rd Ave","id":"a67p5t6ds6mm","lat":45.498609,"ba":1,"yrbuilt":1937,"long":-122.618664,"state":"OR","pricesqft":162},"type":"Feature","geometry":{"type":"Point","coordinates":[-122.618664,45.498609]}},{"properties":{"city":"Portland","zip":97202,"sqft":1344,"saleprice":359500,"bd":2,"saledate":"June 30 2008","lot":5275,"adderss":"3310 SE 33rd Ave","id":"a67p5t2b37d1","lat":45.498928,"ba":1,"yrbuilt":1938,"long":-122.631349,"state":"OR","pricesqft":282},"type":"Feature","geometry":{"type":"Point","coordinates":[-122.631349,45.498928]}},{"properties":{"city":"Portland","zip":97202,"sqft":1452,"saleprice":429900,"bd":3,"saledate":"March 21 2008","lot":4750,"adderss":"4035 SE Franklin St","id":"a67p5t0pw5cy","lat":45.499282,"ba":2,"yrbuilt":1929,"long":-122.621418,"state":"OR","pricesqft":296},"type":"Feature","geometry":{"type":"Point","coordinates":[-122.621418,45.499282]}},{"properties":{"city":"Portland","zip":97206,"sqft":1284,"saleprice":345000,"bd":1,"saledate":"March 28 2008","lot":5460,"adderss":"4526 SE Kelly St","id":"a67p5sy82h0r","lat":45.499408,"ba":1,"yrbuilt":1907,"long":-122.615965,"state":"OR","pricesqft":268},"type":"Feature","geometry":{"type":"Point","coordinates":[-122.615965,45.499408]}},{"properties":{"city":"Portland","zip":97202,"sqft":1292,"saleprice":299000,"bd":4,"saledate":"March 25 2008","lot":5300,"adderss":"3520 SE Kelly St","id":"a67p5st8tqyg","lat":45.499653,"ba":1,"yrbuilt":1945,"long":-122.62795,"state":"OR","pricesqft":231},"type":"Feature","geometry":{"type":"Point","coordinates":[-122.62795,45.499653]}},{"properties":{"city":"Portland","zip":97202,"sqft":1414,"saleprice":289000,"bd":2,"saledate":"July 15 2008","lot":4000,"adderss":"3727 SE Kelly St","id":"a67p5t7m7q2p","lat":45.499933,"ba":1,"yrbuilt":1924,"long":-122.624792,"state":"OR","pricesqft":204},"type":"Feature","geometry":{"type":"Point","coordinates":[-122.624792,45.499933]}},{"properties":{"city":"Portland","zip":97206,"sqft":1028,"saleprice":288699,"bd":2,"saledate":"July 23 2008","lot":5120,"adderss":"3115 SE 55th Ave","id":"a67p5swlsmn3","lat":45.500061,"ba":1,"yrbuilt":1925,"long":-122.606223,"state":"OR","pricesqft":280},"type":"Feature","geometry":{"type":"Point","coordinates":[-122.606223,45.500061]}},{"properties":{"city":"Portland","zip":97206,"sqft":864,"saleprice":217000,"bd":2,"saledate":"April 29 2008","lot":5000,"adderss":"4824 SE Tibbetts St","id":"a67p5sumqsa9","lat":45.500149,"ba":1,"yrbuilt":1950,"long":-122.613531,"state":"OR","pricesqft":251},"type":"Feature","geometry":{"type":"Point","coordinates":[-122.613531,45.500149]}},{"properties":{"city":"Portland","zip":97202,"sqft":850,"saleprice":290000,"bd":3,"saledate":"June 20 2008","lot":5000,"adderss":"3636 SE Tibbetts St","id":"a67p5susixri","lat":45.500373,"ba":1,"yrbuilt":1926,"long":-122.625632,"state":"OR","pricesqft":341},"type":"Feature","geometry":{"type":"Point","coordinates":[-122.625632,45.500373]}},{"properties":{"city":"Portland","zip":97206,"sqft":1452,"saleprice":300000,"bd":2,"saledate":"July 31 2008","lot":5000,"adderss":"3006 SE 51st Ave","id":"a67p5t0zgrlm","lat":45.500864,"ba":2,"yrbuilt":1911,"long":-122.609994,"state":"OR","pricesqft":206},"type":"Feature","geometry":{"type":"Point","coordinates":[-122.609994,45.500864]}},{"properties":{"city":"Portland","zip":97206,"sqft":1854,"saleprice":368000,"bd":2,"saledate":"May 9 2008","lot":6000,"adderss":"4350 SE Brooklyn St","id":"a67p5t1k21dr","lat":45.501068,"ba":2,"yrbuilt":1949,"long":-122.617885,"state":"OR","pricesqft":198},"type":"Feature","geometry":{"type":"Point","coordinates":[-122.617885,45.501068]}},{"properties":{"city":"Portland","zip":97202,"sqft":2112,"saleprice":434130,"bd":3,"saledate":"July 15 2008","lot":4250,"adderss":"2905 SE 35th Ave","id":"a67p5t3x3uvr","lat":45.501833,"ba":2,"yrbuilt":1922,"long":-122.628702,"state":"OR","pricesqft":205},"type":"Feature","geometry":{"type":"Point","coordinates":[-122.628702,45.501833]}},{"properties":{"city":"Portland","zip":97202,"sqft":2155,"saleprice":415800,"bd":2,"saledate":"May 22 2008","lot":9000,"adderss":"4124 SE Woodward St","id":"a67p5syq12w5","lat":45.501841,"ba":2,"yrbuilt":1946,"long":-122.620318,"state":"OR","pricesqft":192},"type":"Feature","geometry":{"type":"Point","coordinates":[-122.620318,45.501841]}},{"properties":{"city":"Portland","zip":97206,"sqft":1323,"saleprice":337000,"bd":3,"saledate":"March 14 2008","lot":4700,"adderss":"4215 SE Woodward St","id":"a67p5swf0vb8","lat":45.50206,"ba":1,"yrbuilt":1946,"long":-122.619364,"state":"OR","pricesqft":254},"type":"Feature","geometry":{"type":"Point","coordinates":[-122.619364,45.50206]}},{"properties":{"city":"Portland","zip":97202,"sqft":1640,"saleprice":509000,"bd":4,"saledate":"May 21 2008","lot":7500,"adderss":"3817 SE Woodward St","id":"a67p5suwevsr","lat":45.502132,"ba":2,"yrbuilt":1906,"long":-122.623877,"state":"OR","pricesqft":310},"type":"Feature","geometry":{"type":"Point","coordinates":[-122.623877,45.502132]}},{"properties":{"city":"Portland","zip":97206,"sqft":2878,"saleprice":485000,"bd":4,"saledate":"April 21 2008","lot":4762,"adderss":"4218 SE Taggart St","id":"a67p5t06qh5q","lat":45.502448,"ba":3,"yrbuilt":1931,"long":-122.618822,"state":"OR","pricesqft":168},"type":"Feature","geometry":{"type":"Point","coordinates":[-122.618822,45.502448]}},{"properties":{"city":"Portland","zip":97206,"sqft":3194,"saleprice":485000,"bd":5,"saledate":"April 21 2008","lot":4791,"adderss":"4218 SE Taggart St","id":"a67p5t33sszc","lat":45.502448,"ba":3,"yrbuilt":1931,"long":-122.618822,"state":"OR","pricesqft":151},"type":"Feature","geometry":{"type":"Point","coordinates":[-122.618822,45.502448]}},{"properties":{"city":"Portland","zip":97206,"sqft":1638,"saleprice":370000,"bd":3,"saledate":"December 4 2007","lot":4300,"adderss":"4318 SE Taggart St","id":"a67p5t4v3rga","lat":45.502448,"ba":2,"yrbuilt":1927,"long":-122.617673,"state":"OR","pricesqft":225},"type":"Feature","geometry":{"type":"Point","coordinates":[-122.617673,45.502448]}},{"properties":{"city":"Portland","zip":97206,"sqft":1386,"saleprice":346000,"bd":2,"saledate":"July 28 2008","lot":4300,"adderss":"4405 SE Taggart St","id":"a67p5t0wjx07","lat":45.502832,"ba":1,"yrbuilt":1928,"long":-122.617037,"state":"OR","pricesqft":249},"type":"Feature","geometry":{"type":"Point","coordinates":[-122.617037,45.502832]}},{"properties":{"city":"Portland","zip":97202,"sqft":1780,"saleprice":450000,"bd":3,"saledate":"July 3 2008","lot":3333,"adderss":"2742 SE 36th Ave","id":"a67p5t6ub2ad","lat":45.502965,"ba":2,"yrbuilt":1910,"long":-122.626052,"state":"OR","pricesqft":252},"type":"Feature","geometry":{"type":"Point","coordinates":[-122.626052,45.502965]}},{"properties":{"city":"Portland","zip":97206,"sqft":2592,"saleprice":425000,"bd":6,"saledate":"May 30 2008","lot":4900,"adderss":"2723 SE 52nd Ave","id":"a67p5t1jpn9f","lat":45.503075,"ba":3,"yrbuilt":1969,"long":-122.609193,"state":"OR","pricesqft":163},"type":"Feature","geometry":{"type":"Point","coordinates":[-122.609193,45.503075]}},{"properties":{"city":"Portland","zip":97202,"sqft":2112,"saleprice":327000,"bd":2,"saledate":"June 13 2008","lot":5000,"adderss":"4138 SE Clinton St","id":"a67p5swiw4e8","lat":45.503158,"ba":1,"yrbuilt":1941,"long":-122.619815,"state":"OR","pricesqft":154},"type":"Feature","geometry":{"type":"Point","coordinates":[-122.619815,45.503158]}},{"properties":{"city":"Portland","zip":97206,"sqft":1680,"saleprice":270000,"bd":2,"saledate":"February 6 2008","lot":3800,"adderss":"4219 SE Clinton St","id":"a67p5swdb45q","lat":45.503487,"ba":1,"yrbuilt":1915,"long":-122.618702,"state":"OR","pricesqft":160},"type":"Feature","geometry":{"type":"Point","coordinates":[-122.618702,45.503487]}},{"properties":{"city":"Portland","zip":97206,"sqft":1543,"saleprice":315000,"bd":3,"saledate":"February 6 2008","lot":5000,"adderss":"2603 SE 51st Ave","id":"a67p5t7ycs5r","lat":45.504245,"ba":1,"yrbuilt":1926,"long":-122.610081,"state":"OR","pricesqft":204},"type":"Feature","geometry":{"type":"Point","coordinates":[-122.610081,45.504245]}},{"properties":{"city":"Portland","zip":97202,"sqft":2230,"saleprice":292000,"bd":3,"saledate":"July 29 2008","lot":5000,"adderss":"2525 SE 34th Ave","id":"a67p5t0ifzbi","lat":45.504544,"ba":1,"yrbuilt":1950,"long":-122.629694,"state":"OR","pricesqft":139},"type":"Feature","geometry":{"type":"Point","coordinates":[-122.629694,45.504544]}},{"properties":{"city":"Portland","zip":97206,"sqft":2876,"saleprice":430000,"bd":4,"saledate":"July 18 2008","lot":4791,"adderss":"2504 SE 51st Ave","id":"a67p5t3xl76v","lat":45.504828,"ba":2.5,"yrbuilt":1922,"long":-122.609807,"state":"OR","pricesqft":149},"type":"Feature","geometry":{"type":"Point","coordinates":[-122.609807,45.504828]}},{"properties":{"city":"Portland","zip":97214,"sqft":2017,"saleprice":427000,"bd":2,"saledate":"July 22 2008","lot":6600,"adderss":"3310 SE Caruthers St","id":"a67p5t1eioad","lat":45.50536,"ba":1,"yrbuilt":1913,"long":-122.630994,"state":"OR","pricesqft":211},"type":"Feature","geometry":{"type":"Point","coordinates":[-122.630994,45.50536]}},{"properties":{"city":"Portland","zip":97215,"sqft":1844,"saleprice":342400,"bd":2,"saledate":"July 28 2008","lot":4500,"adderss":"2362 SE 52nd Ave","id":"a67p5sxehqq7","lat":45.505863,"ba":1,"yrbuilt":1924,"long":-122.608809,"state":"OR","pricesqft":185},"type":"Feature","geometry":{"type":"Point","coordinates":[-122.608809,45.505863]}},{"properties":{"city":"Portland","zip":97215,"sqft":1780,"saleprice":450000,"bd":4,"saledate":"March 27 2008","lot":4500,"adderss":"2324 SE 52nd Ave","id":"a67p5swjn606","lat":45.50627,"ba":1,"yrbuilt":1923,"long":-122.608818,"state":"OR","pricesqft":252},"type":"Feature","geometry":{"type":"Point","coordinates":[-122.608818,45.50627]}},{"properties":{"city":"Portland","zip":97215,"sqft":1804,"saleprice":350000,"bd":3,"saledate":"January 17 2008","lot":5000,"adderss":"2316 SE 43rd Ave","id":"a67p5t0fgqah","lat":45.506295,"ba":2,"yrbuilt":1925,"long":-122.617912,"state":"OR","pricesqft":194},"type":"Feature","geometry":{"type":"Point","coordinates":[-122.617912,45.506295]}},{"properties":{"city":"Portland","zip":97215,"sqft":999,"saleprice":285000,"bd":2,"saledate":"July 8 2008","lot":5000,"adderss":"2314 SE 46th Ave","id":"a67p5sxjcbef","lat":45.506337,"ba":1,"yrbuilt":1922,"long":-122.614973,"state":"OR","pricesqft":285},"type":"Feature","geometry":{"type":"Point","coordinates":[-122.614973,45.506337]}},{"properties":{"city":"Portland","zip":97214,"sqft":1688,"saleprice":377854,"bd":4,"saledate":"May 30 2008","lot":3300,"adderss":"4025 SE Sherman St","id":"a67p5t7d2t3b","lat":45.506352,"ba":1,"yrbuilt":1911,"long":-122.621145,"state":"OR","pricesqft":223},"type":"Feature","geometry":{"type":"Point","coordinates":[-122.621145,45.506352]}},{"properties":{"city":"Portland","zip":97214,"sqft":1014,"saleprice":365000,"bd":2,"saledate":"July 16 2008","lot":3036,"adderss":"2227 SE 37th Ave","id":"a67p5t5ghwbz","lat":45.506867,"ba":1,"yrbuilt":1910,"long":-122.625897,"state":"OR","pricesqft":359},"type":"Feature","geometry":{"type":"Point","coordinates":[-122.625897,45.506867]}},{"properties":{"city":"Portland","zip":97214,"sqft":1310,"saleprice":375000,"bd":3,"saledate":"May 23 2008","lot":4000,"adderss":"4011 SE Grant Ct","id":"a67p5t8kfo84","lat":45.507019,"ba":1,"yrbuilt":1910,"long":-122.621295,"state":"OR","pricesqft":286},"type":"Feature","geometry":{"type":"Point","coordinates":[-122.621295,45.507019]}},{"properties":{"city":"Portland","zip":97215,"sqft":1989,"saleprice":399900,"bd":3,"saledate":"May 16 2008","lot":5000,"adderss":"2226 SE 45th Ave","id":"a67p5steve7i","lat":45.507156,"ba":5,"yrbuilt":1911,"long":-122.615971,"state":"OR","pricesqft":201},"type":"Feature","geometry":{"type":"Point","coordinates":[-122.615971,45.507156]}},{"properties":{"city":"Portland","zip":97215,"sqft":1092,"saleprice":315000,"bd":3,"saledate":"June 16 2008","lot":3750,"adderss":"2208 SE 48th Ave","id":"a67p5t2akjp0","lat":45.507272,"ba":1,"yrbuilt":1904,"long":-122.613042,"state":"OR","pricesqft":288},"type":"Feature","geometry":{"type":"Point","coordinates":[-122.613042,45.507272]}},{"properties":{"city":"Portland","zip":97215,"sqft":2000,"saleprice":396000,"bd":4,"saledate":"May 1 2008","lot":7500,"adderss":"2127-2137 SE 48th Ave","id":"a67p5stgtycf","lat":45.507716,"ba":3,"yrbuilt":1955,"long":-122.613429,"state":"OR","pricesqft":198},"type":"Feature","geometry":{"type":"Point","coordinates":[-122.613429,45.507716]}},{"properties":{"city":"Portland","zip":97214,"sqft":2017,"saleprice":320000,"bd":2,"saledate":"July 2 2008","lot":4900,"adderss":"3506 SE Lincoln St","id":"a67p5sxm65bs","lat":45.507939,"ba":1,"yrbuilt":1907,"long":-122.628389,"state":"OR","pricesqft":158},"type":"Feature","geometry":{"type":"Point","coordinates":[-122.628389,45.507939]}},{"properties":{"city":"Portland","zip":97214,"sqft":1032,"saleprice":340000,"bd":2,"saledate":"July 25 2008","lot":3250,"adderss":"2024 SE 37th Ave","id":"a67p5t56gwvo","lat":45.508571,"ba":1,"yrbuilt":1906,"long":-122.625574,"state":"OR","pricesqft":329},"type":"Feature","geometry":{"type":"Point","coordinates":[-122.625574,45.508571]}}],"is_temporal":false,"author":{"url":"","metadata":"","contact_name":"","contact_address":"","source":"","contact_phone":""},"source":"","pagination":{"sort":null,"start":0,"total":50,"limit":1000000},"state":"complete","tags":"","published":"2008-08-11T16:39:08Z","id":3880}