{"type":"FeatureCollection","data_type":"Dataset","url_type":null,"permissions":[{"permissions":{"download":true,"view":true},"group_id":"everyone"}],"classification":null,"title":"City State 4SQ","count":1538,"stream_id":388091,"contributor":{"url":"http://geocommons.com/users/80381","name":"Mslgroupanalytics"},"data_attributes":null,"calculation_params":null,"icon_link":null,"link":"http://geocommons.com/overlays/388091.json","extent":[0.0,0.0,0.0,0.0],"geometry_types":["point"],"unique_name":null,"name":"City State 4SQ","feature_count":1538,"description":"","next_feature":null,"is_raster":false,"short_classification":"Y","stats":{},"features":[{"properties":{"city":"Acton","id":"agms4uwwx18q","state":"MA"},"type":"Feature","geometry":null},{"properties":{"city":"Acton","id":"agms4v4672tn","state":"MA"},"type":"Feature","geometry":null},{"properties":{"city":"Acton","id":"agms4v7tubpl","state":"MA"},"type":"Feature","geometry":null},{"properties":{"city":"Acton","id":"agms4uxe7cra","state":"MA"},"type":"Feature","geometry":null},{"properties":{"city":"Acton","id":"agms4v60zq1s","state":"MA"},"type":"Feature","geometry":null},{"properties":{"city":"Acton","id":"agms4uzl5ohx","state":"MA"},"type":"Feature","geometry":null},{"properties":{"city":"Agawam","id":"agms4v4t2pby","state":"MA"},"type":"Feature","geometry":null},{"properties":{"city":"Albany","id":"agms4uvpxflm","state":"NY"},"type":"Feature","geometry":null},{"properties":{"city":"Albany","id":"agms4v70uasm","state":"NY"},"type":"Feature","geometry":null},{"properties":{"city":"Albany","id":"agms4uwrtkql","state":"NY"},"type":"Feature","geometry":null},{"properties":{"city":"Albany","id":"agms4uuc2pgk","state":"NY"},"type":"Feature","geometry":null},{"properties":{"city":"Albany","id":"agms4v6a6h7r","state":"NY"},"type":"Feature","geometry":null},{"properties":{"city":"Albany","id":"agms4uxn5s3f","state":"NY"},"type":"Feature","geometry":null},{"properties":{"city":"Albany","id":"agms4uufdl6u","state":"NY"},"type":"Feature","geometry":null},{"properties":{"city":"Albany","id":"agms4uy178of","state":"NY"},"type":"Feature","geometry":null},{"properties":{"city":"Albany","id":"agms4uxed0v6","state":"NY"},"type":"Feature","geometry":null},{"properties":{"city":"Albany","id":"agms4uuw9z7o","state":"NY"},"type":"Feature","geometry":null},{"properties":{"city":"Albany","id":"agms4uwy4fu7","state":"NY"},"type":"Feature","geometry":null},{"properties":{"city":"Albuquerque","id":"agms4uxs0kz3","state":"NM"},"type":"Feature","geometry":null},{"properties":{"city":"Albuquerque","id":"agms4uz6bmm7","state":"NM"},"type":"Feature","geometry":null},{"properties":{"city":"Albuquerque","id":"agms4v08iuos","state":"NM"},"type":"Feature","geometry":null},{"properties":{"city":"Albuquerque","id":"agms4uu3onu8","state":"NM"},"type":"Feature","geometry":null},{"properties":{"city":"Albuquerque","id":"agms4v3vus42","state":"NM"},"type":"Feature","geometry":null},{"properties":{"city":"Albuquerque","id":"agms4v28lobl","state":"NM"},"type":"Feature","geometry":null},{"properties":{"city":"Albuquerque","id":"agms4uxaavo0","state":"NM"},"type":"Feature","geometry":null},{"properties":{"city":"Alexandria","id":"agms4v0szt3u","state":"VA"},"type":"Feature","geometry":null},{"properties":{"city":"Alexandria","id":"agms4v7m98h0","state":"VA"},"type":"Feature","geometry":null},{"properties":{"city":"Alexandria","id":"agms4urtgmcc","state":"VA"},"type":"Feature","geometry":null},{"properties":{"city":"Alexandria","id":"agms4v2b7pmi","state":"VA"},"type":"Feature","geometry":null},{"properties":{"city":"Alexandria","id":"agms4v62iu4d","state":"VA"},"type":"Feature","geometry":null},{"properties":{"city":"Alexandria","id":"agms4us6mxr7","state":"VA"},"type":"Feature","geometry":null},{"properties":{"city":"Alexandria","id":"agms4v1jijli","state":"VA"},"type":"Feature","geometry":null},{"properties":{"city":"Alexandria","id":"agms4utw1mot","state":"VA"},"type":"Feature","geometry":null},{"properties":{"city":"Alexandria","id":"agms4v7l8r5o","state":"VA"},"type":"Feature","geometry":null},{"properties":{"city":"Alexandria","id":"agms4uwz5zp2","state":"VA"},"type":"Feature","geometry":null},{"properties":{"city":"Anaheim","id":"agms4uxjp2ve","state":"CA"},"type":"Feature","geometry":null},{"properties":{"city":"Anaheim","id":"agms4uu0td6l","state":"CA"},"type":"Feature","geometry":null},{"properties":{"city":"Anaheim","id":"agms4uus7cjz","state":"CA"},"type":"Feature","geometry":null},{"properties":{"city":"Anaheim","id":"agms4v33lcb1","state":"CA"},"type":"Feature","geometry":null},{"properties":{"city":"Anaheim","id":"agms4utdtz7j","state":"CA"},"type":"Feature","geometry":null},{"properties":{"city":"Anaheim","id":"agms4v1swtz2","state":"CA"},"type":"Feature","geometry":null},{"properties":{"city":"Anaheim","id":"agms4us55lvk","state":"CA"},"type":"Feature","geometry":null},{"properties":{"city":"Anaheim","id":"agms4utjyjwo","state":"CA"},"type":"Feature","geometry":null},{"properties":{"city":"Anaheim","id":"agms4uwox9az","state":"CA"},"type":"Feature","geometry":null},{"properties":{"city":"Anaheim","id":"agms4uxt5bt8","state":"CA"},"type":"Feature","geometry":null},{"properties":{"city":"Anderson","id":"agms4ut8ylea","state":"IN"},"type":"Feature","geometry":null},{"properties":{"city":"Anderson","id":"agms4uxpe6ef","state":"IN"},"type":"Feature","geometry":null},{"properties":{"city":"Anderson","id":"agms4ux9cx4r","state":"IN"},"type":"Feature","geometry":null},{"properties":{"city":"Annapolis","id":"agms4uwf8xqa","state":"MD"},"type":"Feature","geometry":null},{"properties":{"city":"Annapolis","id":"agms4v2p65on","state":"MD"},"type":"Feature","geometry":null},{"properties":{"city":"Annapolis","id":"agms4v3evcpi","state":"MD"},"type":"Feature","geometry":null},{"properties":{"city":"Arcadia","id":"agms4v34gbs7","state":"CA"},"type":"Feature","geometry":null},{"properties":{"city":"Arcadia","id":"agms4ut9juw1","state":"CA"},"type":"Feature","geometry":null},{"properties":{"city":"Arcadia","id":"agms4v0kdimu","state":"CA"},"type":"Feature","geometry":null},{"properties":{"city":"Arlington","id":"agms4ut7s5qa","state":"TX"},"type":"Feature","geometry":null},{"properties":{"city":"Arlington","id":"agms4uwr2kml","state":"VA"},"type":"Feature","geometry":null},{"properties":{"city":"Arlington","id":"agms4usegtw1","state":"VA"},"type":"Feature","geometry":null},{"properties":{"city":"Arlington","id":"agms4ut310o7","state":"VA"},"type":"Feature","geometry":null},{"properties":{"city":"Arlington","id":"agms4v3us8zz","state":"VA"},"type":"Feature","geometry":null},{"properties":{"city":"Arlington","id":"agms4uxm0men","state":"VA"},"type":"Feature","geometry":null},{"properties":{"city":"Arlington","id":"agms4utm6sq1","state":"VA"},"type":"Feature","geometry":null},{"properties":{"city":"Arlington","id":"agms4v4odltp","state":"VA"},"type":"Feature","geometry":null},{"properties":{"city":"Arlington","id":"agms4utl9ypw","state":"VA"},"type":"Feature","geometry":null},{"properties":{"city":"Arlington","id":"agms4utqk5s4","state":"VA"},"type":"Feature","geometry":null},{"properties":{"city":"Arlington","id":"agms4utvluyz","state":"VA"},"type":"Feature","geometry":null},{"properties":{"city":"Arlington","id":"agms4v3a7d5a","state":"VA"},"type":"Feature","geometry":null},{"properties":{"city":"Arlington","id":"agms4v04ljij","state":"VA"},"type":"Feature","geometry":null},{"properties":{"city":"Arlington","id":"agms4v3trh78","state":"VA"},"type":"Feature","geometry":null},{"properties":{"city":"Arlington","id":"agms4ut7zo4y","state":"VA"},"type":"Feature","geometry":null},{"properties":{"city":"Arlington","id":"agms4v6tnou8","state":"VA"},"type":"Feature","geometry":null},{"properties":{"city":"Arlington","id":"agms4v25wyke","state":"VA"},"type":"Feature","geometry":null},{"properties":{"city":"Arlington","id":"agms4uxau6yu","state":"VA"},"type":"Feature","geometry":null},{"properties":{"city":"Arlington","id":"agms4v0z52wp","state":"VA"},"type":"Feature","geometry":null},{"properties":{"city":"Arlington","id":"agms4uu1yzkq","state":"VA"},"type":"Feature","geometry":null},{"properties":{"city":"Arlington","id":"agms4uucvwpp","state":"VA"},"type":"Feature","geometry":null},{"properties":{"city":"Atlanta","id":"agms4utqpugj","state":"GA"},"type":"Feature","geometry":null},{"properties":{"city":"Atlanta","id":"agms4uxsddx5","state":"GA"},"type":"Feature","geometry":null},{"properties":{"city":"Atlanta","id":"agms4uwn79nl","state":"GA"},"type":"Feature","geometry":null},{"properties":{"city":"Atlanta","id":"agms4v4hgot6","state":"GA"},"type":"Feature","geometry":null},{"properties":{"city":"Atlanta","id":"agms4v4qiizr","state":"GA"},"type":"Feature","geometry":null},{"properties":{"city":"Atlanta","id":"agms4uv31fcn","state":"GA"},"type":"Feature","geometry":null},{"properties":{"city":"Atlanta","id":"agms4utbbxly","state":"GA"},"type":"Feature","geometry":null},{"properties":{"city":"Atlanta","id":"agms4v0xpv06","state":"GA"},"type":"Feature","geometry":null},{"properties":{"city":"Atlanta","id":"agms4urlygfd","state":"GA"},"type":"Feature","geometry":null},{"properties":{"city":"Atlanta","id":"agms4uvftzkz","state":"GA"},"type":"Feature","geometry":null},{"properties":{"city":"Atlanta","id":"agms4uuxao7z","state":"GA"},"type":"Feature","geometry":null},{"properties":{"city":"Atlanta","id":"agms4ux4veqt","state":"GA"},"type":"Feature","geometry":null},{"properties":{"city":"Atlanta","id":"agms4v6uzo8l","state":"GA"},"type":"Feature","geometry":null},{"properties":{"city":"Atlanta","id":"agms4v7h5lce","state":"GA"},"type":"Feature","geometry":null},{"properties":{"city":"Atlanta","id":"agms4uvlv4zo","state":"GA"},"type":"Feature","geometry":null},{"properties":{"city":"Atlanta","id":"agms4uywkyum","state":"GA"},"type":"Feature","geometry":null},{"properties":{"city":"Atlanta","id":"agms4uu48orj","state":"GA"},"type":"Feature","geometry":null},{"properties":{"city":"Atlanta","id":"agms4uxzyzof","state":"GA"},"type":"Feature","geometry":null},{"properties":{"city":"Atlanta","id":"agms4uv3qsxr","state":"GA"},"type":"Feature","geometry":null},{"properties":{"city":"Atlanta","id":"agms4uzlxgkm","state":"GA"},"type":"Feature","geometry":null},{"properties":{"city":"Atlanta","id":"agms4usxns6y","state":"GA"},"type":"Feature","geometry":null},{"properties":{"city":"Atlanta","id":"agms4ut8rh65","state":"GA"},"type":"Feature","geometry":null},{"properties":{"city":"Atlanta","id":"agms4v0q5ktf","state":"GA"},"type":"Feature","geometry":null},{"properties":{"city":"Atlanta","id":"agms4v6dlyyz","state":"GA"},"type":"Feature","geometry":null},{"properties":{"city":"Atlanta","id":"agms4v6yaaes","state":"GA"},"type":"Feature","geometry":null},{"properties":{"city":"Atlanta","id":"agms4v3zrqkn","state":"GA"},"type":"Feature","geometry":null},{"properties":{"city":"Atlanta","id":"agms4uxkbzyt","state":"GA"},"type":"Feature","geometry":null},{"properties":{"city":"Atlanta","id":"agms4uybyccy","state":"GA"},"type":"Feature","geometry":null},{"properties":{"city":"Atlanta","id":"agms4uw8u2fz","state":"GA"},"type":"Feature","geometry":null},{"properties":{"city":"Atlanta","id":"agms4uwkdwq4","state":"GA"},"type":"Feature","geometry":null},{"properties":{"city":"Atlanta","id":"agms4ut8zus6","state":"GA"},"type":"Feature","geometry":null},{"properties":{"city":"Atlanta","id":"agms4v0zdbpb","state":"GA"},"type":"Feature","geometry":null},{"properties":{"city":"Atlanta","id":"agms4uwn9tfm","state":"GA"},"type":"Feature","geometry":null},{"properties":{"city":"Atlanta","id":"agms4uylf8so","state":"GA"},"type":"Feature","geometry":null},{"properties":{"city":"Atlanta","id":"agms4usse0zh","state":"GA"},"type":"Feature","geometry":null},{"properties":{"city":"Atlanta","id":"agms4uv59emn","state":"GA"},"type":"Feature","geometry":null},{"properties":{"city":"Atlanta","id":"agms4uv6fmec","state":"GA"},"type":"Feature","geometry":null},{"properties":{"city":"Atlanta","id":"agms4v098nw4","state":"GA"},"type":"Feature","geometry":null},{"properties":{"city":"Atlanta","id":"agms4uxjlyx5","state":"GA"},"type":"Feature","geometry":null},{"properties":{"city":"Atlanta","id":"agms4utgrtcw","state":"GA"},"type":"Feature","geometry":null},{"properties":{"city":"Atlanta","id":"agms4ux2y14q","state":"GA"},"type":"Feature","geometry":null},{"properties":{"city":"Atlanta","id":"agms4uyuslkw","state":"GA"},"type":"Feature","geometry":null},{"properties":{"city":"Atlanta","id":"agms4uyk9r0a","state":"GA"},"type":"Feature","geometry":null},{"properties":{"city":"Atlantic City","id":"agms4uvg6e56","state":"NJ"},"type":"Feature","geometry":null},{"properties":{"city":"Atlantic City","id":"agms4v1fjjo5","state":"NJ"},"type":"Feature","geometry":null},{"properties":{"city":"Atlantic City","id":"agms4v4qps8s","state":"NJ"},"type":"Feature","geometry":null},{"properties":{"city":"Atlantic City","id":"agms4uuvtokf","state":"NJ"},"type":"Feature","geometry":null},{"properties":{"city":"Atlantic City","id":"agms4v4yl1fx","state":"NJ"},"type":"Feature","geometry":null},{"properties":{"city":"Atlantic City","id":"agms4v3be73b","state":"NJ"},"type":"Feature","geometry":null},{"properties":{"city":"Atlantic City","id":"agms4v7griof","state":"NJ"},"type":"Feature","geometry":null},{"properties":{"city":"Atlantic City","id":"agms4uzlxdf9","state":"NJ"},"type":"Feature","geometry":null},{"properties":{"city":"Atlantic City","id":"agms4v6g1lce","state":"NJ"},"type":"Feature","geometry":null},{"properties":{"city":"Atlantic City","id":"agms4uuk1p28","state":"NJ"},"type":"Feature","geometry":null},{"properties":{"city":"Atlantic City","id":"agms4v6rix8l","state":"NJ"},"type":"Feature","geometry":null},{"properties":{"city":"Atlantic City","id":"agms4v2v2tjf","state":"NJ"},"type":"Feature","geometry":null},{"properties":{"city":"Atlantic City","id":"agms4v4292fl","state":"NJ"},"type":"Feature","geometry":null},{"properties":{"city":"Atlantic City","id":"agms4v0vkdmm","state":"NJ"},"type":"Feature","geometry":null},{"properties":{"city":"Atlantic City","id":"agms4uw8cgnj","state":"NJ"},"type":"Feature","geometry":null},{"properties":{"city":"Atlantic City","id":"agms4uube6qn","state":"NJ"},"type":"Feature","geometry":null},{"properties":{"city":"Atlantic City","id":"agms4uzy4hgg","state":"NJ"},"type":"Feature","geometry":null},{"properties":{"city":"Atlantic City","id":"agms4v05cyya","state":"NJ"},"type":"Feature","geometry":null},{"properties":{"city":"Atlantic City","id":"agms4uwggyzm","state":"NJ"},"type":"Feature","geometry":null},{"properties":{"city":"Atlantic City","id":"agms4v24hr3n","state":"NJ"},"type":"Feature","geometry":null},{"properties":{"city":"Atlantic City","id":"agms4v0rdf0e","state":"NJ"},"type":"Feature","geometry":null},{"properties":{"city":"Atlantic City","id":"agms4uxhtajt","state":"NJ"},"type":"Feature","geometry":null},{"properties":{"city":"Atlantic City","id":"agms4v5wqa3t","state":"NJ"},"type":"Feature","geometry":null},{"properties":{"city":"Atlantic City","id":"agms4v2uh9z3","state":"NJ"},"type":"Feature","geometry":null},{"properties":{"city":"Atlantic City","id":"agms4utibup1","state":"NJ"},"type":"Feature","geometry":null},{"properties":{"city":"Atlantic City","id":"agms4utsrbc2","state":"NJ"},"type":"Feature","geometry":null},{"properties":{"city":"Atlantic City","id":"agms4v03kyam","state":"NJ"},"type":"Feature","geometry":null},{"properties":{"city":"Atlantic City","id":"agms4v39i5ff","state":"NJ"},"type":"Feature","geometry":null},{"properties":{"city":"Atlantic City","id":"agms4urxjexz","state":"NJ"},"type":"Feature","geometry":null},{"properties":{"city":"Atlantic City","id":"agms4v7utxaq","state":"NJ"},"type":"Feature","geometry":null},{"properties":{"city":"Atlantic City","id":"agms4v260egm","state":"NJ"},"type":"Feature","geometry":null},{"properties":{"city":"Atlantic City","id":"agms4v0ji0am","state":"NJ"},"type":"Feature","geometry":null},{"properties":{"city":"Atlantic City","id":"agms4utky3cw","state":"NJ"},"type":"Feature","geometry":null},{"properties":{"city":"Atlantic City","id":"agms4ux9npvt","state":"NJ"},"type":"Feature","geometry":null},{"properties":{"city":"Atlantic City","id":"agms4uvj0d1d","state":"NJ"},"type":"Feature","geometry":null},{"properties":{"city":"Atlantic City","id":"agms4v7ffph3","state":"NJ"},"type":"Feature","geometry":null},{"properties":{"city":"Atlantic City","id":"agms4v6rli9x","state":"NJ"},"type":"Feature","geometry":null},{"properties":{"city":"Atlantic City","id":"agms4utnvv31","state":"NJ"},"type":"Feature","geometry":null},{"properties":{"city":"Atlantic City","id":"agms4uymx9xr","state":"NJ"},"type":"Feature","geometry":null},{"properties":{"city":"Atlantic City","id":"agms4v1jjl3p","state":"NJ"},"type":"Feature","geometry":null},{"properties":{"city":"Atlantic City","id":"agms4uy19i87","state":"NJ"},"type":"Feature","geometry":null},{"properties":{"city":"Atlantic City","id":"agms4v1ejsov","state":"NJ"},"type":"Feature","geometry":null},{"properties":{"city":"Atlantic City","id":"agms4v6t7k6s","state":"NJ"},"type":"Feature","geometry":null},{"properties":{"city":"Atlantic City","id":"agms4uy9y3cu","state":"NJ"},"type":"Feature","geometry":null},{"properties":{"city":"Atlantic City","id":"agms4v5pqx6b","state":"NJ"},"type":"Feature","geometry":null},{"properties":{"city":"Atlantic City","id":"agms4v1524qh","state":"NJ"},"type":"Feature","geometry":null},{"properties":{"city":"Atlantic City","id":"agms4uva52p9","state":"NJ"},"type":"Feature","geometry":null},{"properties":{"city":"Atlantic City","id":"agms4uwmy7gb","state":"NJ"},"type":"Feature","geometry":null},{"properties":{"city":"Atlantic City","id":"agms4ux18zyb","state":"NJ"},"type":"Feature","geometry":null},{"properties":{"city":"Atlantic City","id":"agms4uzbv7g1","state":"NJ"},"type":"Feature","geometry":null},{"properties":{"city":"Atlantic City","id":"agms4v6o6y3i","state":"NJ"},"type":"Feature","geometry":null},{"properties":{"city":"Atlantic City","id":"agms4v0scc9l","state":"NJ"},"type":"Feature","geometry":null},{"properties":{"city":"Atlantic City","id":"agms4uwt8rew","state":"NJ"},"type":"Feature","geometry":null},{"properties":{"city":"Atlantic City","id":"agms4us3r1yk","state":"NJ"},"type":"Feature","geometry":null},{"properties":{"city":"Atlantic City","id":"agms4v473xum","state":"NJ"},"type":"Feature","geometry":null},{"properties":{"city":"Atlantic City","id":"agms4urwiwvi","state":"NJ"},"type":"Feature","geometry":null},{"properties":{"city":"Auburn","id":"agms4v3vr262","state":"WA"},"type":"Feature","geometry":null},{"properties":{"city":"Auburn","id":"agms4uudo8m9","state":"WA"},"type":"Feature","geometry":null},{"properties":{"city":"Auburn","id":"agms4urr40ar","state":"WA"},"type":"Feature","geometry":null},{"properties":{"city":"Auburn Hills","id":"agms4v1zzwhg","state":"MI"},"type":"Feature","geometry":null},{"properties":{"city":"Auburn Hills","id":"agms4v5mbscd","state":"MI"},"type":"Feature","geometry":null},{"properties":{"city":"Auburn Hills","id":"agms4uvynsas","state":"MI"},"type":"Feature","geometry":null},{"properties":{"city":"Austell","id":"agms4uu8c05r","state":"GA"},"type":"Feature","geometry":null},{"properties":{"city":"Austell","id":"agms4uuq50dm","state":"GA"},"type":"Feature","geometry":null},{"properties":{"city":"Aventura","id":"agms4v3vx963","state":"FL"},"type":"Feature","geometry":null},{"properties":{"city":"Aventura","id":"agms4v3ywzol","state":"FL"},"type":"Feature","geometry":null},{"properties":{"city":"Aventura","id":"agms4v3foopy","state":"FL"},"type":"Feature","geometry":null},{"properties":{"city":"Aventura","id":"agms4uxt4fpe","state":"FL"},"type":"Feature","geometry":null},{"properties":{"city":"Aventura","id":"agms4uz8qcjg","state":"FL"},"type":"Feature","geometry":null},{"properties":{"city":"Aventura","id":"agms4v2bxjnk","state":"FL"},"type":"Feature","geometry":null},{"properties":{"city":"Aventura","id":"agms4uxh3y8y","state":"FL"},"type":"Feature","geometry":null},{"properties":{"city":"Aventura","id":"agms4v615xmg","state":"FL"},"type":"Feature","geometry":null},{"properties":{"city":"Aventura","id":"agms4v61sz0v","state":"FL"},"type":"Feature","geometry":null},{"properties":{"city":"Aventura","id":"agms4v3iwmlm","state":"FL"},"type":"Feature","geometry":null},{"properties":{"city":"Aventura","id":"agms4utbngfh","state":"FL"},"type":"Feature","geometry":null},{"properties":{"city":"Aventura","id":"agms4utvxid3","state":"FL"},"type":"Feature","geometry":null},{"properties":{"city":"Aventura","id":"agms4usm3oi3","state":"FL"},"type":"Feature","geometry":null},{"properties":{"city":"Aventura","id":"agms4v604t83","state":"FL"},"type":"Feature","geometry":null},{"properties":{"city":"Aventura","id":"agms4v3o1piv","state":"FL"},"type":"Feature","geometry":null},{"properties":{"city":"Aventura","id":"agms4uua71ga","state":"FL"},"type":"Feature","geometry":null},{"properties":{"city":"Aventura","id":"agms4v3rsfrf","state":"FL"},"type":"Feature","geometry":null},{"properties":{"city":"Aventura","id":"agms4v3oatu2","state":"FL"},"type":"Feature","geometry":null},{"properties":{"city":"Baltimore","id":"agms4uszdhp0","state":"MD"},"type":"Feature","geometry":null},{"properties":{"city":"Baltimore","id":"agms4usm505i","state":"MD"},"type":"Feature","geometry":null},{"properties":{"city":"Baltimore","id":"agms4v5fncnb","state":"MD"},"type":"Feature","geometry":null},{"properties":{"city":"Baltimore","id":"agms4v3tfwds","state":"MD"},"type":"Feature","geometry":null},{"properties":{"city":"Birmingham","id":"agms4v7qqtf3","state":"AL"},"type":"Feature","geometry":null},{"properties":{"city":"Birmingham","id":"agms4usfuuvd","state":"AL"},"type":"Feature","geometry":null},{"properties":{"city":"Birmingham","id":"agms4us6nw05","state":"AL"},"type":"Feature","geometry":null},{"properties":{"city":"Birmingham","id":"agms4uwuj8uf","state":"AL"},"type":"Feature","geometry":null},{"properties":{"city":"Birmingham","id":"agms4v0srq7p","state":"AL"},"type":"Feature","geometry":null},{"properties":{"city":"Birmingham","id":"agms4v1tqxoo","state":"AL"},"type":"Feature","geometry":null},{"properties":{"city":"Birmingham","id":"agms4v7bkrog","state":"AL"},"type":"Feature","geometry":null},{"properties":{"city":"Birmingham","id":"agms4uxdujny","state":"AL"},"type":"Feature","geometry":null},{"properties":{"city":"Birmingham","id":"agms4v7ogorf","state":"AL"},"type":"Feature","geometry":null},{"properties":{"city":"Birmingham","id":"agms4v7n3yvj","state":"AL"},"type":"Feature","geometry":null},{"properties":{"city":"Birmingham","id":"agms4v4socz3","state":"AL"},"type":"Feature","geometry":null},{"properties":{"city":"Birmingham","id":"agms4uv7uhlu","state":"AL"},"type":"Feature","geometry":null},{"properties":{"city":"Birmingham","id":"agms4uuwba1p","state":"AL"},"type":"Feature","geometry":null},{"properties":{"city":"Birmingham","id":"agms4uzl4jgd","state":"AL"},"type":"Feature","geometry":null},{"properties":{"city":"Birmingham","id":"agms4v3wtz31","state":"AL"},"type":"Feature","geometry":null},{"properties":{"city":"Birmingham","id":"agms4uxc35ld","state":"AL"},"type":"Feature","geometry":null},{"properties":{"city":"Birmingham","id":"agms4uy9pxim","state":"AL"},"type":"Feature","geometry":null},{"properties":{"city":"Birmingham","id":"agms4v6oft7r","state":"AL"},"type":"Feature","geometry":null},{"properties":{"city":"Birmingham","id":"agms4uv2i60o","state":"AL"},"type":"Feature","geometry":null},{"properties":{"city":"Birmingham","id":"agms4v0v7way","state":"AL"},"type":"Feature","geometry":null},{"properties":{"city":"Birmingham","id":"agms4ut7f7wm","state":"AL"},"type":"Feature","geometry":null},{"properties":{"city":"Birmingham","id":"agms4ux7wurp","state":"AL"},"type":"Feature","geometry":null},{"properties":{"city":"Birmingham","id":"agms4v2t4cpz","state":"AL"},"type":"Feature","geometry":null},{"properties":{"city":"Birmingham","id":"agms4v56r91j","state":"AL"},"type":"Feature","geometry":null},{"properties":{"city":"Birmingham","id":"agms4v6119g2","state":"AL"},"type":"Feature","geometry":null},{"properties":{"city":"Birmingham","id":"agms4ux6b13f","state":"AL"},"type":"Feature","geometry":null},{"properties":{"city":"Birmingham","id":"agms4ut8lrw5","state":"AL"},"type":"Feature","geometry":null},{"properties":{"city":"Birmingham","id":"agms4v2e7g8h","state":"AL"},"type":"Feature","geometry":null},{"properties":{"city":"Birmingham","id":"agms4uvckvf7","state":"AL"},"type":"Feature","geometry":null},{"properties":{"city":"Birmingham","id":"agms4uxcsie2","state":"AL"},"type":"Feature","geometry":null},{"properties":{"city":"Birmingham","id":"agms4usb3nts","state":"AL"},"type":"Feature","geometry":null},{"properties":{"city":"Birmingham","id":"agms4uvc58h1","state":"AL"},"type":"Feature","geometry":null},{"properties":{"city":"Birmingham","id":"agms4v5sugug","state":"AL"},"type":"Feature","geometry":null},{"properties":{"city":"Birmingham","id":"agms4v7uo3v7","state":"AL"},"type":"Feature","geometry":null},{"properties":{"city":"Birmingham","id":"agms4uxe5jhk","state":"AL"},"type":"Feature","geometry":null},{"properties":{"city":"Birmingham","id":"agms4v3095cv","state":"AL"},"type":"Feature","geometry":null},{"properties":{"city":"Birmingham","id":"agms4uypn1b0","state":"AL"},"type":"Feature","geometry":null},{"properties":{"city":"Birmingham","id":"agms4uu3bh83","state":"AL"},"type":"Feature","geometry":null},{"properties":{"city":"Birmingham","id":"agms4uuxyz5n","state":"AL"},"type":"Feature","geometry":null},{"properties":{"city":"Birmingham","id":"agms4urt6n13","state":"AL"},"type":"Feature","geometry":null},{"properties":{"city":"Birmingham","id":"agms4v1ld2u5","state":"AL"},"type":"Feature","geometry":null},{"properties":{"city":"Birmingham","id":"agms4uwqrd9n","state":"AL"},"type":"Feature","geometry":null},{"properties":{"city":"Birmingham","id":"agms4v1xh140","state":"AL"},"type":"Feature","geometry":null},{"properties":{"city":"Bloomington","id":"agms4uw6492g","state":"MN"},"type":"Feature","geometry":null},{"properties":{"city":"Bloomington","id":"agms4v2m7pbz","state":"MN"},"type":"Feature","geometry":null},{"properties":{"city":"Bloomington","id":"agms4v4y8buz","state":"MN"},"type":"Feature","geometry":null},{"properties":{"city":"Bloomington","id":"agms4uz8hfr9","state":"MN"},"type":"Feature","geometry":null},{"properties":{"city":"Bloomington","id":"agms4v2hsxcy","state":"MN"},"type":"Feature","geometry":null},{"properties":{"city":"Bloomington","id":"agms4us4wvlm","state":"MN"},"type":"Feature","geometry":null},{"properties":{"city":"Bloomington","id":"agms4v5t878j","state":"MN"},"type":"Feature","geometry":null},{"properties":{"city":"Bloomington","id":"agms4uujk199","state":"MN"},"type":"Feature","geometry":null},{"properties":{"city":"Bloomington","id":"agms4uz2gqg4","state":"MN"},"type":"Feature","geometry":null},{"properties":{"city":"Bolingbrook","id":"agms4v0lig71","state":"IL"},"type":"Feature","geometry":null},{"properties":{"city":"Boston","id":"agms4uwkix2v","state":"MA"},"type":"Feature","geometry":null},{"properties":{"city":"Boston","id":"agms4uwg6fet","state":"MA"},"type":"Feature","geometry":null},{"properties":{"city":"Boston","id":"agms4uttj3v5","state":"MA"},"type":"Feature","geometry":null},{"properties":{"city":"Boston","id":"agms4v2q1m3w","state":"MA"},"type":"Feature","geometry":null},{"properties":{"city":"Boston","id":"agms4v70r4xu","state":"MA"},"type":"Feature","geometry":null},{"properties":{"city":"Boston","id":"agms4uuxcy6o","state":"MA"},"type":"Feature","geometry":null},{"properties":{"city":"Boston","id":"agms4uyvbzie","state":"MA"},"type":"Feature","geometry":null},{"properties":{"city":"Boston","id":"agms4v7mo8me","state":"MA"},"type":"Feature","geometry":null},{"properties":{"city":"Boston","id":"agms4uyhxn6c","state":"MA"},"type":"Feature","geometry":null},{"properties":{"city":"Boston","id":"agms4v3v9m9g","state":"MA"},"type":"Feature","geometry":null},{"properties":{"city":"Boston","id":"agms4uyw8tas","state":"MA"},"type":"Feature","geometry":null},{"properties":{"city":"Braintree","id":"agms4uxuk78n","state":"MA"},"type":"Feature","geometry":null},{"properties":{"city":"Braintree","id":"agms4v5cif56","state":"MA"},"type":"Feature","geometry":null},{"properties":{"city":"Braintree","id":"agms4uvjjzu0","state":"MA"},"type":"Feature","geometry":null},{"properties":{"city":"Braintree","id":"agms4uvmhc05","state":"MA"},"type":"Feature","geometry":null},{"properties":{"city":"Braintree","id":"agms4v2jqbhn","state":"MA"},"type":"Feature","geometry":null},{"properties":{"city":"Braintree","id":"agms4v61kg5a","state":"MA"},"type":"Feature","geometry":null},{"properties":{"city":"Braintree","id":"agms4v0laml7","state":"MA"},"type":"Feature","geometry":null},{"properties":{"city":"Braintree","id":"agms4v4rwz6p","state":"MA"},"type":"Feature","geometry":null},{"properties":{"city":"Braintree","id":"agms4ux4z7hk","state":"MA"},"type":"Feature","geometry":null},{"properties":{"city":"Brambleton","id":"agms4v6dg5ij","state":"VA"},"type":"Feature","geometry":null},{"properties":{"city":"Bronx","id":"agms4uyo2yhz","state":"NY"},"type":"Feature","geometry":null},{"properties":{"city":"Buena Park","id":"agms4uvka9fj","state":"CA"},"type":"Feature","geometry":null},{"properties":{"city":"Buena Park","id":"agms4uruswjl","state":"CA"},"type":"Feature","geometry":null},{"properties":{"city":"Buena Park","id":"agms4usv3ay1","state":"CA"},"type":"Feature","geometry":null},{"properties":{"city":"Buena Park","id":"agms4urhygab","state":"CA"},"type":"Feature","geometry":null},{"properties":{"city":"Buena Park","id":"agms4usdylh9","state":"CA"},"type":"Feature","geometry":null},{"properties":{"city":"Buena Park","id":"agms4ux439ky","state":"CA"},"type":"Feature","geometry":null},{"properties":{"city":"Buena Park","id":"agms4v67p3dt","state":"CA"},"type":"Feature","geometry":null},{"properties":{"city":"Burbank","id":"agms4v15x0u7","state":"CA"},"type":"Feature","geometry":null},{"properties":{"city":"Burbank","id":"agms4uxap4ic","state":"CA"},"type":"Feature","geometry":null},{"properties":{"city":"Burbank","id":"agms4v7gvu0k","state":"CA"},"type":"Feature","geometry":null},{"properties":{"city":"Burbank","id":"agms4v4e3l4n","state":"CA"},"type":"Feature","geometry":null},{"properties":{"city":"Burbank","id":"agms4uvafhys","state":"CA"},"type":"Feature","geometry":null},{"properties":{"city":"Burbank","id":"agms4uyrz36u","state":"CA"},"type":"Feature","geometry":null},{"properties":{"city":"Burbank","id":"agms4uxsyqfp","state":"CA"},"type":"Feature","geometry":null},{"properties":{"city":"Burbank","id":"agms4usyd8za","state":"CA"},"type":"Feature","geometry":null},{"properties":{"city":"Burlington","id":"agms4uti5qmz","state":"MA"},"type":"Feature","geometry":null},{"properties":{"city":"Burlington","id":"agms4usofuqm","state":"MA"},"type":"Feature","geometry":null},{"properties":{"city":"Burlington","id":"agms4v713kp0","state":"MA"},"type":"Feature","geometry":null},{"properties":{"city":"Burlington","id":"agms4v7551kg","state":"MA"},"type":"Feature","geometry":null},{"properties":{"city":"Burlington","id":"agms4uzc4k7j","state":"MA"},"type":"Feature","geometry":null},{"properties":{"city":"Burlington","id":"agms4v53aown","state":"MA"},"type":"Feature","geometry":null},{"properties":{"city":"Burlington","id":"agms4v7bui26","state":"MA"},"type":"Feature","geometry":null},{"properties":{"city":"Burlington","id":"agms4v4evypy","state":"MA"},"type":"Feature","geometry":null},{"properties":{"city":"Burlington","id":"agms4v2ye0q7","state":"MA"},"type":"Feature","geometry":null},{"properties":{"city":"Burlington","id":"agms4v6i86qz","state":"MA"},"type":"Feature","geometry":null},{"properties":{"city":"Burlington","id":"agms4uzfr4rn","state":"MA"},"type":"Feature","geometry":null},{"properties":{"city":"Burlington","id":"agms4v03qo2q","state":"MA"},"type":"Feature","geometry":null},{"properties":{"city":"Burlington","id":"agms4v2lc3il","state":"MA"},"type":"Feature","geometry":null},{"properties":{"city":"Burlington","id":"agms4uyl2i3o","state":"MA"},"type":"Feature","geometry":null},{"properties":{"city":"Burlington","id":"agms4utkrxcx","state":"MA"},"type":"Feature","geometry":null},{"properties":{"city":"Burlington","id":"agms4utz154z","state":"MA"},"type":"Feature","geometry":null},{"properties":{"city":"Burlington","id":"agms4v31uwge","state":"MA"},"type":"Feature","geometry":null},{"properties":{"city":"Calabasas","id":"agms4v4tfuhb","state":"CA"},"type":"Feature","geometry":null},{"properties":{"city":"Calabasas","id":"agms4v3tiw88","state":"CA"},"type":"Feature","geometry":null},{"properties":{"city":"Camarillo","id":"agms4v0xvzuj","state":"CA"},"type":"Feature","geometry":null},{"properties":{"city":"Camarillo","id":"agms4uwx0dty","state":"CA"},"type":"Feature","geometry":null},{"properties":{"city":"Camarillo","id":"agms4uveve7y","state":"CA"},"type":"Feature","geometry":null},{"properties":{"city":"Camarillo","id":"agms4uw8268r","state":"CA"},"type":"Feature","geometry":null},{"properties":{"city":"Camarillo","id":"agms4v1enwiq","state":"CA"},"type":"Feature","geometry":null},{"properties":{"city":"Camarillo","id":"agms4uysdqem","state":"CA"},"type":"Feature","geometry":null},{"properties":{"city":"Camarillo","id":"agms4uw5lm0b","state":"CA"},"type":"Feature","geometry":null},{"properties":{"city":"Camarillo","id":"agms4v3x6n51","state":"CA"},"type":"Feature","geometry":null},{"properties":{"city":"Camarillo","id":"agms4v1sm9zi","state":"CA"},"type":"Feature","geometry":null},{"properties":{"city":"Camarillo","id":"agms4v6hqv9e","state":"CA"},"type":"Feature","geometry":null},{"properties":{"city":"Camarillo","id":"agms4uxe5bh8","state":"CA"},"type":"Feature","geometry":null},{"properties":{"city":"Camp Pendleton","id":"agms4usdzejd","state":"CA"},"type":"Feature","geometry":null},{"properties":{"city":"Camp Pendleton","id":"agms4uu7ozal","state":"CA"},"type":"Feature","geometry":null},{"properties":{"city":"Camp Pendleton","id":"agms4ux7gm76","state":"CA"},"type":"Feature","geometry":null},{"properties":{"city":"Camp Verde","id":"agms4uu37s3v","state":"AZ"},"type":"Feature","geometry":null},{"properties":{"city":"Carson City","id":"agms4uzfmv5q","state":"NV"},"type":"Feature","geometry":null},{"properties":{"city":"Cheektowaga","id":"agms4uvtnjma","state":"NY"},"type":"Feature","geometry":null},{"properties":{"city":"Chesterfield","id":"agms4uylli9q","state":"VA"},"type":"Feature","geometry":null},{"properties":{"city":"Chicago","id":"agms4uu90xpl","state":"IL"},"type":"Feature","geometry":null},{"properties":{"city":"Chicago","id":"agms4v3xm8rk","state":"IL"},"type":"Feature","geometry":null},{"properties":{"city":"Chicago","id":"agms4v4odzqk","state":"IL"},"type":"Feature","geometry":null},{"properties":{"city":"Chicago","id":"agms4v75ow9p","state":"IL"},"type":"Feature","geometry":null},{"properties":{"city":"Chicago","id":"agms4v50syzg","state":"IL"},"type":"Feature","geometry":null},{"properties":{"city":"Chicago","id":"agms4uwbbvfv","state":"IL"},"type":"Feature","geometry":null},{"properties":{"city":"Cincinnati","id":"agms4uvrhpri","state":"OH"},"type":"Feature","geometry":null},{"properties":{"city":"Cincinnati","id":"agms4uun9t21","state":"OH"},"type":"Feature","geometry":null},{"properties":{"city":"Cincinnati","id":"agms4uukbvgj","state":"OH"},"type":"Feature","geometry":null},{"properties":{"city":"Cincinnati","id":"agms4uuwyi7y","state":"OH"},"type":"Feature","geometry":null},{"properties":{"city":"Cincinnati","id":"agms4uu5cr9m","state":"OH"},"type":"Feature","geometry":null},{"properties":{"city":"Cincinnati","id":"agms4v15lvel","state":"OH"},"type":"Feature","geometry":null},{"properties":{"city":"Cincinnati","id":"agms4v34qz0u","state":"OH"},"type":"Feature","geometry":null},{"properties":{"city":"Columbus","id":"agms4ut37ivd","state":"OH"},"type":"Feature","geometry":null},{"properties":{"city":"Columbus","id":"agms4uto6yi5","state":"OH"},"type":"Feature","geometry":null},{"properties":{"city":"Columbus","id":"agms4v4jcifn","state":"OH"},"type":"Feature","geometry":null},{"properties":{"city":"Columbus","id":"agms4v53ln6z","state":"OH"},"type":"Feature","geometry":null},{"properties":{"city":"Columbus","id":"agms4uw2h96g","state":"OH"},"type":"Feature","geometry":null},{"properties":{"city":"Columbus","id":"agms4usxmqr0","state":"OH"},"type":"Feature","geometry":null},{"properties":{"city":"Columbus","id":"agms4uvqyt7a","state":"OH"},"type":"Feature","geometry":null},{"properties":{"city":"Columbus","id":"agms4uvlf5xh","state":"OH"},"type":"Feature","geometry":null},{"properties":{"city":"Columbus","id":"agms4urnvomf","state":"OH"},"type":"Feature","geometry":null},{"properties":{"city":"Columbus","id":"agms4uvnjnmi","state":"OH"},"type":"Feature","geometry":null},{"properties":{"city":"Columbus","id":"agms4v482vpl","state":"OH"},"type":"Feature","geometry":null},{"properties":{"city":"Columbus","id":"agms4v1oxi4g","state":"OH"},"type":"Feature","geometry":null},{"properties":{"city":"Columbus","id":"agms4utfc5i7","state":"OH"},"type":"Feature","geometry":null},{"properties":{"city":"Columbus","id":"agms4uz3gdkl","state":"OH"},"type":"Feature","geometry":null},{"properties":{"city":"Columbus","id":"agms4uw2dax1","state":"OH"},"type":"Feature","geometry":null},{"properties":{"city":"Columbus","id":"agms4v5fmya5","state":"OH"},"type":"Feature","geometry":null},{"properties":{"city":"Columbus","id":"agms4uyb4pj4","state":"OH"},"type":"Feature","geometry":null},{"properties":{"city":"Columbus","id":"agms4uw7184l","state":"OH"},"type":"Feature","geometry":null},{"properties":{"city":"Concord","id":"agms4uvk5cgq","state":"CA"},"type":"Feature","geometry":null},{"properties":{"city":"Cranston","id":"agms4v7ucqxy","state":"RI"},"type":"Feature","geometry":null},{"properties":{"city":"Cranston","id":"agms4v5vy9is","state":"RI"},"type":"Feature","geometry":null},{"properties":{"city":"Cranston","id":"agms4v2lh55a","state":"RI"},"type":"Feature","geometry":null},{"properties":{"city":"Dallas","id":"agms4ut14uab","state":"TX"},"type":"Feature","geometry":null},{"properties":{"city":"Daytona Beach","id":"agms4v57n16g","state":"FL"},"type":"Feature","geometry":null},{"properties":{"city":"Daytona Beach","id":"agms4v7sbwbt","state":"FL"},"type":"Feature","geometry":null},{"properties":{"city":"Daytona Beach","id":"agms4v2medbq","state":"FL"},"type":"Feature","geometry":null},{"properties":{"city":"Daytona Beach","id":"agms4uye0kna","state":"FL"},"type":"Feature","geometry":null},{"properties":{"city":"Daytona Beach","id":"agms4uwbmp35","state":"FL"},"type":"Feature","geometry":null},{"properties":{"city":"Daytona Beach","id":"agms4utw4vlp","state":"FL"},"type":"Feature","geometry":null},{"properties":{"city":"Daytona Beach","id":"agms4uyccswh","state":"FL"},"type":"Feature","geometry":null},{"properties":{"city":"Deer Park","id":"agms4v3mdtor","state":"NY"},"type":"Feature","geometry":null},{"properties":{"city":"Deer Park","id":"agms4utbhkml","state":"NY"},"type":"Feature","geometry":null},{"properties":{"city":"Deer Park","id":"agms4v0ae089","state":"NY"},"type":"Feature","geometry":null},{"properties":{"city":"Deer Park","id":"agms4uxku51l","state":"NY"},"type":"Feature","geometry":null},{"properties":{"city":"Deer Park","id":"agms4v4lom0d","state":"NY"},"type":"Feature","geometry":null},{"properties":{"city":"Deer Park","id":"agms4uvmhnik","state":"NY"},"type":"Feature","geometry":null},{"properties":{"city":"Deer Park","id":"agms4v18ekbh","state":"NY"},"type":"Feature","geometry":null},{"properties":{"city":"Deer Park","id":"agms4v04iirf","state":"NY"},"type":"Feature","geometry":null},{"properties":{"city":"Deer Park","id":"agms4v6pv2bx","state":"NY"},"type":"Feature","geometry":null},{"properties":{"city":"Deer Park","id":"agms4uwa7qg7","state":"NY"},"type":"Feature","geometry":null},{"properties":{"city":"Deer Park","id":"agms4uut6x82","state":"NY"},"type":"Feature","geometry":null},{"properties":{"city":"Deer Park","id":"agms4v1pp16w","state":"NY"},"type":"Feature","geometry":null},{"properties":{"city":"Deer Park","id":"agms4us2ylmz","state":"NY"},"type":"Feature","geometry":null},{"properties":{"city":"Deer Park","id":"agms4v43dxtp","state":"NY"},"type":"Feature","geometry":null},{"properties":{"city":"Deer Park","id":"agms4uxmlgsv","state":"NY"},"type":"Feature","geometry":null},{"properties":{"city":"Deer Park","id":"agms4uvlcq5k","state":"NY"},"type":"Feature","geometry":null},{"properties":{"city":"Deer Park","id":"agms4v6j0zkq","state":"NY"},"type":"Feature","geometry":null},{"properties":{"city":"Deer Park","id":"agms4urnwr0p","state":"NY"},"type":"Feature","geometry":null},{"properties":{"city":"Deer Park","id":"agms4uvxefxj","state":"NY"},"type":"Feature","geometry":null},{"properties":{"city":"Deer Park","id":"agms4uyqvs71","state":"NY"},"type":"Feature","geometry":null},{"properties":{"city":"Deer Park","id":"agms4v09l6xe","state":"NY"},"type":"Feature","geometry":null},{"properties":{"city":"Deer Park","id":"agms4uv1ya93","state":"NY"},"type":"Feature","geometry":null},{"properties":{"city":"Deer Park","id":"agms4v5azo2f","state":"NY"},"type":"Feature","geometry":null},{"properties":{"city":"Deer Park","id":"agms4v4becp5","state":"NY"},"type":"Feature","geometry":null},{"properties":{"city":"Deer Park","id":"agms4uyyjxcw","state":"NY"},"type":"Feature","geometry":null},{"properties":{"city":"Denver","id":"agms4uu774p7","state":"CO"},"type":"Feature","geometry":null},{"properties":{"city":"Denver","id":"agms4utl3cms","state":"CO"},"type":"Feature","geometry":null},{"properties":{"city":"Denver","id":"agms4uvw4047","state":"CO"},"type":"Feature","geometry":null},{"properties":{"city":"Denver","id":"agms4v0i1se3","state":"CO"},"type":"Feature","geometry":null},{"properties":{"city":"Denver","id":"agms4uwf27n1","state":"CO"},"type":"Feature","geometry":null},{"properties":{"city":"Denver","id":"agms4uzyhj8y","state":"CO"},"type":"Feature","geometry":null},{"properties":{"city":"Denver","id":"agms4v26kgfc","state":"CO"},"type":"Feature","geometry":null},{"properties":{"city":"Denver","id":"agms4ursta62","state":"CO"},"type":"Feature","geometry":null},{"properties":{"city":"Denver","id":"agms4uyohg00","state":"CO"},"type":"Feature","geometry":null},{"properties":{"city":"Denver","id":"agms4usrien8","state":"CO"},"type":"Feature","geometry":null},{"properties":{"city":"Denver","id":"agms4uxs6rby","state":"CO"},"type":"Feature","geometry":null},{"properties":{"city":"Denver","id":"agms4uyl9zp9","state":"CO"},"type":"Feature","geometry":null},{"properties":{"city":"Denver","id":"agms4v1m76s1","state":"CO"},"type":"Feature","geometry":null},{"properties":{"city":"Denver","id":"agms4v6nb5jb","state":"CO"},"type":"Feature","geometry":null},{"properties":{"city":"Denver","id":"agms4v6rbrzk","state":"CO"},"type":"Feature","geometry":null},{"properties":{"city":"Destin","id":"agms4uw0277q","state":"FL"},"type":"Feature","geometry":null},{"properties":{"city":"Destin","id":"agms4uznp1ee","state":"FL"},"type":"Feature","geometry":null},{"properties":{"city":"Destin","id":"agms4v5ch0bg","state":"FL"},"type":"Feature","geometry":null},{"properties":{"city":"Destin","id":"agms4uvglqu2","state":"FL"},"type":"Feature","geometry":null},{"properties":{"city":"Destin","id":"agms4v74tbqr","state":"FL"},"type":"Feature","geometry":null},{"properties":{"city":"Destin","id":"agms4v5qanvm","state":"FL"},"type":"Feature","geometry":null},{"properties":{"city":"Destin","id":"agms4urwaohk","state":"FL"},"type":"Feature","geometry":null},{"properties":{"city":"Destin","id":"agms4v18q8t9","state":"FL"},"type":"Feature","geometry":null},{"properties":{"city":"Destin","id":"agms4v5rz824","state":"FL"},"type":"Feature","geometry":null},{"properties":{"city":"Destin","id":"agms4v31ybuh","state":"FL"},"type":"Feature","geometry":null},{"properties":{"city":"Doral","id":"agms4v2rjmuj","state":"FL"},"type":"Feature","geometry":null},{"properties":{"city":"Doral","id":"agms4usnam5b","state":"FL"},"type":"Feature","geometry":null},{"properties":{"city":"Doral","id":"agms4uvm2fzg","state":"FL"},"type":"Feature","geometry":null},{"properties":{"city":"Doral","id":"agms4v0gf5l4","state":"FL"},"type":"Feature","geometry":null},{"properties":{"city":"Douglasville","id":"agms4uv0t9ya","state":"GA"},"type":"Feature","geometry":null},{"properties":{"city":"Douglasville","id":"agms4v4itl2o","state":"GA"},"type":"Feature","geometry":null},{"properties":{"city":"Douglasville","id":"agms4v5jbg0c","state":"GA"},"type":"Feature","geometry":null},{"properties":{"city":"Douglasville","id":"agms4uzpte44","state":"GA"},"type":"Feature","geometry":null},{"properties":{"city":"Douglasville","id":"agms4uvzw87y","state":"GA"},"type":"Feature","geometry":null},{"properties":{"city":"Douglasville","id":"agms4uv9dzin","state":"GA"},"type":"Feature","geometry":null},{"properties":{"city":"Douglasville","id":"agms4uy9hsi0","state":"GA"},"type":"Feature","geometry":null},{"properties":{"city":"Eatontown","id":"agms4v6m3ezq","state":"NJ"},"type":"Feature","geometry":null},{"properties":{"city":"Elizabeth","id":"agms4urd33e8","state":"NJ"},"type":"Feature","geometry":null},{"properties":{"city":"Elizabeth","id":"agms4v328opu","state":"NJ"},"type":"Feature","geometry":null},{"properties":{"city":"Elizabeth","id":"agms4uxabsjg","state":"NJ"},"type":"Feature","geometry":null},{"properties":{"city":"Elizabeth","id":"agms4v7eb11z","state":"NJ"},"type":"Feature","geometry":null},{"properties":{"city":"Elizabeth","id":"agms4urpoobl","state":"NJ"},"type":"Feature","geometry":null},{"properties":{"city":"Elizabeth","id":"agms4utur6o4","state":"NJ"},"type":"Feature","geometry":null},{"properties":{"city":"Elizabeth","id":"agms4v5a2mho","state":"NJ"},"type":"Feature","geometry":null},{"properties":{"city":"Elizabeth","id":"agms4ux3gh3r","state":"NJ"},"type":"Feature","geometry":null},{"properties":{"city":"Elizabeth","id":"agms4v4nj1vg","state":"NJ"},"type":"Feature","geometry":null},{"properties":{"city":"Elizabeth","id":"agms4uyegaxx","state":"NJ"},"type":"Feature","geometry":null},{"properties":{"city":"Elizabeth","id":"agms4v2npzyq","state":"NJ"},"type":"Feature","geometry":null},{"properties":{"city":"Elizabeth","id":"agms4v3ssd16","state":"NJ"},"type":"Feature","geometry":null},{"properties":{"city":"Elizabeth","id":"agms4v78pq3k","state":"NJ"},"type":"Feature","geometry":null},{"properties":{"city":"Elizabeth","id":"agms4v0r04gq","state":"NJ"},"type":"Feature","geometry":null},{"properties":{"city":"Elizabeth","id":"agms4v0xx1q3","state":"NJ"},"type":"Feature","geometry":null},{"properties":{"city":"Elizabeth","id":"agms4v0t7wzv","state":"NJ"},"type":"Feature","geometry":null},{"properties":{"city":"Encino","id":"agms4utww0jv","state":"CA"},"type":"Feature","geometry":null},{"properties":{"city":"Encino","id":"agms4v7u73kt","state":"CA"},"type":"Feature","geometry":null},{"properties":{"city":"Encino","id":"agms4uxx4zz3","state":"CA"},"type":"Feature","geometry":null},{"properties":{"city":"Encino","id":"agms4v4avf08","state":"CA"},"type":"Feature","geometry":null},{"properties":{"city":"Encino","id":"agms4v0cxy25","state":"CA"},"type":"Feature","geometry":null},{"properties":{"city":"Farmington","id":"agms4uy4mhvq","state":"UT"},"type":"Feature","geometry":null},{"properties":{"city":"Farmington","id":"agms4uy8hmew","state":"UT"},"type":"Feature","geometry":null},{"properties":{"city":"Farmington","id":"agms4v2f98g6","state":"UT"},"type":"Feature","geometry":null},{"properties":{"city":"Farmington","id":"agms4uztdfbx","state":"UT"},"type":"Feature","geometry":null},{"properties":{"city":"Farmington","id":"agms4ut28hm9","state":"UT"},"type":"Feature","geometry":null},{"properties":{"city":"Folsom","id":"agms4usohpo3","state":"CA"},"type":"Feature","geometry":null},{"properties":{"city":"Folsom","id":"agms4uwuf4fj","state":"CA"},"type":"Feature","geometry":null},{"properties":{"city":"Folsom","id":"agms4v4ad50c","state":"CA"},"type":"Feature","geometry":null},{"properties":{"city":"Fort Lauderdale","id":"agms4uwnmjbn","state":"FL"},"type":"Feature","geometry":null},{"properties":{"city":"Fort Lauderdale","id":"agms4uxkd218","state":"FL"},"type":"Feature","geometry":null},{"properties":{"city":"Fort Lauderdale","id":"agms4uv717aa","state":"FL"},"type":"Feature","geometry":null},{"properties":{"city":"Fort Lauderdale","id":"agms4utk2zbz","state":"FL"},"type":"Feature","geometry":null},{"properties":{"city":"Fort Lauderdale","id":"agms4v2cplml","state":"FL"},"type":"Feature","geometry":null},{"properties":{"city":"Fort Lauderdale","id":"agms4v30egkl","state":"FL"},"type":"Feature","geometry":null},{"properties":{"city":"Fort Lauderdale","id":"agms4uxwxjde","state":"FL"},"type":"Feature","geometry":null},{"properties":{"city":"Fort Lauderdale","id":"agms4uwgqpef","state":"FL"},"type":"Feature","geometry":null},{"properties":{"city":"Fort Lauderdale","id":"agms4v6ad94w","state":"FL"},"type":"Feature","geometry":null},{"properties":{"city":"Fort Lauderdale","id":"agms4v0336wn","state":"FL"},"type":"Feature","geometry":null},{"properties":{"city":"Fort Lauderdale","id":"agms4v4jf1xl","state":"FL"},"type":"Feature","geometry":null},{"properties":{"city":"Freehold","id":"agms4v19xqwz","state":"NJ"},"type":"Feature","geometry":null},{"properties":{"city":"Freeport","id":"agms4v1n5hn4","state":"ME"},"type":"Feature","geometry":null},{"properties":{"city":"Freeport","id":"agms4usdt81s","state":"ME"},"type":"Feature","geometry":null},{"properties":{"city":"Freeport","id":"agms4uv07lbm","state":"ME"},"type":"Feature","geometry":null},{"properties":{"city":"Freeport","id":"agms4v4t35qi","state":"ME"},"type":"Feature","geometry":null},{"properties":{"city":"Freeport","id":"agms4v76finz","state":"ME"},"type":"Feature","geometry":null},{"properties":{"city":"Freeport","id":"agms4v4hn86i","state":"ME"},"type":"Feature","geometry":null},{"properties":{"city":"Freeport","id":"agms4usy9vwg","state":"ME"},"type":"Feature","geometry":null},{"properties":{"city":"Freeport","id":"agms4v7dxsxv","state":"ME"},"type":"Feature","geometry":null},{"properties":{"city":"Freeport","id":"agms4v05mhvj","state":"ME"},"type":"Feature","geometry":null},{"properties":{"city":"Freeport","id":"agms4ux5q4pz","state":"ME"},"type":"Feature","geometry":null},{"properties":{"city":"Freeport","id":"agms4uslnm5d","state":"ME"},"type":"Feature","geometry":null},{"properties":{"city":"Freeport","id":"agms4uvfq664","state":"ME"},"type":"Feature","geometry":null},{"properties":{"city":"Freeport","id":"agms4uu9gi16","state":"ME"},"type":"Feature","geometry":null},{"properties":{"city":"Freeport","id":"agms4v2h10pp","state":"ME"},"type":"Feature","geometry":null},{"properties":{"city":"Freeport","id":"agms4ut3un4s","state":"ME"},"type":"Feature","geometry":null},{"properties":{"city":"Freeport","id":"agms4v7eubql","state":"ME"},"type":"Feature","geometry":null},{"properties":{"city":"Garden City","id":"agms4v5bupa4","state":"NY"},"type":"Feature","geometry":null},{"properties":{"city":"Garden City","id":"agms4v22cfja","state":"NY"},"type":"Feature","geometry":null},{"properties":{"city":"Garden City","id":"agms4ut6yvxr","state":"NY"},"type":"Feature","geometry":null},{"properties":{"city":"Garden City","id":"agms4uwv60gd","state":"NY"},"type":"Feature","geometry":null},{"properties":{"city":"Garden City","id":"agms4uw5q4i4","state":"NY"},"type":"Feature","geometry":null},{"properties":{"city":"Garden City","id":"agms4v16lg2y","state":"NY"},"type":"Feature","geometry":null},{"properties":{"city":"Garden City","id":"agms4v2e0v03","state":"NY"},"type":"Feature","geometry":null},{"properties":{"city":"Garden City","id":"agms4uu2z08x","state":"NY"},"type":"Feature","geometry":null},{"properties":{"city":"Garden City","id":"agms4v2xmidd","state":"NY"},"type":"Feature","geometry":null},{"properties":{"city":"Garden City","id":"agms4v2yjonz","state":"NY"},"type":"Feature","geometry":null},{"properties":{"city":"Garden City","id":"agms4v12alfm","state":"NY"},"type":"Feature","geometry":null},{"properties":{"city":"Gilbert","id":"agms4uslzq9v","state":"AZ"},"type":"Feature","geometry":null},{"properties":{"city":"Gilbert","id":"agms4uyj4omo","state":"AZ"},"type":"Feature","geometry":null},{"properties":{"city":"Gilbert","id":"agms4v0o2bwh","state":"AZ"},"type":"Feature","geometry":null},{"properties":{"city":"Gilbert","id":"agms4v1vi3w8","state":"AZ"},"type":"Feature","geometry":null},{"properties":{"city":"Gilbert","id":"agms4v325bbx","state":"AZ"},"type":"Feature","geometry":null},{"properties":{"city":"Gilbert","id":"agms4v36yqcl","state":"AZ"},"type":"Feature","geometry":null},{"properties":{"city":"Glendale","id":"agms4uz0khvw","state":"AZ"},"type":"Feature","geometry":null},{"properties":{"city":"Glendale","id":"agms4uyx8375","state":"AZ"},"type":"Feature","geometry":null},{"properties":{"city":"Glendale","id":"agms4uvbgst2","state":"AZ"},"type":"Feature","geometry":null},{"properties":{"city":"Glendale","id":"agms4v4icgyo","state":"AZ"},"type":"Feature","geometry":null},{"properties":{"city":"Glendale","id":"agms4v1gxhf6","state":"AZ"},"type":"Feature","geometry":null},{"properties":{"city":"Glendale","id":"agms4us11h9v","state":"AZ"},"type":"Feature","geometry":null},{"properties":{"city":"Glendale","id":"agms4uz38ysw","state":"AZ"},"type":"Feature","geometry":null},{"properties":{"city":"Glendale","id":"agms4v4min0c","state":"AZ"},"type":"Feature","geometry":null},{"properties":{"city":"Glendale","id":"agms4usvmidy","state":"AZ"},"type":"Feature","geometry":null},{"properties":{"city":"Glendale","id":"agms4v4gt4t4","state":"AZ"},"type":"Feature","geometry":null},{"properties":{"city":"Glendale","id":"agms4uvit3f0","state":"AZ"},"type":"Feature","geometry":null},{"properties":{"city":"Glendale","id":"agms4v0mtbs4","state":"AZ"},"type":"Feature","geometry":null},{"properties":{"city":"Glendale","id":"agms4urmabee","state":"NY"},"type":"Feature","geometry":null},{"properties":{"city":"Greenville","id":"agms4uy621g6","state":"SC"},"type":"Feature","geometry":null},{"properties":{"city":"Greenwood","id":"agms4v2xozpy","state":"IN"},"type":"Feature","geometry":null},{"properties":{"city":"Greenwood","id":"agms4uz4ctrq","state":"IN"},"type":"Feature","geometry":null},{"properties":{"city":"Greenwood","id":"agms4uvwr709","state":"IN"},"type":"Feature","geometry":null},{"properties":{"city":"Greenwood","id":"agms4uss18bb","state":"IN"},"type":"Feature","geometry":null},{"properties":{"city":"Greenwood","id":"agms4v2381d3","state":"IN"},"type":"Feature","geometry":null},{"properties":{"city":"Greenwood","id":"agms4v7ue2s5","state":"IN"},"type":"Feature","geometry":null},{"properties":{"city":"Greenwood","id":"agms4uwa0ag7","state":"IN"},"type":"Feature","geometry":null},{"properties":{"city":"Greenwood","id":"agms4uy5i9mr","state":"IN"},"type":"Feature","geometry":null},{"properties":{"city":"Hanover","id":"agms4v7pgnzm","state":"MD"},"type":"Feature","geometry":null},{"properties":{"city":"Hanover","id":"agms4v4m6g6g","state":"MD"},"type":"Feature","geometry":null},{"properties":{"city":"Hanover","id":"agms4uv2tsy2","state":"MD"},"type":"Feature","geometry":null},{"properties":{"city":"Hanover","id":"agms4v0yeptt","state":"MD"},"type":"Feature","geometry":null},{"properties":{"city":"Hanover","id":"agms4v7owsla","state":"MD"},"type":"Feature","geometry":null},{"properties":{"city":"Hanover","id":"agms4uykmb17","state":"MD"},"type":"Feature","geometry":null},{"properties":{"city":"Hanover","id":"agms4v3sv6mu","state":"MD"},"type":"Feature","geometry":null},{"properties":{"city":"Hialeah","id":"agms4v0evhjm","state":"FL"},"type":"Feature","geometry":null},{"properties":{"city":"Hialeah","id":"agms4v16lxx8","state":"FL"},"type":"Feature","geometry":null},{"properties":{"city":"Hialeah","id":"agms4ut2kbic","state":"FL"},"type":"Feature","geometry":null},{"properties":{"city":"Hialeah","id":"agms4uzkrnj4","state":"FL"},"type":"Feature","geometry":null},{"properties":{"city":"Hialeah","id":"agms4us48dud","state":"FL"},"type":"Feature","geometry":null},{"properties":{"city":"Hicksville","id":"agms4uv83b3a","state":"NY"},"type":"Feature","geometry":null},{"properties":{"city":"Hicksville","id":"agms4usuumrc","state":"NY"},"type":"Feature","geometry":null},{"properties":{"city":"Hicksville","id":"agms4uvkttgh","state":"NY"},"type":"Feature","geometry":null},{"properties":{"city":"Hicksville","id":"agms4v1u50ql","state":"NY"},"type":"Feature","geometry":null},{"properties":{"city":"Hicksville","id":"agms4uvb6c34","state":"NY"},"type":"Feature","geometry":null},{"properties":{"city":"Hicksville","id":"agms4uwo8h4j","state":"NY"},"type":"Feature","geometry":null},{"properties":{"city":"Hicksville","id":"agms4uv2qcmy","state":"NY"},"type":"Feature","geometry":null},{"properties":{"city":"Hicksville","id":"agms4v3ep8eq","state":"NY"},"type":"Feature","geometry":null},{"properties":{"city":"Hicksville","id":"agms4uya28gt","state":"NY"},"type":"Feature","geometry":null},{"properties":{"city":"Hicksville","id":"agms4v2k1tn1","state":"NY"},"type":"Feature","geometry":null},{"properties":{"city":"Hicksville","id":"agms4uzif6z8","state":"NY"},"type":"Feature","geometry":null},{"properties":{"city":"Hicksville","id":"agms4uupt308","state":"NY"},"type":"Feature","geometry":null},{"properties":{"city":"Hicksville","id":"agms4v3ysk5a","state":"NY"},"type":"Feature","geometry":null},{"properties":{"city":"Hicksville","id":"agms4uu5b3d3","state":"NY"},"type":"Feature","geometry":null},{"properties":{"city":"Hicksville","id":"agms4v7ifb6x","state":"NY"},"type":"Feature","geometry":null},{"properties":{"city":"Hicksville","id":"agms4us234rr","state":"NY"},"type":"Feature","geometry":null},{"properties":{"city":"Hoboken","id":"agms4v7di6u0","state":"NJ"},"type":"Feature","geometry":null},{"properties":{"city":"Hoboken","id":"agms4uttxvyd","state":"NJ"},"type":"Feature","geometry":null},{"properties":{"city":"Hoboken","id":"agms4uyxpgd4","state":"NJ"},"type":"Feature","geometry":null},{"properties":{"city":"Hoboken","id":"agms4utbb4l6","state":"NJ"},"type":"Feature","geometry":null},{"properties":{"city":"Hoboken","id":"agms4v2d2s1y","state":"NJ"},"type":"Feature","geometry":null},{"properties":{"city":"Hoboken","id":"agms4v10gxwt","state":"NJ"},"type":"Feature","geometry":null},{"properties":{"city":"Hoboken","id":"agms4uw2jei4","state":"NJ"},"type":"Feature","geometry":null},{"properties":{"city":"Hoboken","id":"agms4v3uahgi","state":"NJ"},"type":"Feature","geometry":null},{"properties":{"city":"Hoboken","id":"agms4uvm1j7w","state":"NJ"},"type":"Feature","geometry":null},{"properties":{"city":"Hoboken","id":"agms4v6jfxwm","state":"NJ"},"type":"Feature","geometry":null},{"properties":{"city":"Hoboken","id":"agms4v380agx","state":"NJ"},"type":"Feature","geometry":null},{"properties":{"city":"Hoboken","id":"agms4utzfvyg","state":"NJ"},"type":"Feature","geometry":null},{"properties":{"city":"Hoboken","id":"agms4v1809kh","state":"NJ"},"type":"Feature","geometry":null},{"properties":{"city":"Hoboken","id":"agms4ut30spr","state":"NJ"},"type":"Feature","geometry":null},{"properties":{"city":"Hoboken","id":"agms4uw2zoi4","state":"NJ"},"type":"Feature","geometry":null},{"properties":{"city":"Hoboken","id":"agms4usggg3c","state":"NJ"},"type":"Feature","geometry":null},{"properties":{"city":"Hoboken","id":"agms4v7i39w9","state":"NJ"},"type":"Feature","geometry":null},{"properties":{"city":"Hoboken","id":"agms4uurhfoa","state":"NJ"},"type":"Feature","geometry":null},{"properties":{"city":"Hoboken","id":"agms4uze7yqw","state":"NJ"},"type":"Feature","geometry":null},{"properties":{"city":"Hoboken","id":"agms4usysizb","state":"NJ"},"type":"Feature","geometry":null},{"properties":{"city":"Hoboken","id":"agms4v5o3kjh","state":"NJ"},"type":"Feature","geometry":null},{"properties":{"city":"Hoboken","id":"agms4urnkl6o","state":"NJ"},"type":"Feature","geometry":null},{"properties":{"city":"Hoboken","id":"agms4v01pp63","state":"NJ"},"type":"Feature","geometry":null},{"properties":{"city":"Hoboken","id":"agms4urh5lkl","state":"NJ"},"type":"Feature","geometry":null},{"properties":{"city":"Hoboken","id":"agms4uvel9kz","state":"NJ"},"type":"Feature","geometry":null},{"properties":{"city":"Hoboken","id":"agms4ut05kq7","state":"NJ"},"type":"Feature","geometry":null},{"properties":{"city":"Hoboken","id":"agms4uubzf86","state":"NJ"},"type":"Feature","geometry":null},{"properties":{"city":"Hoover","id":"agms4uusf5ev","state":"AL"},"type":"Feature","geometry":null},{"properties":{"city":"Hoover","id":"agms4v0f1uqi","state":"AL"},"type":"Feature","geometry":null},{"properties":{"city":"Huntington Beach","id":"agms4usfiovm","state":"CA"},"type":"Feature","geometry":null},{"properties":{"city":"Huntington Beach","id":"agms4v58yddb","state":"CA"},"type":"Feature","geometry":null},{"properties":{"city":"Huntington Beach","id":"agms4uwhsw7c","state":"CA"},"type":"Feature","geometry":null},{"properties":{"city":"Huntington Beach","id":"agms4usnuq05","state":"CA"},"type":"Feature","geometry":null},{"properties":{"city":"Huntington Beach","id":"agms4uzycr26","state":"CA"},"type":"Feature","geometry":null},{"properties":{"city":"Huntington Beach","id":"agms4v6695dr","state":"CA"},"type":"Feature","geometry":null},{"properties":{"city":"Huntington Beach","id":"agms4v2ln8if","state":"CA"},"type":"Feature","geometry":null},{"properties":{"city":"Huntington Beach","id":"agms4usp0b7c","state":"CA"},"type":"Feature","geometry":null},{"properties":{"city":"Huntington Beach","id":"agms4v2tllwf","state":"CA"},"type":"Feature","geometry":null},{"properties":{"city":"Huntington Beach","id":"agms4uv9e7vg","state":"CA"},"type":"Feature","geometry":null},{"properties":{"city":"Indianapolis","id":"agms4ux6g4q9","state":"IN"},"type":"Feature","geometry":null},{"properties":{"city":"Indianapolis","id":"agms4uu0e8ie","state":"IN"},"type":"Feature","geometry":null},{"properties":{"city":"Indianapolis","id":"agms4uszehbe","state":"IN"},"type":"Feature","geometry":null},{"properties":{"city":"Indianapolis","id":"agms4uvehab3","state":"IN"},"type":"Feature","geometry":null},{"properties":{"city":"Indianapolis","id":"agms4v0ay34e","state":"IN"},"type":"Feature","geometry":null},{"properties":{"city":"Indianapolis","id":"agms4uwpnh39","state":"IN"},"type":"Feature","geometry":null},{"properties":{"city":"Indianapolis","id":"agms4uwnc5fr","state":"IN"},"type":"Feature","geometry":null},{"properties":{"city":"Indianapolis","id":"agms4uz7iaq2","state":"IN"},"type":"Feature","geometry":null},{"properties":{"city":"Indianapolis","id":"agms4v2rztz8","state":"IN"},"type":"Feature","geometry":null},{"properties":{"city":"Indianapolis","id":"agms4ux3hyqv","state":"IN"},"type":"Feature","geometry":null},{"properties":{"city":"Indianapolis","id":"agms4ux6ekbh","state":"IN"},"type":"Feature","geometry":null},{"properties":{"city":"Irvine","id":"agms4uvrjet2","state":"CA"},"type":"Feature","geometry":null},{"properties":{"city":"Irvine","id":"agms4uwttfeh","state":"CA"},"type":"Feature","geometry":null},{"properties":{"city":"Irvine","id":"agms4v730oo2","state":"CA"},"type":"Feature","geometry":null},{"properties":{"city":"Irvine","id":"agms4usnr6m1","state":"CA"},"type":"Feature","geometry":null},{"properties":{"city":"Irvine","id":"agms4v5va9pc","state":"CA"},"type":"Feature","geometry":null},{"properties":{"city":"Irvine","id":"agms4uwnvnxx","state":"CA"},"type":"Feature","geometry":null},{"properties":{"city":"Irvine","id":"agms4v6lmlor","state":"CA"},"type":"Feature","geometry":null},{"properties":{"city":"Irvine","id":"agms4ux6dejz","state":"CA"},"type":"Feature","geometry":null},{"properties":{"city":"Irvine","id":"agms4v39zs02","state":"CA"},"type":"Feature","geometry":null},{"properties":{"city":"Irvine","id":"agms4ut6i6bn","state":"CA"},"type":"Feature","geometry":null},{"properties":{"city":"Irvine","id":"agms4v5lji6y","state":"CA"},"type":"Feature","geometry":null},{"properties":{"city":"Irvine","id":"agms4v2cm3wy","state":"CA"},"type":"Feature","geometry":null},{"properties":{"city":"Jackson","id":"agms4uxm558c","state":"NJ"},"type":"Feature","geometry":null},{"properties":{"city":"Jackson","id":"agms4us1s13j","state":"NJ"},"type":"Feature","geometry":null},{"properties":{"city":"Kendall","id":"agms4v7u13ll","state":"FL"},"type":"Feature","geometry":null},{"properties":{"city":"Kendall","id":"agms4ushe7n5","state":"FL"},"type":"Feature","geometry":null},{"properties":{"city":"Kent","id":"agms4v5kl667","state":"WA"},"type":"Feature","geometry":null},{"properties":{"city":"Kent","id":"agms4uva93v6","state":"WA"},"type":"Feature","geometry":null},{"properties":{"city":"Kent","id":"agms4v69yern","state":"WA"},"type":"Feature","geometry":null},{"properties":{"city":"Kissimmee","id":"agms4v3vcgp1","state":"FL"},"type":"Feature","geometry":null},{"properties":{"city":"Kissimmee","id":"agms4v7kir10","state":"FL"},"type":"Feature","geometry":null},{"properties":{"city":"Kissimmee","id":"agms4utr9ds3","state":"FL"},"type":"Feature","geometry":null},{"properties":{"city":"Kissimmee","id":"agms4v6r7d41","state":"FL"},"type":"Feature","geometry":null},{"properties":{"city":"Kissimmee","id":"agms4uzvbv84","state":"FL"},"type":"Feature","geometry":null},{"properties":{"city":"Kissimmee","id":"agms4v1pqclf","state":"FL"},"type":"Feature","geometry":null},{"properties":{"city":"Kissimmee","id":"agms4uza0cgh","state":"FL"},"type":"Feature","geometry":null},{"properties":{"city":"Lady Lake","id":"agms4uzhgic8","state":"FL"},"type":"Feature","geometry":null},{"properties":{"city":"Lady Lake","id":"agms4v2hcfkh","state":"FL"},"type":"Feature","geometry":null},{"properties":{"city":"Lady Lake","id":"agms4uxgljd4","state":"FL"},"type":"Feature","geometry":null},{"properties":{"city":"Lady Lake","id":"agms4v72gvzq","state":"FL"},"type":"Feature","geometry":null},{"properties":{"city":"Lady Lake","id":"agms4urn9p8a","state":"FL"},"type":"Feature","geometry":null},{"properties":{"city":"Laguna Beach","id":"agms4v52p79o","state":"CA"},"type":"Feature","geometry":null},{"properties":{"city":"Laguna Beach","id":"agms4uyc1wxf","state":"CA"},"type":"Feature","geometry":null},{"properties":{"city":"Laguna Beach","id":"agms4uz02vgh","state":"CA"},"type":"Feature","geometry":null},{"properties":{"city":"Laguna Beach","id":"agms4v6gws9m","state":"CA"},"type":"Feature","geometry":null},{"properties":{"city":"Laguna Beach","id":"agms4v6w785s","state":"CA"},"type":"Feature","geometry":null},{"properties":{"city":"Laguna Beach","id":"agms4v0rq5zg","state":"CA"},"type":"Feature","geometry":null},{"properties":{"city":"Las Vegas","id":"agms4v0ggfv4","state":"NV"},"type":"Feature","geometry":null},{"properties":{"city":"Las Vegas","id":"agms4uw4a1s9","state":"NV"},"type":"Feature","geometry":null},{"properties":{"city":"Las Vegas","id":"agms4v2j5sgn","state":"NV"},"type":"Feature","geometry":null},{"properties":{"city":"Las Vegas","id":"agms4uu8td7o","state":"NV"},"type":"Feature","geometry":null},{"properties":{"city":"Las Vegas","id":"agms4v6s0qg1","state":"NV"},"type":"Feature","geometry":null},{"properties":{"city":"Las Vegas","id":"agms4uvuzbnr","state":"NV"},"type":"Feature","geometry":null},{"properties":{"city":"Las Vegas","id":"agms4v5lad91","state":"NV"},"type":"Feature","geometry":null},{"properties":{"city":"Las Vegas","id":"agms4v0p5uii","state":"NV"},"type":"Feature","geometry":null},{"properties":{"city":"Las Vegas","id":"agms4uuz8upl","state":"NV"},"type":"Feature","geometry":null},{"properties":{"city":"Las Vegas","id":"agms4v5i1owe","state":"NV"},"type":"Feature","geometry":null},{"properties":{"city":"Las Vegas","id":"agms4urkcngb","state":"NV"},"type":"Feature","geometry":null},{"properties":{"city":"Las Vegas","id":"agms4v64n129","state":"NV"},"type":"Feature","geometry":null},{"properties":{"city":"Las Vegas","id":"agms4v0ldn8h","state":"NV"},"type":"Feature","geometry":null},{"properties":{"city":"Las Vegas","id":"agms4uvlesau","state":"NV"},"type":"Feature","geometry":null},{"properties":{"city":"Las Vegas","id":"agms4v3bxuul","state":"NV"},"type":"Feature","geometry":null},{"properties":{"city":"Las Vegas","id":"agms4urn951c","state":"NV"},"type":"Feature","geometry":null},{"properties":{"city":"Las Vegas","id":"agms4v2l0kca","state":"NV"},"type":"Feature","geometry":null},{"properties":{"city":"Las Vegas","id":"agms4v4ep2zm","state":"NV"},"type":"Feature","geometry":null},{"properties":{"city":"Las Vegas","id":"agms4v34l8m4","state":"NV"},"type":"Feature","geometry":null},{"properties":{"city":"Las Vegas","id":"agms4v2sxy8n","state":"NV"},"type":"Feature","geometry":null},{"properties":{"city":"Las Vegas","id":"agms4uuvv8ir","state":"NV"},"type":"Feature","geometry":null},{"properties":{"city":"Las Vegas","id":"agms4uw57x72","state":"NV"},"type":"Feature","geometry":null},{"properties":{"city":"Las Vegas","id":"agms4uzc0gtg","state":"NV"},"type":"Feature","geometry":null},{"properties":{"city":"Las Vegas","id":"agms4ursvoqe","state":"NV"},"type":"Feature","geometry":null},{"properties":{"city":"Las Vegas","id":"agms4v4k33wb","state":"NV"},"type":"Feature","geometry":null},{"properties":{"city":"Las Vegas","id":"agms4ut3bbrl","state":"NV"},"type":"Feature","geometry":null},{"properties":{"city":"Las Vegas","id":"agms4v56fm0k","state":"NV"},"type":"Feature","geometry":null},{"properties":{"city":"Las Vegas","id":"agms4v44wj0w","state":"NV"},"type":"Feature","geometry":null},{"properties":{"city":"Las Vegas","id":"agms4v4udc6x","state":"NV"},"type":"Feature","geometry":null},{"properties":{"city":"Las Vegas","id":"agms4v7fporl","state":"NV"},"type":"Feature","geometry":null},{"properties":{"city":"Las Vegas","id":"agms4uxytdzw","state":"NV"},"type":"Feature","geometry":null},{"properties":{"city":"Las Vegas","id":"agms4uw0lssz","state":"NV"},"type":"Feature","geometry":null},{"properties":{"city":"Las Vegas","id":"agms4uxcohhb","state":"NV"},"type":"Feature","geometry":null},{"properties":{"city":"Las Vegas","id":"agms4v4i9xq6","state":"NV"},"type":"Feature","geometry":null},{"properties":{"city":"Las Vegas","id":"agms4v48zsx3","state":"NV"},"type":"Feature","geometry":null},{"properties":{"city":"Las Vegas","id":"agms4ux5gtkl","state":"NV"},"type":"Feature","geometry":null},{"properties":{"city":"Las Vegas","id":"agms4v69m4eg","state":"NV"},"type":"Feature","geometry":null},{"properties":{"city":"Las Vegas","id":"agms4v5fj4l1","state":"NV"},"type":"Feature","geometry":null},{"properties":{"city":"Las Vegas","id":"agms4uzufl3k","state":"NV"},"type":"Feature","geometry":null},{"properties":{"city":"Las Vegas","id":"agms4v6337f5","state":"NV"},"type":"Feature","geometry":null},{"properties":{"city":"Las Vegas","id":"agms4v6mjfua","state":"NV"},"type":"Feature","geometry":null},{"properties":{"city":"Las Vegas","id":"agms4uwui8tx","state":"NV"},"type":"Feature","geometry":null},{"properties":{"city":"Las Vegas","id":"agms4urmnd64","state":"NV"},"type":"Feature","geometry":null},{"properties":{"city":"Las Vegas","id":"agms4v7di38t","state":"NV"},"type":"Feature","geometry":null},{"properties":{"city":"Las Vegas","id":"agms4v0nj041","state":"NV"},"type":"Feature","geometry":null},{"properties":{"city":"Las Vegas","id":"agms4v3vq9tc","state":"NV"},"type":"Feature","geometry":null},{"properties":{"city":"Las Vegas","id":"agms4v408d6x","state":"NV"},"type":"Feature","geometry":null},{"properties":{"city":"Las Vegas","id":"agms4v7nj56b","state":"NV"},"type":"Feature","geometry":null},{"properties":{"city":"Las Vegas","id":"agms4v4i2vbn","state":"NV"},"type":"Feature","geometry":null},{"properties":{"city":"Las Vegas","id":"agms4uzcqi6s","state":"NV"},"type":"Feature","geometry":null},{"properties":{"city":"Las Vegas","id":"agms4v56dchj","state":"NV"},"type":"Feature","geometry":null},{"properties":{"city":"Las Vegas","id":"agms4utbjgat","state":"NV"},"type":"Feature","geometry":null},{"properties":{"city":"Las Vegas","id":"agms4v48ic3k","state":"NV"},"type":"Feature","geometry":null},{"properties":{"city":"Las Vegas","id":"agms4uz0romq","state":"NV"},"type":"Feature","geometry":null},{"properties":{"city":"Las Vegas","id":"agms4v1o7ryo","state":"NV"},"type":"Feature","geometry":null},{"properties":{"city":"Las Vegas","id":"agms4v20pmaq","state":"NV"},"type":"Feature","geometry":null},{"properties":{"city":"Las Vegas","id":"agms4uwmeede","state":"NV"},"type":"Feature","geometry":null},{"properties":{"city":"Las Vegas","id":"agms4v7bv300","state":"NV"},"type":"Feature","geometry":null},{"properties":{"city":"Las Vegas","id":"agms4utmbdop","state":"NV"},"type":"Feature","geometry":null},{"properties":{"city":"Las Vegas","id":"agms4ux42kxp","state":"NV"},"type":"Feature","geometry":null},{"properties":{"city":"Las Vegas","id":"agms4uxhrlt1","state":"NV"},"type":"Feature","geometry":null},{"properties":{"city":"Lehi","id":"agms4urld23h","state":"UT"},"type":"Feature","geometry":null},{"properties":{"city":"Lehi","id":"agms4v285ms0","state":"UT"},"type":"Feature","geometry":null},{"properties":{"city":"Lehi","id":"agms4v06qdrb","state":"UT"},"type":"Feature","geometry":null},{"properties":{"city":"Lehi","id":"agms4uz8omaf","state":"UT"},"type":"Feature","geometry":null},{"properties":{"city":"Lehi","id":"agms4v46kq99","state":"UT"},"type":"Feature","geometry":null},{"properties":{"city":"Lehi","id":"agms4uzt18xn","state":"UT"},"type":"Feature","geometry":null},{"properties":{"city":"Lehi","id":"agms4uxy3i5n","state":"UT"},"type":"Feature","geometry":null},{"properties":{"city":"Lehi","id":"agms4v3grpyf","state":"UT"},"type":"Feature","geometry":null},{"properties":{"city":"Lehi","id":"agms4uw04h36","state":"UT"},"type":"Feature","geometry":null},{"properties":{"city":"Lehi","id":"agms4v5hqjcl","state":"UT"},"type":"Feature","geometry":null},{"properties":{"city":"Lincoln","id":"agms4usf1e3t","state":"RI"},"type":"Feature","geometry":null},{"properties":{"city":"Lincoln","id":"agms4uy5jnw0","state":"RI"},"type":"Feature","geometry":null},{"properties":{"city":"Lincoln","id":"agms4v0sz8bl","state":"RI"},"type":"Feature","geometry":null},{"properties":{"city":"Lincoln","id":"agms4urgqx7w","state":"RI"},"type":"Feature","geometry":null},{"properties":{"city":"Lincoln","id":"agms4utlma50","state":"RI"},"type":"Feature","geometry":null},{"properties":{"city":"Long Beach","id":"agms4us5fv50","state":"CA"},"type":"Feature","geometry":null},{"properties":{"city":"Long Beach","id":"agms4uyx5ls8","state":"CA"},"type":"Feature","geometry":null},{"properties":{"city":"Long Beach","id":"agms4us3obet","state":"CA"},"type":"Feature","geometry":null},{"properties":{"city":"Long Beach","id":"agms4v0nchu7","state":"CA"},"type":"Feature","geometry":null},{"properties":{"city":"Long Beach","id":"agms4v3fiaas","state":"CA"},"type":"Feature","geometry":null},{"properties":{"city":"Los Angeles","id":"agms4uts96po","state":"CA"},"type":"Feature","geometry":null},{"properties":{"city":"Los Angeles","id":"agms4v3t2coj","state":"CA"},"type":"Feature","geometry":null},{"properties":{"city":"Los Angeles","id":"agms4uusag3u","state":"CA"},"type":"Feature","geometry":null},{"properties":{"city":"Los Angeles","id":"agms4v7jbpyg","state":"CA"},"type":"Feature","geometry":null},{"properties":{"city":"Los Angeles","id":"agms4uu9wfau","state":"CA"},"type":"Feature","geometry":null},{"properties":{"city":"Los Angeles","id":"agms4uvdmntk","state":"CA"},"type":"Feature","geometry":null},{"properties":{"city":"Los Angeles","id":"agms4v3bl39m","state":"CA"},"type":"Feature","geometry":null},{"properties":{"city":"Los Angeles","id":"agms4uwvoyso","state":"CA"},"type":"Feature","geometry":null},{"properties":{"city":"Los Angeles","id":"agms4usz1hif","state":"CA"},"type":"Feature","geometry":null},{"properties":{"city":"Los Angeles","id":"agms4ux347s9","state":"CA"},"type":"Feature","geometry":null},{"properties":{"city":"Los Angeles","id":"agms4uzc2ppb","state":"CA"},"type":"Feature","geometry":null},{"properties":{"city":"Los Angeles","id":"agms4uviqb6c","state":"CA"},"type":"Feature","geometry":null},{"properties":{"city":"Los Angeles","id":"agms4v4wxlta","state":"CA"},"type":"Feature","geometry":null},{"properties":{"city":"Los Angeles","id":"agms4v2pdfxt","state":"CA"},"type":"Feature","geometry":null},{"properties":{"city":"Los Angeles","id":"agms4v1d1ny2","state":"CA"},"type":"Feature","geometry":null},{"properties":{"city":"Los Angeles","id":"agms4uspv23e","state":"CA"},"type":"Feature","geometry":null},{"properties":{"city":"Los Angeles","id":"agms4ury1rum","state":"CA"},"type":"Feature","geometry":null},{"properties":{"city":"Los Angeles","id":"agms4uwcwups","state":"CA"},"type":"Feature","geometry":null},{"properties":{"city":"Los Angeles","id":"agms4uzmgu9k","state":"CA"},"type":"Feature","geometry":null},{"properties":{"city":"Los Angeles","id":"agms4v4do2tp","state":"CA"},"type":"Feature","geometry":null},{"properties":{"city":"Los Angeles","id":"agms4v4lbiqt","state":"CA"},"type":"Feature","geometry":null},{"properties":{"city":"Los Angeles","id":"agms4uxepgvl","state":"CA"},"type":"Feature","geometry":null},{"properties":{"city":"Los Angeles","id":"agms4v1otct9","state":"CA"},"type":"Feature","geometry":null},{"properties":{"city":"Los Angeles","id":"agms4v4x95r4","state":"CA"},"type":"Feature","geometry":null},{"properties":{"city":"Los Angeles","id":"agms4v7um3m0","state":"CA"},"type":"Feature","geometry":null},{"properties":{"city":"Los Angeles","id":"agms4urqqoi5","state":"CA"},"type":"Feature","geometry":null},{"properties":{"city":"Los Angeles","id":"agms4v09pyha","state":"CA"},"type":"Feature","geometry":null},{"properties":{"city":"Los Angeles","id":"agms4uw4t6u9","state":"CA"},"type":"Feature","geometry":null},{"properties":{"city":"Los Angeles","id":"agms4uzf3mqd","state":"CA"},"type":"Feature","geometry":null},{"properties":{"city":"Los Angeles","id":"agms4uyl7fu9","state":"CA"},"type":"Feature","geometry":null},{"properties":{"city":"Los Angeles","id":"agms4uy2dnvz","state":"CA"},"type":"Feature","geometry":null},{"properties":{"city":"Los Angeles","id":"agms4v3u9qga","state":"CA"},"type":"Feature","geometry":null},{"properties":{"city":"Los Angeles","id":"agms4v2gtb5n","state":"CA"},"type":"Feature","geometry":null},{"properties":{"city":"Los Angeles","id":"agms4v3078qx","state":"CA"},"type":"Feature","geometry":null},{"properties":{"city":"Los Angeles","id":"agms4v5lshjq","state":"CA"},"type":"Feature","geometry":null},{"properties":{"city":"Los Angeles","id":"agms4v3sfcva","state":"CA"},"type":"Feature","geometry":null},{"properties":{"city":"Los Angeles","id":"agms4uwxx16x","state":"CA"},"type":"Feature","geometry":null},{"properties":{"city":"Los Angeles","id":"agms4uu77wyo","state":"CA"},"type":"Feature","geometry":null},{"properties":{"city":"Los Angeles","id":"agms4v7mo55n","state":"CA"},"type":"Feature","geometry":null},{"properties":{"city":"Los Angeles","id":"agms4uv3qn8y","state":"CA"},"type":"Feature","geometry":null},{"properties":{"city":"Los Angeles","id":"agms4urycco3","state":"CA"},"type":"Feature","geometry":null},{"properties":{"city":"Los Angeles","id":"agms4v419bcm","state":"CA"},"type":"Feature","geometry":null},{"properties":{"city":"Los Angeles","id":"agms4v6uzxxq","state":"CA"},"type":"Feature","geometry":null},{"properties":{"city":"Los Angeles","id":"agms4v7qrch6","state":"CA"},"type":"Feature","geometry":null},{"properties":{"city":"Los Angeles","id":"agms4v5tzvo2","state":"CA"},"type":"Feature","geometry":null},{"properties":{"city":"Los Angeles","id":"agms4uvr5xhs","state":"CA"},"type":"Feature","geometry":null},{"properties":{"city":"Los Angeles","id":"agms4usos3sr","state":"CA"},"type":"Feature","geometry":null},{"properties":{"city":"Los Angeles","id":"agms4v3u7bkh","state":"CA"},"type":"Feature","geometry":null},{"properties":{"city":"Los Angeles","id":"agms4v5u678g","state":"CA"},"type":"Feature","geometry":null},{"properties":{"city":"Los Angeles","id":"agms4v7oqu4b","state":"CA"},"type":"Feature","geometry":null},{"properties":{"city":"Los Angeles","id":"agms4uryiugn","state":"CA"},"type":"Feature","geometry":null},{"properties":{"city":"Los Angeles","id":"agms4ut8hbcx","state":"CA"},"type":"Feature","geometry":null},{"properties":{"city":"Los Angeles","id":"agms4v2462hn","state":"CA"},"type":"Feature","geometry":null},{"properties":{"city":"Los Angeles","id":"agms4urc6dbu","state":"CA"},"type":"Feature","geometry":null},{"properties":{"city":"Los Angeles","id":"agms4v3f4e7v","state":"CA"},"type":"Feature","geometry":null},{"properties":{"city":"Los Angeles","id":"agms4ut0kxna","state":"CA"},"type":"Feature","geometry":null},{"properties":{"city":"Los Angeles","id":"agms4uyzxwa7","state":"CA"},"type":"Feature","geometry":null},{"properties":{"city":"Los Angeles","id":"agms4urwry0q","state":"CA"},"type":"Feature","geometry":null},{"properties":{"city":"Los Angeles","id":"agms4uv7t6mz","state":"CA"},"type":"Feature","geometry":null},{"properties":{"city":"Los Angeles","id":"agms4urek8p4","state":"CA"},"type":"Feature","geometry":null},{"properties":{"city":"Los Angeles","id":"agms4v7aqwux","state":"CA"},"type":"Feature","geometry":null},{"properties":{"city":"Los Angeles","id":"agms4v5adoq4","state":"CA"},"type":"Feature","geometry":null},{"properties":{"city":"Los Angeles","id":"agms4v695hrk","state":"CA"},"type":"Feature","geometry":null},{"properties":{"city":"Los Angeles","id":"agms4ux9vvg4","state":"CA"},"type":"Feature","geometry":null},{"properties":{"city":"Los Angeles","id":"agms4v1qlyam","state":"CA"},"type":"Feature","geometry":null},{"properties":{"city":"Los Angeles","id":"agms4v26vp2w","state":"CA"},"type":"Feature","geometry":null},{"properties":{"city":"Los Angeles","id":"agms4v1ykgir","state":"CA"},"type":"Feature","geometry":null},{"properties":{"city":"Los Angeles","id":"agms4us786cu","state":"CA"},"type":"Feature","geometry":null},{"properties":{"city":"Los Angeles","id":"agms4v60qmh3","state":"CA"},"type":"Feature","geometry":null},{"properties":{"city":"Los Angeles","id":"agms4uyf1wpk","state":"CA"},"type":"Feature","geometry":null},{"properties":{"city":"Los Angeles","id":"agms4v1hte4a","state":"CA"},"type":"Feature","geometry":null},{"properties":{"city":"Los Angeles","id":"agms4ut1tjki","state":"CA"},"type":"Feature","geometry":null},{"properties":{"city":"Los Angeles","id":"agms4uu90bv4","state":"CA"},"type":"Feature","geometry":null},{"properties":{"city":"Los Angeles","id":"agms4v6yv102","state":"CA"},"type":"Feature","geometry":null},{"properties":{"city":"Los Angeles","id":"agms4v6bddli","state":"CA"},"type":"Feature","geometry":null},{"properties":{"city":"Los Angeles","id":"agms4uud3s0l","state":"CA"},"type":"Feature","geometry":null},{"properties":{"city":"Los Angeles","id":"agms4uwve3eg","state":"CA"},"type":"Feature","geometry":null},{"properties":{"city":"Los Angeles","id":"agms4uwrkoi5","state":"CA"},"type":"Feature","geometry":null},{"properties":{"city":"Los Angeles","id":"agms4v6nau8h","state":"CA"},"type":"Feature","geometry":null},{"properties":{"city":"Los Angeles","id":"agms4v0scpav","state":"CA"},"type":"Feature","geometry":null},{"properties":{"city":"Los Angeles","id":"agms4v1abd38","state":"CA"},"type":"Feature","geometry":null},{"properties":{"city":"Los Angeles","id":"agms4v5bgij4","state":"CA"},"type":"Feature","geometry":null},{"properties":{"city":"Los Angeles","id":"agms4v233q5r","state":"CA"},"type":"Feature","geometry":null},{"properties":{"city":"Manhattan Beach","id":"agms4v2g1h9i","state":"CA"},"type":"Feature","geometry":null},{"properties":{"city":"Manhattan Beach","id":"agms4v1u2w6f","state":"CA"},"type":"Feature","geometry":null},{"properties":{"city":"Manhattan Beach","id":"agms4v6drubi","state":"CA"},"type":"Feature","geometry":null},{"properties":{"city":"Manhattan Beach","id":"agms4uwp97gb","state":"CA"},"type":"Feature","geometry":null},{"properties":{"city":"Manhattan Beach","id":"agms4v6dvxh4","state":"CA"},"type":"Feature","geometry":null},{"properties":{"city":"Manhattan Beach","id":"agms4v3ymf3x","state":"CA"},"type":"Feature","geometry":null},{"properties":{"city":"Manhattan Beach","id":"agms4urnjbtg","state":"CA"},"type":"Feature","geometry":null},{"properties":{"city":"Manhattan Beach","id":"agms4v03yde2","state":"CA"},"type":"Feature","geometry":null},{"properties":{"city":"Manhattan Beach","id":"agms4v1kxroq","state":"CA"},"type":"Feature","geometry":null},{"properties":{"city":"Manhattan Beach","id":"agms4utaoox0","state":"CA"},"type":"Feature","geometry":null},{"properties":{"city":"Manhattan Beach","id":"agms4uthmtsc","state":"CA"},"type":"Feature","geometry":null},{"properties":{"city":"Mays Landing","id":"agms4uzx7bgp","state":"NJ"},"type":"Feature","geometry":null},{"properties":{"city":"Mays Landing","id":"agms4v5y957y","state":"NJ"},"type":"Feature","geometry":null},{"properties":{"city":"Mays Landing","id":"agms4utub3b4","state":"NJ"},"type":"Feature","geometry":null},{"properties":{"city":"Mays Landing","id":"agms4usii5yy","state":"NJ"},"type":"Feature","geometry":null},{"properties":{"city":"Mcallen","id":"agms4v6gzj7t","state":"TX"},"type":"Feature","geometry":null},{"properties":{"city":"Mcallen","id":"agms4v6g35gm","state":"TX"},"type":"Feature","geometry":null},{"properties":{"city":"Mcallen","id":"agms4uwszdkf","state":"TX"},"type":"Feature","geometry":null},{"properties":{"city":"Mcallen","id":"agms4v4nfs8d","state":"TX"},"type":"Feature","geometry":null},{"properties":{"city":"Mcallen","id":"agms4uzfjdl9","state":"TX"},"type":"Feature","geometry":null},{"properties":{"city":"Mcallen","id":"agms4uyjczxq","state":"TX"},"type":"Feature","geometry":null},{"properties":{"city":"Mcallen","id":"agms4v5994yb","state":"TX"},"type":"Feature","geometry":null},{"properties":{"city":"Mcallen","id":"agms4uyeg5i1","state":"TX"},"type":"Feature","geometry":null},{"properties":{"city":"Mcallen","id":"agms4v6uat7y","state":"TX"},"type":"Feature","geometry":null},{"properties":{"city":"Mcallen","id":"agms4uws1d72","state":"TX"},"type":"Feature","geometry":null},{"properties":{"city":"Mcallen","id":"agms4v6gcdpr","state":"TX"},"type":"Feature","geometry":null},{"properties":{"city":"Mcallen","id":"agms4v3qqq8e","state":"TX"},"type":"Feature","geometry":null},{"properties":{"city":"Mcallen","id":"agms4uy7drga","state":"TX"},"type":"Feature","geometry":null},{"properties":{"city":"Mcallen","id":"agms4v2pp5y7","state":"TX"},"type":"Feature","geometry":null},{"properties":{"city":"Mcallen","id":"agms4v6y1wn5","state":"TX"},"type":"Feature","geometry":null},{"properties":{"city":"Mcallen","id":"agms4ussu06d","state":"TX"},"type":"Feature","geometry":null},{"properties":{"city":"Mcallen","id":"agms4utcih29","state":"TX"},"type":"Feature","geometry":null},{"properties":{"city":"Mcallen","id":"agms4utzy871","state":"TX"},"type":"Feature","geometry":null},{"properties":{"city":"Mesa","id":"agms4urcwvs0","state":"AZ"},"type":"Feature","geometry":null},{"properties":{"city":"Miami","id":"agms4v68jas1","state":"FL"},"type":"Feature","geometry":null},{"properties":{"city":"Miami","id":"agms4v2sigwe","state":"FL"},"type":"Feature","geometry":null},{"properties":{"city":"Miami","id":"agms4uuk1lcu","state":"FL"},"type":"Feature","geometry":null},{"properties":{"city":"Miami","id":"agms4uzwdiak","state":"FL"},"type":"Feature","geometry":null},{"properties":{"city":"Miami","id":"agms4uzg1biy","state":"FL"},"type":"Feature","geometry":null},{"properties":{"city":"Miami","id":"agms4utbuy7g","state":"FL"},"type":"Feature","geometry":null},{"properties":{"city":"Miami","id":"agms4uwxjms2","state":"FL"},"type":"Feature","geometry":null},{"properties":{"city":"Miami","id":"agms4ut7skgm","state":"FL"},"type":"Feature","geometry":null},{"properties":{"city":"Miami","id":"agms4uu6fmvk","state":"FL"},"type":"Feature","geometry":null},{"properties":{"city":"Miami","id":"agms4uuladle","state":"FL"},"type":"Feature","geometry":null},{"properties":{"city":"Miami","id":"agms4v3zttf3","state":"FL"},"type":"Feature","geometry":null},{"properties":{"city":"Miami","id":"agms4v5m6k4q","state":"FL"},"type":"Feature","geometry":null},{"properties":{"city":"Miami","id":"agms4v04a045","state":"FL"},"type":"Feature","geometry":null},{"properties":{"city":"Miami","id":"agms4v5eu2mf","state":"FL"},"type":"Feature","geometry":null},{"properties":{"city":"Miami","id":"agms4uts33ep","state":"FL"},"type":"Feature","geometry":null},{"properties":{"city":"Miami","id":"agms4uw48htt","state":"FL"},"type":"Feature","geometry":null},{"properties":{"city":"Miami","id":"agms4v490yx1","state":"FL"},"type":"Feature","geometry":null},{"properties":{"city":"Miami","id":"agms4v24i4ni","state":"FL"},"type":"Feature","geometry":null},{"properties":{"city":"Miami","id":"agms4ut1yvf3","state":"FL"},"type":"Feature","geometry":null},{"properties":{"city":"Miami","id":"agms4ux9rq6s","state":"FL"},"type":"Feature","geometry":null},{"properties":{"city":"Miami","id":"agms4v0vdls7","state":"FL"},"type":"Feature","geometry":null},{"properties":{"city":"Miami","id":"agms4v3ps8x5","state":"FL"},"type":"Feature","geometry":null},{"properties":{"city":"Miami","id":"agms4v23xrmy","state":"FL"},"type":"Feature","geometry":null},{"properties":{"city":"Miami","id":"agms4v7rf1f1","state":"FL"},"type":"Feature","geometry":null},{"properties":{"city":"Miami","id":"agms4v3l90tv","state":"FL"},"type":"Feature","geometry":null},{"properties":{"city":"Miami","id":"agms4uvba5hg","state":"FL"},"type":"Feature","geometry":null},{"properties":{"city":"Miami","id":"agms4v32ekxs","state":"FL"},"type":"Feature","geometry":null},{"properties":{"city":"Miami","id":"agms4utxofr3","state":"FL"},"type":"Feature","geometry":null},{"properties":{"city":"Miami","id":"agms4uxj11o9","state":"FL"},"type":"Feature","geometry":null},{"properties":{"city":"Miami","id":"agms4v0rnoe1","state":"FL"},"type":"Feature","geometry":null},{"properties":{"city":"Miami","id":"agms4uu4ttik","state":"FL"},"type":"Feature","geometry":null},{"properties":{"city":"Miami","id":"agms4us2euo0","state":"FL"},"type":"Feature","geometry":null},{"properties":{"city":"Miami","id":"agms4uypovc0","state":"FL"},"type":"Feature","geometry":null},{"properties":{"city":"Miami","id":"agms4urod0uu","state":"FL"},"type":"Feature","geometry":null},{"properties":{"city":"Miami","id":"agms4urrv49g","state":"FL"},"type":"Feature","geometry":null},{"properties":{"city":"Miami","id":"agms4uwprsyy","state":"FL"},"type":"Feature","geometry":null},{"properties":{"city":"Miami","id":"agms4uyrpr5b","state":"FL"},"type":"Feature","geometry":null},{"properties":{"city":"Miami","id":"agms4uxa2393","state":"FL"},"type":"Feature","geometry":null},{"properties":{"city":"Miami","id":"agms4v0i29su","state":"FL"},"type":"Feature","geometry":null},{"properties":{"city":"Miami","id":"agms4utmncgx","state":"FL"},"type":"Feature","geometry":null},{"properties":{"city":"Miami","id":"agms4v48ozcs","state":"FL"},"type":"Feature","geometry":null},{"properties":{"city":"Miami Beach","id":"agms4uvxh5i8","state":"FL"},"type":"Feature","geometry":null},{"properties":{"city":"Miami Beach","id":"agms4utedhaw","state":"FL"},"type":"Feature","geometry":null},{"properties":{"city":"Miami Beach","id":"agms4v56xia2","state":"FL"},"type":"Feature","geometry":null},{"properties":{"city":"Miami Beach","id":"agms4v3qhxk0","state":"FL"},"type":"Feature","geometry":null},{"properties":{"city":"Miami Beach","id":"agms4v7tdb52","state":"FL"},"type":"Feature","geometry":null},{"properties":{"city":"Miami Beach","id":"agms4uvvjp6f","state":"FL"},"type":"Feature","geometry":null},{"properties":{"city":"Miami Beach","id":"agms4v5tzsw4","state":"FL"},"type":"Feature","geometry":null},{"properties":{"city":"Miami Beach","id":"agms4uzkk7ai","state":"FL"},"type":"Feature","geometry":null},{"properties":{"city":"Miami Beach","id":"agms4uyw1r8l","state":"FL"},"type":"Feature","geometry":null},{"properties":{"city":"Miami Beach","id":"agms4v75ogju","state":"FL"},"type":"Feature","geometry":null},{"properties":{"city":"Miami Beach","id":"agms4v40oyo9","state":"FL"},"type":"Feature","geometry":null},{"properties":{"city":"Miami Beach","id":"agms4v10em8y","state":"FL"},"type":"Feature","geometry":null},{"properties":{"city":"Miami Beach","id":"agms4v78n335","state":"FL"},"type":"Feature","geometry":null},{"properties":{"city":"Miami Beach","id":"agms4uygkujo","state":"FL"},"type":"Feature","geometry":null},{"properties":{"city":"Miami Beach","id":"agms4urmbwok","state":"FL"},"type":"Feature","geometry":null},{"properties":{"city":"Miami Beach","id":"agms4v7niucl","state":"FL"},"type":"Feature","geometry":null},{"properties":{"city":"Miami Beach","id":"agms4uu5i0x6","state":"FL"},"type":"Feature","geometry":null},{"properties":{"city":"Miami Beach","id":"agms4v46x1gz","state":"FL"},"type":"Feature","geometry":null},{"properties":{"city":"Miami Beach","id":"agms4v31e6uw","state":"FL"},"type":"Feature","geometry":null},{"properties":{"city":"Miami Beach","id":"agms4v62ytpa","state":"FL"},"type":"Feature","geometry":null},{"properties":{"city":"Miami Beach","id":"agms4v3clp7j","state":"FL"},"type":"Feature","geometry":null},{"properties":{"city":"Miami Beach","id":"agms4uz2yl0k","state":"FL"},"type":"Feature","geometry":null},{"properties":{"city":"Miami Beach","id":"agms4uv1m9zl","state":"FL"},"type":"Feature","geometry":null},{"properties":{"city":"Miami Beach","id":"agms4v7puhwd","state":"FL"},"type":"Feature","geometry":null},{"properties":{"city":"Miami Beach","id":"agms4v30r3c4","state":"FL"},"type":"Feature","geometry":null},{"properties":{"city":"Miami Beach","id":"agms4usqeslr","state":"FL"},"type":"Feature","geometry":null},{"properties":{"city":"Miami Beach","id":"agms4utxqatm","state":"FL"},"type":"Feature","geometry":null},{"properties":{"city":"Miami Beach","id":"agms4uvja633","state":"FL"},"type":"Feature","geometry":null},{"properties":{"city":"Miami Beach","id":"agms4uxlponi","state":"FL"},"type":"Feature","geometry":null},{"properties":{"city":"Miami Beach","id":"agms4us3xjui","state":"FL"},"type":"Feature","geometry":null},{"properties":{"city":"Miami Beach","id":"agms4v729btz","state":"FL"},"type":"Feature","geometry":null},{"properties":{"city":"Miami Beach","id":"agms4v2vbzag","state":"FL"},"type":"Feature","geometry":null},{"properties":{"city":"Miami Beach","id":"agms4v174vcw","state":"FL"},"type":"Feature","geometry":null},{"properties":{"city":"Miami Beach","id":"agms4uu1er00","state":"FL"},"type":"Feature","geometry":null},{"properties":{"city":"Miami Beach","id":"agms4uu9ty4i","state":"FL"},"type":"Feature","geometry":null},{"properties":{"city":"Middletown","id":"agms4usy7dd9","state":"NY"},"type":"Feature","geometry":null},{"properties":{"city":"Middletown","id":"agms4v2betel","state":"NY"},"type":"Feature","geometry":null},{"properties":{"city":"Middletown","id":"agms4uwwyq4e","state":"NY"},"type":"Feature","geometry":null},{"properties":{"city":"Middletown","id":"agms4utzikle","state":"NY"},"type":"Feature","geometry":null},{"properties":{"city":"Middletown","id":"agms4v22v49j","state":"NY"},"type":"Feature","geometry":null},{"properties":{"city":"Middletown","id":"agms4uyajyy8","state":"NY"},"type":"Feature","geometry":null},{"properties":{"city":"Middletown","id":"agms4v00qt3a","state":"NY"},"type":"Feature","geometry":null},{"properties":{"city":"Middletown","id":"agms4uvu6je9","state":"NY"},"type":"Feature","geometry":null},{"properties":{"city":"Middletown","id":"agms4usr1oqe","state":"NY"},"type":"Feature","geometry":null},{"properties":{"city":"Middletown","id":"agms4v5tufve","state":"NY"},"type":"Feature","geometry":null},{"properties":{"city":"Middletown","id":"agms4uugs124","state":"NY"},"type":"Feature","geometry":null},{"properties":{"city":"Middletown","id":"agms4uybwkag","state":"NY"},"type":"Feature","geometry":null},{"properties":{"city":"Middletown","id":"agms4v0uiszf","state":"NY"},"type":"Feature","geometry":null},{"properties":{"city":"Middletown","id":"agms4v0nivqo","state":"NY"},"type":"Feature","geometry":null},{"properties":{"city":"Middletown","id":"agms4urkb394","state":"NY"},"type":"Feature","geometry":null},{"properties":{"city":"Middletown","id":"agms4usjnaa6","state":"NY"},"type":"Feature","geometry":null},{"properties":{"city":"Middletown","id":"agms4utdvnwe","state":"NY"},"type":"Feature","geometry":null},{"properties":{"city":"Milford","id":"agms4uyt74ov","state":"CT"},"type":"Feature","geometry":null},{"properties":{"city":"Milford","id":"agms4ut65r97","state":"CT"},"type":"Feature","geometry":null},{"properties":{"city":"Milpitas","id":"agms4v7ucip8","state":"CA"},"type":"Feature","geometry":null},{"properties":{"city":"Milwaukee","id":"agms4v1vlahd","state":"WI"},"type":"Feature","geometry":null},{"properties":{"city":"Mira Loma","id":"agms4uy176o2","state":"CA"},"type":"Feature","geometry":null},{"properties":{"city":"Mira Loma","id":"agms4v04gdpt","state":"CA"},"type":"Feature","geometry":null},{"properties":{"city":"Mira Loma","id":"agms4uz0ohji","state":"CA"},"type":"Feature","geometry":null},{"properties":{"city":"Mira Loma","id":"agms4v2vrcnj","state":"CA"},"type":"Feature","geometry":null},{"properties":{"city":"Monterey","id":"agms4uutbt12","state":"CA"},"type":"Feature","geometry":null},{"properties":{"city":"Monterey","id":"agms4uxfgwm8","state":"CA"},"type":"Feature","geometry":null},{"properties":{"city":"Monterey","id":"agms4uyet2sx","state":"CA"},"type":"Feature","geometry":null},{"properties":{"city":"Monterey Park","id":"agms4usxxxmi","state":"CA"},"type":"Feature","geometry":null},{"properties":{"city":"Monterey Park","id":"agms4uuxvhnv","state":"CA"},"type":"Feature","geometry":null},{"properties":{"city":"Moosic","id":"agms4uxd8zft","state":"PA"},"type":"Feature","geometry":null},{"properties":{"city":"Moosic","id":"agms4uvg2e49","state":"PA"},"type":"Feature","geometry":null},{"properties":{"city":"Moosic","id":"agms4uz0hw5d","state":"PA"},"type":"Feature","geometry":null},{"properties":{"city":"Moosic","id":"agms4v51i778","state":"PA"},"type":"Feature","geometry":null},{"properties":{"city":"Moosic","id":"agms4uw32qck","state":"PA"},"type":"Feature","geometry":null},{"properties":{"city":"Moosic","id":"agms4uyz3edy","state":"PA"},"type":"Feature","geometry":null},{"properties":{"city":"Moosic","id":"agms4uvmr5x2","state":"PA"},"type":"Feature","geometry":null},{"properties":{"city":"Myrtle Beach","id":"agms4v2j9jsk","state":"SC"},"type":"Feature","geometry":null},{"properties":{"city":"Myrtle Beach","id":"agms4v6hjzmz","state":"SC"},"type":"Feature","geometry":null},{"properties":{"city":"Myrtle Beach","id":"agms4v6o2nhk","state":"SC"},"type":"Feature","geometry":null},{"properties":{"city":"Myrtle Beach","id":"agms4uy3u2yd","state":"SC"},"type":"Feature","geometry":null},{"properties":{"city":"Myrtle Beach","id":"agms4v6oau9k","state":"SC"},"type":"Feature","geometry":null},{"properties":{"city":"Myrtle Beach","id":"agms4v2pc43x","state":"SC"},"type":"Feature","geometry":null},{"properties":{"city":"Myrtle Beach","id":"agms4v0late0","state":"SC"},"type":"Feature","geometry":null},{"properties":{"city":"Myrtle Beach","id":"agms4v4b47nz","state":"SC"},"type":"Feature","geometry":null},{"properties":{"city":"Myrtle Beach","id":"agms4v4jhvw8","state":"SC"},"type":"Feature","geometry":null},{"properties":{"city":"Myrtle Beach","id":"agms4v2zanx3","state":"SC"},"type":"Feature","geometry":null},{"properties":{"city":"Myrtle Beach","id":"agms4v6mg3fp","state":"SC"},"type":"Feature","geometry":null},{"properties":{"city":"Myrtle Beach","id":"agms4v6jpofe","state":"SC"},"type":"Feature","geometry":null},{"properties":{"city":"Myrtle Beach","id":"agms4ut11vh5","state":"SC"},"type":"Feature","geometry":null},{"properties":{"city":"Myrtle Beach","id":"agms4v0ecszo","state":"SC"},"type":"Feature","geometry":null},{"properties":{"city":"Myrtle Beach","id":"agms4uxs8vnz","state":"SC"},"type":"Feature","geometry":null},{"properties":{"city":"Myrtle Beach","id":"agms4v0h25ze","state":"SC"},"type":"Feature","geometry":null},{"properties":{"city":"Myrtle Beach","id":"agms4utk7ujb","state":"SC"},"type":"Feature","geometry":null},{"properties":{"city":"Myrtle Beach","id":"agms4uv2v5ig","state":"SC"},"type":"Feature","geometry":null},{"properties":{"city":"Myrtle Beach","id":"agms4v5k4bsv","state":"SC"},"type":"Feature","geometry":null},{"properties":{"city":"Naperville","id":"agms4v3n9yqa","state":"IL"},"type":"Feature","geometry":null},{"properties":{"city":"Naperville","id":"agms4uzeiqy9","state":"IL"},"type":"Feature","geometry":null},{"properties":{"city":"Naperville","id":"agms4v3z0swo","state":"IL"},"type":"Feature","geometry":null},{"properties":{"city":"Naperville","id":"agms4v0k8219","state":"IL"},"type":"Feature","geometry":null},{"properties":{"city":"Naperville","id":"agms4v1cycf7","state":"IL"},"type":"Feature","geometry":null},{"properties":{"city":"Naperville","id":"agms4uuthse9","state":"IL"},"type":"Feature","geometry":null},{"properties":{"city":"Naperville","id":"agms4us5wxfb","state":"IL"},"type":"Feature","geometry":null},{"properties":{"city":"Naperville","id":"agms4v5ylk1j","state":"IL"},"type":"Feature","geometry":null},{"properties":{"city":"Naperville","id":"agms4ute56hh","state":"IL"},"type":"Feature","geometry":null},{"properties":{"city":"Naperville","id":"agms4urf0mzy","state":"IL"},"type":"Feature","geometry":null},{"properties":{"city":"Nashville","id":"agms4uynycs0","state":"TN"},"type":"Feature","geometry":null},{"properties":{"city":"Nashville","id":"agms4uzcpjok","state":"TN"},"type":"Feature","geometry":null},{"properties":{"city":"Nashville","id":"agms4v429a2u","state":"TN"},"type":"Feature","geometry":null},{"properties":{"city":"Nashville","id":"agms4ut3u7qr","state":"TN"},"type":"Feature","geometry":null},{"properties":{"city":"Nashville","id":"agms4v5buhra","state":"TN"},"type":"Feature","geometry":null},{"properties":{"city":"Nashville","id":"agms4uw847yu","state":"TN"},"type":"Feature","geometry":null},{"properties":{"city":"Nashville","id":"agms4urxednh","state":"TN"},"type":"Feature","geometry":null},{"properties":{"city":"Nashville","id":"agms4v7l180d","state":"TN"},"type":"Feature","geometry":null},{"properties":{"city":"Nashville","id":"agms4uzkobc6","state":"TN"},"type":"Feature","geometry":null},{"properties":{"city":"Nashville","id":"agms4uuyrw6t","state":"TN"},"type":"Feature","geometry":null},{"properties":{"city":"Nashville","id":"agms4uwaw6g7","state":"TN"},"type":"Feature","geometry":null},{"properties":{"city":"Nashville","id":"agms4uwzp5s6","state":"TN"},"type":"Feature","geometry":null},{"properties":{"city":"Nashville","id":"agms4uumdhld","state":"TN"},"type":"Feature","geometry":null},{"properties":{"city":"New York","id":"agms4usi6dc2","state":"NY"},"type":"Feature","geometry":null},{"properties":{"city":"New York","id":"agms4v2nd4rs","state":"NY"},"type":"Feature","geometry":null},{"properties":{"city":"New York","id":"agms4v2utyqe","state":"NY"},"type":"Feature","geometry":null},{"properties":{"city":"New York","id":"agms4v2ix1ga","state":"NY"},"type":"Feature","geometry":null},{"properties":{"city":"New York","id":"agms4ut2y3k9","state":"NY"},"type":"Feature","geometry":null},{"properties":{"city":"New York","id":"agms4uyomsw4","state":"NY"},"type":"Feature","geometry":null},{"properties":{"city":"New York","id":"agms4v1wvtlw","state":"NY"},"type":"Feature","geometry":null},{"properties":{"city":"New York","id":"agms4uxn5acf","state":"NY"},"type":"Feature","geometry":null},{"properties":{"city":"New York","id":"agms4uy8m547","state":"NY"},"type":"Feature","geometry":null},{"properties":{"city":"New York","id":"agms4uu00jma","state":"NY"},"type":"Feature","geometry":null},{"properties":{"city":"New York","id":"agms4uww54da","state":"NY"},"type":"Feature","geometry":null},{"properties":{"city":"New York","id":"agms4v77wuct","state":"NY"},"type":"Feature","geometry":null},{"properties":{"city":"New York","id":"agms4uy313ac","state":"NY"},"type":"Feature","geometry":null},{"properties":{"city":"New York","id":"agms4uxz1pcj","state":"NY"},"type":"Feature","geometry":null},{"properties":{"city":"New York","id":"agms4urg8yb1","state":"NY"},"type":"Feature","geometry":null},{"properties":{"city":"New York","id":"agms4v36ixvi","state":"NY"},"type":"Feature","geometry":null},{"properties":{"city":"New York","id":"agms4uyzwo5f","state":"NY"},"type":"Feature","geometry":null},{"properties":{"city":"New York","id":"agms4v3q0m6m","state":"NY"},"type":"Feature","geometry":null},{"properties":{"city":"New York","id":"agms4v2pax6i","state":"NY"},"type":"Feature","geometry":null},{"properties":{"city":"New York","id":"agms4v1pg83d","state":"NY"},"type":"Feature","geometry":null},{"properties":{"city":"New York","id":"agms4urq32p6","state":"NY"},"type":"Feature","geometry":null},{"properties":{"city":"New York","id":"agms4v5pgskz","state":"NY"},"type":"Feature","geometry":null},{"properties":{"city":"New York","id":"agms4v3vhpdv","state":"NY"},"type":"Feature","geometry":null},{"properties":{"city":"New York","id":"agms4v72wt4z","state":"NY"},"type":"Feature","geometry":null},{"properties":{"city":"New York","id":"agms4v40zzqo","state":"NY"},"type":"Feature","geometry":null},{"properties":{"city":"New York","id":"agms4v5diycu","state":"NY"},"type":"Feature","geometry":null},{"properties":{"city":"New York","id":"agms4uw508ll","state":"NY"},"type":"Feature","geometry":null},{"properties":{"city":"New York","id":"agms4uullucl","state":"NY"},"type":"Feature","geometry":null},{"properties":{"city":"New York","id":"agms4v5njbis","state":"NY"},"type":"Feature","geometry":null},{"properties":{"city":"New York","id":"agms4v5ggavj","state":"NY"},"type":"Feature","geometry":null},{"properties":{"city":"New York","id":"agms4uuu4o8i","state":"NY"},"type":"Feature","geometry":null},{"properties":{"city":"New York","id":"agms4v0xu8dk","state":"NY"},"type":"Feature","geometry":null},{"properties":{"city":"New York","id":"agms4urk4s5e","state":"NY"},"type":"Feature","geometry":null},{"properties":{"city":"New York","id":"agms4v6jirjc","state":"NY"},"type":"Feature","geometry":null},{"properties":{"city":"New York","id":"agms4uwoj2qr","state":"NY"},"type":"Feature","geometry":null},{"properties":{"city":"New York","id":"agms4uvpd0pd","state":"NY"},"type":"Feature","geometry":null},{"properties":{"city":"New York","id":"agms4v5klsmw","state":"NY"},"type":"Feature","geometry":null},{"properties":{"city":"New York","id":"agms4v54cty4","state":"NY"},"type":"Feature","geometry":null},{"properties":{"city":"New York","id":"agms4v41cot4","state":"NY"},"type":"Feature","geometry":null},{"properties":{"city":"New York","id":"agms4uv2iqqw","state":"NY"},"type":"Feature","geometry":null},{"properties":{"city":"New York","id":"agms4uy7fk31","state":"NY"},"type":"Feature","geometry":null},{"properties":{"city":"New York","id":"agms4uxlq3k3","state":"NY"},"type":"Feature","geometry":null},{"properties":{"city":"New York","id":"agms4v3yjjao","state":"NY"},"type":"Feature","geometry":null},{"properties":{"city":"New York","id":"agms4v28tjpj","state":"NY"},"type":"Feature","geometry":null},{"properties":{"city":"New York","id":"agms4v3hpg8z","state":"NY"},"type":"Feature","geometry":null},{"properties":{"city":"New York","id":"agms4uy13q44","state":"NY"},"type":"Feature","geometry":null},{"properties":{"city":"New York","id":"agms4v6qwyrt","state":"NY"},"type":"Feature","geometry":null},{"properties":{"city":"New York","id":"agms4urposjz","state":"NY"},"type":"Feature","geometry":null},{"properties":{"city":"New York","id":"agms4v3ugsu8","state":"NY"},"type":"Feature","geometry":null},{"properties":{"city":"Norfolk","id":"agms4v70ovvb","state":"VA"},"type":"Feature","geometry":null},{"properties":{"city":"Norfolk","id":"agms4v3dajgl","state":"VA"},"type":"Feature","geometry":null},{"properties":{"city":"Norfolk","id":"agms4utncvhu","state":"VA"},"type":"Feature","geometry":null},{"properties":{"city":"Norfolk","id":"agms4uslx5st","state":"VA"},"type":"Feature","geometry":null},{"properties":{"city":"North Myrtle Beach","id":"agms4uxxs0ip","state":"SC"},"type":"Feature","geometry":null},{"properties":{"city":"North Myrtle Beach","id":"agms4uvqkzll","state":"SC"},"type":"Feature","geometry":null},{"properties":{"city":"North Myrtle Beach","id":"agms4uw93xug","state":"SC"},"type":"Feature","geometry":null},{"properties":{"city":"North Myrtle Beach","id":"agms4uux6krf","state":"SC"},"type":"Feature","geometry":null},{"properties":{"city":"North Myrtle Beach","id":"agms4uytjrah","state":"SC"},"type":"Feature","geometry":null},{"properties":{"city":"North Myrtle Beach","id":"agms4v64u8sm","state":"SC"},"type":"Feature","geometry":null},{"properties":{"city":"North Myrtle Beach","id":"agms4v6kkiuj","state":"SC"},"type":"Feature","geometry":null},{"properties":{"city":"North Myrtle Beach","id":"agms4uzit23m","state":"SC"},"type":"Feature","geometry":null},{"properties":{"city":"Orange","id":"agms4uy2u35m","state":"CA"},"type":"Feature","geometry":null},{"properties":{"city":"Orange","id":"agms4v1opthd","state":"CA"},"type":"Feature","geometry":null},{"properties":{"city":"Orange","id":"agms4ushplzr","state":"CA"},"type":"Feature","geometry":null},{"properties":{"city":"Orange","id":"agms4uuyn9ta","state":"CA"},"type":"Feature","geometry":null},{"properties":{"city":"Orange","id":"agms4v4i3umn","state":"CA"},"type":"Feature","geometry":null},{"properties":{"city":"Orange","id":"agms4v3n8g7x","state":"CA"},"type":"Feature","geometry":null},{"properties":{"city":"Orange","id":"agms4v3vzbgk","state":"CA"},"type":"Feature","geometry":null},{"properties":{"city":"Orange","id":"agms4uttlp2f","state":"CA"},"type":"Feature","geometry":null},{"properties":{"city":"Orange","id":"agms4uv9u557","state":"CA"},"type":"Feature","geometry":null},{"properties":{"city":"Orange","id":"agms4usadgie","state":"CA"},"type":"Feature","geometry":null},{"properties":{"city":"Orange","id":"agms4v05o9vz","state":"CA"},"type":"Feature","geometry":null},{"properties":{"city":"Orange","id":"agms4v1n1izq","state":"CA"},"type":"Feature","geometry":null},{"properties":{"city":"Orange","id":"agms4v027bms","state":"CA"},"type":"Feature","geometry":null},{"properties":{"city":"Orange","id":"agms4uu4z4o3","state":"CA"},"type":"Feature","geometry":null},{"properties":{"city":"Orange","id":"agms4v0ltld3","state":"CA"},"type":"Feature","geometry":null},{"properties":{"city":"Orange","id":"agms4uuzt742","state":"CA"},"type":"Feature","geometry":null},{"properties":{"city":"Orange","id":"agms4v3r3kw4","state":"CA"},"type":"Feature","geometry":null},{"properties":{"city":"Orange","id":"agms4uz9g9fp","state":"CA"},"type":"Feature","geometry":null},{"properties":{"city":"Orange","id":"agms4v58zi96","state":"CA"},"type":"Feature","geometry":null},{"properties":{"city":"Orange","id":"agms4uvx14wv","state":"CA"},"type":"Feature","geometry":null},{"properties":{"city":"Orange","id":"agms4uybh7dg","state":"CA"},"type":"Feature","geometry":null},{"properties":{"city":"Orange","id":"agms4v3yzvu7","state":"CA"},"type":"Feature","geometry":null},{"properties":{"city":"Orange","id":"agms4v62wn8d","state":"CA"},"type":"Feature","geometry":null},{"properties":{"city":"Orange","id":"agms4v5ppmg6","state":"CA"},"type":"Feature","geometry":null},{"properties":{"city":"Orange","id":"agms4v56e4na","state":"CA"},"type":"Feature","geometry":null},{"properties":{"city":"Orange","id":"agms4uxocok9","state":"CA"},"type":"Feature","geometry":null},{"properties":{"city":"Orange","id":"agms4v0h96oq","state":"CA"},"type":"Feature","geometry":null},{"properties":{"city":"Orange","id":"agms4v5t80pe","state":"CA"},"type":"Feature","geometry":null},{"properties":{"city":"Orange","id":"agms4uwkfp7d","state":"CA"},"type":"Feature","geometry":null},{"properties":{"city":"Orange","id":"agms4uwd1eg3","state":"CA"},"type":"Feature","geometry":null},{"properties":{"city":"Orange","id":"agms4v7jvq1p","state":"CA"},"type":"Feature","geometry":null},{"properties":{"city":"Orange","id":"agms4v5luof9","state":"CA"},"type":"Feature","geometry":null},{"properties":{"city":"Orange","id":"agms4uxtg8n0","state":"CA"},"type":"Feature","geometry":null},{"properties":{"city":"Orange","id":"agms4uy32ilw","state":"CA"},"type":"Feature","geometry":null},{"properties":{"city":"Orlando","id":"agms4uvouwa7","state":"FL"},"type":"Feature","geometry":null},{"properties":{"city":"Orlando","id":"agms4uu0arte","state":"FL"},"type":"Feature","geometry":null},{"properties":{"city":"Orlando","id":"agms4v7to49w","state":"FL"},"type":"Feature","geometry":null},{"properties":{"city":"Orlando","id":"agms4uuegopd","state":"FL"},"type":"Feature","geometry":null},{"properties":{"city":"Orlando","id":"agms4v4wsm2q","state":"FL"},"type":"Feature","geometry":null},{"properties":{"city":"Orlando","id":"agms4uz19y7i","state":"FL"},"type":"Feature","geometry":null},{"properties":{"city":"Orlando","id":"agms4ushm53z","state":"FL"},"type":"Feature","geometry":null},{"properties":{"city":"Orlando","id":"agms4v72urxx","state":"FL"},"type":"Feature","geometry":null},{"properties":{"city":"Orlando","id":"agms4v320yyo","state":"FL"},"type":"Feature","geometry":null},{"properties":{"city":"Orlando","id":"agms4v5fd1q4","state":"FL"},"type":"Feature","geometry":null},{"properties":{"city":"Orlando","id":"agms4v272nbt","state":"FL"},"type":"Feature","geometry":null},{"properties":{"city":"Orlando","id":"agms4uymy1ls","state":"FL"},"type":"Feature","geometry":null},{"properties":{"city":"Orlando","id":"agms4v3ks2cq","state":"FL"},"type":"Feature","geometry":null},{"properties":{"city":"Orlando","id":"agms4uxzkm9w","state":"FL"},"type":"Feature","geometry":null},{"properties":{"city":"Orlando","id":"agms4uu3txjc","state":"FL"},"type":"Feature","geometry":null},{"properties":{"city":"Orlando","id":"agms4uvrujyp","state":"FL"},"type":"Feature","geometry":null},{"properties":{"city":"Orlando","id":"agms4uxaiub3","state":"FL"},"type":"Feature","geometry":null},{"properties":{"city":"Orlando","id":"agms4v1qdfjo","state":"FL"},"type":"Feature","geometry":null},{"properties":{"city":"Orlando","id":"agms4uw5y1d0","state":"FL"},"type":"Feature","geometry":null},{"properties":{"city":"Orlando","id":"agms4v1ijihw","state":"FL"},"type":"Feature","geometry":null},{"properties":{"city":"Orlando","id":"agms4v1cju8r","state":"FL"},"type":"Feature","geometry":null},{"properties":{"city":"Orlando","id":"agms4v27tpiz","state":"FL"},"type":"Feature","geometry":null},{"properties":{"city":"Orlando","id":"agms4v265wc1","state":"FL"},"type":"Feature","geometry":null},{"properties":{"city":"Orlando","id":"agms4v1acfuz","state":"FL"},"type":"Feature","geometry":null},{"properties":{"city":"Orlando","id":"agms4uvday2s","state":"FL"},"type":"Feature","geometry":null},{"properties":{"city":"Paramus","id":"agms4v074i0t","state":"NJ"},"type":"Feature","geometry":null},{"properties":{"city":"Paramus","id":"agms4v17lu9z","state":"NJ"},"type":"Feature","geometry":null},{"properties":{"city":"Paramus","id":"agms4utv3s70","state":"NJ"},"type":"Feature","geometry":null},{"properties":{"city":"Paramus","id":"agms4v2zblhc","state":"NJ"},"type":"Feature","geometry":null},{"properties":{"city":"Paramus","id":"agms4v70nziz","state":"NJ"},"type":"Feature","geometry":null},{"properties":{"city":"Paramus","id":"agms4urt7hj6","state":"NJ"},"type":"Feature","geometry":null},{"properties":{"city":"Paramus","id":"agms4uxhp4oq","state":"NJ"},"type":"Feature","geometry":null},{"properties":{"city":"Paramus","id":"agms4uv07bfd","state":"NJ"},"type":"Feature","geometry":null},{"properties":{"city":"Paramus","id":"agms4utdzuhk","state":"NJ"},"type":"Feature","geometry":null},{"properties":{"city":"Paramus","id":"agms4v6ryd58","state":"NJ"},"type":"Feature","geometry":null},{"properties":{"city":"Paramus","id":"agms4v3fqyrn","state":"NJ"},"type":"Feature","geometry":null},{"properties":{"city":"Pasadena","id":"agms4uyskamy","state":"CA"},"type":"Feature","geometry":null},{"properties":{"city":"Pasadena","id":"agms4uzxxg4x","state":"CA"},"type":"Feature","geometry":null},{"properties":{"city":"Philadelphia","id":"agms4uzt16hs","state":"PA"},"type":"Feature","geometry":null},{"properties":{"city":"Philadelphia","id":"agms4uyir08f","state":"PA"},"type":"Feature","geometry":null},{"properties":{"city":"Philadelphia","id":"agms4uu487p7","state":"PA"},"type":"Feature","geometry":null},{"properties":{"city":"Philadelphia","id":"agms4v4yatly","state":"PA"},"type":"Feature","geometry":null},{"properties":{"city":"Philadelphia","id":"agms4v5x2qf0","state":"PA"},"type":"Feature","geometry":null},{"properties":{"city":"Philadelphia","id":"agms4v4s9r9j","state":"PA"},"type":"Feature","geometry":null},{"properties":{"city":"Philadelphia","id":"agms4v08tt68","state":"PA"},"type":"Feature","geometry":null},{"properties":{"city":"Philadelphia","id":"agms4uzuv97a","state":"PA"},"type":"Feature","geometry":null},{"properties":{"city":"Philadelphia","id":"agms4v7ctw39","state":"PA"},"type":"Feature","geometry":null},{"properties":{"city":"Philadelphia","id":"agms4uxa5r29","state":"PA"},"type":"Feature","geometry":null},{"properties":{"city":"Philadelphia","id":"agms4uvudeih","state":"PA"},"type":"Feature","geometry":null},{"properties":{"city":"Philadelphia","id":"agms4uztl5rt","state":"PA"},"type":"Feature","geometry":null},{"properties":{"city":"Philadelphia","id":"agms4v3qno6b","state":"PA"},"type":"Feature","geometry":null},{"properties":{"city":"Philadelphia","id":"agms4v2u39up","state":"PA"},"type":"Feature","geometry":null},{"properties":{"city":"Philadelphia","id":"agms4uynk7zs","state":"PA"},"type":"Feature","geometry":null},{"properties":{"city":"Philadelphia","id":"agms4uux0zfw","state":"PA"},"type":"Feature","geometry":null},{"properties":{"city":"Philadelphia","id":"agms4us1qb7g","state":"PA"},"type":"Feature","geometry":null},{"properties":{"city":"Philadelphia","id":"agms4utdshha","state":"PA"},"type":"Feature","geometry":null},{"properties":{"city":"Philadelphia","id":"agms4ut9haws","state":"PA"},"type":"Feature","geometry":null},{"properties":{"city":"Philadelphia","id":"agms4us2e9so","state":"PA"},"type":"Feature","geometry":null},{"properties":{"city":"Philadelphia","id":"agms4uwl7jch","state":"PA"},"type":"Feature","geometry":null},{"properties":{"city":"Philadelphia","id":"agms4v1jisfl","state":"PA"},"type":"Feature","geometry":null},{"properties":{"city":"Philadelphia","id":"agms4usguauh","state":"PA"},"type":"Feature","geometry":null},{"properties":{"city":"Philadelphia","id":"agms4uzwrz08","state":"PA"},"type":"Feature","geometry":null},{"properties":{"city":"Philadelphia","id":"agms4v7limvu","state":"PA"},"type":"Feature","geometry":null},{"properties":{"city":"Phoenix","id":"agms4us7hl9d","state":"AZ"},"type":"Feature","geometry":null},{"properties":{"city":"Phoenix","id":"agms4v7i1x3j","state":"AZ"},"type":"Feature","geometry":null},{"properties":{"city":"Phoenix","id":"agms4v02qlmd","state":"AZ"},"type":"Feature","geometry":null},{"properties":{"city":"Rancho Cucamonga","id":"agms4v1wbk0d","state":"CA"},"type":"Feature","geometry":null},{"properties":{"city":"Rancho Cucamonga","id":"agms4v5vo427","state":"CA"},"type":"Feature","geometry":null},{"properties":{"city":"Rancho Cucamonga","id":"agms4uvpptw8","state":"CA"},"type":"Feature","geometry":null},{"properties":{"city":"Rancho Cucamonga","id":"agms4v3ow8jv","state":"CA"},"type":"Feature","geometry":null},{"properties":{"city":"Rancho Cucamonga","id":"agms4v7bsxql","state":"CA"},"type":"Feature","geometry":null},{"properties":{"city":"Rancho Cucamonga","id":"agms4uwnl813","state":"CA"},"type":"Feature","geometry":null},{"properties":{"city":"Rancho Cucamonga","id":"agms4uwj128s","state":"CA"},"type":"Feature","geometry":null},{"properties":{"city":"Rancho Cucamonga","id":"agms4uscptdo","state":"CA"},"type":"Feature","geometry":null},{"properties":{"city":"Rancho Cucamonga","id":"agms4uyr2a2l","state":"CA"},"type":"Feature","geometry":null},{"properties":{"city":"Rancho Cucamonga","id":"agms4v27jmmv","state":"CA"},"type":"Feature","geometry":null},{"properties":{"city":"Rancho Cucamonga","id":"agms4uwhstui","state":"CA"},"type":"Feature","geometry":null},{"properties":{"city":"Rancho Mirage","id":"agms4ux8pq1n","state":"CA"},"type":"Feature","geometry":null},{"properties":{"city":"Rancho Mirage","id":"agms4uxykill","state":"CA"},"type":"Feature","geometry":null},{"properties":{"city":"Rancho Mirage","id":"agms4v7k3sbb","state":"CA"},"type":"Feature","geometry":null},{"properties":{"city":"Rancho Mirage","id":"agms4v37nc87","state":"CA"},"type":"Feature","geometry":null},{"properties":{"city":"Rancho Mirage","id":"agms4uyp7aov","state":"CA"},"type":"Feature","geometry":null},{"properties":{"city":"Redondo Beach","id":"agms4utj1sj8","state":"CA"},"type":"Feature","geometry":null},{"properties":{"city":"Redondo Beach","id":"agms4v1ycfzg","state":"CA"},"type":"Feature","geometry":null},{"properties":{"city":"Redondo Beach","id":"agms4v6gkuzt","state":"CA"},"type":"Feature","geometry":null},{"properties":{"city":"Redondo Beach","id":"agms4v1bqtz1","state":"CA"},"type":"Feature","geometry":null},{"properties":{"city":"Redondo Beach","id":"agms4uy2gjfx","state":"CA"},"type":"Feature","geometry":null},{"properties":{"city":"Redondo Beach","id":"agms4v66lnf8","state":"CA"},"type":"Feature","geometry":null},{"properties":{"city":"Redwood City","id":"agms4urpkbce","state":"CA"},"type":"Feature","geometry":null},{"properties":{"city":"Reno","id":"agms4uu6yw52","state":"NV"},"type":"Feature","geometry":null},{"properties":{"city":"Reno","id":"agms4v06j6yp","state":"NV"},"type":"Feature","geometry":null},{"properties":{"city":"Reno","id":"agms4v7ut84t","state":"NV"},"type":"Feature","geometry":null},{"properties":{"city":"Reno","id":"agms4v4klwch","state":"NV"},"type":"Feature","geometry":null},{"properties":{"city":"Reno","id":"agms4v5di4wr","state":"NV"},"type":"Feature","geometry":null},{"properties":{"city":"Reno","id":"agms4v26bzxl","state":"NV"},"type":"Feature","geometry":null},{"properties":{"city":"Reno","id":"agms4uz7o0j7","state":"NV"},"type":"Feature","geometry":null},{"properties":{"city":"Reno","id":"agms4uzgo9w1","state":"NV"},"type":"Feature","geometry":null},{"properties":{"city":"Reno","id":"agms4us7eeht","state":"NV"},"type":"Feature","geometry":null},{"properties":{"city":"Reno","id":"agms4uxnacz7","state":"NV"},"type":"Feature","geometry":null},{"properties":{"city":"Reno","id":"agms4v6rovmm","state":"NV"},"type":"Feature","geometry":null},{"properties":{"city":"Reno","id":"agms4v2rb6e6","state":"NV"},"type":"Feature","geometry":null},{"properties":{"city":"Reno","id":"agms4uvqa157","state":"NV"},"type":"Feature","geometry":null},{"properties":{"city":"Reno","id":"agms4uwus1bx","state":"NV"},"type":"Feature","geometry":null},{"properties":{"city":"Reno","id":"agms4utn4geb","state":"NV"},"type":"Feature","geometry":null},{"properties":{"city":"Richmond","id":"agms4usrtevj","state":"VA"},"type":"Feature","geometry":null},{"properties":{"city":"Richmond","id":"agms4v1dbwew","state":"VA"},"type":"Feature","geometry":null},{"properties":{"city":"Sacramento","id":"agms4v5jesa1","state":"CA"},"type":"Feature","geometry":null},{"properties":{"city":"Sacramento","id":"agms4v6lpdt3","state":"CA"},"type":"Feature","geometry":null},{"properties":{"city":"Sacramento","id":"agms4uui2zkh","state":"CA"},"type":"Feature","geometry":null},{"properties":{"city":"Sacramento","id":"agms4uzzej17","state":"CA"},"type":"Feature","geometry":null},{"properties":{"city":"Sacramento","id":"agms4uu1gyz0","state":"CA"},"type":"Feature","geometry":null},{"properties":{"city":"Sacramento","id":"agms4v4kf8f1","state":"CA"},"type":"Feature","geometry":null},{"properties":{"city":"Sacramento","id":"agms4v7thf3q","state":"CA"},"type":"Feature","geometry":null},{"properties":{"city":"Sacramento","id":"agms4utox4fq","state":"CA"},"type":"Feature","geometry":null},{"properties":{"city":"Sacramento","id":"agms4v3x1486","state":"CA"},"type":"Feature","geometry":null},{"properties":{"city":"Sacramento","id":"agms4uvv2jq3","state":"CA"},"type":"Feature","geometry":null},{"properties":{"city":"Sacramento","id":"agms4uy81ryu","state":"CA"},"type":"Feature","geometry":null},{"properties":{"city":"Salt Lake City","id":"agms4uzsqzsc","state":"UT"},"type":"Feature","geometry":null},{"properties":{"city":"Salt Lake City","id":"agms4v7oidml","state":"UT"},"type":"Feature","geometry":null},{"properties":{"city":"Salt Lake City","id":"agms4uwkf4r6","state":"UT"},"type":"Feature","geometry":null},{"properties":{"city":"Salt Lake City","id":"agms4us0x5qp","state":"UT"},"type":"Feature","geometry":null},{"properties":{"city":"Salt Lake City","id":"agms4v5lz066","state":"UT"},"type":"Feature","geometry":null},{"properties":{"city":"Salt Lake City","id":"agms4uu6if9g","state":"UT"},"type":"Feature","geometry":null},{"properties":{"city":"Salt Lake City","id":"agms4uuwm64j","state":"UT"},"type":"Feature","geometry":null},{"properties":{"city":"Salt Lake City","id":"agms4uvgl1a7","state":"UT"},"type":"Feature","geometry":null},{"properties":{"city":"San Francisco","id":"agms4uscbbe6","state":"CA"},"type":"Feature","geometry":null},{"properties":{"city":"San Francisco","id":"agms4uuyphwc","state":"CA"},"type":"Feature","geometry":null},{"properties":{"city":"San Francisco","id":"agms4uzx8xa6","state":"CA"},"type":"Feature","geometry":null},{"properties":{"city":"San Francisco","id":"agms4v4s09t8","state":"CA"},"type":"Feature","geometry":null},{"properties":{"city":"San Francisco","id":"agms4v4cqm81","state":"CA"},"type":"Feature","geometry":null},{"properties":{"city":"San Francisco","id":"agms4ut9jqhd","state":"CA"},"type":"Feature","geometry":null},{"properties":{"city":"San Francisco","id":"agms4uzcht73","state":"CA"},"type":"Feature","geometry":null},{"properties":{"city":"San Francisco","id":"agms4v12uebv","state":"CA"},"type":"Feature","geometry":null},{"properties":{"city":"San Francisco","id":"agms4uwdyt0c","state":"CA"},"type":"Feature","geometry":null},{"properties":{"city":"San Francisco","id":"agms4v7sctw5","state":"CA"},"type":"Feature","geometry":null},{"properties":{"city":"San Francisco","id":"agms4uv4etjf","state":"CA"},"type":"Feature","geometry":null},{"properties":{"city":"San Francisco","id":"agms4v6vwng9","state":"CA"},"type":"Feature","geometry":null},{"properties":{"city":"San Jose","id":"agms4v13pgz6","state":"CA"},"type":"Feature","geometry":null},{"properties":{"city":"San Jose","id":"agms4v5a7kbx","state":"CA"},"type":"Feature","geometry":null},{"properties":{"city":"San Jose","id":"agms4v70tl0p","state":"CA"},"type":"Feature","geometry":null},{"properties":{"city":"San Jose","id":"agms4uzuspiy","state":"CA"},"type":"Feature","geometry":null},{"properties":{"city":"San Jose","id":"agms4v2p9d7s","state":"CA"},"type":"Feature","geometry":null},{"properties":{"city":"San Jose","id":"agms4urhfi7z","state":"CA"},"type":"Feature","geometry":null},{"properties":{"city":"San Jose","id":"agms4ut54070","state":"CA"},"type":"Feature","geometry":null},{"properties":{"city":"San Jose","id":"agms4uv6evzs","state":"CA"},"type":"Feature","geometry":null},{"properties":{"city":"San Jose","id":"agms4uzqcocd","state":"CA"},"type":"Feature","geometry":null},{"properties":{"city":"San Jose","id":"agms4v5itjms","state":"CA"},"type":"Feature","geometry":null},{"properties":{"city":"San Jose","id":"agms4v316665","state":"CA"},"type":"Feature","geometry":null},{"properties":{"city":"San Jose","id":"agms4utah3p6","state":"CA"},"type":"Feature","geometry":null},{"properties":{"city":"San Jose","id":"agms4uz1swuz","state":"CA"},"type":"Feature","geometry":null},{"properties":{"city":"San Jose","id":"agms4v2iqi08","state":"CA"},"type":"Feature","geometry":null},{"properties":{"city":"San Marcos","id":"agms4v6wf74p","state":"TX"},"type":"Feature","geometry":null},{"properties":{"city":"San Marcos","id":"agms4urye9gr","state":"TX"},"type":"Feature","geometry":null},{"properties":{"city":"San Marcos","id":"agms4v0i0k2t","state":"TX"},"type":"Feature","geometry":null},{"properties":{"city":"San Marcos","id":"agms4uvmjoa3","state":"TX"},"type":"Feature","geometry":null},{"properties":{"city":"San Marcos","id":"agms4ux0o1p5","state":"TX"},"type":"Feature","geometry":null},{"properties":{"city":"San Marcos","id":"agms4uv8efga","state":"TX"},"type":"Feature","geometry":null},{"properties":{"city":"San Marcos","id":"agms4v700aiq","state":"TX"},"type":"Feature","geometry":null},{"properties":{"city":"San Marcos","id":"agms4v20i8fq","state":"TX"},"type":"Feature","geometry":null},{"properties":{"city":"San Marcos","id":"agms4v13g4jd","state":"TX"},"type":"Feature","geometry":null},{"properties":{"city":"San Marcos","id":"agms4utzhx06","state":"TX"},"type":"Feature","geometry":null},{"properties":{"city":"San Marcos","id":"agms4uzfdaq5","state":"TX"},"type":"Feature","geometry":null},{"properties":{"city":"San Marcos","id":"agms4v5gjmzw","state":"TX"},"type":"Feature","geometry":null},{"properties":{"city":"San Marcos","id":"agms4uxl8qsz","state":"TX"},"type":"Feature","geometry":null},{"properties":{"city":"San Marcos","id":"agms4ut4nq0l","state":"TX"},"type":"Feature","geometry":null},{"properties":{"city":"Sandusky","id":"agms4uxmle91","state":"OH"},"type":"Feature","geometry":null},{"properties":{"city":"Sandusky","id":"agms4uyvk94q","state":"OH"},"type":"Feature","geometry":null},{"properties":{"city":"Sandusky","id":"agms4v4ybirt","state":"OH"},"type":"Feature","geometry":null},{"properties":{"city":"Sandusky","id":"agms4v5258up","state":"OH"},"type":"Feature","geometry":null},{"properties":{"city":"Sandusky","id":"agms4v1kvwbf","state":"OH"},"type":"Feature","geometry":null},{"properties":{"city":"Sandusky","id":"agms4uy0z5jm","state":"OH"},"type":"Feature","geometry":null},{"properties":{"city":"Sandusky","id":"agms4v556d4p","state":"OH"},"type":"Feature","geometry":null},{"properties":{"city":"Santa Monica","id":"agms4urm1jvc","state":"CA"},"type":"Feature","geometry":null},{"properties":{"city":"Santa Monica","id":"agms4uvl50hi","state":"CA"},"type":"Feature","geometry":null},{"properties":{"city":"Santa Monica","id":"agms4v488e2n","state":"CA"},"type":"Feature","geometry":null},{"properties":{"city":"Santa Monica","id":"agms4ustwhxz","state":"CA"},"type":"Feature","geometry":null},{"properties":{"city":"Santa Monica","id":"agms4urziaep","state":"CA"},"type":"Feature","geometry":null},{"properties":{"city":"Santa Monica","id":"agms4uy977s0","state":"CA"},"type":"Feature","geometry":null},{"properties":{"city":"Santa Monica","id":"agms4v1i1icc","state":"CA"},"type":"Feature","geometry":null},{"properties":{"city":"Santa Monica","id":"agms4v0q3gy6","state":"CA"},"type":"Feature","geometry":null},{"properties":{"city":"Santa Monica","id":"agms4urr23vm","state":"CA"},"type":"Feature","geometry":null},{"properties":{"city":"Santa Monica","id":"agms4v2l336r","state":"CA"},"type":"Feature","geometry":null},{"properties":{"city":"Santa Monica","id":"agms4v24gevf","state":"CA"},"type":"Feature","geometry":null},{"properties":{"city":"Santa Monica","id":"agms4v3dlbdf","state":"CA"},"type":"Feature","geometry":null},{"properties":{"city":"Santa Monica","id":"agms4v6i7d1f","state":"CA"},"type":"Feature","geometry":null},{"properties":{"city":"Santa Monica","id":"agms4v2n9o3x","state":"CA"},"type":"Feature","geometry":null},{"properties":{"city":"Santa Monica","id":"agms4v4xr2f4","state":"CA"},"type":"Feature","geometry":null},{"properties":{"city":"Santa Monica","id":"agms4v3ce6mw","state":"CA"},"type":"Feature","geometry":null},{"properties":{"city":"Santa Monica","id":"agms4v1r628r","state":"CA"},"type":"Feature","geometry":null},{"properties":{"city":"Santa Monica","id":"agms4ut6ht2o","state":"CA"},"type":"Feature","geometry":null},{"properties":{"city":"Santa Monica","id":"agms4v6l7x4k","state":"CA"},"type":"Feature","geometry":null},{"properties":{"city":"Santa Monica","id":"agms4v35j0p4","state":"CA"},"type":"Feature","geometry":null},{"properties":{"city":"Santa Monica","id":"agms4utd7nmc","state":"CA"},"type":"Feature","geometry":null},{"properties":{"city":"Scarsdale","id":"agms4ussmrzr","state":"NY"},"type":"Feature","geometry":null},{"properties":{"city":"Scarsdale","id":"agms4v2osx2x","state":"NY"},"type":"Feature","geometry":null},{"properties":{"city":"Scarsdale","id":"agms4v7dcm2x","state":"NY"},"type":"Feature","geometry":null},{"properties":{"city":"Scarsdale","id":"agms4v7txw0d","state":"NY"},"type":"Feature","geometry":null},{"properties":{"city":"Scottsdale","id":"agms4v6phabc","state":"AZ"},"type":"Feature","geometry":null},{"properties":{"city":"Scottsdale","id":"agms4v3m93ae","state":"AZ"},"type":"Feature","geometry":null},{"properties":{"city":"Scottsdale","id":"agms4v2rm02b","state":"AZ"},"type":"Feature","geometry":null},{"properties":{"city":"Scottsdale","id":"agms4uyk0oq3","state":"AZ"},"type":"Feature","geometry":null},{"properties":{"city":"Seattle","id":"agms4v4hlxeh","state":"WA"},"type":"Feature","geometry":null},{"properties":{"city":"Seattle","id":"agms4uwy8vxu","state":"WA"},"type":"Feature","geometry":null},{"properties":{"city":"Seattle","id":"agms4v0xnc3g","state":"WA"},"type":"Feature","geometry":null},{"properties":{"city":"Seattle","id":"agms4uth2zwd","state":"WA"},"type":"Feature","geometry":null},{"properties":{"city":"Seattle","id":"agms4ut4f19y","state":"WA"},"type":"Feature","geometry":null},{"properties":{"city":"Seattle","id":"agms4v04xz2x","state":"WA"},"type":"Feature","geometry":null},{"properties":{"city":"Seattle","id":"agms4urulq0v","state":"WA"},"type":"Feature","geometry":null},{"properties":{"city":"Seattle","id":"agms4uw7k5pj","state":"WA"},"type":"Feature","geometry":null},{"properties":{"city":"Seattle","id":"agms4uuclljn","state":"WA"},"type":"Feature","geometry":null},{"properties":{"city":"Seattle","id":"agms4uv2lk3l","state":"WA"},"type":"Feature","geometry":null},{"properties":{"city":"Seattle","id":"agms4v6xn46n","state":"WA"},"type":"Feature","geometry":null},{"properties":{"city":"Seattle","id":"agms4uy4vqg3","state":"WA"},"type":"Feature","geometry":null},{"properties":{"city":"Seattle","id":"agms4usam80y","state":"WA"},"type":"Feature","geometry":null},{"properties":{"city":"Seattle","id":"agms4uv1eyl8","state":"WA"},"type":"Feature","geometry":null},{"properties":{"city":"Seattle","id":"agms4uuoykxo","state":"WA"},"type":"Feature","geometry":null},{"properties":{"city":"Seattle","id":"agms4v1m44se","state":"WA"},"type":"Feature","geometry":null},{"properties":{"city":"Seattle","id":"agms4v2sg85p","state":"WA"},"type":"Feature","geometry":null},{"properties":{"city":"Seattle","id":"agms4v46shnv","state":"WA"},"type":"Feature","geometry":null},{"properties":{"city":"Seattle","id":"agms4uxg1wys","state":"WA"},"type":"Feature","geometry":null},{"properties":{"city":"Seattle","id":"agms4uu5cj14","state":"WA"},"type":"Feature","geometry":null},{"properties":{"city":"Seattle","id":"agms4v4p1ge0","state":"WA"},"type":"Feature","geometry":null},{"properties":{"city":"Skokie","id":"agms4usxms3a","state":"IL"},"type":"Feature","geometry":null},{"properties":{"city":"Skokie","id":"agms4uwaamix","state":"IL"},"type":"Feature","geometry":null},{"properties":{"city":"Skokie","id":"agms4uzxi709","state":"IL"},"type":"Feature","geometry":null},{"properties":{"city":"Skokie","id":"agms4v1co10q","state":"IL"},"type":"Feature","geometry":null},{"properties":{"city":"Skokie","id":"agms4urnttes","state":"IL"},"type":"Feature","geometry":null},{"properties":{"city":"Skokie","id":"agms4v4owqxj","state":"IL"},"type":"Feature","geometry":null},{"properties":{"city":"Skokie","id":"agms4uruq6tz","state":"IL"},"type":"Feature","geometry":null},{"properties":{"city":"Skokie","id":"agms4uzyemv6","state":"IL"},"type":"Feature","geometry":null},{"properties":{"city":"Skokie","id":"agms4uuvaz3m","state":"IL"},"type":"Feature","geometry":null},{"properties":{"city":"Skokie","id":"agms4v2p4c4p","state":"IL"},"type":"Feature","geometry":null},{"properties":{"city":"Skokie","id":"agms4us7dkxw","state":"IL"},"type":"Feature","geometry":null},{"properties":{"city":"Skokie","id":"agms4uylwi06","state":"IL"},"type":"Feature","geometry":null},{"properties":{"city":"Skokie","id":"agms4v7cuoaq","state":"IL"},"type":"Feature","geometry":null},{"properties":{"city":"Skokie","id":"agms4v6bwxo5","state":"IL"},"type":"Feature","geometry":null},{"properties":{"city":"Skokie","id":"agms4uv4d2g2","state":"IL"},"type":"Feature","geometry":null},{"properties":{"city":"Skokie","id":"agms4v1qdkz0","state":"IL"},"type":"Feature","geometry":null},{"properties":{"city":"Skokie","id":"agms4usgw2en","state":"IL"},"type":"Feature","geometry":null},{"properties":{"city":"Skokie","id":"agms4v3x8q5o","state":"IL"},"type":"Feature","geometry":null},{"properties":{"city":"Skokie","id":"agms4uya4f4g","state":"IL"},"type":"Feature","geometry":null},{"properties":{"city":"Skokie","id":"agms4v0jj0w1","state":"IL"},"type":"Feature","geometry":null},{"properties":{"city":"Skokie","id":"agms4v0v0qha","state":"IL"},"type":"Feature","geometry":null},{"properties":{"city":"South Miami","id":"agms4v47eo9q","state":"FL"},"type":"Feature","geometry":null},{"properties":{"city":"South Miami","id":"agms4v1co4i3","state":"FL"},"type":"Feature","geometry":null},{"properties":{"city":"South Miami","id":"agms4ux4nrm5","state":"FL"},"type":"Feature","geometry":null},{"properties":{"city":"South Miami","id":"agms4v5o4l2y","state":"FL"},"type":"Feature","geometry":null},{"properties":{"city":"South Portland","id":"agms4uzen8gk","state":"ME"},"type":"Feature","geometry":null},{"properties":{"city":"South Windsor","id":"agms4usg7y8j","state":"CT"},"type":"Feature","geometry":null},{"properties":{"city":"South Windsor","id":"agms4v4ysbfi","state":"CT"},"type":"Feature","geometry":null},{"properties":{"city":"St. Louis","id":"agms4utbxj2m","state":"MO"},"type":"Feature","geometry":null},{"properties":{"city":"St. Louis","id":"agms4v6mmit8","state":"MO"},"type":"Feature","geometry":null},{"properties":{"city":"Stillwater","id":"agms4v5s2943","state":"OK"},"type":"Feature","geometry":null},{"properties":{"city":"Stillwater","id":"agms4v3y5hw7","state":"OK"},"type":"Feature","geometry":null},{"properties":{"city":"Stillwater","id":"agms4v4fydpi","state":"OK"},"type":"Feature","geometry":null},{"properties":{"city":"Stillwater","id":"agms4v5qmnmn","state":"OK"},"type":"Feature","geometry":null},{"properties":{"city":"Sunrise","id":"agms4uykxo83","state":"FL"},"type":"Feature","geometry":null},{"properties":{"city":"Sunrise","id":"agms4v326w2o","state":"FL"},"type":"Feature","geometry":null},{"properties":{"city":"Sunrise","id":"agms4v48quz8","state":"FL"},"type":"Feature","geometry":null},{"properties":{"city":"Sunrise","id":"agms4urzxlj3","state":"FL"},"type":"Feature","geometry":null},{"properties":{"city":"Sunrise","id":"agms4uzbi89z","state":"FL"},"type":"Feature","geometry":null},{"properties":{"city":"Sunrise","id":"agms4uuu0siv","state":"FL"},"type":"Feature","geometry":null},{"properties":{"city":"Sunrise","id":"agms4uzw0nt1","state":"FL"},"type":"Feature","geometry":null},{"properties":{"city":"Sunrise","id":"agms4uv3sk5h","state":"FL"},"type":"Feature","geometry":null},{"properties":{"city":"Sunrise","id":"agms4v0u73h7","state":"FL"},"type":"Feature","geometry":null},{"properties":{"city":"Sunrise","id":"agms4v6sbb91","state":"FL"},"type":"Feature","geometry":null},{"properties":{"city":"Sunrise","id":"agms4v36qfsy","state":"FL"},"type":"Feature","geometry":null},{"properties":{"city":"Sunrise","id":"agms4v0wxzon","state":"FL"},"type":"Feature","geometry":null},{"properties":{"city":"Sunrise","id":"agms4ux44mo9","state":"FL"},"type":"Feature","geometry":null},{"properties":{"city":"Sunrise","id":"agms4uyo25he","state":"FL"},"type":"Feature","geometry":null},{"properties":{"city":"Sunrise","id":"agms4v7g8uye","state":"FL"},"type":"Feature","geometry":null},{"properties":{"city":"Sunrise","id":"agms4v6uj6ym","state":"FL"},"type":"Feature","geometry":null},{"properties":{"city":"Sunrise","id":"agms4usn62y7","state":"FL"},"type":"Feature","geometry":null},{"properties":{"city":"Sunrise","id":"agms4v1jtfcr","state":"FL"},"type":"Feature","geometry":null},{"properties":{"city":"Sunrise","id":"agms4uzz0kb1","state":"FL"},"type":"Feature","geometry":null},{"properties":{"city":"Syracuse","id":"agms4ut1riol","state":"NY"},"type":"Feature","geometry":null},{"properties":{"city":"Syracuse","id":"agms4v2q2vcr","state":"NY"},"type":"Feature","geometry":null},{"properties":{"city":"Syracuse","id":"agms4v1egags","state":"NY"},"type":"Feature","geometry":null},{"properties":{"city":"Syracuse","id":"agms4uvknq0h","state":"NY"},"type":"Feature","geometry":null},{"properties":{"city":"Syracuse","id":"agms4v2jbcko","state":"NY"},"type":"Feature","geometry":null},{"properties":{"city":"Syracuse","id":"agms4uwc9s9i","state":"NY"},"type":"Feature","geometry":null},{"properties":{"city":"Syracuse","id":"agms4utxtpjt","state":"NY"},"type":"Feature","geometry":null},{"properties":{"city":"Syracuse","id":"agms4v77wpxn","state":"NY"},"type":"Feature","geometry":null},{"properties":{"city":"Syracuse","id":"agms4uw23h27","state":"NY"},"type":"Feature","geometry":null},{"properties":{"city":"Syracuse","id":"agms4ut36pti","state":"NY"},"type":"Feature","geometry":null},{"properties":{"city":"Syracuse","id":"agms4uuigtiu","state":"NY"},"type":"Feature","geometry":null},{"properties":{"city":"Syracuse","id":"agms4uyossct","state":"NY"},"type":"Feature","geometry":null},{"properties":{"city":"Tampa","id":"agms4utcxz04","state":"FL"},"type":"Feature","geometry":null},{"properties":{"city":"Tampa","id":"agms4urr8md9","state":"FL"},"type":"Feature","geometry":null},{"properties":{"city":"Tampa","id":"agms4uxqsc7x","state":"FL"},"type":"Feature","geometry":null},{"properties":{"city":"Tampa","id":"agms4uvuzbbj","state":"FL"},"type":"Feature","geometry":null},{"properties":{"city":"Tampa","id":"agms4v30w76n","state":"FL"},"type":"Feature","geometry":null},{"properties":{"city":"Tampa","id":"agms4uuxth57","state":"FL"},"type":"Feature","geometry":null},{"properties":{"city":"Tampa","id":"agms4utzs9ug","state":"FL"},"type":"Feature","geometry":null},{"properties":{"city":"Tarentum","id":"agms4utiawql","state":"PA"},"type":"Feature","geometry":null},{"properties":{"city":"Tarentum","id":"agms4v6jc0a5","state":"PA"},"type":"Feature","geometry":null},{"properties":{"city":"Tarentum","id":"agms4v6eypuu","state":"PA"},"type":"Feature","geometry":null},{"properties":{"city":"Tarentum","id":"agms4uzglkg3","state":"PA"},"type":"Feature","geometry":null},{"properties":{"city":"Tempe","id":"agms4uzbnr3d","state":"AZ"},"type":"Feature","geometry":null},{"properties":{"city":"Tempe","id":"agms4utmtdlf","state":"AZ"},"type":"Feature","geometry":null},{"properties":{"city":"Tempe","id":"agms4v03hvm6","state":"AZ"},"type":"Feature","geometry":null},{"properties":{"city":"Tempe","id":"agms4uy12s8v","state":"AZ"},"type":"Feature","geometry":null},{"properties":{"city":"Tempe","id":"agms4uyhygzy","state":"AZ"},"type":"Feature","geometry":null},{"properties":{"city":"Tempe","id":"agms4v2q54c8","state":"AZ"},"type":"Feature","geometry":null},{"properties":{"city":"Tempe","id":"agms4v4nzjh9","state":"AZ"},"type":"Feature","geometry":null},{"properties":{"city":"Tempe","id":"agms4us2q53c","state":"AZ"},"type":"Feature","geometry":null},{"properties":{"city":"Tempe","id":"agms4v2wyt06","state":"AZ"},"type":"Feature","geometry":null},{"properties":{"city":"Tempe","id":"agms4utif9el","state":"AZ"},"type":"Feature","geometry":null},{"properties":{"city":"Tempe","id":"agms4urftujm","state":"AZ"},"type":"Feature","geometry":null},{"properties":{"city":"Tempe","id":"agms4v6me9fv","state":"AZ"},"type":"Feature","geometry":null},{"properties":{"city":"Tempe","id":"agms4uymndoi","state":"AZ"},"type":"Feature","geometry":null},{"properties":{"city":"Tempe","id":"agms4urz2tbk","state":"AZ"},"type":"Feature","geometry":null},{"properties":{"city":"Tempe","id":"agms4uuly94u","state":"AZ"},"type":"Feature","geometry":null},{"properties":{"city":"Tempe","id":"agms4us2hn32","state":"AZ"},"type":"Feature","geometry":null},{"properties":{"city":"Torrance","id":"agms4v485ue5","state":"CA"},"type":"Feature","geometry":null},{"properties":{"city":"Torrance","id":"agms4v5pr6xk","state":"CA"},"type":"Feature","geometry":null},{"properties":{"city":"Torrance","id":"agms4v56o3vp","state":"CA"},"type":"Feature","geometry":null},{"properties":{"city":"Torrance","id":"agms4utsc85k","state":"CA"},"type":"Feature","geometry":null},{"properties":{"city":"Torrance","id":"agms4v6r3ohg","state":"CA"},"type":"Feature","geometry":null},{"properties":{"city":"Torrance","id":"agms4v09ze04","state":"CA"},"type":"Feature","geometry":null},{"properties":{"city":"Torrance","id":"agms4v7m5ycv","state":"CA"},"type":"Feature","geometry":null},{"properties":{"city":"Torrance","id":"agms4uy2b2wh","state":"CA"},"type":"Feature","geometry":null},{"properties":{"city":"Torrance","id":"agms4v5nooev","state":"CA"},"type":"Feature","geometry":null},{"properties":{"city":"Tukwila","id":"agms4uy3gdsm","state":"WA"},"type":"Feature","geometry":null},{"properties":{"city":"Tukwila","id":"agms4v3ackos","state":"WA"},"type":"Feature","geometry":null},{"properties":{"city":"Tukwila","id":"agms4uz8ear1","state":"WA"},"type":"Feature","geometry":null},{"properties":{"city":"Uncasville","id":"agms4uwr5rdt","state":"CT"},"type":"Feature","geometry":null},{"properties":{"city":"Uncasville","id":"agms4uwci3pn","state":"CT"},"type":"Feature","geometry":null},{"properties":{"city":"Uncasville","id":"agms4v4q5cju","state":"CT"},"type":"Feature","geometry":null},{"properties":{"city":"Uncasville","id":"agms4uwhija6","state":"CT"},"type":"Feature","geometry":null},{"properties":{"city":"Uncasville","id":"agms4v5tro24","state":"CT"},"type":"Feature","geometry":null},{"properties":{"city":"Uncasville","id":"agms4urg4lnv","state":"CT"},"type":"Feature","geometry":null},{"properties":{"city":"Uncasville","id":"agms4ute4ljt","state":"CT"},"type":"Feature","geometry":null},{"properties":{"city":"Uncasville","id":"agms4v554tjs","state":"CT"},"type":"Feature","geometry":null},{"properties":{"city":"Uncasville","id":"agms4uw5i2ee","state":"CT"},"type":"Feature","geometry":null},{"properties":{"city":"Uncasville","id":"agms4us317ws","state":"CT"},"type":"Feature","geometry":null},{"properties":{"city":"Uncasville","id":"agms4v7kl3w5","state":"CT"},"type":"Feature","geometry":null},{"properties":{"city":"Universal City","id":"agms4uwvahsl","state":"CA"},"type":"Feature","geometry":null},{"properties":{"city":"Universal City","id":"agms4uzidrow","state":"CA"},"type":"Feature","geometry":null},{"properties":{"city":"Universal City","id":"agms4uwe228x","state":"CA"},"type":"Feature","geometry":null},{"properties":{"city":"Universal City","id":"agms4usvodwk","state":"CA"},"type":"Feature","geometry":null},{"properties":{"city":"Universal City","id":"agms4uvkh6lx","state":"CA"},"type":"Feature","geometry":null},{"properties":{"city":"Universal City","id":"agms4uygyu1o","state":"CA"},"type":"Feature","geometry":null},{"properties":{"city":"Universal City","id":"agms4us5aov5","state":"CA"},"type":"Feature","geometry":null},{"properties":{"city":"Universal City","id":"agms4v2j5v1o","state":"CA"},"type":"Feature","geometry":null},{"properties":{"city":"Universal City","id":"agms4v73enie","state":"CA"},"type":"Feature","geometry":null},{"properties":{"city":"Universal City","id":"agms4urk3t5a","state":"CA"},"type":"Feature","geometry":null},{"properties":{"city":"Universal City","id":"agms4v6r00gl","state":"CA"},"type":"Feature","geometry":null},{"properties":{"city":"Universal City","id":"agms4uvccb64","state":"CA"},"type":"Feature","geometry":null},{"properties":{"city":"Universal City","id":"agms4uudzv38","state":"CA"},"type":"Feature","geometry":null},{"properties":{"city":"Valencia","id":"agms4uxhgahi","state":"CA"},"type":"Feature","geometry":null},{"properties":{"city":"Valencia","id":"agms4uycz5tc","state":"CA"},"type":"Feature","geometry":null},{"properties":{"city":"Valencia","id":"agms4uyfverm","state":"CA"},"type":"Feature","geometry":null},{"properties":{"city":"Valencia","id":"agms4ux9xmse","state":"CA"},"type":"Feature","geometry":null},{"properties":{"city":"Valencia","id":"agms4uyfw3yw","state":"CA"},"type":"Feature","geometry":null},{"properties":{"city":"Valencia","id":"agms4urfaiyj","state":"CA"},"type":"Feature","geometry":null},{"properties":{"city":"Valencia","id":"agms4v2oar5w","state":"CA"},"type":"Feature","geometry":null},{"properties":{"city":"Valencia","id":"agms4uyn5zrt","state":"CA"},"type":"Feature","geometry":null},{"properties":{"city":"Valencia","id":"agms4v1hoqr3","state":"CA"},"type":"Feature","geometry":null},{"properties":{"city":"Valencia","id":"agms4uyym6p8","state":"CA"},"type":"Feature","geometry":null},{"properties":{"city":"Valencia","id":"agms4v34i4oa","state":"CA"},"type":"Feature","geometry":null},{"properties":{"city":"Valencia","id":"agms4uvnr7fm","state":"CA"},"type":"Feature","geometry":null},{"properties":{"city":"Valencia","id":"agms4v0l1oe2","state":"CA"},"type":"Feature","geometry":null},{"properties":{"city":"Vallejo","id":"agms4uu3e095","state":"CA"},"type":"Feature","geometry":null},{"properties":{"city":"Victor","id":"agms4usqi7k0","state":"NY"},"type":"Feature","geometry":null},{"properties":{"city":"Virginia Beach","id":"agms4v23mznf","state":"VA"},"type":"Feature","geometry":null},{"properties":{"city":"Virginia Beach","id":"agms4uyipsjz","state":"VA"},"type":"Feature","geometry":null},{"properties":{"city":"Virginia Beach","id":"agms4uwuiajt","state":"VA"},"type":"Feature","geometry":null},{"properties":{"city":"Virginia Beach","id":"agms4ut5cw0g","state":"VA"},"type":"Feature","geometry":null},{"properties":{"city":"Virginia Beach","id":"agms4v4957q9","state":"VA"},"type":"Feature","geometry":null},{"properties":{"city":"Virginia Beach","id":"agms4uugfw2n","state":"VA"},"type":"Feature","geometry":null},{"properties":{"city":"Virginia Beach","id":"agms4uv9kvrp","state":"VA"},"type":"Feature","geometry":null},{"properties":{"city":"Virginia Beach","id":"agms4uxgvrva","state":"VA"},"type":"Feature","geometry":null},{"properties":{"city":"Virginia Beach","id":"agms4v5gma3o","state":"VA"},"type":"Feature","geometry":null},{"properties":{"city":"Virginia Beach","id":"agms4v2hmnxw","state":"VA"},"type":"Feature","geometry":null},{"properties":{"city":"Virginia Beach","id":"agms4v3bduxc","state":"VA"},"type":"Feature","geometry":null},{"properties":{"city":"Warwick","id":"agms4v201pmh","state":"RI"},"type":"Feature","geometry":null},{"properties":{"city":"Warwick","id":"agms4uw4vclg","state":"RI"},"type":"Feature","geometry":null},{"properties":{"city":"Washington","id":"agms4uuxtyvp","state":"DC"},"type":"Feature","geometry":null},{"properties":{"city":"Washington","id":"agms4uxahyb8","state":"DC"},"type":"Feature","geometry":null},{"properties":{"city":"Washington","id":"agms4v2kgxku","state":"DC"},"type":"Feature","geometry":null},{"properties":{"city":"Washington","id":"agms4v66k84q","state":"DC"},"type":"Feature","geometry":null},{"properties":{"city":"Washington","id":"agms4uv8knr4","state":"DC"},"type":"Feature","geometry":null},{"properties":{"city":"Washington","id":"agms4uvewqh8","state":"DC"},"type":"Feature","geometry":null},{"properties":{"city":"Washington","id":"agms4v5l1zat","state":"DC"},"type":"Feature","geometry":null},{"properties":{"city":"Washington","id":"agms4ussoyct","state":"DC"},"type":"Feature","geometry":null},{"properties":{"city":"Washington","id":"agms4uzirb1l","state":"DC"},"type":"Feature","geometry":null},{"properties":{"city":"Washington","id":"agms4uvl3avu","state":"DC"},"type":"Feature","geometry":null},{"properties":{"city":"Washington","id":"agms4v0k8yqa","state":"DC"},"type":"Feature","geometry":null},{"properties":{"city":"Washington","id":"agms4v1e7b6k","state":"DC"},"type":"Feature","geometry":null},{"properties":{"city":"Washington","id":"agms4urubyps","state":"DC"},"type":"Feature","geometry":null},{"properties":{"city":"Washington","id":"agms4uy0omp3","state":"DC"},"type":"Feature","geometry":null},{"properties":{"city":"Washington","id":"agms4uvxiygy","state":"DC"},"type":"Feature","geometry":null},{"properties":{"city":"Washington","id":"agms4v6jcb4e","state":"DC"},"type":"Feature","geometry":null},{"properties":{"city":"Washington","id":"agms4urdz34a","state":"DC"},"type":"Feature","geometry":null},{"properties":{"city":"Washington","id":"agms4us71kq8","state":"DC"},"type":"Feature","geometry":null},{"properties":{"city":"Washington","id":"agms4uur8af5","state":"DC"},"type":"Feature","geometry":null},{"properties":{"city":"Washington","id":"agms4v7dc9d8","state":"DC"},"type":"Feature","geometry":null},{"properties":{"city":"Washington","id":"agms4v4xigp3","state":"DC"},"type":"Feature","geometry":null},{"properties":{"city":"Washington","id":"agms4uuukuls","state":"DC"},"type":"Feature","geometry":null},{"properties":{"city":"Washington","id":"agms4ut9p868","state":"DC"},"type":"Feature","geometry":null},{"properties":{"city":"Washington","id":"agms4utu6mev","state":"DC"},"type":"Feature","geometry":null},{"properties":{"city":"Washington","id":"agms4v3h2cfo","state":"DC"},"type":"Feature","geometry":null},{"properties":{"city":"Washington","id":"agms4uuvxtao","state":"DC"},"type":"Feature","geometry":null},{"properties":{"city":"Washington","id":"agms4uvwk34a","state":"DC"},"type":"Feature","geometry":null},{"properties":{"city":"Washington","id":"agms4usvndzb","state":"DC"},"type":"Feature","geometry":null},{"properties":{"city":"Washington","id":"agms4uud7ruq","state":"DC"},"type":"Feature","geometry":null},{"properties":{"city":"Washington","id":"agms4v2iw4ih","state":"DC"},"type":"Feature","geometry":null},{"properties":{"city":"Washington","id":"agms4utubw0b","state":"DC"},"type":"Feature","geometry":null},{"properties":{"city":"Washington","id":"agms4v509wb0","state":"DC"},"type":"Feature","geometry":null},{"properties":{"city":"Washington","id":"agms4v1xuj1x","state":"DC"},"type":"Feature","geometry":null},{"properties":{"city":"Washington","id":"agms4v1oddln","state":"DC"},"type":"Feature","geometry":null},{"properties":{"city":"Washington","id":"agms4v5ylyjr","state":"DC"},"type":"Feature","geometry":null},{"properties":{"city":"Washington","id":"agms4v5hgzw9","state":"DC"},"type":"Feature","geometry":null},{"properties":{"city":"Washington","id":"agms4uxialfk","state":"DC"},"type":"Feature","geometry":null},{"properties":{"city":"Washington","id":"agms4v13gmyi","state":"DC"},"type":"Feature","geometry":null},{"properties":{"city":"Washington","id":"agms4v5jrv7y","state":"DC"},"type":"Feature","geometry":null},{"properties":{"city":"Washington","id":"agms4uw9gfdn","state":"DC"},"type":"Feature","geometry":null},{"properties":{"city":"Washington","id":"agms4v1xdsn3","state":"DC"},"type":"Feature","geometry":null},{"properties":{"city":"Washington","id":"agms4uuy3ap1","state":"DC"},"type":"Feature","geometry":null},{"properties":{"city":"Washington","id":"agms4v5253wk","state":"DC"},"type":"Feature","geometry":null},{"properties":{"city":"Washington","id":"agms4uzdykci","state":"DC"},"type":"Feature","geometry":null},{"properties":{"city":"Washington","id":"agms4v47m6cs","state":"DC"},"type":"Feature","geometry":null},{"properties":{"city":"Washington","id":"agms4v3qn1p7","state":"DC"},"type":"Feature","geometry":null},{"properties":{"city":"Washington","id":"agms4uyr8oh1","state":"DC"},"type":"Feature","geometry":null},{"properties":{"city":"Washington","id":"agms4v7e3g2t","state":"DC"},"type":"Feature","geometry":null},{"properties":{"city":"Washington","id":"agms4v2k55vt","state":"DC"},"type":"Feature","geometry":null},{"properties":{"city":"Washington","id":"agms4v4216yr","state":"DC"},"type":"Feature","geometry":null},{"properties":{"city":"Washington","id":"agms4v0l2hr8","state":"DC"},"type":"Feature","geometry":null},{"properties":{"city":"Washington","id":"agms4v0c6z78","state":"DC"},"type":"Feature","geometry":null},{"properties":{"city":"Washington","id":"agms4v7gb45s","state":"DC"},"type":"Feature","geometry":null},{"properties":{"city":"Washington","id":"agms4v5m3avw","state":"DC"},"type":"Feature","geometry":null},{"properties":{"city":"Washington","id":"agms4uyuadk3","state":"DC"},"type":"Feature","geometry":null},{"properties":{"city":"West Nyack","id":"agms4uzkj4xm","state":"NY"},"type":"Feature","geometry":null},{"properties":{"city":"West Nyack","id":"agms4uset5ab","state":"NY"},"type":"Feature","geometry":null},{"properties":{"city":"West Nyack","id":"agms4uwckihn","state":"NY"},"type":"Feature","geometry":null},{"properties":{"city":"Wilkes Barre","id":"agms4uv1k4iv","state":"PA"},"type":"Feature","geometry":null},{"properties":{"city":"Woodbridge","id":"agms4utuuv0t","state":"NJ"},"type":"Feature","geometry":null},{"properties":{"city":"Woodbridge","id":"agms4v4h45sn","state":"NJ"},"type":"Feature","geometry":null},{"properties":{"city":"Woodbridge","id":"agms4v64cqta","state":"NJ"},"type":"Feature","geometry":null},{"properties":{"city":"Woodbridge","id":"agms4v49le97","state":"NJ"},"type":"Feature","geometry":null},{"properties":{"city":"Woodbridge","id":"agms4uz6owsk","state":"NJ"},"type":"Feature","geometry":null},{"properties":{"city":"Woodbridge","id":"agms4utsz7oy","state":"NJ"},"type":"Feature","geometry":null}],"is_temporal":false,"author":{"url":null,"metadata":null,"contact_name":null,"contact_address":null,"source":null,"contact_phone":null},"source":null,"pagination":{"sort":null,"start":0,"total":1538,"limit":1000000},"state":"errored","tags":"","published":"2014-08-16T22:20:30-04:00","id":388091}