{"type":"FeatureCollection","data_type":"Dataset","url_type":null,"permissions":[{"permissions":{"download":true,"view":true},"group_id":"everyone"}],"classification":null,"title":"Voters Block -  33387","count":39,"stream_id":388209,"contributor":{"url":"http://geocommons.com/users/31147","name":"bmoothedan"},"data_attributes":null,"calculation_params":null,"icon_link":null,"link":"http://geocommons.com/overlays/388209.json","extent":[-77.6549,43.1459,-77.5796,43.2435],"geometry_types":["point"],"unique_name":null,"name":"Voters Block -  33387","feature_count":39,"description":"","next_feature":null,"is_raster":false,"short_classification":"Y","stats":{},"features":[{"properties":{"name":"Building 118483","city":"Rochester","postal":"14608","county":"Monroe","property":"Single Family Detached","total":"94","geo_score":0.707,"assigned":"78","id":"agn2si3scz4x","address":"1 Willowbank Place","geo_precision":"street","state":"NY"},"type":"Feature","geometry":{"type":"Point","coordinates":[-77.631022,43.150918]}},{"properties":{"name":"Building 118484","city":"Rochester","postal":"14608","county":"Monroe","property":"Single Family Detached","total":"0","geo_score":0.87,"assigned":"0","id":"agn2si0wk5zv","address":"556-560 West Main St","geo_precision":"range","state":"NY"},"type":"Feature","geometry":{"type":"Point","coordinates":[-77.627094,43.152496]}},{"properties":{"name":"Building 118485","city":"Rochester","postal":"14608","county":"Monroe","property":"Duplex Units","total":"0","geo_score":1.0,"assigned":"0","id":"agn2sicnnqj7","address":"193-197 Adams Street","geo_precision":"range","state":"NY"},"type":"Feature","geometry":{"type":"Point","coordinates":[-77.622973,43.148749]}},{"properties":{"name":"Building 118486","city":"Rochester","postal":"14608","county":"Monroe","property":"Single Family Detached","total":"0","geo_score":1.0,"assigned":"0","id":"agn2sie0obd9","address":"150 Atkinson Street","geo_precision":"range","state":"NY"},"type":"Feature","geometry":{"type":"Point","coordinates":[-77.623469,43.149894]}},{"properties":{"name":"Building 118487","city":"Rochester","postal":"14608","county":"Monroe","property":"Townhouse","total":"0","geo_score":1.0,"assigned":"0","id":"agn2si6r217c","address":"149 Atkinson Street","geo_precision":"range","state":"NY"},"type":"Feature","geometry":{"type":"Point","coordinates":[-77.62307,43.149743]}},{"properties":{"name":"Building 118488","city":"Rochester","postal":"14608","county":"Monroe","property":"Single Family Detached","total":"0","geo_score":1.0,"assigned":"0","id":"agn2si8lvaes","address":"66 Cady Street","geo_precision":"range","state":"NY"},"type":"Feature","geometry":{"type":"Point","coordinates":[-77.625071,43.145905]}},{"properties":{"name":"Building 118489","city":"Rochester","postal":"14608","county":"Monroe","property":"Townhouse","total":"0","geo_score":1.0,"assigned":"0","id":"agn2si32mrh2","address":"9 Vinewood Place","geo_precision":"range","state":"NY"},"type":"Feature","geometry":{"type":"Point","coordinates":[-77.625227,43.147197]}},{"properties":{"name":"Building 118490","city":"Rochester","postal":"14608","county":"Monroe","property":"Single Family Detached","total":"0","geo_score":1.0,"assigned":"0","id":"agn2si8xs57o","address":"6 Vinewood Place","geo_precision":"range","state":"NY"},"type":"Feature","geometry":{"type":"Point","coordinates":[-77.625077,43.147293]}},{"properties":{"name":"Building 118491","city":"Rochester","postal":"14608","county":"Monroe","property":"Single Family Detached","total":"0","geo_score":1.0,"assigned":"0","id":"agn2si6jjp0j","address":"5 Vinewood Place","geo_precision":"range","state":"NY"},"type":"Feature","geometry":{"type":"Point","coordinates":[-77.625227,43.147294]}},{"properties":{"name":"Building 118492","city":"Rochester","postal":"14608","county":"Monroe","property":"Single Family Detached","total":"0","geo_score":0.92,"assigned":"0","id":"agn2sibyrqfw","address":"125 Reynolds","geo_precision":"range","state":"NY"},"type":"Feature","geometry":{"type":"Point","coordinates":[-77.626111,43.147847]}},{"properties":{"name":"Building 118493","city":"Rochester","postal":"14608","county":"Monroe","property":"Single Family Detached","total":"0","geo_score":1.0,"assigned":"0","id":"agn2si0rzs60","address":"251 Troup Street","geo_precision":"range","state":"NY"},"type":"Feature","geometry":{"type":"Point","coordinates":[-77.624486,43.151138]}},{"properties":{"name":"Building 118494","city":"Rochester","postal":"14608","county":"Monroe","property":"Duplex Units","total":"0","geo_score":1.0,"assigned":"0","id":"agn2sibkivm8","address":"247-249 Troup Street","geo_precision":"range","state":"NY"},"type":"Feature","geometry":{"type":"Point","coordinates":[-77.624617,43.151212]}},{"properties":{"name":"Building 118495","city":"Rochester","postal":"14608","county":"Monroe","property":"Single Family Detached","total":"0","geo_score":1.0,"assigned":"0","id":"agn2shziwcuf","address":"481 Tremont Street","geo_precision":"range","state":"NY"},"type":"Feature","geometry":{"type":"Point","coordinates":[-77.627284,43.147772]}},{"properties":{"name":"Building 118496","city":"Rochester","postal":"14608","county":"Monroe","property":"Single Family Detached","total":"0","geo_score":1.0,"assigned":"0","id":"agn2si3yyp36","address":"482 Tremont Street","geo_precision":"range","state":"NY"},"type":"Feature","geometry":{"type":"Point","coordinates":[-77.627276,43.147922]}},{"properties":{"name":"Building 118497","city":"Rochester","postal":"14608","county":"Monroe","property":"Duplex Units","total":"0","geo_score":1.0,"assigned":"0","id":"agn2si0orapo","address":"253-255 Troup Street","geo_precision":"range","state":"NY"},"type":"Feature","geometry":{"type":"Point","coordinates":[-77.624421,43.151138]}},{"properties":{"name":"Building 118498","city":"Rochester","postal":"14608","county":"Monroe","property":"Duplex Units","total":"0","geo_score":0.805,"assigned":"0","id":"agn2si1uvybp","address":"10-12 New York Street","geo_precision":"range","state":"NY"},"type":"Feature","geometry":{"type":"Point","coordinates":[-77.630718,43.152702]}},{"properties":{"name":"Building 118499","city":"Rochester","postal":"14608","county":"Monroe","property":"Single Family Detached","total":"0","geo_score":0.932,"assigned":"0","id":"agn2si1n3mkm","address":"72 Jefferson Avenue","geo_precision":"range","state":"NY"},"type":"Feature","geometry":{"type":"Point","coordinates":[-77.627556,43.147428]}},{"properties":{"name":"Building 118500","city":"Rochester","postal":"14608","county":"Monroe","property":"Single Family Detached","total":"0","geo_score":0.932,"assigned":"0","id":"agn2sibv1nd1","address":"60 Jefferson Avenue","geo_precision":"range","state":"NY"},"type":"Feature","geometry":{"type":"Point","coordinates":[-77.627805,43.147429]}},{"properties":{"name":"Building 118501","city":"Rochester","postal":"14608","county":"Monroe","property":"Duplex Units","total":"0","geo_score":0.744,"assigned":"0","id":"agn2si97zr95","address":"133 Jefferson Avenue","geo_precision":"street","state":"NY"},"type":"Feature","geometry":{"type":"Point","coordinates":[-77.626105,43.147348]}},{"properties":{"name":"Building 118502","city":"Rochester","postal":"14608","county":"Monroe","property":"Duplex Units","total":"0","geo_score":0.932,"assigned":"0","id":"agn2si0bo8ko","address":"63-65 Jefferson Avenue","geo_precision":"range","state":"NY"},"type":"Feature","geometry":{"type":"Point","coordinates":[-77.627723,43.147279]}},{"properties":{"name":"Building 118503","city":"Rochester","postal":"14608","county":"Monroe","property":"Single Family Detached","total":"0","geo_score":1.0,"assigned":"0","id":"agn2si9g41f6","address":"320 Troup Street","geo_precision":"range","state":"NY"},"type":"Feature","geometry":{"type":"Point","coordinates":[-77.628126,43.151142]}},{"properties":{"name":"Building 118504","city":"Rochester","postal":"14608","county":"Monroe","property":"Single Family Detached","total":"0","geo_score":0.805,"assigned":"0","id":"agn2si2tngvd","address":"23 Eddy Street","geo_precision":"range","state":"NY"},"type":"Feature","geometry":{"type":"Point","coordinates":[-77.633994,43.151792]}},{"properties":{"name":"Building 118505","city":"Rochester","postal":"14608","county":"Monroe","property":"Single Family Detached","total":"0","geo_score":0.805,"assigned":"0","id":"agn2si1mhy04","address":"31 Eddy Street","geo_precision":"range","state":"NY"},"type":"Feature","geometry":{"type":"Point","coordinates":[-77.634869,43.152338]}},{"properties":{"name":"Building 118506","city":"Rochester","postal":"14608","county":"Monroe","property":"Duplex Units","total":"0","geo_score":0.805,"assigned":"0","id":"agn2si9b0v64","address":"20-24 Victoria Street","geo_precision":"range","state":"NY"},"type":"Feature","geometry":{"type":"Point","coordinates":[-77.634162,43.152487]}},{"properties":{"name":"Building 118507","city":"Rochester","postal":"14608","county":"Monroe","property":"Single Family Detached","total":"0","geo_score":0.932,"assigned":"0","id":"agn2sicis9hb","address":"61 Jefferson Avenue","geo_precision":"range","state":"NY"},"type":"Feature","geometry":{"type":"Point","coordinates":[-77.627765,43.147279]}},{"properties":{"name":"Building 118508","city":"Rochester","postal":"14608","county":"Monroe","property":"Single Family Detached","total":"0","geo_score":0.805,"assigned":"0","id":"agn2si5hxnmm","address":"65 Taylor Street","geo_precision":"range","state":"NY"},"type":"Feature","geometry":{"type":"Point","coordinates":[-77.636207,43.153555]}},{"properties":{"name":"Building 118509","city":"Rochester","postal":"14608","county":"Monroe","property":"Townhouse","total":"0","geo_score":0.381,"assigned":"0","id":"agn2si4lrd4p","address":"6 St. Claire Street","geo_precision":"street","state":"NY"},"type":"Feature","geometry":{"type":"Point","coordinates":[-77.579586,43.174299]}},{"properties":{"name":"Building 118510","city":"Rochester","postal":"14608","county":"Monroe","property":"Mid-rise Apartment Building(s) (3-6 Floors)","total":"0","geo_score":0.87,"assigned":"0","id":"agn2sib2qsre","address":"431 West Main Street","geo_precision":"range","state":"NY"},"type":"Feature","geometry":{"type":"Point","coordinates":[-77.622619,43.153432]}},{"properties":{"name":"Building 118511","city":"Rochester","postal":"14608","county":"Monroe","property":"Single Family Detached","total":"0","geo_score":0.585,"assigned":"0","id":"agn2sidi3r18","address":"59 Dr Samuel McCree Way","geo_precision":"range","state":"NY"},"type":"Feature","geometry":{"type":"Point","coordinates":[-77.646839,43.243477]}},{"properties":{"name":"Building 118512","city":"Rochester","postal":"14608","county":"Monroe","property":"Single Family Detached","total":"0","geo_score":0.585,"assigned":"0","id":"agn2sib5sa7b","address":"213 Dr Samuel McCree Way","geo_precision":"range","state":"NY"},"type":"Feature","geometry":{"type":"Point","coordinates":[-77.653691,43.24331]}},{"properties":{"name":"Building 118513","city":"Rochester","postal":"14608","county":"Monroe","property":"Single Family Detached","total":"0","geo_score":0.585,"assigned":"0","id":"agn2siafk02a","address":"223 Dr Samuel McCree Way","geo_precision":"range","state":"NY"},"type":"Feature","geometry":{"type":"Point","coordinates":[-77.653496,43.243314]}},{"properties":{"name":"Building 118514","city":"Rochester","postal":"14608","county":"Monroe","property":"Single Family Detached","total":"0","geo_score":0.585,"assigned":"0","id":"agn2sicjs7rs","address":"225 Dr Samuel McCree Way","geo_precision":"range","state":"NY"},"type":"Feature","geometry":{"type":"Point","coordinates":[-77.653457,43.243315]}},{"properties":{"name":"Building 118515","city":"Rochester","postal":"14608","county":"Monroe","property":"Single Family Detached","total":"0","geo_score":0.585,"assigned":"0","id":"agn2si7corl4","address":"153 Dr Samuel McCree Way","geo_precision":"range","state":"NY"},"type":"Feature","geometry":{"type":"Point","coordinates":[-77.654866,43.243288]}},{"properties":{"name":"Building 118516","city":"Rochester","postal":"14608","county":"Monroe","property":"Duplex Units","total":"0","geo_score":0.805,"assigned":"0","id":"agn2sic5qe3d","address":"6-8 New York Street","geo_precision":"range","state":"NY"},"type":"Feature","geometry":{"type":"Point","coordinates":[-77.630998,43.152613]}},{"properties":{"name":"Building 129745","city":"Rochester","postal":"14608","county":"Monroe","property":"Townhouse","total":"0","geo_score":1.0,"assigned":"0","id":"agn2sia64jet","address":"11 Vinewood Place","geo_precision":"range","state":"NY"},"type":"Feature","geometry":{"type":"Point","coordinates":[-77.625228,43.147148]}},{"properties":{"name":"Building 129746","city":"Rochester","postal":"14608","county":"Monroe","property":"Townhouse","total":"0","geo_score":1.0,"assigned":"0","id":"agn2si75d06i","address":"151 Atkinson Street","geo_precision":"range","state":"NY"},"type":"Feature","geometry":{"type":"Point","coordinates":[-77.622946,43.149743]}},{"properties":{"name":"Building 131442","city":"Rochester","postal":"14603","county":"Monroe","property":"Single Family Detached","total":"0","geo_score":0.805,"assigned":"0","id":"agn2sidmy8y9","address":"69 Taylor Street","geo_precision":"range","state":"NY"},"type":"Feature","geometry":{"type":"Point","coordinates":[-77.636207,43.153505]}},{"properties":{"name":"Building 131517","city":"Rochester","postal":"14603","county":"Monroe","property":"Single Family Detached","total":"0","geo_score":0.585,"assigned":"0","id":"agn2si7yslsb","address":"229 Dr Samuel McCree Way","geo_precision":"range","state":"NY"},"type":"Feature","geometry":{"type":"Point","coordinates":[-77.653378,43.243316]}},{"properties":{"name":"Building 134766","city":"Rochester","postal":"14608","county":"Monroe","property":"Townhouse","total":"0","geo_score":0.381,"assigned":"0","id":"agn2siac7tbt","address":"8 St. Clair Street","geo_precision":"street","state":"NY"},"type":"Feature","geometry":{"type":"Point","coordinates":[-77.579586,43.174299]}}],"is_temporal":false,"author":{"url":"","metadata":"","contact_name":"","contact_address":"","source":"","contact_phone":""},"source":"","pagination":{"sort":null,"start":0,"total":39,"limit":1000000},"state":"complete","tags":"","published":"2014-08-16T22:27:40-04:00","id":388209}