{"type":"FeatureCollection","data_type":"Dataset","url_type":null,"permissions":[{"permissions":{"download":true,"view":true},"group_id":"everyone"}],"classification":null,"title":"minority_13-23","count":55,"stream_id":388500,"contributor":{"url":"http://geocommons.com/users/80272","name":"kotori"},"data_attributes":null,"calculation_params":null,"icon_link":null,"link":"http://geocommons.com/overlays/388500.json","extent":[0.0,0.0,0.0,0.0],"geometry_types":null,"unique_name":null,"name":"minority_13-23","feature_count":55,"description":"","next_feature":null,"is_raster":false,"short_classification":"Y","features":[{"properties":{"minority growth":"700","average annual":"63.90909091","id":"agnn1uk43yeg","state":"AK"},"type":"Feature","geometry":null},{"properties":{"minority growth":"4195","average annual":"487","id":"agnn1ud84oy7","state":"AL"},"type":"Feature","geometry":null},{"properties":{"minority growth":"3836","average annual":"379.1818182","id":"agnn1ulc8ggn","state":"AR"},"type":"Feature","geometry":null},{"properties":{"minority growth":"13752","average annual":"1368.909091","id":"agnn1u6ukv6f","state":"AZ"},"type":"Feature","geometry":null},{"properties":{"minority growth":"37804","average annual":"3790.363636","id":"agnn1u9fhtq9","state":"CA"},"type":"Feature","geometry":null},{"properties":{"minority growth":"6240","average annual":"543.8181818","id":"agnn1ug5fh8p","state":"CO"},"type":"Feature","geometry":null},{"properties":{"minority growth":"3354","average annual":"347.5454545","id":"agnn1ulxdtp8","state":"CT"},"type":"Feature","geometry":null},{"properties":{"minority growth":"-178","average annual":"-8.909090909","id":"agnn1uilrzkm","state":"DC"},"type":"Feature","geometry":null},{"properties":{"minority growth":"1659","average annual":"173","id":"agnn1ugqxufq","state":"DE"},"type":"Feature","geometry":null},{"properties":{"minority growth":"31224","average annual":"2933.545455","id":"agnn1ua999a1","state":"FL"},"type":"Feature","geometry":null},{"properties":{"minority growth":"16241","average annual":"1692.454545","id":"agnn1u9oyir8","state":"GA"},"type":"Feature","geometry":null},{"properties":{"minority growth":"-86","average annual":"11.72727273","id":"agnn1ufuo57p","state":"HI"},"type":"Feature","geometry":null},{"properties":{"minority growth":"2801","average annual":"292.4545455","id":"agnn1um3vwzn","state":"IA"},"type":"Feature","geometry":null},{"properties":{"minority growth":"2213","average annual":"221.7272727","id":"agnn1uch4qi2","state":"ID"},"type":"Feature","geometry":null},{"properties":{"minority growth":"2845","average annual":"266","id":"agnn1u8532ix","state":"IL"},"type":"Feature","geometry":null},{"properties":{"minority growth":"4282","average annual":"420.6363636","id":"agnn1ubvokyi","state":"IN"},"type":"Feature","geometry":null},{"properties":{"minority growth":"3273","average annual":"316.4545455","id":"agnn1ujnwrgt","state":"KS"},"type":"Feature","geometry":null},{"properties":{"minority growth":"4492","average annual":"461.3636364","id":"agnn1u5u7wt2","state":"KY"},"type":"Feature","geometry":null},{"properties":{"minority growth":"870","average annual":"283.5454545","id":"agnn1uaagjfg","state":"LA"},"type":"Feature","geometry":null},{"properties":{"minority growth":"4722","average annual":"3359.636364","id":"agnn1uaxjepu","state":"MA"},"type":"Feature","geometry":null},{"properties":{"minority growth":"10001","average annual":"478.8181818","id":"agnn1ulc4eoe","state":"MD"},"type":"Feature","geometry":null},{"properties":{"minority growth":"1097","average annual":"1036.454545","id":"agnn1uhm7sz7","state":"ME"},"type":"Feature","geometry":null},{"properties":{"minority growth":"3069","average annual":"107.4545455","id":"agnn1uaskfcs","state":"MI"},"type":"Feature","geometry":null},{"properties":{"minority growth":"7151","average annual":"232","id":"agnn1ugs98un","state":"MN"},"type":"Feature","geometry":null},{"properties":{"minority growth":"5086","average annual":"702.8181818","id":"agnn1ulpc6y7","state":"MO"},"type":"Feature","geometry":null},{"properties":{"minority growth":"2950","average annual":"497.9090909","id":"agnn1u70q1i2","state":"MS"},"type":"Feature","geometry":null},{"properties":{"minority growth":"480","average annual":"278.3636364","id":"agnn1udxk0x3","state":"MT"},"type":"Feature","geometry":null},{"properties":{"minority growth":"19893","average annual":"51.18181818","id":"agnn1ui2acqb","state":"NC"},"type":"Feature","geometry":null},{"properties":{"minority growth":"728","average annual":"3100","id":"agnn1u6w1dac","state":"ND"},"type":"Feature","geometry":null},{"properties":{"minority growth":"2620","average annual":"2002.090909","id":"agnn1uk4nrsk","state":"NE"},"type":"Feature","geometry":null},{"properties":{"minority growth":"490","average annual":"84.09090909","id":"agnn1uc99q39","state":"NH"},"type":"Feature","geometry":null},{"properties":{"minority growth":"9558","average annual":"250.1818182","id":"agnn1ubkbr1p","state":"NJ"},"type":"Feature","geometry":null},{"properties":{"minority growth":"2923","average annual":"39.72727273","id":"agnn1u9w0ygq","state":"NM"},"type":"Feature","geometry":null},{"properties":{"minority growth":"9063","average annual":"1011.545455","id":"agnn1ual2ydk","state":"NV"},"type":"Feature","geometry":null},{"properties":{"minority growth":"1747","average annual":"290.3636364","id":"agnn1ukw1w8f","state":"NY"},"type":"Feature","geometry":null},{"properties":{"minority growth":"1854","average annual":"889.9090909","id":"agnn1uf6n3tx","state":"OH"},"type":"Feature","geometry":null},{"properties":{"minority growth":"7981","average annual":"389.3636364","id":"agnn1ugvk7jv","state":"OK"},"type":"Feature","geometry":null},{"properties":{"minority growth":"5996","average annual":"213.5454545","id":"agnn1uc6yd8h","state":"OR"},"type":"Feature","geometry":null},{"properties":{"minority growth":"9700","average annual":"818.3636364","id":"agnn1uhkcqra","state":"PA"},"type":"Feature","geometry":null},{"properties":{"minority growth":"284","average annual":"571.6363636","id":"agnn1ua765qy","state":"RI"},"type":"Feature","geometry":null},{"properties":{"minority growth":"6539","average annual":"989","id":"agnn1uahu1kn","state":"SC"},"type":"Feature","geometry":null},{"properties":{"minority growth":"1256","average annual":"28.18181818","id":"agnn1ubyllru","state":"SD"},"type":"Feature","geometry":null},{"properties":{"minority growth":"8506","average annual":"22182.54545","id":"agnn1u8uezx0","state":"TN"},"type":"Feature","geometry":null},{"properties":{"minority growth":"81768","average annual":"620.7272727","id":"agnn1uf2z20h","state":"TX"},"type":"Feature","geometry":null},{"properties":{"minority growth":"3802","average annual":"125.7272727","id":"agnn1ucnr8h3","state":"UT"},"type":"Feature","geometry":null},{"properties":{"minority growth":"12283","average annual":"856.9090909","id":"agnn1uimh2va","state":"VA"},"type":"Feature","geometry":null},{"properties":{"minority growth":"283","average annual":"8176.272727","id":"agnn1uahca1g","state":"VT"},"type":"Feature","geometry":null},{"properties":{"minority growth":"8903","average annual":"421.6363636","id":"agnn1u86apx6","state":"WA"},"type":"Feature","geometry":null},{"properties":{"minority growth":"4789","average annual":"1216.454545","id":"agnn1uawg7mv","state":"WI"},"type":"Feature","geometry":null},{"properties":{"minority growth":"712","average annual":"29.81818182","id":"agnn1u86bobs","state":"WV"},"type":"Feature","geometry":null},{"properties":{"minority growth":"649","average annual":"8806.454545","id":"agnn1uck6r6y","state":"WY"},"type":"Feature","geometry":null},{"properties":{"minority growth":"","average annual":"954.1818182","id":"agnn1u75070w","state":""},"type":"Feature","geometry":null},{"properties":{"minority growth":"","average annual":"466.3636364","id":"agnn1ueonj9f","state":""},"type":"Feature","geometry":null},{"properties":{"minority growth":"","average annual":"82","id":"agnn1u6mt3px","state":""},"type":"Feature","geometry":null},{"properties":{"minority growth":"","average annual":"68.27272727","id":"agnn1uauqxav","state":""},"type":"Feature","geometry":null}],"is_temporal":false,"author":{"url":"","metadata":null,"contact_name":null,"contact_address":null,"source":null,"contact_phone":null},"source":"","pagination":{"sort":null,"start":0,"total":55,"limit":1000000},"state":"parsed","tags":"","published":"2014-08-16T22:43:50-04:00","id":388500}