{"type":"FeatureCollection","data_type":"Dataset","url_type":null,"permissions":[{"permissions":{"download":true,"view":true},"group_id":"everyone"}],"classification":null,"title":"ESRIlOffices Csv","count":27,"stream_id":388872,"contributor":{"url":"http://geocommons.com/users/80531","name":"Sooria"},"data_attributes":null,"calculation_params":null,"icon_link":null,"link":"http://geocommons.com/overlays/388872.json","extent":[-157.846,21.2945,-70.2509,47.5983],"geometry_types":["point"],"unique_name":null,"name":"ESRIlOffices Csv","feature_count":27,"description":"","next_feature":null,"is_raster":false,"short_classification":"Y","stats":{"xwm":{"max":-7820309.50579,"variance":5247880803089.58,"mean":-10653595.470123,"stdev":2290825.3541223,"min":-17571205.296,"median":-10073449.3176},"ywm":{"max":6040320.88143,"variance":740532339436.239,"mean":4544992.76466889,"stdev":860541.887089896,"min":2426965.22453,"median":4711498.34015},"employees":{"max":183.0,"variance":1396.84045584046,"mean":24.9259259259259,"stdev":37.3743288346487,"min":1.0,"median":11.0},"point_x":{"max":-70.251035556,"variance":423.4884206769,"mean":-95.7028764163704,"stdev":20.5788342885815,"min":-157.844822778,"median":-90.491334858},"point_y":{"max":47.59852,"variance":38.5688890476372,"mean":37.5175435367037,"stdev":6.21038557962685,"min":21.293962778,"median":38.928942778}},"features":[{"properties":{"name":"ESRI-Boston","city":"Danvers","zip":"01923-4001","xwm":-7900092.24663,"type":"RO","ywm":5250561.84044,"geo_score":1.0,"employees":35.0,"id":"agolfvlziie7","suite":"300","street":"55 Ferncroft Road","point_x":-70.967736111,"geo_precision":"range","state":"MA","point_y":42.595220556},"type":"Feature","geometry":{"type":"Point","coordinates":[-70.969255,42.595606]}},{"properties":{"name":"ESRI-California","city":"Redlands","zip":"92373-8100","xwm":-13046169.1723,"type":"RO","ywm":4036416.27725,"geo_score":1.0,"employees":27.0,"id":"agolfvnngjeo","suite":"N/A","street":"380 New York Street","point_x":-117.195731667,"geo_precision":"range","state":"CA","point_y":34.056687222},"type":"Feature","geometry":{"type":"Point","coordinates":[-117.19563,34.057167]}},{"properties":{"name":"ESRI-Denver","city":"Broomfield","zip":"80021-3200","xwm":-11701578.2732,"type":"RO","ywm":4854095.65861,"geo_score":0.824,"employees":71.0,"id":"agolfvr2v9h1","suite":"N/A","street":"One International Court","point_x":-105.117066111,"geo_precision":"street","state":"CO","point_y":39.918428889},"type":"Feature","geometry":{"type":"Point","coordinates":[-105.115909,39.920155]}},{"properties":{"name":"ESRI-Olympia","city":"Olympia","zip":"98501-1099","xwm":-13681535.3702,"type":"RO","ywm":5950077.69643,"geo_score":1.0,"employees":38.0,"id":"agolfvyghhz4","suite":"300","street":"606 Columbia Street NW","point_x":-122.903323333,"geo_precision":"range","state":"WA","point_y":47.049011667},"type":"Feature","geometry":{"type":"Point","coordinates":[-122.90266,47.049899]}},{"properties":{"name":"ESRI-Washington, DC","city":"Vienna","zip":"22182-2218","xwm":-8598861.57383,"type":"RO","ywm":4711498.34015,"geo_score":1.0,"employees":183.0,"id":"agolfvzz8anf","suite":"N/A","street":"8615 Westwood Center Dr.","point_x":-77.244887778,"geo_precision":"range","state":"VA","point_y":38.928942778},"type":"Feature","geometry":{"type":"Point","coordinates":[-77.248121,38.928733]}},{"properties":{"name":"ESRI-Charlotte","city":"Charlotte","zip":"28226-3343","xwm":-8992723.3723,"type":"RO","ywm":4177504.16628,"geo_score":1.0,"employees":67.0,"id":"agolfvw0zuci","suite":"200","street":"3325 Springbank Lane","point_x":-80.783008512,"geo_precision":"range","state":"NC","point_y":35.100184504},"type":"Feature","geometry":{"type":"Point","coordinates":[-80.782836,35.100186]}},{"properties":{"name":"ESRI-Minneapolis","city":"St. Paul","zip":"55121-1596","xwm":-10367301.2524,"type":"RO","ywm":5599316.84812,"geo_score":0.961,"employees":44.0,"id":"agolfvwh7ysu","suite":"200","street":"880 Blue Gentian Road","point_x":-93.131051701,"geo_precision":"range","state":"MN","point_y":44.858781462},"type":"Feature","geometry":{"type":"Point","coordinates":[-93.138379,44.860626]}},{"properties":{"name":"ESRI-Philadelphia","city":"Chesterbrook","zip":"19087-5512","xwm":-8400951.22627,"type":"RO","ywm":4875963.06988,"geo_score":0.927,"employees":26.0,"id":"agolfvtychzc","suite":"102","street":"1400 Morris Drive","point_x":-75.467028877,"geo_precision":"range","state":"PA","point_y":40.068923187},"type":"Feature","geometry":{"type":"Point","coordinates":[-75.466505,40.067962]}},{"properties":{"name":"ESRI-San Antonio","city":"San Antonio","zip":"78232-1260","xwm":-10964181.1952,"type":"RO","ywm":3446494.39038,"geo_score":0.77,"employees":35.0,"id":"agolfvvsclzj","suite":"100","street":"227 North Loop 1604 East","point_x":-98.492915455,"geo_precision":"range","state":"TX","point_y":29.555139521},"type":"Feature","geometry":{"type":"Point","coordinates":[-98.491902,29.609026]}},{"properties":{"name":"ESRI-St. Louis","city":"St. Charles","zip":"63301-3306","xwm":-10073449.3176,"type":"RO","ywm":4689875.57255,"geo_score":0.97,"employees":45.0,"id":"agolfvvez3qm","suite":"N/A","street":"820 S Main Street","point_x":-90.491334858,"geo_precision":"range","state":"MO","point_y":38.777677095},"type":"Feature","geometry":{"type":"Point","coordinates":[-90.484474,38.775022]}},{"properties":{"name":"Atlanta Satellite Office","city":"Duluth","zip":"30097","xwm":-9369579.90373,"type":"SAT","ywm":4036485.3263,"geo_score":1.0,"employees":11.0,"id":"agolfvvbrr3l","suite":"230","street":"11465 Johns Creek Pkwy","point_x":-84.168368333,"geo_precision":"range","state":"GA","point_y":34.057201111},"type":"Feature","geometry":{"type":"Point","coordinates":[-84.165688,34.060115]}},{"properties":{"name":"Chicago Satellite Office","city":"Chicago","zip":"60601","xwm":-9755199.77286,"type":"SAT","ywm":5143976.96139,"geo_score":0.604,"employees":7.0,"id":"agolfvu463m6","suite":"863","street":"221 N. LaSalle Street","point_x":-87.632450556,"geo_precision":"street","state":"IL","point_y":41.886393889},"type":"Feature","geometry":{"type":"Point","coordinates":[-87.632435,41.884472]}},{"properties":{"name":"Dallas (Business Map)","city":"Richardson","zip":"75080","xwm":-10767676.8872,"type":"SAT","ywm":3890748.18987,"geo_score":0.932,"employees":11.0,"id":"agolfvv7wbts","suite":"405","street":"1202 Richardson","point_x":-96.727687222,"geo_precision":"range","state":"TX","point_y":32.965670556},"type":"Feature","geometry":{"type":"Point","coordinates":[-96.72841,32.96225]}},{"properties":{"name":"Honolulu Satellite Office","city":"Honolulu","zip":"96814","xwm":-17571205.296,"type":"SAT","ywm":2426965.22453,"geo_score":1.0,"employees":4.0,"id":"agolfvq0ha49","suite":"1110","street":"1357 Kapiolani Blvd.","point_x":-157.844822778,"geo_precision":"range","state":"HI","point_y":21.293962778},"type":"Feature","geometry":{"type":"Point","coordinates":[-157.845708,21.294542]}},{"properties":{"name":"Houston Satellite Office","city":"Sugarland","zip":"77478-3838","xwm":-10645154.2647,"type":"SAT","ywm":3452935.55135,"geo_score":0.99,"employees":5.0,"id":"agolfw28cv16","suite":"D","street":"1 Fluor Daniel Drive","point_x":-95.627047778,"geo_precision":"range","state":"TX","point_y":29.60546},"type":"Feature","geometry":{"type":"Point","coordinates":[-95.627198,29.605257]}},{"properties":{"name":"Johnstown Satellite Office","city":"Johnstown","zip":"15906","xwm":-8786918.28976,"type":"SAT","ywm":4915855.54029,"geo_score":1.0,"employees":11.0,"id":"agolfw0sezjf","suite":"510","street":"1001 Broad Street","point_x":-78.93423,"geo_precision":"range","state":"PA","point_y":40.342613333},"type":"Feature","geometry":{"type":"Point","coordinates":[-78.935358,40.343244]}},{"properties":{"name":"Kansas City Satellite Office","city":"Leawood","zip":"66206-1569","xwm":-10531743.6373,"type":"SAT","ywm":4717545.3089,"geo_score":0.922,"employees":6.0,"id":"agolfvzoscqg","suite":"315","street":"8700 State Line Rd.","point_x":-94.608262778,"geo_precision":"range","state":"KS","point_y":38.971187778},"type":"Feature","geometry":{"type":"Point","coordinates":[-94.60826,38.969811]}},{"properties":{"name":"La Jolla Satellite Office","city":"La Jolla","zip":"92037","xwm":-13050341.1794,"type":"SAT","ywm":3878048.51088,"geo_score":1.0,"employees":13.0,"id":"agolfvu6i5ap","suite":"200","street":"3252 Holiday Court","point_x":-117.233209444,"geo_precision":"range","state":"CA","point_y":32.869903333},"type":"Feature","geometry":{"type":"Point","coordinates":[-117.233006,32.870376]}},{"properties":{"name":"Lodi Sattellite Office","city":"Lodi","zip":"53555","xwm":-9966066.22348,"type":"SAT","ywm":5359897.72726,"geo_score":1.0,"employees":1.0,"id":"agolfvpjnaxv","suite":"304","street":"113 South Main Street","point_x":-89.526696111,"geo_precision":"range","state":"WI","point_y":43.314059444},"type":"Feature","geometry":{"type":"Point","coordinates":[-89.526569,43.313906]}},{"properties":{"name":"New York City Office","city":"New York","zip":"10004-2475","xwm":-8238902.64091,"type":"SAT","ywm":4968913.48015,"geo_score":0.878,"employees":6.0,"id":"agolfvuv89lg","suite":"N/A","street":"75 Broad Street","point_x":-74.011321667,"geo_precision":"range","state":"NY","point_y":40.704913889},"type":"Feature","geometry":{"type":"Point","coordinates":[-74.011642,40.704323]}},{"properties":{"name":"Phoenix Development Office","city":"Phoenix","zip":"85012","xwm":-12475983.3191,"type":"SAT","ywm":3963067.37087,"geo_score":0.946,"employees":2.0,"id":"agolfvv5t1ie","suite":"550","street":"One East Camelback Rd.","point_x":-112.073665,"geo_precision":"street","state":"AZ","point_y":33.509042222},"type":"Feature","geometry":{"type":"Point","coordinates":[-112.072559,33.509271]}},{"properties":{"name":"Portland Satellite Office","city":"Portland","zip":"04101","xwm":-7820309.50579,"type":"SAT","ywm":5412680.93154,"geo_score":1.0,"employees":3.0,"id":"agolfvrcse91","suite":"403","street":"280 Fore Street","point_x":-70.251035556,"geo_precision":"range","state":"ME","point_y":43.658080556},"type":"Feature","geometry":{"type":"Point","coordinates":[-70.250935,43.658778]}},{"properties":{"name":"Sacramento Satellite Office","city":"Sacramento","zip":"95814","xwm":-13523728.6127,"type":"SAT","ywm":4661228.58467,"geo_score":0.679,"employees":6.0,"id":"agolfvx0a31t","suite":"4C","street":"1600 K. Street","point_x":-121.485721111,"geo_precision":"street","state":"CA","point_y":38.576777222},"type":"Feature","geometry":{"type":"Point","coordinates":[-121.495289,38.579563]}},{"properties":{"name":"Seattle Satellite Office","city":"Seattle","zip":"98104","xwm":-13618169.0384,"type":"SAT","ywm":6040320.88143,"geo_score":0.619,"employees":5.0,"id":"agolfw10fzwx","suite":"500","street":"100 S. King Street","point_x":-122.334093889,"geo_precision":"street","state":"WA","point_y":47.59852},"type":"Feature","geometry":{"type":"Point","coordinates":[-122.335561,47.59829]}},{"properties":{"name":"West Palm Beach Satellite","city":"W Palm Beach","zip":"33401","xwm":-8911356.28784,"type":"SAT","ywm":3087483.80907,"geo_score":0.98,"employees":4.0,"id":"agolfw1zwqdg","suite":"300","street":"303 Evernia Street","point_x":-80.052075556,"geo_precision":"range","state":"FL","point_y":26.711582778},"type":"Feature","geometry":{"type":"Point","coordinates":[-80.053553,26.711424]}},{"properties":{"name":"Columbus Satellite Office","city":"Gahanna","zip":"43230-4563","xwm":-9224904.83207,"type":"SAT","ywm":4872987.89733,"geo_score":0.68,"employees":5.0,"id":"agolfvmertip","suite":"A","street":"1085 Beecher Crossing North","point_x":-82.868730052,"geo_precision":"street","state":"OH","point_y":40.048467164},"type":"Feature","geometry":{"type":"Point","coordinates":[-82.864389,40.045708]}},{"properties":{"name":"Nashville Satellite Office","city":"Franklin","zip":"37067-6445","xwm":-9662995.00215,"type":"SAT","ywm":4293859.49014,"geo_score":0.532,"employees":2.0,"id":"agolfvosjol8","suite":"11","street":"321 Billingsly Court","point_x":-86.804161008,"geo_precision":"street","state":"TN","point_y":35.950842557},"type":"Feature","geometry":{"type":"Point","coordinates":[-86.664249,36.076501]}}],"is_temporal":false,"author":{"url":"","metadata":"","contact_name":"","contact_address":"","source":"","contact_phone":""},"source":"","pagination":{"sort":null,"start":0,"total":27,"limit":1000000},"state":"complete","tags":"","published":"2014-08-16T23:29:09-04:00","id":388872}