{"type":"FeatureCollection","data_type":"Dataset","url_type":null,"permissions":[{"permissions":{"download":true,"view":true},"group_id":"everyone"}],"classification":null,"title":"WA Geocommons Test","count":683,"stream_id":388838,"contributor":{"url":"http://geocommons.com/users/79858","name":"dlfillmore"},"data_attributes":null,"calculation_params":null,"icon_link":null,"link":"http://geocommons.com/overlays/388838.json","extent":[0.0,0.0,0.0,0.0],"geometry_types":["point"],"unique_name":null,"name":"WA Geocommons Test","feature_count":683,"description":"","next_feature":null,"is_raster":false,"short_classification":"Y","stats":{},"features":[{"properties":{"zip":"98001","non-subsidy":"65.2%","medicaid":"2.0%","subsidy elig":"32.8%","id":"agoij02u1h59"},"type":"Feature","geometry":null},{"properties":{"zip":"98002","non-subsidy":"11.4%","medicaid":"19.3%","subsidy elig":"69.3%","id":"agoij083dcui"},"type":"Feature","geometry":null},{"properties":{"zip":"98003","non-subsidy":"33.3%","medicaid":"8.5%","subsidy elig":"58.3%","id":"agoij05px662"},"type":"Feature","geometry":null},{"properties":{"zip":"98004","non-subsidy":"93.4%","medicaid":"0.1%","subsidy elig":"6.6%","id":"agoij0464gwj"},"type":"Feature","geometry":null},{"properties":{"zip":"98005","non-subsidy":"91.2%","medicaid":"0.1%","subsidy elig":"8.7%","id":"agoij09aaoxw"},"type":"Feature","geometry":null},{"properties":{"zip":"98006","non-subsidy":"95.6%","medicaid":"0.0%","subsidy elig":"4.4%","id":"agoij025lv3n"},"type":"Feature","geometry":null},{"properties":{"zip":"98007","non-subsidy":"74.7%","medicaid":"0.6%","subsidy elig":"24.8%","id":"agoij012yc2h"},"type":"Feature","geometry":null},{"properties":{"zip":"98008","non-subsidy":"91.9%","medicaid":"0.3%","subsidy elig":"7.9%","id":"agoiizzlmo5l"},"type":"Feature","geometry":null},{"properties":{"zip":"98009","non-subsidy":"78.7%","medicaid":"0.5%","subsidy elig":"20.8%","id":"agoij0aaww6m"},"type":"Feature","geometry":null},{"properties":{"zip":"98010","non-subsidy":"79.2%","medicaid":"0.5%","subsidy elig":"20.2%","id":"agoij09r2okb"},"type":"Feature","geometry":null},{"properties":{"zip":"98011","non-subsidy":"78.0%","medicaid":"0.6%","subsidy elig":"21.4%","id":"agoij09ik4ru"},"type":"Feature","geometry":null},{"properties":{"zip":"98012","non-subsidy":"83.8%","medicaid":"0.4%","subsidy elig":"15.8%","id":"agoij09a33va"},"type":"Feature","geometry":null},{"properties":{"zip":"98013","non-subsidy":"94.5%","medicaid":"0.7%","subsidy elig":"4.8%","id":"agoij08pssk8"},"type":"Feature","geometry":null},{"properties":{"zip":"98014","non-subsidy":"94.3%","medicaid":"0.1%","subsidy elig":"5.7%","id":"agoij0236jya"},"type":"Feature","geometry":null},{"properties":{"zip":"98015","non-subsidy":"93.5%","medicaid":"0.2%","subsidy elig":"6.3%","id":"agoiizz7eot8"},"type":"Feature","geometry":null},{"properties":{"zip":"98019","non-subsidy":"95.7%","medicaid":"0.0%","subsidy elig":"4.3%","id":"agoij00h29j9"},"type":"Feature","geometry":null},{"properties":{"zip":"98020","non-subsidy":"82.5%","medicaid":"0.4%","subsidy elig":"17.0%","id":"agoiizzti2wj"},"type":"Feature","geometry":null},{"properties":{"zip":"98021","non-subsidy":"83.2%","medicaid":"0.8%","subsidy elig":"16.1%","id":"agoij06mhn9v"},"type":"Feature","geometry":null},{"properties":{"zip":"98022","non-subsidy":"56.6%","medicaid":"3.0%","subsidy elig":"40.4%","id":"agoij06szbwv"},"type":"Feature","geometry":null},{"properties":{"zip":"98023","non-subsidy":"61.1%","medicaid":"2.1%","subsidy elig":"36.8%","id":"agoij095t6fo"},"type":"Feature","geometry":null},{"properties":{"zip":"98024","non-subsidy":"92.5%","medicaid":"0.2%","subsidy elig":"7.3%","id":"agoiizzrrz0h"},"type":"Feature","geometry":null},{"properties":{"zip":"98025","non-subsidy":"96.8%","medicaid":"0.0%","subsidy elig":"3.2%","id":"agoij0b4p58u"},"type":"Feature","geometry":null},{"properties":{"zip":"98026","non-subsidy":"71.9%","medicaid":"1.3%","subsidy elig":"26.8%","id":"agoij0ai2jp6"},"type":"Feature","geometry":null},{"properties":{"zip":"98027","non-subsidy":"90.3%","medicaid":"0.3%","subsidy elig":"9.4%","id":"agoij06wpcvp"},"type":"Feature","geometry":null},{"properties":{"zip":"98028","non-subsidy":"80.7%","medicaid":"1.9%","subsidy elig":"17.3%","id":"agoij0a2cxvg"},"type":"Feature","geometry":null},{"properties":{"zip":"98029","non-subsidy":"97.4%","medicaid":"0.3%","subsidy elig":"2.4%","id":"agoij05vn0l0"},"type":"Feature","geometry":null},{"properties":{"zip":"98030","non-subsidy":"37.3%","medicaid":"7.8%","subsidy elig":"55.0%","id":"agoiizyp0u9y"},"type":"Feature","geometry":null},{"properties":{"zip":"98031","non-subsidy":"58.8%","medicaid":"2.8%","subsidy elig":"38.5%","id":"agoiizv9tra0"},"type":"Feature","geometry":null},{"properties":{"zip":"98032","non-subsidy":"36.4%","medicaid":"11.0%","subsidy elig":"52.7%","id":"agoij0a4pevs"},"type":"Feature","geometry":null},{"properties":{"zip":"98033","non-subsidy":"97.5%","medicaid":"0.0%","subsidy elig":"2.5%","id":"agoiizye0rec"},"type":"Feature","geometry":null},{"properties":{"zip":"98034","non-subsidy":"80.8%","medicaid":"0.3%","subsidy elig":"18.9%","id":"agoij06xbg43"},"type":"Feature","geometry":null},{"properties":{"zip":"98035","non-subsidy":"58.7%","medicaid":"1.9%","subsidy elig":"39.4%","id":"agoij05xg4ax"},"type":"Feature","geometry":null},{"properties":{"zip":"98036","non-subsidy":"57.7%","medicaid":"3.3%","subsidy elig":"39.0%","id":"agoij0895s5h"},"type":"Feature","geometry":null},{"properties":{"zip":"98037","non-subsidy":"55.6%","medicaid":"3.5%","subsidy elig":"40.9%","id":"agoij024oox5"},"type":"Feature","geometry":null},{"properties":{"zip":"98038","non-subsidy":"89.5%","medicaid":"0.3%","subsidy elig":"10.3%","id":"agoij03zmibq"},"type":"Feature","geometry":null},{"properties":{"zip":"98039","non-subsidy":"100.0%","medicaid":"0.0%","subsidy elig":"0.0%","id":"agoij03zswh3"},"type":"Feature","geometry":null},{"properties":{"zip":"98040","non-subsidy":"98.9%","medicaid":"0.0%","subsidy elig":"1.1%","id":"agoij07dhvcx"},"type":"Feature","geometry":null},{"properties":{"zip":"98041","non-subsidy":"50.6%","medicaid":"1.6%","subsidy elig":"47.9%","id":"agoij07lyhws"},"type":"Feature","geometry":null},{"properties":{"zip":"98042","non-subsidy":"77.7%","medicaid":"1.0%","subsidy elig":"21.3%","id":"agoiizy7z74f"},"type":"Feature","geometry":null},{"properties":{"zip":"98043","non-subsidy":"51.5%","medicaid":"1.6%","subsidy elig":"47.0%","id":"agoiizyu37ip"},"type":"Feature","geometry":null},{"properties":{"zip":"98045","non-subsidy":"85.9%","medicaid":"0.7%","subsidy elig":"13.4%","id":"agoij0b6c793"},"type":"Feature","geometry":null},{"properties":{"zip":"98046","non-subsidy":"24.9%","medicaid":"5.7%","subsidy elig":"69.4%","id":"agoij07b0n39"},"type":"Feature","geometry":null},{"properties":{"zip":"98047","non-subsidy":"30.2%","medicaid":"5.4%","subsidy elig":"64.4%","id":"agoiizzrdyw7"},"type":"Feature","geometry":null},{"properties":{"zip":"98050","non-subsidy":"98.9%","medicaid":"0.0%","subsidy elig":"1.1%","id":"agoij056fh81"},"type":"Feature","geometry":null},{"properties":{"zip":"98051","non-subsidy":"81.2%","medicaid":"0.6%","subsidy elig":"18.1%","id":"agoiizwhr5zc"},"type":"Feature","geometry":null},{"properties":{"zip":"98052","non-subsidy":"91.1%","medicaid":"0.2%","subsidy elig":"8.7%","id":"agoij07uuf5t"},"type":"Feature","geometry":null},{"properties":{"zip":"98053","non-subsidy":"99.3%","medicaid":"0.0%","subsidy elig":"0.7%","id":"agoiizv0hgth"},"type":"Feature","geometry":null},{"properties":{"zip":"98055","non-subsidy":"51.9%","medicaid":"2.2%","subsidy elig":"45.9%","id":"agoiizw8n31g"},"type":"Feature","geometry":null},{"properties":{"zip":"98056","non-subsidy":"61.3%","medicaid":"2.1%","subsidy elig":"36.6%","id":"agoij08spmvm"},"type":"Feature","geometry":null},{"properties":{"zip":"98057","non-subsidy":"34.3%","medicaid":"5.4%","subsidy elig":"60.3%","id":"agoiizxst3x9"},"type":"Feature","geometry":null},{"properties":{"zip":"98058","non-subsidy":"72.5%","medicaid":"1.4%","subsidy elig":"26.1%","id":"agoij02ng7w1"},"type":"Feature","geometry":null},{"properties":{"zip":"98059","non-subsidy":"82.0%","medicaid":"0.8%","subsidy elig":"17.3%","id":"agoij017ddhk"},"type":"Feature","geometry":null},{"properties":{"zip":"98061","non-subsidy":"98.1%","medicaid":"0.0%","subsidy elig":"1.9%","id":"agoij0akfrrw"},"type":"Feature","geometry":null},{"properties":{"zip":"98062","non-subsidy":"94.3%","medicaid":"1.1%","subsidy elig":"4.6%","id":"agoij08g0rir"},"type":"Feature","geometry":null},{"properties":{"zip":"98063","non-subsidy":"26.0%","medicaid":"6.0%","subsidy elig":"68.0%","id":"agoiizuskuzc"},"type":"Feature","geometry":null},{"properties":{"zip":"98064","non-subsidy":"51.0%","medicaid":"1.9%","subsidy elig":"47.1%","id":"agoiizzajexk"},"type":"Feature","geometry":null},{"properties":{"zip":"98065","non-subsidy":"94.5%","medicaid":"0.1%","subsidy elig":"5.4%","id":"agoiizw40b8g"},"type":"Feature","geometry":null},{"properties":{"zip":"98068","non-subsidy":"78.0%","medicaid":"0.0%","subsidy elig":"22.0%","id":"agoiizwa8s3g"},"type":"Feature","geometry":null},{"properties":{"zip":"98070","non-subsidy":"90.8%","medicaid":"0.2%","subsidy elig":"9.0%","id":"agoij09tomto"},"type":"Feature","geometry":null},{"properties":{"zip":"98071","non-subsidy":"7.0%","medicaid":"26.3%","subsidy elig":"66.7%","id":"agoij0a282me"},"type":"Feature","geometry":null},{"properties":{"zip":"98072","non-subsidy":"89.1%","medicaid":"0.6%","subsidy elig":"10.2%","id":"agoiizvn0hlq"},"type":"Feature","geometry":null},{"properties":{"zip":"98073","non-subsidy":"95.9%","medicaid":"0.0%","subsidy elig":"4.1%","id":"agoij032wrx5"},"type":"Feature","geometry":null},{"properties":{"zip":"98074","non-subsidy":"99.4%","medicaid":"0.0%","subsidy elig":"0.6%","id":"agoiizvntrro"},"type":"Feature","geometry":null},{"properties":{"zip":"98075","non-subsidy":"99.5%","medicaid":"0.0%","subsidy elig":"0.5%","id":"agoij025kh1z"},"type":"Feature","geometry":null},{"properties":{"zip":"98077","non-subsidy":"99.1%","medicaid":"0.0%","subsidy elig":"0.9%","id":"agoij09xjsoe"},"type":"Feature","geometry":null},{"properties":{"zip":"98082","non-subsidy":"86.6%","medicaid":"0.2%","subsidy elig":"13.2%","id":"agoij09gadyu"},"type":"Feature","geometry":null},{"properties":{"zip":"98083","non-subsidy":"97.9%","medicaid":"0.0%","subsidy elig":"2.1%","id":"agoiizxmo832"},"type":"Feature","geometry":null},{"properties":{"zip":"98087","non-subsidy":"49.4%","medicaid":"5.7%","subsidy elig":"44.9%","id":"agoiizvwdhn5"},"type":"Feature","geometry":null},{"properties":{"zip":"98089","non-subsidy":"49.3%","medicaid":"1.0%","subsidy elig":"49.7%","id":"agoiizx0az02"},"type":"Feature","geometry":null},{"properties":{"zip":"98092","non-subsidy":"73.7%","medicaid":"1.3%","subsidy elig":"25.0%","id":"agoij062erwg"},"type":"Feature","geometry":null},{"properties":{"zip":"98093","non-subsidy":"66.6%","medicaid":"1.1%","subsidy elig":"32.3%","id":"agoiizvx2kmy"},"type":"Feature","geometry":null},{"properties":{"zip":"98101","non-subsidy":"53.7%","medicaid":"8.4%","subsidy elig":"37.9%","id":"agoij01h1uer"},"type":"Feature","geometry":null},{"properties":{"zip":"98102","non-subsidy":"68.5%","medicaid":"1.3%","subsidy elig":"30.2%","id":"agoij02i1hwz"},"type":"Feature","geometry":null},{"properties":{"zip":"98103","non-subsidy":"81.1%","medicaid":"0.3%","subsidy elig":"18.7%","id":"agoiizz6d986"},"type":"Feature","geometry":null},{"properties":{"zip":"98104","non-subsidy":"30.7%","medicaid":"18.5%","subsidy elig":"50.7%","id":"agoij00e7498"},"type":"Feature","geometry":null},{"properties":{"zip":"98105","non-subsidy":"61.4%","medicaid":"5.8%","subsidy elig":"32.7%","id":"agoij012th8h"},"type":"Feature","geometry":null},{"properties":{"zip":"98106","non-subsidy":"42.9%","medicaid":"3.7%","subsidy elig":"53.4%","id":"agoij071q7vv"},"type":"Feature","geometry":null},{"properties":{"zip":"98107","non-subsidy":"62.1%","medicaid":"1.7%","subsidy elig":"36.2%","id":"agoiizxf63xj"},"type":"Feature","geometry":null},{"properties":{"zip":"98108","non-subsidy":"31.9%","medicaid":"6.8%","subsidy elig":"61.3%","id":"agoij037pibh"},"type":"Feature","geometry":null},{"properties":{"zip":"98109","non-subsidy":"72.8%","medicaid":"2.1%","subsidy elig":"25.1%","id":"agoiizxy8v9w"},"type":"Feature","geometry":null},{"properties":{"zip":"98110","non-subsidy":"94.8%","medicaid":"0.3%","subsidy elig":"4.9%","id":"agoiizvqu70y"},"type":"Feature","geometry":null},{"properties":{"zip":"98111","non-subsidy":"4.4%","medicaid":"37.5%","subsidy elig":"58.1%","id":"agoij08vktb1"},"type":"Feature","geometry":null},{"properties":{"zip":"98112","non-subsidy":"89.6%","medicaid":"0.2%","subsidy elig":"10.1%","id":"agoij09qhufi"},"type":"Feature","geometry":null},{"properties":{"zip":"98113","non-subsidy":"88.4%","medicaid":"0.5%","subsidy elig":"11.2%","id":"agoiizxx00g1"},"type":"Feature","geometry":null},{"properties":{"zip":"98114","non-subsidy":"8.4%","medicaid":"18.0%","subsidy elig":"73.6%","id":"agoij0a2104i"},"type":"Feature","geometry":null},{"properties":{"zip":"98115","non-subsidy":"90.8%","medicaid":"0.1%","subsidy elig":"9.1%","id":"agoij02lztea"},"type":"Feature","geometry":null},{"properties":{"zip":"98116","non-subsidy":"90.0%","medicaid":"0.2%","subsidy elig":"9.8%","id":"agoij07v90sc"},"type":"Feature","geometry":null},{"properties":{"zip":"98117","non-subsidy":"88.6%","medicaid":"0.2%","subsidy elig":"11.1%","id":"agoiizznw3l2"},"type":"Feature","geometry":null},{"properties":{"zip":"98118","non-subsidy":"47.0%","medicaid":"4.7%","subsidy elig":"48.3%","id":"agoiizzjcbk6"},"type":"Feature","geometry":null},{"properties":{"zip":"98119","non-subsidy":"85.0%","medicaid":"0.1%","subsidy elig":"14.9%","id":"agoiizysh461"},"type":"Feature","geometry":null},{"properties":{"zip":"98121","non-subsidy":"65.3%","medicaid":"1.9%","subsidy elig":"32.8%","id":"agoij07z9v52"},"type":"Feature","geometry":null},{"properties":{"zip":"98122","non-subsidy":"47.7%","medicaid":"3.1%","subsidy elig":"49.1%","id":"agoiizwe4e0s"},"type":"Feature","geometry":null},{"properties":{"zip":"98124","non-subsidy":"62.7%","medicaid":"1.1%","subsidy elig":"36.1%","id":"agoij08ajnbm"},"type":"Feature","geometry":null},{"properties":{"zip":"98125","non-subsidy":"54.0%","medicaid":"3.6%","subsidy elig":"42.4%","id":"agoiizxz3ydd"},"type":"Feature","geometry":null},{"properties":{"zip":"98126","non-subsidy":"70.6%","medicaid":"2.9%","subsidy elig":"26.5%","id":"agoiizxaxfdr"},"type":"Feature","geometry":null},{"properties":{"zip":"98127","non-subsidy":"50.4%","medicaid":"1.2%","subsidy elig":"48.4%","id":"agoiizwkfo2t"},"type":"Feature","geometry":null},{"properties":{"zip":"98133","non-subsidy":"49.0%","medicaid":"3.2%","subsidy elig":"47.8%","id":"agoij0auv3bm"},"type":"Feature","geometry":null},{"properties":{"zip":"98134","non-subsidy":"55.1%","medicaid":"2.4%","subsidy elig":"42.5%","id":"agoiizx1gqu8"},"type":"Feature","geometry":null},{"properties":{"zip":"98136","non-subsidy":"88.9%","medicaid":"0.2%","subsidy elig":"10.9%","id":"agoiizxvp7nx"},"type":"Feature","geometry":null},{"properties":{"zip":"98138","non-subsidy":"85.9%","medicaid":"0.0%","subsidy elig":"14.1%","id":"agoij018l9pn"},"type":"Feature","geometry":null},{"properties":{"zip":"98139","non-subsidy":"98.9%","medicaid":"0.0%","subsidy elig":"1.1%","id":"agoij09x14pd"},"type":"Feature","geometry":null},{"properties":{"zip":"98141","non-subsidy":"5.3%","medicaid":"17.5%","subsidy elig":"77.2%","id":"agoij0a4x6hk"},"type":"Feature","geometry":null},{"properties":{"zip":"98144","non-subsidy":"58.3%","medicaid":"2.4%","subsidy elig":"39.3%","id":"agoij03dkv76"},"type":"Feature","geometry":null},{"properties":{"zip":"98145","non-subsidy":"7.6%","medicaid":"18.7%","subsidy elig":"73.7%","id":"agoiizxhqawq"},"type":"Feature","geometry":null},{"properties":{"zip":"98146","non-subsidy":"47.4%","medicaid":"5.0%","subsidy elig":"47.5%","id":"agoiizxdulc3"},"type":"Feature","geometry":null},{"properties":{"zip":"98148","non-subsidy":"25.9%","medicaid":"8.9%","subsidy elig":"65.2%","id":"agoiizxucr0t"},"type":"Feature","geometry":null},{"properties":{"zip":"98154","non-subsidy":"28.6%","medicaid":"12.7%","subsidy elig":"58.7%","id":"agoiizvvzgde"},"type":"Feature","geometry":null},{"properties":{"zip":"98155","non-subsidy":"72.8%","medicaid":"1.3%","subsidy elig":"25.9%","id":"agoiizw8f16a"},"type":"Feature","geometry":null},{"properties":{"zip":"98158","non-subsidy":"58.3%","medicaid":"0.0%","subsidy elig":"41.7%","id":"agoij05fq222"},"type":"Feature","geometry":null},{"properties":{"zip":"98160","non-subsidy":"98.5%","medicaid":"0.0%","subsidy elig":"1.5%","id":"agoiizzfyars"},"type":"Feature","geometry":null},{"properties":{"zip":"98161","non-subsidy":"36.4%","medicaid":"9.1%","subsidy elig":"54.5%","id":"agoij045xb08"},"type":"Feature","geometry":null},{"properties":{"zip":"98164","non-subsidy":"35.4%","medicaid":"9.8%","subsidy elig":"54.9%","id":"agoiizz52ant"},"type":"Feature","geometry":null},{"properties":{"zip":"98165","non-subsidy":"58.4%","medicaid":"1.9%","subsidy elig":"39.7%","id":"agoiizxgyozd"},"type":"Feature","geometry":null},{"properties":{"zip":"98166","non-subsidy":"62.5%","medicaid":"4.8%","subsidy elig":"32.7%","id":"agoij014433o"},"type":"Feature","geometry":null},{"properties":{"zip":"98168","non-subsidy":"25.9%","medicaid":"7.5%","subsidy elig":"66.6%","id":"agoij002j60l"},"type":"Feature","geometry":null},{"properties":{"zip":"98175","non-subsidy":"14.7%","medicaid":"19.4%","subsidy elig":"65.9%","id":"agoij04ao0kc"},"type":"Feature","geometry":null},{"properties":{"zip":"98177","non-subsidy":"90.1%","medicaid":"0.2%","subsidy elig":"9.7%","id":"agoiizyrhcqa"},"type":"Feature","geometry":null},{"properties":{"zip":"98178","non-subsidy":"52.6%","medicaid":"3.0%","subsidy elig":"44.5%","id":"agoiizvthes5"},"type":"Feature","geometry":null},{"properties":{"zip":"98188","non-subsidy":"29.0%","medicaid":"9.2%","subsidy elig":"61.7%","id":"agoij07azvon"},"type":"Feature","geometry":null},{"properties":{"zip":"98194","non-subsidy":"97.7%","medicaid":"0.5%","subsidy elig":"1.9%","id":"agoij08f23o3"},"type":"Feature","geometry":null},{"properties":{"zip":"98198","non-subsidy":"45.3%","medicaid":"7.2%","subsidy elig":"47.4%","id":"agoiizv930a6"},"type":"Feature","geometry":null},{"properties":{"zip":"98199","non-subsidy":"89.0%","medicaid":"0.1%","subsidy elig":"10.8%","id":"agoij07agsij"},"type":"Feature","geometry":null},{"properties":{"zip":"98201","non-subsidy":"21.9%","medicaid":"15.3%","subsidy elig":"62.8%","id":"agoiizyodoxx"},"type":"Feature","geometry":null},{"properties":{"zip":"98203","non-subsidy":"52.9%","medicaid":"3.9%","subsidy elig":"43.2%","id":"agoij01zu0je"},"type":"Feature","geometry":null},{"properties":{"zip":"98204","non-subsidy":"14.6%","medicaid":"16.5%","subsidy elig":"68.9%","id":"agoiizv15vkr"},"type":"Feature","geometry":null},{"properties":{"zip":"98206","non-subsidy":"92.5%","medicaid":"0.2%","subsidy elig":"7.4%","id":"agoij08uqo71"},"type":"Feature","geometry":null},{"properties":{"zip":"98208","non-subsidy":"57.9%","medicaid":"5.4%","subsidy elig":"36.7%","id":"agoij05u1jjk"},"type":"Feature","geometry":null},{"properties":{"zip":"98213","non-subsidy":"11.2%","medicaid":"18.8%","subsidy elig":"70.1%","id":"agoij088zkop"},"type":"Feature","geometry":null},{"properties":{"zip":"98220","non-subsidy":"37.1%","medicaid":"7.1%","subsidy elig":"55.8%","id":"agoiizy5l1kw"},"type":"Feature","geometry":null},{"properties":{"zip":"98221","non-subsidy":"57.2%","medicaid":"4.1%","subsidy elig":"38.7%","id":"agoiizvd9r3d"},"type":"Feature","geometry":null},{"properties":{"zip":"98222","non-subsidy":"40.0%","medicaid":"0.0%","subsidy elig":"60.0%","id":"agoij03v8opr"},"type":"Feature","geometry":null},{"properties":{"zip":"98223","non-subsidy":"52.6%","medicaid":"4.5%","subsidy elig":"43.0%","id":"agoij0amszvp"},"type":"Feature","geometry":null},{"properties":{"zip":"98224","non-subsidy":"10.6%","medicaid":"15.2%","subsidy elig":"74.2%","id":"agoiizveiuxj"},"type":"Feature","geometry":null},{"properties":{"zip":"98225","non-subsidy":"15.7%","medicaid":"25.2%","subsidy elig":"59.1%","id":"agoij05ptlxk"},"type":"Feature","geometry":null},{"properties":{"zip":"98226","non-subsidy":"36.8%","medicaid":"7.1%","subsidy elig":"56.1%","id":"agoij061av27"},"type":"Feature","geometry":null},{"properties":{"zip":"98227","non-subsidy":"7.1%","medicaid":"28.8%","subsidy elig":"64.2%","id":"agoiizw5ftfd"},"type":"Feature","geometry":null},{"properties":{"zip":"98228","non-subsidy":"27.8%","medicaid":"5.4%","subsidy elig":"66.8%","id":"agoij01n7r3o"},"type":"Feature","geometry":null},{"properties":{"zip":"98229","non-subsidy":"48.1%","medicaid":"6.3%","subsidy elig":"45.6%","id":"agoij03au6ka"},"type":"Feature","geometry":null},{"properties":{"zip":"98230","non-subsidy":"44.1%","medicaid":"7.4%","subsidy elig":"48.5%","id":"agoiizywgj2h"},"type":"Feature","geometry":null},{"properties":{"zip":"98231","non-subsidy":"26.9%","medicaid":"8.2%","subsidy elig":"64.9%","id":"agoij006h3ze"},"type":"Feature","geometry":null},{"properties":{"zip":"98232","non-subsidy":"75.1%","medicaid":"1.4%","subsidy elig":"23.5%","id":"agoiizx64jgn"},"type":"Feature","geometry":null},{"properties":{"zip":"98233","non-subsidy":"27.6%","medicaid":"8.9%","subsidy elig":"63.5%","id":"agoij00uz2id"},"type":"Feature","geometry":null},{"properties":{"zip":"98235","non-subsidy":"42.4%","medicaid":"3.3%","subsidy elig":"54.3%","id":"agoij09musjs"},"type":"Feature","geometry":null},{"properties":{"zip":"98236","non-subsidy":"70.2%","medicaid":"1.1%","subsidy elig":"28.7%","id":"agoiizx8ob7y"},"type":"Feature","geometry":null},{"properties":{"zip":"98237","non-subsidy":"7.6%","medicaid":"27.2%","subsidy elig":"65.3%","id":"agoiizybivab"},"type":"Feature","geometry":null},{"properties":{"zip":"98238","non-subsidy":"66.4%","medicaid":"0.0%","subsidy elig":"33.6%","id":"agoiizxvagli"},"type":"Feature","geometry":null},{"properties":{"zip":"98239","non-subsidy":"55.1%","medicaid":"4.2%","subsidy elig":"40.7%","id":"agoij02usyho"},"type":"Feature","geometry":null},{"properties":{"zip":"98240","non-subsidy":"50.4%","medicaid":"1.9%","subsidy elig":"47.7%","id":"agoij045aq1y"},"type":"Feature","geometry":null},{"properties":{"zip":"98241","non-subsidy":"14.4%","medicaid":"16.9%","subsidy elig":"68.7%","id":"agoiizxdxe3f"},"type":"Feature","geometry":null},{"properties":{"zip":"98243","non-subsidy":"82.3%","medicaid":"0.0%","subsidy elig":"17.7%","id":"agoij01js97e"},"type":"Feature","geometry":null},{"properties":{"zip":"98244","non-subsidy":"43.9%","medicaid":"3.5%","subsidy elig":"52.6%","id":"agoij01swrrp"},"type":"Feature","geometry":null},{"properties":{"zip":"98245","non-subsidy":"71.0%","medicaid":"1.9%","subsidy elig":"27.1%","id":"agoiizuuccag"},"type":"Feature","geometry":null},{"properties":{"zip":"98247","non-subsidy":"35.2%","medicaid":"4.6%","subsidy elig":"60.2%","id":"agoij05w84cq"},"type":"Feature","geometry":null},{"properties":{"zip":"98248","non-subsidy":"38.9%","medicaid":"6.8%","subsidy elig":"54.3%","id":"agoij05u860w"},"type":"Feature","geometry":null},{"properties":{"zip":"98249","non-subsidy":"67.1%","medicaid":"1.4%","subsidy elig":"31.6%","id":"agoij02pkid2"},"type":"Feature","geometry":null},{"properties":{"zip":"98250","non-subsidy":"73.2%","medicaid":"1.6%","subsidy elig":"25.2%","id":"agoij026j13s"},"type":"Feature","geometry":null},{"properties":{"zip":"98251","non-subsidy":"43.2%","medicaid":"4.8%","subsidy elig":"52.0%","id":"agoij05crevk"},"type":"Feature","geometry":null},{"properties":{"zip":"98252","non-subsidy":"48.2%","medicaid":"3.6%","subsidy elig":"48.3%","id":"agoij0a9t6k8"},"type":"Feature","geometry":null},{"properties":{"zip":"98253","non-subsidy":"75.1%","medicaid":"0.9%","subsidy elig":"24.0%","id":"agoij04y7ji1"},"type":"Feature","geometry":null},{"properties":{"zip":"98255","non-subsidy":"11.1%","medicaid":"20.6%","subsidy elig":"68.3%","id":"agoiizzq47me"},"type":"Feature","geometry":null},{"properties":{"zip":"98256","non-subsidy":"50.8%","medicaid":"3.9%","subsidy elig":"45.3%","id":"agoij03gmica"},"type":"Feature","geometry":null},{"properties":{"zip":"98257","non-subsidy":"54.2%","medicaid":"3.0%","subsidy elig":"42.7%","id":"agoij00nei7p"},"type":"Feature","geometry":null},{"properties":{"zip":"98258","non-subsidy":"60.6%","medicaid":"2.3%","subsidy elig":"37.1%","id":"agoiizvuyrm3"},"type":"Feature","geometry":null},{"properties":{"zip":"98259","non-subsidy":"65.2%","medicaid":"3.4%","subsidy elig":"31.5%","id":"agoiizylem5l"},"type":"Feature","geometry":null},{"properties":{"zip":"98260","non-subsidy":"65.7%","medicaid":"1.3%","subsidy elig":"33.0%","id":"agoiizvvrmh8"},"type":"Feature","geometry":null},{"properties":{"zip":"98261","non-subsidy":"80.8%","medicaid":"1.0%","subsidy elig":"18.2%","id":"agoiizzw09i5"},"type":"Feature","geometry":null},{"properties":{"zip":"98262","non-subsidy":"79.4%","medicaid":"0.6%","subsidy elig":"20.0%","id":"agoij0949x3y"},"type":"Feature","geometry":null},{"properties":{"zip":"98263","non-subsidy":"15.6%","medicaid":"15.6%","subsidy elig":"68.8%","id":"agoiizvqznj8"},"type":"Feature","geometry":null},{"properties":{"zip":"98264","non-subsidy":"40.6%","medicaid":"4.5%","subsidy elig":"54.8%","id":"agoiizwbqa8r"},"type":"Feature","geometry":null},{"properties":{"zip":"98266","non-subsidy":"7.0%","medicaid":"31.0%","subsidy elig":"62.0%","id":"agoij06i907c"},"type":"Feature","geometry":null},{"properties":{"zip":"98267","non-subsidy":"24.4%","medicaid":"10.1%","subsidy elig":"65.5%","id":"agoij00stnoe"},"type":"Feature","geometry":null},{"properties":{"zip":"98270","non-subsidy":"47.0%","medicaid":"6.4%","subsidy elig":"46.6%","id":"agoiizz9zg01"},"type":"Feature","geometry":null},{"properties":{"zip":"98271","non-subsidy":"49.6%","medicaid":"3.6%","subsidy elig":"46.8%","id":"agoij09pdg9y"},"type":"Feature","geometry":null},{"properties":{"zip":"98272","non-subsidy":"65.3%","medicaid":"2.3%","subsidy elig":"32.4%","id":"agoij08qtl5l"},"type":"Feature","geometry":null},{"properties":{"zip":"98273","non-subsidy":"27.5%","medicaid":"14.1%","subsidy elig":"58.4%","id":"agoij09ml3fj"},"type":"Feature","geometry":null},{"properties":{"zip":"98274","non-subsidy":"49.2%","medicaid":"3.9%","subsidy elig":"46.9%","id":"agoij03kcgz9"},"type":"Feature","geometry":null},{"properties":{"zip":"98275","non-subsidy":"85.7%","medicaid":"0.5%","subsidy elig":"13.8%","id":"agoiizyfbr74"},"type":"Feature","geometry":null},{"properties":{"zip":"98276","non-subsidy":"4.6%","medicaid":"63.5%","subsidy elig":"31.9%","id":"agoiizzmkt2o"},"type":"Feature","geometry":null},{"properties":{"zip":"98277","non-subsidy":"29.7%","medicaid":"11.0%","subsidy elig":"59.2%","id":"agoij08xk1xe"},"type":"Feature","geometry":null},{"properties":{"zip":"98279","non-subsidy":"91.8%","medicaid":"0.0%","subsidy elig":"8.2%","id":"agoij0643qrh"},"type":"Feature","geometry":null},{"properties":{"zip":"98280","non-subsidy":"82.8%","medicaid":"0.9%","subsidy elig":"16.4%","id":"agoiizzbpvvu"},"type":"Feature","geometry":null},{"properties":{"zip":"98281","non-subsidy":"61.1%","medicaid":"4.4%","subsidy elig":"34.5%","id":"agoij09i2s6n"},"type":"Feature","geometry":null},{"properties":{"zip":"98282","non-subsidy":"69.4%","medicaid":"1.1%","subsidy elig":"29.5%","id":"agoiizzqwe4s"},"type":"Feature","geometry":null},{"properties":{"zip":"98283","non-subsidy":"26.1%","medicaid":"11.2%","subsidy elig":"62.7%","id":"agoij0as91fh"},"type":"Feature","geometry":null},{"properties":{"zip":"98284","non-subsidy":"29.4%","medicaid":"10.6%","subsidy elig":"60.0%","id":"agoiizxgt3os"},"type":"Feature","geometry":null},{"properties":{"zip":"98286","non-subsidy":"82.4%","medicaid":"0.0%","subsidy elig":"17.6%","id":"agoij06zitla"},"type":"Feature","geometry":null},{"properties":{"zip":"98287","non-subsidy":"69.9%","medicaid":"2.4%","subsidy elig":"27.6%","id":"agoij076f9m7"},"type":"Feature","geometry":null},{"properties":{"zip":"98288","non-subsidy":"30.2%","medicaid":"7.3%","subsidy elig":"62.5%","id":"agoiizwi6ov1"},"type":"Feature","geometry":null},{"properties":{"zip":"98290","non-subsidy":"73.4%","medicaid":"1.6%","subsidy elig":"25.0%","id":"agoij0awopfi"},"type":"Feature","geometry":null},{"properties":{"zip":"98291","non-subsidy":"45.1%","medicaid":"3.1%","subsidy elig":"51.8%","id":"agoij02hxwa8"},"type":"Feature","geometry":null},{"properties":{"zip":"98292","non-subsidy":"61.2%","medicaid":"2.7%","subsidy elig":"36.2%","id":"agoij0b4yv5c"},"type":"Feature","geometry":null},{"properties":{"zip":"98293","non-subsidy":"29.2%","medicaid":"12.3%","subsidy elig":"58.5%","id":"agoiizxkjsq9"},"type":"Feature","geometry":null},{"properties":{"zip":"98294","non-subsidy":"48.7%","medicaid":"3.3%","subsidy elig":"48.0%","id":"agoiizw4jgmu"},"type":"Feature","geometry":null},{"properties":{"zip":"98295","non-subsidy":"13.3%","medicaid":"12.6%","subsidy elig":"74.2%","id":"agoij09eb36h"},"type":"Feature","geometry":null},{"properties":{"zip":"98296","non-subsidy":"95.1%","medicaid":"0.1%","subsidy elig":"4.8%","id":"agoij08o0ojg"},"type":"Feature","geometry":null},{"properties":{"zip":"98297","non-subsidy":"0.0%","medicaid":"30.8%","subsidy elig":"69.2%","id":"agoij019pymu"},"type":"Feature","geometry":null},{"properties":{"zip":"98303","non-subsidy":"57.7%","medicaid":"3.9%","subsidy elig":"38.4%","id":"agoiizvor863"},"type":"Feature","geometry":null},{"properties":{"zip":"98304","non-subsidy":"21.7%","medicaid":"13.3%","subsidy elig":"65.0%","id":"agoij03by29k"},"type":"Feature","geometry":null},{"properties":{"zip":"98305","non-subsidy":"11.1%","medicaid":"21.4%","subsidy elig":"67.5%","id":"agoiizvrhkl5"},"type":"Feature","geometry":null},{"properties":{"zip":"98310","non-subsidy":"20.0%","medicaid":"16.3%","subsidy elig":"63.7%","id":"agoij02rrlz1"},"type":"Feature","geometry":null},{"properties":{"zip":"98311","non-subsidy":"49.5%","medicaid":"3.8%","subsidy elig":"46.7%","id":"agoij01hs9kn"},"type":"Feature","geometry":null},{"properties":{"zip":"98312","non-subsidy":"31.1%","medicaid":"11.0%","subsidy elig":"57.9%","id":"agoij05u33cv"},"type":"Feature","geometry":null},{"properties":{"zip":"98315","non-subsidy":"2.5%","medicaid":"14.3%","subsidy elig":"83.2%","id":"agoij068vpql"},"type":"Feature","geometry":null},{"properties":{"zip":"98320","non-subsidy":"6.7%","medicaid":"32.9%","subsidy elig":"60.4%","id":"agoiizypjnrx"},"type":"Feature","geometry":null},{"properties":{"zip":"98321","non-subsidy":"53.5%","medicaid":"2.5%","subsidy elig":"44.0%","id":"agoij09vfcc4"},"type":"Feature","geometry":null},{"properties":{"zip":"98322","non-subsidy":"59.1%","medicaid":"1.6%","subsidy elig":"39.3%","id":"agoij0avd1xb"},"type":"Feature","geometry":null},{"properties":{"zip":"98323","non-subsidy":"41.1%","medicaid":"4.8%","subsidy elig":"54.0%","id":"agoiizzduf0u"},"type":"Feature","geometry":null},{"properties":{"zip":"98324","non-subsidy":"21.8%","medicaid":"12.7%","subsidy elig":"65.5%","id":"agoij0axe59y"},"type":"Feature","geometry":null},{"properties":{"zip":"98325","non-subsidy":"34.5%","medicaid":"8.9%","subsidy elig":"56.5%","id":"agoij0066x3e"},"type":"Feature","geometry":null},{"properties":{"zip":"98326","non-subsidy":"7.8%","medicaid":"36.4%","subsidy elig":"55.8%","id":"agoiizzfh2ka"},"type":"Feature","geometry":null},{"properties":{"zip":"98327","non-subsidy":"74.8%","medicaid":"0.8%","subsidy elig":"24.4%","id":"agoij01nxiqm"},"type":"Feature","geometry":null},{"properties":{"zip":"98328","non-subsidy":"48.3%","medicaid":"4.1%","subsidy elig":"47.7%","id":"agoij095zzou"},"type":"Feature","geometry":null},{"properties":{"zip":"98329","non-subsidy":"51.4%","medicaid":"4.0%","subsidy elig":"44.6%","id":"agoij08ie4bq"},"type":"Feature","geometry":null},{"properties":{"zip":"98330","non-subsidy":"4.2%","medicaid":"32.3%","subsidy elig":"63.5%","id":"agoij07u3a70"},"type":"Feature","geometry":null},{"properties":{"zip":"98331","non-subsidy":"5.4%","medicaid":"32.8%","subsidy elig":"61.7%","id":"agoiizxa4q7p"},"type":"Feature","geometry":null},{"properties":{"zip":"98332","non-subsidy":"84.3%","medicaid":"0.4%","subsidy elig":"15.3%","id":"agoiizzichn5"},"type":"Feature","geometry":null},{"properties":{"zip":"98333","non-subsidy":"96.0%","medicaid":"0.0%","subsidy elig":"4.0%","id":"agoij080dw70"},"type":"Feature","geometry":null},{"properties":{"zip":"98335","non-subsidy":"80.5%","medicaid":"0.9%","subsidy elig":"18.6%","id":"agoij02i6k74"},"type":"Feature","geometry":null},{"properties":{"zip":"98336","non-subsidy":"4.2%","medicaid":"48.4%","subsidy elig":"47.4%","id":"agoij03khzh0"},"type":"Feature","geometry":null},{"properties":{"zip":"98337","non-subsidy":"5.6%","medicaid":"34.4%","subsidy elig":"60.0%","id":"agoij05xg7zq"},"type":"Feature","geometry":null},{"properties":{"zip":"98338","non-subsidy":"47.0%","medicaid":"3.8%","subsidy elig":"49.3%","id":"agoij06lgibk"},"type":"Feature","geometry":null},{"properties":{"zip":"98339","non-subsidy":"6.6%","medicaid":"26.9%","subsidy elig":"66.5%","id":"agoij00iwup7"},"type":"Feature","geometry":null},{"properties":{"zip":"98340","non-subsidy":"84.7%","medicaid":"0.3%","subsidy elig":"15.0%","id":"agoij02fmz31"},"type":"Feature","geometry":null},{"properties":{"zip":"98342","non-subsidy":"70.4%","medicaid":"1.3%","subsidy elig":"28.4%","id":"agoij04njbvl"},"type":"Feature","geometry":null},{"properties":{"zip":"98343","non-subsidy":"14.5%","medicaid":"12.9%","subsidy elig":"72.6%","id":"agoij02usan0"},"type":"Feature","geometry":null},{"properties":{"zip":"98344","non-subsidy":"39.2%","medicaid":"10.5%","subsidy elig":"50.3%","id":"agoij02hkf7j"},"type":"Feature","geometry":null},{"properties":{"zip":"98345","non-subsidy":"85.0%","medicaid":"0.3%","subsidy elig":"14.7%","id":"agoij09pdyv8"},"type":"Feature","geometry":null},{"properties":{"zip":"98346","non-subsidy":"61.8%","medicaid":"3.1%","subsidy elig":"35.1%","id":"agoij02be2gw"},"type":"Feature","geometry":null},{"properties":{"zip":"98348","non-subsidy":"66.7%","medicaid":"0.0%","subsidy elig":"33.3%","id":"agoij012logu"},"type":"Feature","geometry":null},{"properties":{"zip":"98349","non-subsidy":"40.6%","medicaid":"7.2%","subsidy elig":"52.2%","id":"agoij031qppe"},"type":"Feature","geometry":null},{"properties":{"zip":"98350","non-subsidy":"5.5%","medicaid":"30.0%","subsidy elig":"64.5%","id":"agoij04fl2ht"},"type":"Feature","geometry":null},{"properties":{"zip":"98351","non-subsidy":"48.1%","medicaid":"5.8%","subsidy elig":"46.2%","id":"agoiizw4x8v8"},"type":"Feature","geometry":null},{"properties":{"zip":"98353","non-subsidy":"84.6%","medicaid":"0.4%","subsidy elig":"15.0%","id":"agoij09mgagy"},"type":"Feature","geometry":null},{"properties":{"zip":"98354","non-subsidy":"46.5%","medicaid":"3.1%","subsidy elig":"50.4%","id":"agoij05lbgfd"},"type":"Feature","geometry":null},{"properties":{"zip":"98355","non-subsidy":"4.8%","medicaid":"34.9%","subsidy elig":"60.3%","id":"agoij0b7rajc"},"type":"Feature","geometry":null},{"properties":{"zip":"98356","non-subsidy":"5.1%","medicaid":"32.1%","subsidy elig":"62.8%","id":"agoij08z5jd4"},"type":"Feature","geometry":null},{"properties":{"zip":"98357","non-subsidy":"0.7%","medicaid":"42.8%","subsidy elig":"56.5%","id":"agoij04g7vew"},"type":"Feature","geometry":null},{"properties":{"zip":"98358","non-subsidy":"74.0%","medicaid":"0.5%","subsidy elig":"25.5%","id":"agoij040fs4v"},"type":"Feature","geometry":null},{"properties":{"zip":"98359","non-subsidy":"50.2%","medicaid":"3.6%","subsidy elig":"46.3%","id":"agoij09g1znx"},"type":"Feature","geometry":null},{"properties":{"zip":"98360","non-subsidy":"51.7%","medicaid":"4.9%","subsidy elig":"43.3%","id":"agoij017rtg2"},"type":"Feature","geometry":null},{"properties":{"zip":"98361","non-subsidy":"9.8%","medicaid":"28.2%","subsidy elig":"62.0%","id":"agoij0b6zyaq"},"type":"Feature","geometry":null},{"properties":{"zip":"98362","non-subsidy":"21.0%","medicaid":"15.8%","subsidy elig":"63.1%","id":"agoij027kni2"},"type":"Feature","geometry":null},{"properties":{"zip":"98363","non-subsidy":"17.7%","medicaid":"18.4%","subsidy elig":"63.9%","id":"agoiizzlgfbs"},"type":"Feature","geometry":null},{"properties":{"zip":"98364","non-subsidy":"80.2%","medicaid":"0.0%","subsidy elig":"19.8%","id":"agoij09e6vmo"},"type":"Feature","geometry":null},{"properties":{"zip":"98365","non-subsidy":"78.1%","medicaid":"0.6%","subsidy elig":"21.3%","id":"agoij030r2ip"},"type":"Feature","geometry":null},{"properties":{"zip":"98366","non-subsidy":"36.6%","medicaid":"8.0%","subsidy elig":"55.4%","id":"agoiizzf64sq"},"type":"Feature","geometry":null},{"properties":{"zip":"98367","non-subsidy":"55.6%","medicaid":"2.8%","subsidy elig":"41.7%","id":"agoij07p2hcn"},"type":"Feature","geometry":null},{"properties":{"zip":"98368","non-subsidy":"32.5%","medicaid":"8.0%","subsidy elig":"59.4%","id":"agoij0admb61"},"type":"Feature","geometry":null},{"properties":{"zip":"98370","non-subsidy":"66.3%","medicaid":"2.1%","subsidy elig":"31.6%","id":"agoij07uyqo8"},"type":"Feature","geometry":null},{"properties":{"zip":"98371","non-subsidy":"41.5%","medicaid":"6.7%","subsidy elig":"51.8%","id":"agoiizxp46b4"},"type":"Feature","geometry":null},{"properties":{"zip":"98372","non-subsidy":"35.3%","medicaid":"9.5%","subsidy elig":"55.2%","id":"agoiizv1l8tl"},"type":"Feature","geometry":null},{"properties":{"zip":"98373","non-subsidy":"47.8%","medicaid":"3.3%","subsidy elig":"48.9%","id":"agoij03n078i"},"type":"Feature","geometry":null},{"properties":{"zip":"98374","non-subsidy":"58.2%","medicaid":"4.2%","subsidy elig":"37.6%","id":"agoij03jz5t1"},"type":"Feature","geometry":null},{"properties":{"zip":"98375","non-subsidy":"52.9%","medicaid":"2.7%","subsidy elig":"44.4%","id":"agoij05fr0jn"},"type":"Feature","geometry":null},{"properties":{"zip":"98376","non-subsidy":"37.9%","medicaid":"6.4%","subsidy elig":"55.8%","id":"agoij03x8729"},"type":"Feature","geometry":null},{"properties":{"zip":"98377","non-subsidy":"4.4%","medicaid":"40.6%","subsidy elig":"55.0%","id":"agoij07w8g12"},"type":"Feature","geometry":null},{"properties":{"zip":"98378","non-subsidy":"0.0%","medicaid":"55.6%","subsidy elig":"44.4%","id":"agoij03lnwwt"},"type":"Feature","geometry":null},{"properties":{"zip":"98380","non-subsidy":"68.7%","medicaid":"1.0%","subsidy elig":"30.3%","id":"agoij04wiie0"},"type":"Feature","geometry":null},{"properties":{"zip":"98381","non-subsidy":"6.0%","medicaid":"33.0%","subsidy elig":"61.0%","id":"agoiizvpi8cb"},"type":"Feature","geometry":null},{"properties":{"zip":"98382","non-subsidy":"23.9%","medicaid":"18.9%","subsidy elig":"57.2%","id":"agoij06chkbs"},"type":"Feature","geometry":null},{"properties":{"zip":"98383","non-subsidy":"50.5%","medicaid":"3.5%","subsidy elig":"46.0%","id":"agoij03avoa1"},"type":"Feature","geometry":null},{"properties":{"zip":"98384","non-subsidy":"80.7%","medicaid":"0.8%","subsidy elig":"18.5%","id":"agoij0453kme"},"type":"Feature","geometry":null},{"properties":{"zip":"98385","non-subsidy":"29.3%","medicaid":"7.5%","subsidy elig":"63.2%","id":"agoij07kxdty"},"type":"Feature","geometry":null},{"properties":{"zip":"98386","non-subsidy":"82.4%","medicaid":"0.9%","subsidy elig":"16.7%","id":"agoij09zedrr"},"type":"Feature","geometry":null},{"properties":{"zip":"98387","non-subsidy":"35.4%","medicaid":"8.6%","subsidy elig":"56.1%","id":"agoij04lppgr"},"type":"Feature","geometry":null},{"properties":{"zip":"98388","non-subsidy":"68.2%","medicaid":"1.6%","subsidy elig":"30.2%","id":"agoij09fpgsg"},"type":"Feature","geometry":null},{"properties":{"zip":"98390","non-subsidy":"31.1%","medicaid":"8.2%","subsidy elig":"60.7%","id":"agoij084xeli"},"type":"Feature","geometry":null},{"properties":{"zip":"98391","non-subsidy":"69.1%","medicaid":"1.9%","subsidy elig":"29.0%","id":"agoiizysvjkf"},"type":"Feature","geometry":null},{"properties":{"zip":"98392","non-subsidy":"41.0%","medicaid":"4.2%","subsidy elig":"54.8%","id":"agoiizuqbecq"},"type":"Feature","geometry":null},{"properties":{"zip":"98393","non-subsidy":"71.6%","medicaid":"1.9%","subsidy elig":"26.5%","id":"agoiizy5pzia"},"type":"Feature","geometry":null},{"properties":{"zip":"98394","non-subsidy":"58.2%","medicaid":"3.1%","subsidy elig":"38.6%","id":"agoiizz9lppp"},"type":"Feature","geometry":null},{"properties":{"zip":"98395","non-subsidy":"45.3%","medicaid":"4.0%","subsidy elig":"50.6%","id":"agoij06i2obz"},"type":"Feature","geometry":null},{"properties":{"zip":"98396","non-subsidy":"45.7%","medicaid":"4.9%","subsidy elig":"49.5%","id":"agoiizvt8hx1"},"type":"Feature","geometry":null},{"properties":{"zip":"98401","non-subsidy":"17.8%","medicaid":"31.1%","subsidy elig":"51.1%","id":"agoij03r95kx"},"type":"Feature","geometry":null},{"properties":{"zip":"98402","non-subsidy":"6.1%","medicaid":"38.4%","subsidy elig":"55.4%","id":"agoij08v67yb"},"type":"Feature","geometry":null},{"properties":{"zip":"98403","non-subsidy":"49.0%","medicaid":"5.5%","subsidy elig":"45.5%","id":"agoij00jcqld"},"type":"Feature","geometry":null},{"properties":{"zip":"98404","non-subsidy":"5.7%","medicaid":"28.9%","subsidy elig":"65.3%","id":"agoiizv3lmvk"},"type":"Feature","geometry":null},{"properties":{"zip":"98405","non-subsidy":"6.5%","medicaid":"32.7%","subsidy elig":"60.8%","id":"agoij064ogfv"},"type":"Feature","geometry":null},{"properties":{"zip":"98406","non-subsidy":"44.4%","medicaid":"5.9%","subsidy elig":"49.7%","id":"agoiizy9uc3t"},"type":"Feature","geometry":null},{"properties":{"zip":"98407","non-subsidy":"55.3%","medicaid":"3.8%","subsidy elig":"40.9%","id":"agoij0803vkc"},"type":"Feature","geometry":null},{"properties":{"zip":"98408","non-subsidy":"13.5%","medicaid":"15.2%","subsidy elig":"71.3%","id":"agoiizwlt6ju"},"type":"Feature","geometry":null},{"properties":{"zip":"98409","non-subsidy":"4.9%","medicaid":"33.9%","subsidy elig":"61.3%","id":"agoij05yip9x"},"type":"Feature","geometry":null},{"properties":{"zip":"98411","non-subsidy":"9.7%","medicaid":"12.1%","subsidy elig":"78.2%","id":"agoiizwc64iv"},"type":"Feature","geometry":null},{"properties":{"zip":"98412","non-subsidy":"7.4%","medicaid":"28.4%","subsidy elig":"64.2%","id":"agoiizvtdzeo"},"type":"Feature","geometry":null},{"properties":{"zip":"98415","non-subsidy":"0.9%","medicaid":"64.0%","subsidy elig":"35.1%","id":"agoiizxjz7kw"},"type":"Feature","geometry":null},{"properties":{"zip":"98417","non-subsidy":"24.0%","medicaid":"8.2%","subsidy elig":"67.8%","id":"agoij06zm9ei"},"type":"Feature","geometry":null},{"properties":{"zip":"98418","non-subsidy":"9.4%","medicaid":"21.4%","subsidy elig":"69.3%","id":"agoij07c8ded"},"type":"Feature","geometry":null},{"properties":{"zip":"98419","non-subsidy":"8.1%","medicaid":"15.9%","subsidy elig":"76.0%","id":"agoiizy4ik4o"},"type":"Feature","geometry":null},{"properties":{"zip":"98421","non-subsidy":"78.1%","medicaid":"0.6%","subsidy elig":"21.3%","id":"agoij0486n4p"},"type":"Feature","geometry":null},{"properties":{"zip":"98422","non-subsidy":"81.3%","medicaid":"0.7%","subsidy elig":"18.1%","id":"agoij0aajpk1"},"type":"Feature","geometry":null},{"properties":{"zip":"98424","non-subsidy":"23.4%","medicaid":"10.2%","subsidy elig":"66.4%","id":"agoij00n3qlu"},"type":"Feature","geometry":null},{"properties":{"zip":"98433","non-subsidy":"0.2%","medicaid":"75.7%","subsidy elig":"24.1%","id":"agoiizxd2prx"},"type":"Feature","geometry":null},{"properties":{"zip":"98438","non-subsidy":"0.2%","medicaid":"68.7%","subsidy elig":"31.1%","id":"agoij03604rc"},"type":"Feature","geometry":null},{"properties":{"zip":"98439","non-subsidy":"3.0%","medicaid":"46.2%","subsidy elig":"50.8%","id":"agoij0135tzk"},"type":"Feature","geometry":null},{"properties":{"zip":"98443","non-subsidy":"52.0%","medicaid":"3.4%","subsidy elig":"44.6%","id":"agoiizyzf3cn"},"type":"Feature","geometry":null},{"properties":{"zip":"98444","non-subsidy":"5.6%","medicaid":"36.2%","subsidy elig":"58.1%","id":"agoiizzw88zz"},"type":"Feature","geometry":null},{"properties":{"zip":"98445","non-subsidy":"26.0%","medicaid":"10.5%","subsidy elig":"63.6%","id":"agoiizvh69c9"},"type":"Feature","geometry":null},{"properties":{"zip":"98446","non-subsidy":"49.1%","medicaid":"3.8%","subsidy elig":"47.2%","id":"agoij0964b79"},"type":"Feature","geometry":null},{"properties":{"zip":"98448","non-subsidy":"7.7%","medicaid":"16.6%","subsidy elig":"75.7%","id":"agoij05k5otz"},"type":"Feature","geometry":null},{"properties":{"zip":"98464","non-subsidy":"72.4%","medicaid":"0.8%","subsidy elig":"26.7%","id":"agoij07pg4mp"},"type":"Feature","geometry":null},{"properties":{"zip":"98465","non-subsidy":"25.0%","medicaid":"19.9%","subsidy elig":"55.0%","id":"agoij00015z5"},"type":"Feature","geometry":null},{"properties":{"zip":"98466","non-subsidy":"41.2%","medicaid":"9.0%","subsidy elig":"49.8%","id":"agoij084de4k"},"type":"Feature","geometry":null},{"properties":{"zip":"98467","non-subsidy":"47.2%","medicaid":"12.4%","subsidy elig":"40.4%","id":"agoij05zmv9l"},"type":"Feature","geometry":null},{"properties":{"zip":"98490","non-subsidy":"26.2%","medicaid":"18.0%","subsidy elig":"55.7%","id":"agoij08pjuzk"},"type":"Feature","geometry":null},{"properties":{"zip":"98496","non-subsidy":"8.5%","medicaid":"18.3%","subsidy elig":"73.2%","id":"agoiizy96e6k"},"type":"Feature","geometry":null},{"properties":{"zip":"98497","non-subsidy":"29.3%","medicaid":"14.1%","subsidy elig":"56.6%","id":"agoij0a44jnn"},"type":"Feature","geometry":null},{"properties":{"zip":"98498","non-subsidy":"35.0%","medicaid":"12.4%","subsidy elig":"52.7%","id":"agoij02v6nyp"},"type":"Feature","geometry":null},{"properties":{"zip":"98499","non-subsidy":"12.0%","medicaid":"35.4%","subsidy elig":"52.6%","id":"agoij03kl4v0"},"type":"Feature","geometry":null},{"properties":{"zip":"98501","non-subsidy":"44.1%","medicaid":"10.5%","subsidy elig":"45.3%","id":"agoiizycwgel"},"type":"Feature","geometry":null},{"properties":{"zip":"98502","non-subsidy":"53.4%","medicaid":"9.6%","subsidy elig":"37.0%","id":"agoij02b5cye"},"type":"Feature","geometry":null},{"properties":{"zip":"98503","non-subsidy":"27.1%","medicaid":"13.4%","subsidy elig":"59.5%","id":"agoiizw6u1mf"},"type":"Feature","geometry":null},{"properties":{"zip":"98506","non-subsidy":"39.8%","medicaid":"8.5%","subsidy elig":"51.7%","id":"agoij06t2gox"},"type":"Feature","geometry":null},{"properties":{"zip":"98507","non-subsidy":"8.9%","medicaid":"26.8%","subsidy elig":"64.3%","id":"agoij070ya0r"},"type":"Feature","geometry":null},{"properties":{"zip":"98508","non-subsidy":"8.8%","medicaid":"32.0%","subsidy elig":"59.1%","id":"agoij037e6vq"},"type":"Feature","geometry":null},{"properties":{"zip":"98509","non-subsidy":"33.9%","medicaid":"6.8%","subsidy elig":"59.3%","id":"agoij07bg061"},"type":"Feature","geometry":null},{"properties":{"zip":"98511","non-subsidy":"31.8%","medicaid":"6.8%","subsidy elig":"61.3%","id":"agoij0ac5c94"},"type":"Feature","geometry":null},{"properties":{"zip":"98512","non-subsidy":"47.5%","medicaid":"5.3%","subsidy elig":"47.2%","id":"agoij07fe2ca"},"type":"Feature","geometry":null},{"properties":{"zip":"98513","non-subsidy":"46.7%","medicaid":"3.7%","subsidy elig":"49.6%","id":"agoij002y67r"},"type":"Feature","geometry":null},{"properties":{"zip":"98516","non-subsidy":"56.9%","medicaid":"4.9%","subsidy elig":"38.2%","id":"agoij09b9l61"},"type":"Feature","geometry":null},{"properties":{"zip":"98520","non-subsidy":"8.1%","medicaid":"38.9%","subsidy elig":"53.1%","id":"agoiizy7r6qg"},"type":"Feature","geometry":null},{"properties":{"zip":"98522","non-subsidy":"41.2%","medicaid":"9.8%","subsidy elig":"49.0%","id":"agoij03zwf8j"},"type":"Feature","geometry":null},{"properties":{"zip":"98524","non-subsidy":"52.8%","medicaid":"3.2%","subsidy elig":"44.0%","id":"agoiizx7izau"},"type":"Feature","geometry":null},{"properties":{"zip":"98526","non-subsidy":"0.9%","medicaid":"61.8%","subsidy elig":"37.3%","id":"agoij04ilp1d"},"type":"Feature","geometry":null},{"properties":{"zip":"98527","non-subsidy":"3.0%","medicaid":"44.8%","subsidy elig":"52.2%","id":"agoiizz4bg7c"},"type":"Feature","geometry":null},{"properties":{"zip":"98528","non-subsidy":"32.3%","medicaid":"9.3%","subsidy elig":"58.4%","id":"agoiizw56h5z"},"type":"Feature","geometry":null},{"properties":{"zip":"98530","non-subsidy":"2.2%","medicaid":"52.6%","subsidy elig":"45.3%","id":"agoij00uhcxj"},"type":"Feature","geometry":null},{"properties":{"zip":"98531","non-subsidy":"7.0%","medicaid":"37.2%","subsidy elig":"55.8%","id":"agoij04vkpij"},"type":"Feature","geometry":null},{"properties":{"zip":"98532","non-subsidy":"19.1%","medicaid":"19.0%","subsidy elig":"61.9%","id":"agoiizykcfzy"},"type":"Feature","geometry":null},{"properties":{"zip":"98533","non-subsidy":"5.9%","medicaid":"34.1%","subsidy elig":"60.0%","id":"agoiizz7qymm"},"type":"Feature","geometry":null},{"properties":{"zip":"98535","non-subsidy":"4.7%","medicaid":"41.9%","subsidy elig":"53.4%","id":"agoij0a4vcht"},"type":"Feature","geometry":null},{"properties":{"zip":"98536","non-subsidy":"2.0%","medicaid":"52.0%","subsidy elig":"46.0%","id":"agoiizv00kmy"},"type":"Feature","geometry":null},{"properties":{"zip":"98537","non-subsidy":"12.1%","medicaid":"23.8%","subsidy elig":"64.1%","id":"agoiizzjqsuu"},"type":"Feature","geometry":null},{"properties":{"zip":"98538","non-subsidy":"15.2%","medicaid":"21.2%","subsidy elig":"63.6%","id":"agoij02ds2sr"},"type":"Feature","geometry":null},{"properties":{"zip":"98539","non-subsidy":"7.1%","medicaid":"23.8%","subsidy elig":"69.0%","id":"agoij03y9t4t"},"type":"Feature","geometry":null},{"properties":{"zip":"98540","non-subsidy":"63.1%","medicaid":"1.7%","subsidy elig":"35.2%","id":"agoij04naad7"},"type":"Feature","geometry":null},{"properties":{"zip":"98541","non-subsidy":"6.5%","medicaid":"33.6%","subsidy elig":"59.9%","id":"agoij0ae0o4g"},"type":"Feature","geometry":null},{"properties":{"zip":"98542","non-subsidy":"3.5%","medicaid":"30.0%","subsidy elig":"66.5%","id":"agoij0aorkrt"},"type":"Feature","geometry":null},{"properties":{"zip":"98544","non-subsidy":"20.3%","medicaid":"20.3%","subsidy elig":"59.5%","id":"agoiizz6ynp1"},"type":"Feature","geometry":null},{"properties":{"zip":"98546","non-subsidy":"47.4%","medicaid":"5.7%","subsidy elig":"46.9%","id":"agoij09pp8fl"},"type":"Feature","geometry":null},{"properties":{"zip":"98547","non-subsidy":"6.9%","medicaid":"43.0%","subsidy elig":"50.1%","id":"agoij07s7q1u"},"type":"Feature","geometry":null},{"properties":{"zip":"98548","non-subsidy":"22.8%","medicaid":"20.8%","subsidy elig":"56.4%","id":"agoij0ak2xgx"},"type":"Feature","geometry":null},{"properties":{"zip":"98550","non-subsidy":"3.6%","medicaid":"47.2%","subsidy elig":"49.2%","id":"agoij0agna1z"},"type":"Feature","geometry":null},{"properties":{"zip":"98552","non-subsidy":"6.9%","medicaid":"34.5%","subsidy elig":"58.6%","id":"agoiizxrg55h"},"type":"Feature","geometry":null},{"properties":{"zip":"98554","non-subsidy":"26.2%","medicaid":"14.3%","subsidy elig":"59.5%","id":"agoij00skm9x"},"type":"Feature","geometry":null},{"properties":{"zip":"98555","non-subsidy":"14.1%","medicaid":"20.6%","subsidy elig":"65.3%","id":"agoiizzvnlz4"},"type":"Feature","geometry":null},{"properties":{"zip":"98556","non-subsidy":"46.5%","medicaid":"2.6%","subsidy elig":"50.9%","id":"agoij03jrqjk"},"type":"Feature","geometry":null},{"properties":{"zip":"98557","non-subsidy":"11.1%","medicaid":"22.4%","subsidy elig":"66.5%","id":"agoij02wryyb"},"type":"Feature","geometry":null},{"properties":{"zip":"98558","non-subsidy":"51.5%","medicaid":"3.9%","subsidy elig":"44.6%","id":"agoij00edjc3"},"type":"Feature","geometry":null},{"properties":{"zip":"98559","non-subsidy":"11.4%","medicaid":"28.6%","subsidy elig":"60.0%","id":"agoij023y892"},"type":"Feature","geometry":null},{"properties":{"zip":"98560","non-subsidy":"22.4%","medicaid":"14.3%","subsidy elig":"63.3%","id":"agoij050bxlg"},"type":"Feature","geometry":null},{"properties":{"zip":"98561","non-subsidy":"5.6%","medicaid":"33.3%","subsidy elig":"61.1%","id":"agoij04oa5xl"},"type":"Feature","geometry":null},{"properties":{"zip":"98562","non-subsidy":"16.7%","medicaid":"27.8%","subsidy elig":"55.6%","id":"agoij0340qdw"},"type":"Feature","geometry":null},{"properties":{"zip":"98563","non-subsidy":"27.5%","medicaid":"15.0%","subsidy elig":"57.4%","id":"agoij01w2tp8"},"type":"Feature","geometry":null},{"properties":{"zip":"98564","non-subsidy":"8.3%","medicaid":"30.2%","subsidy elig":"61.6%","id":"agoij01gie4v"},"type":"Feature","geometry":null},{"properties":{"zip":"98565","non-subsidy":"9.7%","medicaid":"28.1%","subsidy elig":"62.2%","id":"agoiizynnvxu"},"type":"Feature","geometry":null},{"properties":{"zip":"98566","non-subsidy":"8.1%","medicaid":"32.4%","subsidy elig":"59.5%","id":"agoij010lu1f"},"type":"Feature","geometry":null},{"properties":{"zip":"98568","non-subsidy":"5.9%","medicaid":"31.3%","subsidy elig":"62.8%","id":"agoiizvygmun"},"type":"Feature","geometry":null},{"properties":{"zip":"98569","non-subsidy":"14.2%","medicaid":"23.6%","subsidy elig":"62.2%","id":"agoij05a6sey"},"type":"Feature","geometry":null},{"properties":{"zip":"98570","non-subsidy":"6.2%","medicaid":"30.5%","subsidy elig":"63.2%","id":"agoiizyomvgx"},"type":"Feature","geometry":null},{"properties":{"zip":"98571","non-subsidy":"7.6%","medicaid":"37.0%","subsidy elig":"55.4%","id":"agoij08oi3hb"},"type":"Feature","geometry":null},{"properties":{"zip":"98572","non-subsidy":"2.8%","medicaid":"39.6%","subsidy elig":"57.5%","id":"agoij01krpta"},"type":"Feature","geometry":null},{"properties":{"zip":"98575","non-subsidy":"29.5%","medicaid":"8.2%","subsidy elig":"62.3%","id":"agoij07wvr7z"},"type":"Feature","geometry":null},{"properties":{"zip":"98576","non-subsidy":"30.6%","medicaid":"9.1%","subsidy elig":"60.2%","id":"agoij053fokx"},"type":"Feature","geometry":null},{"properties":{"zip":"98577","non-subsidy":"5.0%","medicaid":"38.8%","subsidy elig":"56.2%","id":"agoij02yw4vv"},"type":"Feature","geometry":null},{"properties":{"zip":"98579","non-subsidy":"25.3%","medicaid":"11.8%","subsidy elig":"62.9%","id":"agoij046vb0l"},"type":"Feature","geometry":null},{"properties":{"zip":"98580","non-subsidy":"39.5%","medicaid":"7.0%","subsidy elig":"53.5%","id":"agoij08dt0jg"},"type":"Feature","geometry":null},{"properties":{"zip":"98581","non-subsidy":"0.8%","medicaid":"37.0%","subsidy elig":"62.2%","id":"agoij097bfdq"},"type":"Feature","geometry":null},{"properties":{"zip":"98582","non-subsidy":"7.5%","medicaid":"31.3%","subsidy elig":"61.2%","id":"agoij06p65lr"},"type":"Feature","geometry":null},{"properties":{"zip":"98583","non-subsidy":"1.2%","medicaid":"44.7%","subsidy elig":"54.1%","id":"agoij04mzupm"},"type":"Feature","geometry":null},{"properties":{"zip":"98584","non-subsidy":"15.8%","medicaid":"24.2%","subsidy elig":"60.0%","id":"agoij019xqqk"},"type":"Feature","geometry":null},{"properties":{"zip":"98585","non-subsidy":"7.0%","medicaid":"24.0%","subsidy elig":"69.0%","id":"agoiizyudsid"},"type":"Feature","geometry":null},{"properties":{"zip":"98586","non-subsidy":"5.1%","medicaid":"41.6%","subsidy elig":"53.3%","id":"agoij08wer6q"},"type":"Feature","geometry":null},{"properties":{"zip":"98587","non-subsidy":"0.9%","medicaid":"56.0%","subsidy elig":"43.1%","id":"agoiizw6wjc6"},"type":"Feature","geometry":null},{"properties":{"zip":"98588","non-subsidy":"35.6%","medicaid":"8.5%","subsidy elig":"55.9%","id":"agoij08lfydr"},"type":"Feature","geometry":null},{"properties":{"zip":"98589","non-subsidy":"30.5%","medicaid":"9.4%","subsidy elig":"60.2%","id":"agoij0524pvf"},"type":"Feature","geometry":null},{"properties":{"zip":"98590","non-subsidy":"7.1%","medicaid":"30.3%","subsidy elig":"62.6%","id":"agoiizzntrih"},"type":"Feature","geometry":null},{"properties":{"zip":"98591","non-subsidy":"11.0%","medicaid":"22.1%","subsidy elig":"66.9%","id":"agoiizx1pvpu"},"type":"Feature","geometry":null},{"properties":{"zip":"98592","non-subsidy":"45.0%","medicaid":"7.2%","subsidy elig":"47.8%","id":"agoij04g9mqj"},"type":"Feature","geometry":null},{"properties":{"zip":"98593","non-subsidy":"6.7%","medicaid":"31.0%","subsidy elig":"62.3%","id":"agoij08pe9n3"},"type":"Feature","geometry":null},{"properties":{"zip":"98595","non-subsidy":"4.3%","medicaid":"40.3%","subsidy elig":"55.4%","id":"agoij03susml"},"type":"Feature","geometry":null},{"properties":{"zip":"98596","non-subsidy":"9.1%","medicaid":"23.1%","subsidy elig":"67.8%","id":"agoij00i1b7y"},"type":"Feature","geometry":null},{"properties":{"zip":"98597","non-subsidy":"23.2%","medicaid":"12.2%","subsidy elig":"64.5%","id":"agoiizvhwstl"},"type":"Feature","geometry":null},{"properties":{"zip":"98601","non-subsidy":"40.4%","medicaid":"5.8%","subsidy elig":"53.8%","id":"agoij0a3kno7"},"type":"Feature","geometry":null},{"properties":{"zip":"98602","non-subsidy":"11.5%","medicaid":"18.0%","subsidy elig":"70.5%","id":"agoiizzegnig"},"type":"Feature","geometry":null},{"properties":{"zip":"98603","non-subsidy":"15.2%","medicaid":"12.8%","subsidy elig":"72.0%","id":"agoij056o9a4"},"type":"Feature","geometry":null},{"properties":{"zip":"98604","non-subsidy":"55.1%","medicaid":"4.6%","subsidy elig":"40.3%","id":"agoij0a13dhn"},"type":"Feature","geometry":null},{"properties":{"zip":"98605","non-subsidy":"32.7%","medicaid":"4.3%","subsidy elig":"62.9%","id":"agoij09ld08s"},"type":"Feature","geometry":null},{"properties":{"zip":"98606","non-subsidy":"79.5%","medicaid":"0.5%","subsidy elig":"20.0%","id":"agoij09sm4mh"},"type":"Feature","geometry":null},{"properties":{"zip":"98607","non-subsidy":"71.6%","medicaid":"2.3%","subsidy elig":"26.2%","id":"agoij05w97cr"},"type":"Feature","geometry":null},{"properties":{"zip":"98609","non-subsidy":"29.2%","medicaid":"20.8%","subsidy elig":"50.0%","id":"agoij05aw2n1"},"type":"Feature","geometry":null},{"properties":{"zip":"98610","non-subsidy":"15.9%","medicaid":"15.0%","subsidy elig":"69.1%","id":"agoiizwtpi68"},"type":"Feature","geometry":null},{"properties":{"zip":"98611","non-subsidy":"24.1%","medicaid":"12.6%","subsidy elig":"63.3%","id":"agoij09nur3p"},"type":"Feature","geometry":null},{"properties":{"zip":"98612","non-subsidy":"27.7%","medicaid":"13.4%","subsidy elig":"58.9%","id":"agoij0auszcq"},"type":"Feature","geometry":null},{"properties":{"zip":"98613","non-subsidy":"7.5%","medicaid":"38.8%","subsidy elig":"53.7%","id":"agoij063kd1w"},"type":"Feature","geometry":null},{"properties":{"zip":"98614","non-subsidy":"7.5%","medicaid":"17.2%","subsidy elig":"75.3%","id":"agoiizxgbfsj"},"type":"Feature","geometry":null},{"properties":{"zip":"98616","non-subsidy":"10.1%","medicaid":"19.3%","subsidy elig":"70.6%","id":"agoij08hww4r"},"type":"Feature","geometry":null},{"properties":{"zip":"98617","non-subsidy":"5.4%","medicaid":"42.6%","subsidy elig":"52.0%","id":"agoij02e9k2o"},"type":"Feature","geometry":null},{"properties":{"zip":"98619","non-subsidy":"17.1%","medicaid":"19.4%","subsidy elig":"63.6%","id":"agoij08o2ts9"},"type":"Feature","geometry":null},{"properties":{"zip":"98620","non-subsidy":"6.4%","medicaid":"34.8%","subsidy elig":"58.9%","id":"agoij0avomaz"},"type":"Feature","geometry":null},{"properties":{"zip":"98621","non-subsidy":"20.0%","medicaid":"20.0%","subsidy elig":"60.0%","id":"agoij03x11ol"},"type":"Feature","geometry":null},{"properties":{"zip":"98622","non-subsidy":"76.7%","medicaid":"1.7%","subsidy elig":"21.7%","id":"agoij03fed0c"},"type":"Feature","geometry":null},{"properties":{"zip":"98623","non-subsidy":"14.3%","medicaid":"23.4%","subsidy elig":"62.3%","id":"agoij06xpam0"},"type":"Feature","geometry":null},{"properties":{"zip":"98624","non-subsidy":"19.2%","medicaid":"17.8%","subsidy elig":"62.9%","id":"agoij05p8gmm"},"type":"Feature","geometry":null},{"properties":{"zip":"98625","non-subsidy":"40.0%","medicaid":"7.4%","subsidy elig":"52.6%","id":"agoij0atf83p"},"type":"Feature","geometry":null},{"properties":{"zip":"98626","non-subsidy":"14.9%","medicaid":"30.2%","subsidy elig":"54.9%","id":"agoij03tyugh"},"type":"Feature","geometry":null},{"properties":{"zip":"98628","non-subsidy":"3.7%","medicaid":"40.4%","subsidy elig":"56.0%","id":"agoij019cso7"},"type":"Feature","geometry":null},{"properties":{"zip":"98629","non-subsidy":"62.6%","medicaid":"1.9%","subsidy elig":"35.5%","id":"agoij04b4o3u"},"type":"Feature","geometry":null},{"properties":{"zip":"98631","non-subsidy":"8.2%","medicaid":"24.1%","subsidy elig":"67.7%","id":"agoij03b4b3c"},"type":"Feature","geometry":null},{"properties":{"zip":"98632","non-subsidy":"16.1%","medicaid":"31.7%","subsidy elig":"52.2%","id":"agoiizz96s1z"},"type":"Feature","geometry":null},{"properties":{"zip":"98635","non-subsidy":"17.9%","medicaid":"13.8%","subsidy elig":"68.3%","id":"agoij03plwa9"},"type":"Feature","geometry":null},{"properties":{"zip":"98637","non-subsidy":"0.0%","medicaid":"12.5%","subsidy elig":"87.5%","id":"agoiizyieiy8"},"type":"Feature","geometry":null},{"properties":{"zip":"98638","non-subsidy":"7.5%","medicaid":"17.4%","subsidy elig":"75.1%","id":"agoij06zj4kf"},"type":"Feature","geometry":null},{"properties":{"zip":"98639","non-subsidy":"31.0%","medicaid":"6.2%","subsidy elig":"62.8%","id":"agoij090f3zu"},"type":"Feature","geometry":null},{"properties":{"zip":"98640","non-subsidy":"4.6%","medicaid":"38.5%","subsidy elig":"56.9%","id":"agoij05h112v"},"type":"Feature","geometry":null},{"properties":{"zip":"98641","non-subsidy":"14.1%","medicaid":"26.6%","subsidy elig":"59.4%","id":"agoij09qhlrd"},"type":"Feature","geometry":null},{"properties":{"zip":"98642","non-subsidy":"77.1%","medicaid":"1.0%","subsidy elig":"21.9%","id":"agoij04kt9j2"},"type":"Feature","geometry":null},{"properties":{"zip":"98643","non-subsidy":"5.2%","medicaid":"22.9%","subsidy elig":"71.9%","id":"agoij0b34put"},"type":"Feature","geometry":null},{"properties":{"zip":"98644","non-subsidy":"6.1%","medicaid":"25.2%","subsidy elig":"68.7%","id":"agoij028xfm3"},"type":"Feature","geometry":null},{"properties":{"zip":"98645","non-subsidy":"25.4%","medicaid":"11.3%","subsidy elig":"63.3%","id":"agoij03ar2d2"},"type":"Feature","geometry":null},{"properties":{"zip":"98647","non-subsidy":"4.7%","medicaid":"45.3%","subsidy elig":"50.0%","id":"agoiizy7vssh"},"type":"Feature","geometry":null},{"properties":{"zip":"98648","non-subsidy":"21.7%","medicaid":"15.0%","subsidy elig":"63.3%","id":"agoij04ybib6"},"type":"Feature","geometry":null},{"properties":{"zip":"98649","non-subsidy":"15.4%","medicaid":"13.0%","subsidy elig":"71.6%","id":"agoiizym7jzt"},"type":"Feature","geometry":null},{"properties":{"zip":"98650","non-subsidy":"49.8%","medicaid":"2.3%","subsidy elig":"47.9%","id":"agoiizyjhuxt"},"type":"Feature","geometry":null},{"properties":{"zip":"98651","non-subsidy":"57.9%","medicaid":"1.7%","subsidy elig":"40.3%","id":"agoiizv4tg2n"},"type":"Feature","geometry":null},{"properties":{"zip":"98660","non-subsidy":"14.8%","medicaid":"25.0%","subsidy elig":"60.2%","id":"agoiizwjravo"},"type":"Feature","geometry":null},{"properties":{"zip":"98661","non-subsidy":"12.8%","medicaid":"27.9%","subsidy elig":"59.4%","id":"agoij0737c66"},"type":"Feature","geometry":null},{"properties":{"zip":"98662","non-subsidy":"33.4%","medicaid":"9.5%","subsidy elig":"57.1%","id":"agoij07uh853"},"type":"Feature","geometry":null},{"properties":{"zip":"98663","non-subsidy":"18.8%","medicaid":"18.1%","subsidy elig":"63.1%","id":"agoij09ac5q5"},"type":"Feature","geometry":null},{"properties":{"zip":"98664","non-subsidy":"33.1%","medicaid":"9.7%","subsidy elig":"57.1%","id":"agoij0b0m9iq"},"type":"Feature","geometry":null},{"properties":{"zip":"98665","non-subsidy":"27.7%","medicaid":"16.5%","subsidy elig":"55.8%","id":"agoij03tlnit"},"type":"Feature","geometry":null},{"properties":{"zip":"98666","non-subsidy":"8.0%","medicaid":"27.9%","subsidy elig":"64.1%","id":"agoiizv62ns9"},"type":"Feature","geometry":null},{"properties":{"zip":"98668","non-subsidy":"4.6%","medicaid":"38.3%","subsidy elig":"57.0%","id":"agoij02wxqin"},"type":"Feature","geometry":null},{"properties":{"zip":"98670","non-subsidy":"66.7%","medicaid":"9.5%","subsidy elig":"23.8%","id":"agoij05q06b4"},"type":"Feature","geometry":null},{"properties":{"zip":"98671","non-subsidy":"45.3%","medicaid":"8.0%","subsidy elig":"46.7%","id":"agoij081ptb2"},"type":"Feature","geometry":null},{"properties":{"zip":"98672","non-subsidy":"24.6%","medicaid":"11.1%","subsidy elig":"64.3%","id":"agoij06o5got"},"type":"Feature","geometry":null},{"properties":{"zip":"98673","non-subsidy":"2.3%","medicaid":"54.1%","subsidy elig":"43.6%","id":"agoij0a39fmf"},"type":"Feature","geometry":null},{"properties":{"zip":"98674","non-subsidy":"33.7%","medicaid":"7.7%","subsidy elig":"58.6%","id":"agoiizz1uvdz"},"type":"Feature","geometry":null},{"properties":{"zip":"98675","non-subsidy":"51.9%","medicaid":"3.9%","subsidy elig":"44.2%","id":"agoij03ffz0w"},"type":"Feature","geometry":null},{"properties":{"zip":"98682","non-subsidy":"32.4%","medicaid":"9.4%","subsidy elig":"58.2%","id":"agoij05o2l2e"},"type":"Feature","geometry":null},{"properties":{"zip":"98683","non-subsidy":"47.4%","medicaid":"4.6%","subsidy elig":"48.0%","id":"agoiizxzragz"},"type":"Feature","geometry":null},{"properties":{"zip":"98684","non-subsidy":"35.8%","medicaid":"5.9%","subsidy elig":"58.3%","id":"agoij0b5k9j2"},"type":"Feature","geometry":null},{"properties":{"zip":"98685","non-subsidy":"64.6%","medicaid":"3.5%","subsidy elig":"31.9%","id":"agoij00e5wtc"},"type":"Feature","geometry":null},{"properties":{"zip":"98686","non-subsidy":"60.1%","medicaid":"3.2%","subsidy elig":"36.8%","id":"agoiizwg4gaj"},"type":"Feature","geometry":null},{"properties":{"zip":"98687","non-subsidy":"32.3%","medicaid":"6.7%","subsidy elig":"61.0%","id":"agoij01fbkr5"},"type":"Feature","geometry":null},{"properties":{"zip":"98801","non-subsidy":"22.6%","medicaid":"23.7%","subsidy elig":"53.6%","id":"agoij02kw018"},"type":"Feature","geometry":null},{"properties":{"zip":"98802","non-subsidy":"24.7%","medicaid":"16.7%","subsidy elig":"58.6%","id":"agoij04mi19n"},"type":"Feature","geometry":null},{"properties":{"zip":"98807","non-subsidy":"3.3%","medicaid":"49.1%","subsidy elig":"47.7%","id":"agoiizzptq4q"},"type":"Feature","geometry":null},{"properties":{"zip":"98811","non-subsidy":"52.2%","medicaid":"17.4%","subsidy elig":"30.4%","id":"agoiizuz20yn"},"type":"Feature","geometry":null},{"properties":{"zip":"98812","non-subsidy":"3.1%","medicaid":"42.4%","subsidy elig":"54.5%","id":"agoij01xycwz"},"type":"Feature","geometry":null},{"properties":{"zip":"98813","non-subsidy":"1.2%","medicaid":"57.8%","subsidy elig":"41.0%","id":"agoij012axlj"},"type":"Feature","geometry":null},{"properties":{"zip":"98814","non-subsidy":"39.4%","medicaid":"7.1%","subsidy elig":"53.5%","id":"agoij05thu6i"},"type":"Feature","geometry":null},{"properties":{"zip":"98815","non-subsidy":"16.2%","medicaid":"17.3%","subsidy elig":"66.5%","id":"agoij04k3npp"},"type":"Feature","geometry":null},{"properties":{"zip":"98816","non-subsidy":"54.8%","medicaid":"8.3%","subsidy elig":"36.9%","id":"agoij09y7c8w"},"type":"Feature","geometry":null},{"properties":{"zip":"98817","non-subsidy":"3.2%","medicaid":"47.6%","subsidy elig":"49.2%","id":"agoij01g4tb9"},"type":"Feature","geometry":null},{"properties":{"zip":"98819","non-subsidy":"5.1%","medicaid":"42.4%","subsidy elig":"52.5%","id":"agoiizyqup61"},"type":"Feature","geometry":null},{"properties":{"zip":"98821","non-subsidy":"6.8%","medicaid":"17.0%","subsidy elig":"76.2%","id":"agoij07nfbpi"},"type":"Feature","geometry":null},{"properties":{"zip":"98822","non-subsidy":"11.0%","medicaid":"14.4%","subsidy elig":"74.5%","id":"agoij03gsgy3"},"type":"Feature","geometry":null},{"properties":{"zip":"98823","non-subsidy":"13.1%","medicaid":"25.0%","subsidy elig":"61.9%","id":"agoij09w4qlv"},"type":"Feature","geometry":null},{"properties":{"zip":"98824","non-subsidy":"1.6%","medicaid":"32.3%","subsidy elig":"66.1%","id":"agoiizvn1y8r"},"type":"Feature","geometry":null},{"properties":{"zip":"98826","non-subsidy":"44.8%","medicaid":"4.9%","subsidy elig":"50.3%","id":"agoij092eknk"},"type":"Feature","geometry":null},{"properties":{"zip":"98827","non-subsidy":"6.8%","medicaid":"45.2%","subsidy elig":"47.9%","id":"agoij00f8fh1"},"type":"Feature","geometry":null},{"properties":{"zip":"98828","non-subsidy":"37.3%","medicaid":"6.8%","subsidy elig":"55.9%","id":"agoiizwbari5"},"type":"Feature","geometry":null},{"properties":{"zip":"98829","non-subsidy":"4.2%","medicaid":"43.8%","subsidy elig":"52.1%","id":"agoij03jqaac"},"type":"Feature","geometry":null},{"properties":{"zip":"98830","non-subsidy":"7.6%","medicaid":"56.5%","subsidy elig":"35.9%","id":"agoiizych1k5"},"type":"Feature","geometry":null},{"properties":{"zip":"98831","non-subsidy":"12.6%","medicaid":"21.5%","subsidy elig":"65.9%","id":"agoij09521nq"},"type":"Feature","geometry":null},{"properties":{"zip":"98832","non-subsidy":"0.0%","medicaid":"76.3%","subsidy elig":"23.7%","id":"agoij03u0rjb"},"type":"Feature","geometry":null},{"properties":{"zip":"98833","non-subsidy":"94.3%","medicaid":"0.0%","subsidy elig":"5.7%","id":"agoij0b79h16"},"type":"Feature","geometry":null},{"properties":{"zip":"98834","non-subsidy":"24.0%","medicaid":"6.0%","subsidy elig":"70.0%","id":"agoiizz64r9p"},"type":"Feature","geometry":null},{"properties":{"zip":"98836","non-subsidy":"9.8%","medicaid":"24.8%","subsidy elig":"65.4%","id":"agoij031025t"},"type":"Feature","geometry":null},{"properties":{"zip":"98837","non-subsidy":"15.0%","medicaid":"28.4%","subsidy elig":"56.5%","id":"agoij07jmkcl"},"type":"Feature","geometry":null},{"properties":{"zip":"98840","non-subsidy":"6.1%","medicaid":"39.2%","subsidy elig":"54.7%","id":"agoij0a8iofw"},"type":"Feature","geometry":null},{"properties":{"zip":"98841","non-subsidy":"10.3%","medicaid":"31.9%","subsidy elig":"57.8%","id":"agoij04ypplh"},"type":"Feature","geometry":null},{"properties":{"zip":"98843","non-subsidy":"25.2%","medicaid":"13.0%","subsidy elig":"61.8%","id":"agoij00eky6t"},"type":"Feature","geometry":null},{"properties":{"zip":"98844","non-subsidy":"3.7%","medicaid":"49.1%","subsidy elig":"47.3%","id":"agoij01bd4wq"},"type":"Feature","geometry":null},{"properties":{"zip":"98845","non-subsidy":"9.7%","medicaid":"16.1%","subsidy elig":"74.2%","id":"agoiizyuoutn"},"type":"Feature","geometry":null},{"properties":{"zip":"98846","non-subsidy":"7.7%","medicaid":"38.9%","subsidy elig":"53.4%","id":"agoij09yuoib"},"type":"Feature","geometry":null},{"properties":{"zip":"98847","non-subsidy":"24.4%","medicaid":"10.1%","subsidy elig":"65.6%","id":"agoij04og1wj"},"type":"Feature","geometry":null},{"properties":{"zip":"98848","non-subsidy":"9.8%","medicaid":"26.1%","subsidy elig":"64.1%","id":"agoiizww2jtv"},"type":"Feature","geometry":null},{"properties":{"zip":"98849","non-subsidy":"3.0%","medicaid":"50.8%","subsidy elig":"46.2%","id":"agoij03m8xpg"},"type":"Feature","geometry":null},{"properties":{"zip":"98850","non-subsidy":"1.1%","medicaid":"45.3%","subsidy elig":"53.6%","id":"agoiizz2ksfi"},"type":"Feature","geometry":null},{"properties":{"zip":"98851","non-subsidy":"3.9%","medicaid":"49.1%","subsidy elig":"47.0%","id":"agoij02eh1fs"},"type":"Feature","geometry":null},{"properties":{"zip":"98852","non-subsidy":"64.7%","medicaid":"8.8%","subsidy elig":"26.5%","id":"agoij0a0rzeh"},"type":"Feature","geometry":null},{"properties":{"zip":"98853","non-subsidy":"55.6%","medicaid":"5.6%","subsidy elig":"38.9%","id":"agoij0av5h45"},"type":"Feature","geometry":null},{"properties":{"zip":"98855","non-subsidy":"2.3%","medicaid":"53.1%","subsidy elig":"44.5%","id":"agoij0b81hea"},"type":"Feature","geometry":null},{"properties":{"zip":"98856","non-subsidy":"10.6%","medicaid":"31.4%","subsidy elig":"58.0%","id":"agoiizzifuka"},"type":"Feature","geometry":null},{"properties":{"zip":"98857","non-subsidy":"15.5%","medicaid":"20.2%","subsidy elig":"64.3%","id":"agoij0agcga2"},"type":"Feature","geometry":null},{"properties":{"zip":"98858","non-subsidy":"7.8%","medicaid":"25.8%","subsidy elig":"66.4%","id":"agoiizzfgn41"},"type":"Feature","geometry":null},{"properties":{"zip":"98859","non-subsidy":"1.6%","medicaid":"60.9%","subsidy elig":"37.5%","id":"agoiizza15cr"},"type":"Feature","geometry":null},{"properties":{"zip":"98860","non-subsidy":"1.8%","medicaid":"60.0%","subsidy elig":"38.2%","id":"agoij08zj8ur"},"type":"Feature","geometry":null},{"properties":{"zip":"98862","non-subsidy":"40.7%","medicaid":"7.0%","subsidy elig":"52.3%","id":"agoij03d6z6r"},"type":"Feature","geometry":null},{"properties":{"zip":"98901","non-subsidy":"8.4%","medicaid":"48.5%","subsidy elig":"43.1%","id":"agoij05hk32b"},"type":"Feature","geometry":null},{"properties":{"zip":"98902","non-subsidy":"6.6%","medicaid":"43.1%","subsidy elig":"50.3%","id":"agoiizzs17fo"},"type":"Feature","geometry":null},{"properties":{"zip":"98903","non-subsidy":"11.2%","medicaid":"32.7%","subsidy elig":"56.0%","id":"agoij09dtsiq"},"type":"Feature","geometry":null},{"properties":{"zip":"98904","non-subsidy":"31.1%","medicaid":"6.8%","subsidy elig":"62.2%","id":"agoij07o9m34"},"type":"Feature","geometry":null},{"properties":{"zip":"98907","non-subsidy":"4.0%","medicaid":"47.7%","subsidy elig":"48.3%","id":"agoij0alavaa"},"type":"Feature","geometry":null},{"properties":{"zip":"98908","non-subsidy":"42.4%","medicaid":"8.5%","subsidy elig":"49.0%","id":"agoij038z7o1"},"type":"Feature","geometry":null},{"properties":{"zip":"98909","non-subsidy":"3.5%","medicaid":"43.8%","subsidy elig":"52.7%","id":"agoij068kr4w"},"type":"Feature","geometry":null},{"properties":{"zip":"98920","non-subsidy":"52.9%","medicaid":"5.9%","subsidy elig":"41.2%","id":"agoij053i5n5"},"type":"Feature","geometry":null},{"properties":{"zip":"98921","non-subsidy":"0.0%","medicaid":"87.8%","subsidy elig":"12.2%","id":"agoij00k4j8p"},"type":"Feature","geometry":null},{"properties":{"zip":"98922","non-subsidy":"35.5%","medicaid":"10.4%","subsidy elig":"54.1%","id":"agoiizuyc22r"},"type":"Feature","geometry":null},{"properties":{"zip":"98923","non-subsidy":"8.5%","medicaid":"21.8%","subsidy elig":"69.6%","id":"agoij06ycz3o"},"type":"Feature","geometry":null},{"properties":{"zip":"98925","non-subsidy":"52.9%","medicaid":"2.2%","subsidy elig":"44.9%","id":"agoij00egzka"},"type":"Feature","geometry":null},{"properties":{"zip":"98926","non-subsidy":"15.7%","medicaid":"30.2%","subsidy elig":"54.1%","id":"agoij0a6iszv"},"type":"Feature","geometry":null},{"properties":{"zip":"98930","non-subsidy":"5.0%","medicaid":"35.6%","subsidy elig":"59.4%","id":"agoij01msz9v"},"type":"Feature","geometry":null},{"properties":{"zip":"98932","non-subsidy":"1.4%","medicaid":"52.2%","subsidy elig":"46.3%","id":"agoij04we9oe"},"type":"Feature","geometry":null},{"properties":{"zip":"98933","non-subsidy":"24.1%","medicaid":"15.2%","subsidy elig":"60.8%","id":"agoiizxxrs4d"},"type":"Feature","geometry":null},{"properties":{"zip":"98934","non-subsidy":"5.9%","medicaid":"34.3%","subsidy elig":"59.9%","id":"agoij088bn1z"},"type":"Feature","geometry":null},{"properties":{"zip":"98935","non-subsidy":"1.5%","medicaid":"43.8%","subsidy elig":"54.6%","id":"agoij06inp0q"},"type":"Feature","geometry":null},{"properties":{"zip":"98936","non-subsidy":"12.2%","medicaid":"16.6%","subsidy elig":"71.2%","id":"agoij06exucl"},"type":"Feature","geometry":null},{"properties":{"zip":"98937","non-subsidy":"23.7%","medicaid":"13.4%","subsidy elig":"62.9%","id":"agoij0b568za"},"type":"Feature","geometry":null},{"properties":{"zip":"98938","non-subsidy":"7.1%","medicaid":"24.0%","subsidy elig":"68.9%","id":"agoiizvusmm0"},"type":"Feature","geometry":null},{"properties":{"zip":"98939","non-subsidy":"0.0%","medicaid":"67.6%","subsidy elig":"32.4%","id":"agoiizw32zla"},"type":"Feature","geometry":null},{"properties":{"zip":"98940","non-subsidy":"76.7%","medicaid":"0.0%","subsidy elig":"23.3%","id":"agoiizypzuho"},"type":"Feature","geometry":null},{"properties":{"zip":"98941","non-subsidy":"33.1%","medicaid":"7.4%","subsidy elig":"59.5%","id":"agoij090fv86"},"type":"Feature","geometry":null},{"properties":{"zip":"98942","non-subsidy":"29.1%","medicaid":"11.0%","subsidy elig":"59.9%","id":"agoij019r789"},"type":"Feature","geometry":null},{"properties":{"zip":"98943","non-subsidy":"19.4%","medicaid":"13.1%","subsidy elig":"67.5%","id":"agoij068pk34"},"type":"Feature","geometry":null},{"properties":{"zip":"98944","non-subsidy":"2.5%","medicaid":"46.5%","subsidy elig":"50.9%","id":"agoiizx36o1q"},"type":"Feature","geometry":null},{"properties":{"zip":"98946","non-subsidy":"45.5%","medicaid":"3.3%","subsidy elig":"51.2%","id":"agoij03pnpww"},"type":"Feature","geometry":null},{"properties":{"zip":"98947","non-subsidy":"6.5%","medicaid":"29.5%","subsidy elig":"64.0%","id":"agoiizxtwoup"},"type":"Feature","geometry":null},{"properties":{"zip":"98948","non-subsidy":"0.8%","medicaid":"55.0%","subsidy elig":"44.2%","id":"agoij09166mw"},"type":"Feature","geometry":null},{"properties":{"zip":"98950","non-subsidy":"69.0%","medicaid":"0.0%","subsidy elig":"31.0%","id":"agoiizusvbmn"},"type":"Feature","geometry":null},{"properties":{"zip":"98951","non-subsidy":"1.4%","medicaid":"52.2%","subsidy elig":"46.4%","id":"agoij09jw3wm"},"type":"Feature","geometry":null},{"properties":{"zip":"98952","non-subsidy":"3.2%","medicaid":"42.9%","subsidy elig":"54.0%","id":"agoij05w99ug"},"type":"Feature","geometry":null},{"properties":{"zip":"98953","non-subsidy":"8.0%","medicaid":"18.8%","subsidy elig":"73.2%","id":"agoij09bw02d"},"type":"Feature","geometry":null},{"properties":{"zip":"99001","non-subsidy":"2.9%","medicaid":"50.1%","subsidy elig":"47.0%","id":"agoij06zj2iv"},"type":"Feature","geometry":null},{"properties":{"zip":"99003","non-subsidy":"23.2%","medicaid":"16.5%","subsidy elig":"60.4%","id":"agoiizw4gkv6"},"type":"Feature","geometry":null},{"properties":{"zip":"99004","non-subsidy":"9.1%","medicaid":"42.5%","subsidy elig":"48.4%","id":"agoij00afie5"},"type":"Feature","geometry":null},{"properties":{"zip":"99005","non-subsidy":"60.5%","medicaid":"2.1%","subsidy elig":"37.5%","id":"agoiizyy9hej"},"type":"Feature","geometry":null},{"properties":{"zip":"99006","non-subsidy":"10.3%","medicaid":"27.0%","subsidy elig":"62.7%","id":"agoij06yzz2h"},"type":"Feature","geometry":null},{"properties":{"zip":"99008","non-subsidy":"14.6%","medicaid":"13.8%","subsidy elig":"71.5%","id":"agoij08abali"},"type":"Feature","geometry":null},{"properties":{"zip":"99009","non-subsidy":"10.7%","medicaid":"21.6%","subsidy elig":"67.7%","id":"agoij04tsd2d"},"type":"Feature","geometry":null},{"properties":{"zip":"99011","non-subsidy":"0.2%","medicaid":"65.9%","subsidy elig":"33.9%","id":"agoij09fetjx"},"type":"Feature","geometry":null},{"properties":{"zip":"99012","non-subsidy":"10.1%","medicaid":"26.6%","subsidy elig":"63.3%","id":"agoij09zz7hw"},"type":"Feature","geometry":null},{"properties":{"zip":"99013","non-subsidy":"10.0%","medicaid":"29.7%","subsidy elig":"60.3%","id":"agoij096zr8o"},"type":"Feature","geometry":null},{"properties":{"zip":"99014","non-subsidy":"14.3%","medicaid":"28.6%","subsidy elig":"57.1%","id":"agoiizw054sl"},"type":"Feature","geometry":null},{"properties":{"zip":"99016","non-subsidy":"20.6%","medicaid":"20.2%","subsidy elig":"59.2%","id":"agoiizzma8mq"},"type":"Feature","geometry":null},{"properties":{"zip":"99017","non-subsidy":"7.3%","medicaid":"51.2%","subsidy elig":"41.5%","id":"agoij05izusy"},"type":"Feature","geometry":null},{"properties":{"zip":"99018","non-subsidy":"8.3%","medicaid":"28.3%","subsidy elig":"63.3%","id":"agoij02aqftz"},"type":"Feature","geometry":null},{"properties":{"zip":"99019","non-subsidy":"75.2%","medicaid":"0.6%","subsidy elig":"24.2%","id":"agoij07qu8hq"},"type":"Feature","geometry":null},{"properties":{"zip":"99020","non-subsidy":"17.5%","medicaid":"22.2%","subsidy elig":"60.3%","id":"agoij06jn886"},"type":"Feature","geometry":null},{"properties":{"zip":"99021","non-subsidy":"39.4%","medicaid":"12.9%","subsidy elig":"47.6%","id":"agoij03vu3ri"},"type":"Feature","geometry":null},{"properties":{"zip":"99022","non-subsidy":"19.6%","medicaid":"15.8%","subsidy elig":"64.6%","id":"agoij09d1b1f"},"type":"Feature","geometry":null},{"properties":{"zip":"99023","non-subsidy":"85.7%","medicaid":"0.0%","subsidy elig":"14.3%","id":"agoij035705s"},"type":"Feature","geometry":null},{"properties":{"zip":"99025","non-subsidy":"46.3%","medicaid":"8.3%","subsidy elig":"45.4%","id":"agoij09052ac"},"type":"Feature","geometry":null},{"properties":{"zip":"99026","non-subsidy":"55.4%","medicaid":"5.4%","subsidy elig":"39.2%","id":"agoij03y1th7"},"type":"Feature","geometry":null},{"properties":{"zip":"99027","non-subsidy":"25.8%","medicaid":"19.5%","subsidy elig":"54.8%","id":"agoij0auy6ik"},"type":"Feature","geometry":null},{"properties":{"zip":"99029","non-subsidy":"15.2%","medicaid":"20.2%","subsidy elig":"64.6%","id":"agoij0b5lujo"},"type":"Feature","geometry":null},{"properties":{"zip":"99030","non-subsidy":"21.5%","medicaid":"19.3%","subsidy elig":"59.1%","id":"agoij03btqxb"},"type":"Feature","geometry":null},{"properties":{"zip":"99031","non-subsidy":"35.8%","medicaid":"9.8%","subsidy elig":"54.5%","id":"agoij01z8eqy"},"type":"Feature","geometry":null},{"properties":{"zip":"99032","non-subsidy":"6.9%","medicaid":"48.0%","subsidy elig":"45.1%","id":"agoiizvjcf98"},"type":"Feature","geometry":null},{"properties":{"zip":"99033","non-subsidy":"6.0%","medicaid":"53.2%","subsidy elig":"40.7%","id":"agoij054c8fo"},"type":"Feature","geometry":null},{"properties":{"zip":"99034","non-subsidy":"7.9%","medicaid":"17.5%","subsidy elig":"74.6%","id":"agoij04aozok"},"type":"Feature","geometry":null},{"properties":{"zip":"99036","non-subsidy":"70.4%","medicaid":"2.8%","subsidy elig":"26.9%","id":"agoij0b80atr"},"type":"Feature","geometry":null},{"properties":{"zip":"99037","non-subsidy":"31.1%","medicaid":"15.5%","subsidy elig":"53.4%","id":"agoiizx4g83k"},"type":"Feature","geometry":null},{"properties":{"zip":"99039","non-subsidy":"16.0%","medicaid":"16.0%","subsidy elig":"68.0%","id":"agoij00v4dhv"},"type":"Feature","geometry":null},{"properties":{"zip":"99040","non-subsidy":"1.8%","medicaid":"56.8%","subsidy elig":"41.4%","id":"agoij06ep1iq"},"type":"Feature","geometry":null},{"properties":{"zip":"99101","non-subsidy":"4.3%","medicaid":"44.2%","subsidy elig":"51.6%","id":"agoij0aqnxkg"},"type":"Feature","geometry":null},{"properties":{"zip":"99102","non-subsidy":"19.0%","medicaid":"13.5%","subsidy elig":"67.5%","id":"agoiizwxpa4w"},"type":"Feature","geometry":null},{"properties":{"zip":"99103","non-subsidy":"6.2%","medicaid":"32.1%","subsidy elig":"61.7%","id":"agoiizuxhe51"},"type":"Feature","geometry":null},{"properties":{"zip":"99105","non-subsidy":"40.0%","medicaid":"20.0%","subsidy elig":"40.0%","id":"agoij06l0szw"},"type":"Feature","geometry":null},{"properties":{"zip":"99107","non-subsidy":"25.0%","medicaid":"50.0%","subsidy elig":"25.0%","id":"agoiizvh15hf"},"type":"Feature","geometry":null},{"properties":{"zip":"99109","non-subsidy":"8.1%","medicaid":"43.8%","subsidy elig":"48.1%","id":"agoij06lw92h"},"type":"Feature","geometry":null},{"properties":{"zip":"99110","non-subsidy":"6.6%","medicaid":"37.9%","subsidy elig":"55.5%","id":"agoiizzldgyy"},"type":"Feature","geometry":null},{"properties":{"zip":"99111","non-subsidy":"14.6%","medicaid":"25.4%","subsidy elig":"60.0%","id":"agoiizw48cjo"},"type":"Feature","geometry":null},{"properties":{"zip":"99113","non-subsidy":"32.8%","medicaid":"10.1%","subsidy elig":"57.1%","id":"agoiizwzciq2"},"type":"Feature","geometry":null},{"properties":{"zip":"99114","non-subsidy":"6.9%","medicaid":"39.5%","subsidy elig":"53.6%","id":"agoij04lxkpd"},"type":"Feature","geometry":null},{"properties":{"zip":"99115","non-subsidy":"15.7%","medicaid":"28.7%","subsidy elig":"55.6%","id":"agoij004lfar"},"type":"Feature","geometry":null},{"properties":{"zip":"99116","non-subsidy":"8.5%","medicaid":"25.3%","subsidy elig":"66.3%","id":"agoiizy4bzna"},"type":"Feature","geometry":null},{"properties":{"zip":"99117","non-subsidy":"9.8%","medicaid":"30.4%","subsidy elig":"59.8%","id":"agoij07wgs6m"},"type":"Feature","geometry":null},{"properties":{"zip":"99118","non-subsidy":"4.8%","medicaid":"43.3%","subsidy elig":"52.0%","id":"agoij02vkq40"},"type":"Feature","geometry":null},{"properties":{"zip":"99119","non-subsidy":"8.7%","medicaid":"38.2%","subsidy elig":"53.1%","id":"agoiizwhcp1h"},"type":"Feature","geometry":null},{"properties":{"zip":"99121","non-subsidy":"2.8%","medicaid":"57.5%","subsidy elig":"39.6%","id":"agoij00awn4x"},"type":"Feature","geometry":null},{"properties":{"zip":"99122","non-subsidy":"16.2%","medicaid":"20.0%","subsidy elig":"63.8%","id":"agoij09hdowy"},"type":"Feature","geometry":null},{"properties":{"zip":"99123","non-subsidy":"13.1%","medicaid":"27.9%","subsidy elig":"59.0%","id":"agoij06ysqcg"},"type":"Feature","geometry":null},{"properties":{"zip":"99124","non-subsidy":"6.2%","medicaid":"31.0%","subsidy elig":"62.8%","id":"agoiizys9yl2"},"type":"Feature","geometry":null},{"properties":{"zip":"99125","non-subsidy":"3.5%","medicaid":"50.0%","subsidy elig":"46.5%","id":"agoiizx61r82"},"type":"Feature","geometry":null},{"properties":{"zip":"99126","non-subsidy":"5.2%","medicaid":"47.6%","subsidy elig":"47.1%","id":"agoij05z2jfn"},"type":"Feature","geometry":null},{"properties":{"zip":"99128","non-subsidy":"4.8%","medicaid":"25.8%","subsidy elig":"69.4%","id":"agoij039mqs4"},"type":"Feature","geometry":null},{"properties":{"zip":"99129","non-subsidy":"1.7%","medicaid":"50.3%","subsidy elig":"48.0%","id":"agoiizy6xgpw"},"type":"Feature","geometry":null},{"properties":{"zip":"99130","non-subsidy":"8.6%","medicaid":"28.6%","subsidy elig":"62.7%","id":"agoiizz2llkl"},"type":"Feature","geometry":null},{"properties":{"zip":"99131","non-subsidy":"7.5%","medicaid":"22.5%","subsidy elig":"70.0%","id":"agoij02024k7"},"type":"Feature","geometry":null},{"properties":{"zip":"99133","non-subsidy":"5.1%","medicaid":"45.5%","subsidy elig":"49.4%","id":"agoiizv3q6sq"},"type":"Feature","geometry":null},{"properties":{"zip":"99134","non-subsidy":"5.2%","medicaid":"35.3%","subsidy elig":"59.5%","id":"agoiizwci8qx"},"type":"Feature","geometry":null},{"properties":{"zip":"99135","non-subsidy":"14.3%","medicaid":"31.4%","subsidy elig":"54.3%","id":"agoiizyh97l8"},"type":"Feature","geometry":null},{"properties":{"zip":"99136","non-subsidy":"0.0%","medicaid":"33.3%","subsidy elig":"66.7%","id":"agoij09m1mmk"},"type":"Feature","geometry":null},{"properties":{"zip":"99137","non-subsidy":"8.8%","medicaid":"42.2%","subsidy elig":"49.0%","id":"agoij0726rdy"},"type":"Feature","geometry":null},{"properties":{"zip":"99138","non-subsidy":"1.2%","medicaid":"52.4%","subsidy elig":"46.4%","id":"agoiizvg16rm"},"type":"Feature","geometry":null},{"properties":{"zip":"99139","non-subsidy":"8.1%","medicaid":"35.6%","subsidy elig":"56.3%","id":"agoiizy6vhhb"},"type":"Feature","geometry":null},{"properties":{"zip":"99140","non-subsidy":"0.0%","medicaid":"77.3%","subsidy elig":"22.7%","id":"agoiizvhcvw5"},"type":"Feature","geometry":null},{"properties":{"zip":"99141","non-subsidy":"5.0%","medicaid":"42.7%","subsidy elig":"52.3%","id":"agoij07br9j9"},"type":"Feature","geometry":null},{"properties":{"zip":"99143","non-subsidy":"6.2%","medicaid":"39.2%","subsidy elig":"54.6%","id":"agoij033w6ho"},"type":"Feature","geometry":null},{"properties":{"zip":"99144","non-subsidy":"0.0%","medicaid":"50.0%","subsidy elig":"50.0%","id":"agoij039e3oc"},"type":"Feature","geometry":null},{"properties":{"zip":"99146","non-subsidy":"46.2%","medicaid":"5.1%","subsidy elig":"48.7%","id":"agoij03i744l"},"type":"Feature","geometry":null},{"properties":{"zip":"99147","non-subsidy":"8.0%","medicaid":"52.0%","subsidy elig":"40.0%","id":"agoij04dlxmh"},"type":"Feature","geometry":null},{"properties":{"zip":"99148","non-subsidy":"17.2%","medicaid":"27.4%","subsidy elig":"55.5%","id":"agoij0129n1u"},"type":"Feature","geometry":null},{"properties":{"zip":"99149","non-subsidy":"2.2%","medicaid":"41.3%","subsidy elig":"56.5%","id":"agoiizy3evnx"},"type":"Feature","geometry":null},{"properties":{"zip":"99150","non-subsidy":"3.0%","medicaid":"47.5%","subsidy elig":"49.5%","id":"agoij00931zj"},"type":"Feature","geometry":null},{"properties":{"zip":"99151","non-subsidy":"6.8%","medicaid":"43.2%","subsidy elig":"50.0%","id":"agoij0191frj"},"type":"Feature","geometry":null},{"properties":{"zip":"99152","non-subsidy":"0.0%","medicaid":"53.4%","subsidy elig":"46.6%","id":"agoij09daxi8"},"type":"Feature","geometry":null},{"properties":{"zip":"99153","non-subsidy":"2.3%","medicaid":"41.2%","subsidy elig":"56.5%","id":"agoiizvunkv5"},"type":"Feature","geometry":null},{"properties":{"zip":"99154","non-subsidy":"20.0%","medicaid":"40.0%","subsidy elig":"40.0%","id":"agoij01xo8qo"},"type":"Feature","geometry":null},{"properties":{"zip":"99155","non-subsidy":"1.0%","medicaid":"63.8%","subsidy elig":"35.2%","id":"agoiizy6t2sf"},"type":"Feature","geometry":null},{"properties":{"zip":"99156","non-subsidy":"10.0%","medicaid":"29.7%","subsidy elig":"60.2%","id":"agoij02y8vcg"},"type":"Feature","geometry":null},{"properties":{"zip":"99157","non-subsidy":"2.0%","medicaid":"55.3%","subsidy elig":"42.7%","id":"agoij09p0eqq"},"type":"Feature","geometry":null},{"properties":{"zip":"99158","non-subsidy":"10.9%","medicaid":"26.4%","subsidy elig":"62.7%","id":"agoij01jvhbp"},"type":"Feature","geometry":null},{"properties":{"zip":"99159","non-subsidy":"8.8%","medicaid":"37.8%","subsidy elig":"53.4%","id":"agoij05fnmro"},"type":"Feature","geometry":null},{"properties":{"zip":"99160","non-subsidy":"12.1%","medicaid":"50.0%","subsidy elig":"37.9%","id":"agoij00v5p71"},"type":"Feature","geometry":null},{"properties":{"zip":"99161","non-subsidy":"17.7%","medicaid":"17.7%","subsidy elig":"64.6%","id":"agoij08fbmc3"},"type":"Feature","geometry":null},{"properties":{"zip":"99163","non-subsidy":"10.8%","medicaid":"40.8%","subsidy elig":"48.4%","id":"agoij06sojf0"},"type":"Feature","geometry":null},{"properties":{"zip":"99166","non-subsidy":"6.2%","medicaid":"47.1%","subsidy elig":"46.7%","id":"agoiizxwrbn5"},"type":"Feature","geometry":null},{"properties":{"zip":"99167","non-subsidy":"8.3%","medicaid":"29.0%","subsidy elig":"62.7%","id":"agoij02tiq3c"},"type":"Feature","geometry":null},{"properties":{"zip":"99169","non-subsidy":"8.4%","medicaid":"41.0%","subsidy elig":"50.6%","id":"agoij0anwutc"},"type":"Feature","geometry":null},{"properties":{"zip":"99170","non-subsidy":"14.0%","medicaid":"28.4%","subsidy elig":"57.7%","id":"agoij029bukx"},"type":"Feature","geometry":null},{"properties":{"zip":"99171","non-subsidy":"13.4%","medicaid":"32.8%","subsidy elig":"53.8%","id":"agoij01cvxhv"},"type":"Feature","geometry":null},{"properties":{"zip":"99173","non-subsidy":"4.1%","medicaid":"40.2%","subsidy elig":"55.6%","id":"agoij01tgr1b"},"type":"Feature","geometry":null},{"properties":{"zip":"99174","non-subsidy":"13.6%","medicaid":"27.3%","subsidy elig":"59.1%","id":"agoij039cxby"},"type":"Feature","geometry":null},{"properties":{"zip":"99176","non-subsidy":"7.4%","medicaid":"40.7%","subsidy elig":"51.9%","id":"agoiizuzbcjb"},"type":"Feature","geometry":null},{"properties":{"zip":"99179","non-subsidy":"29.7%","medicaid":"11.9%","subsidy elig":"58.4%","id":"agoiizxp91t2"},"type":"Feature","geometry":null},{"properties":{"zip":"99180","non-subsidy":"16.5%","medicaid":"24.0%","subsidy elig":"59.5%","id":"agoiizw3zr0f"},"type":"Feature","geometry":null},{"properties":{"zip":"99181","non-subsidy":"3.1%","medicaid":"43.0%","subsidy elig":"53.8%","id":"agoij01328ef"},"type":"Feature","geometry":null},{"properties":{"zip":"99185","non-subsidy":"9.3%","medicaid":"27.9%","subsidy elig":"62.8%","id":"agoij08ili4g"},"type":"Feature","geometry":null},{"properties":{"zip":"99201","non-subsidy":"3.4%","medicaid":"64.2%","subsidy elig":"32.4%","id":"agoiizxo3bm5"},"type":"Feature","geometry":null},{"properties":{"zip":"99202","non-subsidy":"3.6%","medicaid":"52.3%","subsidy elig":"44.0%","id":"agoij01sdz35"},"type":"Feature","geometry":null},{"properties":{"zip":"99203","non-subsidy":"57.5%","medicaid":"4.7%","subsidy elig":"37.8%","id":"agoiizwml9an"},"type":"Feature","geometry":null},{"properties":{"zip":"99204","non-subsidy":"4.7%","medicaid":"50.1%","subsidy elig":"45.2%","id":"agoij02ubnfy"},"type":"Feature","geometry":null},{"properties":{"zip":"99205","non-subsidy":"7.1%","medicaid":"31.2%","subsidy elig":"61.7%","id":"agoij09d1nf5"},"type":"Feature","geometry":null},{"properties":{"zip":"99206","non-subsidy":"16.3%","medicaid":"26.9%","subsidy elig":"56.8%","id":"agoij090r43w"},"type":"Feature","geometry":null},{"properties":{"zip":"99207","non-subsidy":"1.3%","medicaid":"56.8%","subsidy elig":"41.8%","id":"agoij06jg8is"},"type":"Feature","geometry":null},{"properties":{"zip":"99208","non-subsidy":"28.7%","medicaid":"21.6%","subsidy elig":"49.7%","id":"agoiizur1fwb"},"type":"Feature","geometry":null},{"properties":{"zip":"99209","non-subsidy":"13.8%","medicaid":"14.1%","subsidy elig":"72.1%","id":"agoij091k3o8"},"type":"Feature","geometry":null},{"properties":{"zip":"99210","non-subsidy":"20.1%","medicaid":"21.8%","subsidy elig":"58.1%","id":"agoij03zo1pw"},"type":"Feature","geometry":null},{"properties":{"zip":"99211","non-subsidy":"16.4%","medicaid":"19.7%","subsidy elig":"63.9%","id":"agoij04w1ms5"},"type":"Feature","geometry":null},{"properties":{"zip":"99212","non-subsidy":"15.7%","medicaid":"29.0%","subsidy elig":"55.2%","id":"agoij02kj14h"},"type":"Feature","geometry":null},{"properties":{"zip":"99213","non-subsidy":"9.8%","medicaid":"21.0%","subsidy elig":"69.2%","id":"agoij012r082"},"type":"Feature","geometry":null},{"properties":{"zip":"99214","non-subsidy":"8.8%","medicaid":"19.2%","subsidy elig":"72.0%","id":"agoiizz6hjal"},"type":"Feature","geometry":null},{"properties":{"zip":"99215","non-subsidy":"8.9%","medicaid":"8.9%","subsidy elig":"82.1%","id":"agoiizzksjyc"},"type":"Feature","geometry":null},{"properties":{"zip":"99216","non-subsidy":"8.7%","medicaid":"32.5%","subsidy elig":"58.8%","id":"agoij04qlixi"},"type":"Feature","geometry":null},{"properties":{"zip":"99217","non-subsidy":"12.1%","medicaid":"35.3%","subsidy elig":"52.5%","id":"agoij0090i9c"},"type":"Feature","geometry":null},{"properties":{"zip":"99218","non-subsidy":"32.2%","medicaid":"19.9%","subsidy elig":"47.9%","id":"agoij02t2tx6"},"type":"Feature","geometry":null},{"properties":{"zip":"99219","non-subsidy":"12.1%","medicaid":"21.5%","subsidy elig":"66.4%","id":"agoij09a3dku"},"type":"Feature","geometry":null},{"properties":{"zip":"99220","non-subsidy":"19.9%","medicaid":"23.7%","subsidy elig":"56.4%","id":"agoij09eeamx"},"type":"Feature","geometry":null},{"properties":{"zip":"99223","non-subsidy":"51.0%","medicaid":"6.0%","subsidy elig":"43.1%","id":"agoij018si0g"},"type":"Feature","geometry":null},{"properties":{"zip":"99224","non-subsidy":"35.1%","medicaid":"15.5%","subsidy elig":"49.3%","id":"agoij01oe61x"},"type":"Feature","geometry":null},{"properties":{"zip":"99228","non-subsidy":"20.0%","medicaid":"12.8%","subsidy elig":"67.2%","id":"agoij05oicj6"},"type":"Feature","geometry":null},{"properties":{"zip":"99301","non-subsidy":"24.2%","medicaid":"18.7%","subsidy elig":"57.1%","id":"agoiizve9pth"},"type":"Feature","geometry":null},{"properties":{"zip":"99302","non-subsidy":"35.1%","medicaid":"7.8%","subsidy elig":"57.0%","id":"agoiizzck8y3"},"type":"Feature","geometry":null},{"properties":{"zip":"99320","non-subsidy":"23.9%","medicaid":"19.0%","subsidy elig":"57.1%","id":"agoij00lje8j"},"type":"Feature","geometry":null},{"properties":{"zip":"99321","non-subsidy":"0.0%","medicaid":"48.8%","subsidy elig":"51.2%","id":"agoiizxhadl5"},"type":"Feature","geometry":null},{"properties":{"zip":"99322","non-subsidy":"18.6%","medicaid":"18.6%","subsidy elig":"62.7%","id":"agoij01t3zvn"},"type":"Feature","geometry":null},{"properties":{"zip":"99323","non-subsidy":"37.6%","medicaid":"6.4%","subsidy elig":"56.0%","id":"agoij05gjls9"},"type":"Feature","geometry":null},{"properties":{"zip":"99324","non-subsidy":"13.9%","medicaid":"25.4%","subsidy elig":"60.7%","id":"agoij046iftg"},"type":"Feature","geometry":null},{"properties":{"zip":"99326","non-subsidy":"16.4%","medicaid":"10.7%","subsidy elig":"72.9%","id":"agoij0a0ey0v"},"type":"Feature","geometry":null},{"properties":{"zip":"99328","non-subsidy":"11.8%","medicaid":"31.8%","subsidy elig":"56.4%","id":"agoiizy3ehy1"},"type":"Feature","geometry":null},{"properties":{"zip":"99329","non-subsidy":"31.6%","medicaid":"5.3%","subsidy elig":"63.2%","id":"agoij02joeh8"},"type":"Feature","geometry":null},{"properties":{"zip":"99330","non-subsidy":"12.9%","medicaid":"21.9%","subsidy elig":"65.2%","id":"agoij03augf0"},"type":"Feature","geometry":null},{"properties":{"zip":"99333","non-subsidy":"10.0%","medicaid":"60.0%","subsidy elig":"30.0%","id":"agoij08f2cd3"},"type":"Feature","geometry":null},{"properties":{"zip":"99335","non-subsidy":"5.9%","medicaid":"35.3%","subsidy elig":"58.8%","id":"agoij03sukat"},"type":"Feature","geometry":null},{"properties":{"zip":"99336","non-subsidy":"12.4%","medicaid":"27.9%","subsidy elig":"59.7%","id":"agoij09cu9ae"},"type":"Feature","geometry":null},{"properties":{"zip":"99337","non-subsidy":"38.9%","medicaid":"9.1%","subsidy elig":"51.9%","id":"agoij08is7ty"},"type":"Feature","geometry":null},{"properties":{"zip":"99338","non-subsidy":"73.1%","medicaid":"3.2%","subsidy elig":"23.7%","id":"agoiizvd5ifz"},"type":"Feature","geometry":null},{"properties":{"zip":"99341","non-subsidy":"5.9%","medicaid":"44.6%","subsidy elig":"49.5%","id":"agoiizxuztwp"},"type":"Feature","geometry":null},{"properties":{"zip":"99343","non-subsidy":"12.8%","medicaid":"23.7%","subsidy elig":"63.5%","id":"agoiizx2n76w"},"type":"Feature","geometry":null},{"properties":{"zip":"99344","non-subsidy":"7.5%","medicaid":"25.7%","subsidy elig":"66.8%","id":"agoiizy4ov7e"},"type":"Feature","geometry":null},{"properties":{"zip":"99345","non-subsidy":"10.0%","medicaid":"30.0%","subsidy elig":"60.0%","id":"agoiizyi3qlf"},"type":"Feature","geometry":null},{"properties":{"zip":"99346","non-subsidy":"6.8%","medicaid":"19.2%","subsidy elig":"74.0%","id":"agoij030udlp"},"type":"Feature","geometry":null},{"properties":{"zip":"99347","non-subsidy":"8.2%","medicaid":"34.4%","subsidy elig":"57.4%","id":"agoij00lrfdf"},"type":"Feature","geometry":null},{"properties":{"zip":"99348","non-subsidy":"5.6%","medicaid":"31.8%","subsidy elig":"62.6%","id":"agoij069jxbj"},"type":"Feature","geometry":null},{"properties":{"zip":"99349","non-subsidy":"4.0%","medicaid":"29.6%","subsidy elig":"66.4%","id":"agoij00aeh03"},"type":"Feature","geometry":null},{"properties":{"zip":"99350","non-subsidy":"10.9%","medicaid":"22.8%","subsidy elig":"66.3%","id":"agoij06rhp6r"},"type":"Feature","geometry":null},{"properties":{"zip":"99352","non-subsidy":"54.1%","medicaid":"9.3%","subsidy elig":"36.6%","id":"agoij02496zm"},"type":"Feature","geometry":null},{"properties":{"zip":"99353","non-subsidy":"51.6%","medicaid":"3.8%","subsidy elig":"44.6%","id":"agoij00d748m"},"type":"Feature","geometry":null},{"properties":{"zip":"99354","non-subsidy":"40.8%","medicaid":"10.6%","subsidy elig":"48.6%","id":"agoiizw3qqjl"},"type":"Feature","geometry":null},{"properties":{"zip":"99356","non-subsidy":"35.8%","medicaid":"5.7%","subsidy elig":"58.5%","id":"agoij033kf8q"},"type":"Feature","geometry":null},{"properties":{"zip":"99357","non-subsidy":"2.4%","medicaid":"37.7%","subsidy elig":"59.9%","id":"agoij06wzf2t"},"type":"Feature","geometry":null},{"properties":{"zip":"99359","non-subsidy":"2.4%","medicaid":"38.1%","subsidy elig":"59.5%","id":"agoiizuvn733"},"type":"Feature","geometry":null},{"properties":{"zip":"99360","non-subsidy":"27.6%","medicaid":"9.3%","subsidy elig":"63.1%","id":"agoij05op4ht"},"type":"Feature","geometry":null},{"properties":{"zip":"99361","non-subsidy":"13.3%","medicaid":"20.2%","subsidy elig":"66.5%","id":"agoij06q3fu3"},"type":"Feature","geometry":null},{"properties":{"zip":"99362","non-subsidy":"19.4%","medicaid":"26.0%","subsidy elig":"54.6%","id":"agoij0allxvy"},"type":"Feature","geometry":null},{"properties":{"zip":"99363","non-subsidy":"33.3%","medicaid":"8.9%","subsidy elig":"57.8%","id":"agoiizxozv7p"},"type":"Feature","geometry":null},{"properties":{"zip":"99371","non-subsidy":"9.1%","medicaid":"34.1%","subsidy elig":"56.8%","id":"agoiizwhcbmh"},"type":"Feature","geometry":null},{"properties":{"zip":"99401","non-subsidy":"9.3%","medicaid":"25.9%","subsidy elig":"64.8%","id":"agoiizy62q8f"},"type":"Feature","geometry":null},{"properties":{"zip":"99402","non-subsidy":"19.2%","medicaid":"25.3%","subsidy elig":"55.5%","id":"agoiizy4msk0"},"type":"Feature","geometry":null},{"properties":{"zip":"99403","non-subsidy":"8.8%","medicaid":"49.9%","subsidy elig":"41.3%","id":"agoij04hhlf7"},"type":"Feature","geometry":null}],"is_temporal":false,"author":{"url":null,"metadata":null,"contact_name":null,"contact_address":null,"source":null,"contact_phone":null},"source":null,"pagination":{"sort":null,"start":0,"total":683,"limit":1000000},"state":"errored","tags":"","published":"2014-08-16T23:24:11-04:00","id":388838}