{"type":"FeatureCollection","data_type":"Dataset","url_type":null,"permissions":[{"permissions":{"download":true,"view":true},"group_id":"everyone"}],"classification":null,"title":"Spouse zip","count":459,"stream_id":389760,"contributor":{"url":"http://geocommons.com/users/80978","name":"sturner4470"},"data_attributes":null,"calculation_params":null,"icon_link":null,"link":"http://geocommons.com/overlays/389760.json","extent":[-158.091,13.4443,144.786,64.8328],"geometry_types":["point"],"unique_name":null,"name":"Spouse zip","feature_count":459,"description":"","next_feature":null,"is_raster":false,"short_classification":"Y","stats":{},"features":[{"properties":{"zip":"22079","geo_score":0.714,"id":"agrubwyi3axe","geo_precision":"zip"},"type":"Feature","geometry":{"type":"Point","coordinates":[-77.234149,38.668728]}},{"properties":{"zip":"23454","geo_score":0.714,"id":"agrubx79hzq1","geo_precision":"zip"},"type":"Feature","geometry":{"type":"Point","coordinates":[-76.041876,36.88237]}},{"properties":{"zip":"32578","geo_score":0.714,"id":"agrubwxyll9m","geo_precision":"zip"},"type":"Feature","geometry":{"type":"Point","coordinates":[-86.409948,30.479087]}},{"properties":{"zip":"30742","geo_score":0.714,"id":"agrubwxn9gug","geo_precision":"zip"},"type":"Feature","geometry":{"type":"Point","coordinates":[-85.175034,34.931497]}},{"properties":{"zip":"76542","geo_score":0.714,"id":"agrubwxqycd3","geo_precision":"zip"},"type":"Feature","geometry":{"type":"Point","coordinates":[-97.680866,31.03757]}},{"properties":{"zip":"10996","geo_score":0.714,"id":"agrubwta2hiq","geo_precision":"zip"},"type":"Feature","geometry":{"type":"Point","coordinates":[-73.998375,41.36471]}},{"properties":{"zip":"78261","geo_score":0.714,"id":"agrubx3sm8xa","geo_precision":"zip"},"type":"Feature","geometry":{"type":"Point","coordinates":[-98.461582,29.437532]}},{"properties":{"zip":"22315","geo_score":0.714,"id":"agrubx6c1x9l","geo_precision":"zip"},"type":"Feature","geometry":{"type":"Point","coordinates":[-77.147646,38.756466]}},{"properties":{"zip":"88101","geo_score":0.714,"id":"agrubx281th6","geo_precision":"zip"},"type":"Feature","geometry":{"type":"Point","coordinates":[-103.09078,34.777566]}},{"properties":{"zip":"10996","geo_score":0.714,"id":"agrubwwrpd4m","geo_precision":"zip"},"type":"Feature","geometry":{"type":"Point","coordinates":[-73.998375,41.36471]}},{"properties":{"zip":"32566","geo_score":0.714,"id":"agrubwt5oo5s","geo_precision":"zip"},"type":"Feature","geometry":{"type":"Point","coordinates":[-86.281889,30.988514]}},{"properties":{"zip":"21286","geo_score":0.714,"id":"agrubx7x1802","geo_precision":"zip"},"type":"Feature","geometry":{"type":"Point","coordinates":[-76.578856,39.397607]}},{"properties":{"zip":"66046","geo_score":0.714,"id":"agrubwt1nket","geo_precision":"zip"},"type":"Feature","geometry":{"type":"Point","coordinates":[-95.315453,38.878682]}},{"properties":{"zip":"22101","geo_score":0.714,"id":"agrubx2bz01w","geo_precision":"zip"},"type":"Feature","geometry":{"type":"Point","coordinates":[-77.18672,38.935202]}},{"properties":{"zip":"33621","geo_score":0.714,"id":"agrubwxqgzhi","geo_precision":"zip"},"type":"Feature","geometry":{"type":"Point","coordinates":[-82.494582,27.849135]}},{"properties":{"zip":"76548","geo_score":0.714,"id":"agrubx0o69dp","geo_precision":"zip"},"type":"Feature","geometry":{"type":"Point","coordinates":[-97.611484,31.028627]}},{"properties":{"zip":"76544","geo_score":0.714,"id":"agrubx78iywp","geo_precision":"zip"},"type":"Feature","geometry":{"type":"Point","coordinates":[-97.759186,31.134063]}},{"properties":{"zip":"37040","geo_score":0.714,"id":"agrubx1ijwee","geo_precision":"zip"},"type":"Feature","geometry":{"type":"Point","coordinates":[-87.184727,36.463938]}},{"properties":{"zip":"22207","geo_score":0.714,"id":"agrubwzc7znr","geo_precision":"zip"},"type":"Feature","geometry":{"type":"Point","coordinates":[-77.122344,38.907416]}},{"properties":{"zip":"76548","geo_score":0.714,"id":"agrubx6vl3ee","geo_precision":"zip"},"type":"Feature","geometry":{"type":"Point","coordinates":[-97.611484,31.028627]}},{"properties":{"zip":"53186","geo_score":0.714,"id":"agrubwvpgfgk","geo_precision":"zip"},"type":"Feature","geometry":{"type":"Point","coordinates":[-88.217715,42.987835]}},{"properties":{"zip":"93551","geo_score":0.714,"id":"agrubx4bwizu","geo_precision":"zip"},"type":"Feature","geometry":{"type":"Point","coordinates":[-118.218131,34.645265]}},{"properties":{"zip":"20171","geo_score":0.714,"id":"agrubx92c0s6","geo_precision":"zip"},"type":"Feature","geometry":{"type":"Point","coordinates":[-77.39284,38.92518]}},{"properties":{"zip":"22314","geo_score":0.714,"id":"agrubx598n9z","geo_precision":"zip"},"type":"Feature","geometry":{"type":"Point","coordinates":[-77.063587,38.811436]}},{"properties":{"zip":"80817","geo_score":0.714,"id":"agrubwuorub0","geo_precision":"zip"},"type":"Feature","geometry":{"type":"Point","coordinates":[-104.652221,38.663856]}},{"properties":{"zip":"96818","geo_score":0.714,"id":"agrubx1frlfb","geo_precision":"zip"},"type":"Feature","geometry":{"type":"Point","coordinates":[-157.93965,21.347951]}},{"properties":{"zip":"20688","geo_score":0.714,"id":"agrubx05l835","geo_precision":"zip"},"type":"Feature","geometry":{"type":"Point","coordinates":[-76.463563,38.329013]}},{"properties":{"zip":"98433","geo_score":0.714,"id":"agrubx656rr8","geo_precision":"zip"},"type":"Feature","geometry":{"type":"Point","coordinates":[-122.491749,47.126735]}},{"properties":{"zip":"98208","geo_score":0.714,"id":"agrubx1pwqd7","geo_precision":"zip"},"type":"Feature","geometry":{"type":"Point","coordinates":[-122.190392,47.897284]}},{"properties":{"zip":"22031","geo_score":0.714,"id":"agrubwy1438a","geo_precision":"zip"},"type":"Feature","geometry":{"type":"Point","coordinates":[-77.284195,38.853962]}},{"properties":{"zip":"80817","geo_score":0.714,"id":"agrubwszbsfl","geo_precision":"zip"},"type":"Feature","geometry":{"type":"Point","coordinates":[-104.652221,38.663856]}},{"properties":{"zip":"80916","geo_score":0.714,"id":"agrubwzwb1so","geo_precision":"zip"},"type":"Feature","geometry":{"type":"Point","coordinates":[-104.718555,38.81033]}},{"properties":{"zip":"17013","geo_score":0.714,"id":"agrubwt6a3mh","geo_precision":"zip"},"type":"Feature","geometry":{"type":"Point","coordinates":[-77.164425,40.27092]}},{"properties":{"zip":"22182","geo_score":0.714,"id":"agrubx94nenc","geo_precision":"zip"},"type":"Feature","geometry":{"type":"Point","coordinates":[-77.268022,38.935292]}},{"properties":{"zip":"22309","geo_score":0.714,"id":"agrubx710jrf","geo_precision":"zip"},"type":"Feature","geometry":{"type":"Point","coordinates":[-77.100812,38.71706]}},{"properties":{"zip":"96202","geo_score":0.0,"id":"agrubwy81woc","geo_precision":"unmatched"},"type":"Feature","geometry":null},{"properties":{"zip":"66027","geo_score":0.714,"id":"agrubx2vh2eh","geo_precision":"zip"},"type":"Feature","geometry":{"type":"Point","coordinates":[-94.931329,39.346798]}},{"properties":{"zip":"99703","geo_score":0.714,"id":"agrubx4xy39u","geo_precision":"zip"},"type":"Feature","geometry":{"type":"Point","coordinates":[-147.64418,64.832821]}},{"properties":{"zip":"13603","geo_score":0.714,"id":"agrubwuh9fme","geo_precision":"zip"},"type":"Feature","geometry":{"type":"Point","coordinates":[-75.896719,43.908739]}},{"properties":{"zip":"76544","geo_score":0.714,"id":"agrubwusjznq","geo_precision":"zip"},"type":"Feature","geometry":{"type":"Point","coordinates":[-97.759186,31.134063]}},{"properties":{"zip":"37042","geo_score":0.714,"id":"agrubx01hki3","geo_precision":"zip"},"type":"Feature","geometry":{"type":"Point","coordinates":[-87.220839,36.506437]}},{"properties":{"zip":"60088","geo_score":0.714,"id":"agrubx2nlxkp","geo_precision":"zip"},"type":"Feature","geometry":{"type":"Point","coordinates":[-87.85427,42.309272]}},{"properties":{"zip":"23509","geo_score":0.714,"id":"agrubx4vx9k9","geo_precision":"zip"},"type":"Feature","geometry":{"type":"Point","coordinates":[-76.261511,36.881197]}},{"properties":{"zip":"31522","geo_score":0.714,"id":"agrubx7fqi99","geo_precision":"zip"},"type":"Feature","geometry":{"type":"Point","coordinates":[-81.376763,31.188564]}},{"properties":{"zip":"79938","geo_score":0.714,"id":"agrubx3yjd73","geo_precision":"zip"},"type":"Feature","geometry":{"type":"Point","coordinates":[-106.3044,31.849828]}},{"properties":{"zip":"36330","geo_score":0.714,"id":"agrubwxx1rhd","geo_precision":"zip"},"type":"Feature","geometry":{"type":"Point","coordinates":[-85.825492,31.282672]}},{"properties":{"zip":"76571","geo_score":0.714,"id":"agrubx73e1gq","geo_precision":"zip"},"type":"Feature","geometry":{"type":"Point","coordinates":[-97.580288,30.884074]}},{"properties":{"zip":"32578","geo_score":0.714,"id":"agrubx4igkwq","geo_precision":"zip"},"type":"Feature","geometry":{"type":"Point","coordinates":[-86.409948,30.479087]}},{"properties":{"zip":"78628","geo_score":0.714,"id":"agrubwtcxb54","geo_precision":"zip"},"type":"Feature","geometry":{"type":"Point","coordinates":[-97.852238,30.78213]}},{"properties":{"zip":"76542","geo_score":0.714,"id":"agrubwumc0jf","geo_precision":"zip"},"type":"Feature","geometry":{"type":"Point","coordinates":[-97.680866,31.03757]}},{"properties":{"zip":"79906","geo_score":0.714,"id":"agrubx5wmjjf","geo_precision":"zip"},"type":"Feature","geometry":{"type":"Point","coordinates":[-106.41224,31.813569]}},{"properties":{"zip":"42701","geo_score":0.714,"id":"agrubx6dufav","geo_precision":"zip"},"type":"Feature","geometry":{"type":"Point","coordinates":[-85.966352,37.698397]}},{"properties":{"zip":"22310","geo_score":0.714,"id":"agrubwxn1rpy","geo_precision":"zip"},"type":"Feature","geometry":{"type":"Point","coordinates":[-77.104701,38.789002]}},{"properties":{"zip":"31425","geo_score":0.714,"id":"agrubwvca4x5","geo_precision":"zip"},"type":"Feature","geometry":{"type":"Point","coordinates":[-81.099834,32.083541]}},{"properties":{"zip":"22206","geo_score":0.714,"id":"agrubx7w70f8","geo_precision":"zip"},"type":"Feature","geometry":{"type":"Point","coordinates":[-77.088312,38.841779]}},{"properties":{"zip":"88002","geo_score":0.714,"id":"agrubx3grk90","geo_precision":"zip"},"type":"Feature","geometry":{"type":"Point","coordinates":[-106.493675,32.383871]}},{"properties":{"zip":"98327","geo_score":0.714,"id":"agrubx6hvx2j","geo_precision":"zip"},"type":"Feature","geometry":{"type":"Point","coordinates":[-122.656691,47.090904]}},{"properties":{"zip":"76542","geo_score":0.714,"id":"agrubx1qo8xx","geo_precision":"zip"},"type":"Feature","geometry":{"type":"Point","coordinates":[-97.680866,31.03757]}},{"properties":{"zip":"98433","geo_score":0.714,"id":"agrubwxt0y7z","geo_precision":"zip"},"type":"Feature","geometry":{"type":"Point","coordinates":[-122.491749,47.126735]}},{"properties":{"zip":"98433","geo_score":0.714,"id":"agrubx2oxegw","geo_precision":"zip"},"type":"Feature","geometry":{"type":"Point","coordinates":[-122.491749,47.126735]}},{"properties":{"zip":"76502","geo_score":0.714,"id":"agrubwu89djw","geo_precision":"zip"},"type":"Feature","geometry":{"type":"Point","coordinates":[-97.402704,31.104581]}},{"properties":{"zip":"78234","geo_score":0.714,"id":"agrubx0wyl1i","geo_precision":"zip"},"type":"Feature","geometry":{"type":"Point","coordinates":[-98.461582,29.437532]}},{"properties":{"zip":"42701","geo_score":0.714,"id":"agrubx5e4lqu","geo_precision":"zip"},"type":"Feature","geometry":{"type":"Point","coordinates":[-85.966352,37.698397]}},{"properties":{"zip":"31419","geo_score":0.714,"id":"agrubwwvwdl2","geo_precision":"zip"},"type":"Feature","geometry":{"type":"Point","coordinates":[-81.214369,32.008492]}},{"properties":{"zip":"92310","geo_score":0.714,"id":"agrubww1mcma","geo_precision":"zip"},"type":"Feature","geometry":{"type":"Point","coordinates":[-116.696561,35.262453]}},{"properties":{"zip":"76544","geo_score":0.714,"id":"agrubx8u7gxw","geo_precision":"zip"},"type":"Feature","geometry":{"type":"Point","coordinates":[-97.759186,31.134063]}},{"properties":{"zip":"80919","geo_score":0.714,"id":"agrubx3e6i5e","geo_precision":"zip"},"type":"Feature","geometry":{"type":"Point","coordinates":[-104.917436,38.938149]}},{"properties":{"zip":"28374","geo_score":0.714,"id":"agrubwze57fh","geo_precision":"zip"},"type":"Feature","geometry":{"type":"Point","coordinates":[-79.485865,35.207656]}},{"properties":{"zip":"13603","geo_score":0.714,"id":"agrubx5bm1l1","geo_precision":"zip"},"type":"Feature","geometry":{"type":"Point","coordinates":[-75.896719,43.908739]}},{"properties":{"zip":"29072","geo_score":0.714,"id":"agrubwwzaz3x","geo_precision":"zip"},"type":"Feature","geometry":{"type":"Point","coordinates":[-81.253034,33.976907]}},{"properties":{"zip":"96819","geo_score":0.714,"id":"agrubx3b5o0d","geo_precision":"zip"},"type":"Feature","geometry":{"type":"Point","coordinates":[-157.901979,21.373179]}},{"properties":{"zip":"98597","geo_score":0.714,"id":"agrubwx8cy67","geo_precision":"zip"},"type":"Feature","geometry":{"type":"Point","coordinates":[-122.589568,46.932877]}},{"properties":{"zip":"77482","geo_score":0.714,"id":"agrubx83yk4j","geo_precision":"zip"},"type":"Feature","geometry":{"type":"Point","coordinates":[-95.890495,29.015988]}},{"properties":{"zip":"22205","geo_score":0.714,"id":"agrubwxjnbo9","geo_precision":"zip"},"type":"Feature","geometry":{"type":"Point","coordinates":[-77.140021,38.875811]}},{"properties":{"zip":"31324","geo_score":0.714,"id":"agrubx76ufez","geo_precision":"zip"},"type":"Feature","geometry":{"type":"Point","coordinates":[-81.364277,31.913821]}},{"properties":{"zip":"17013","geo_score":0.714,"id":"agrubx7astwl","geo_precision":"zip"},"type":"Feature","geometry":{"type":"Point","coordinates":[-77.164425,40.27092]}},{"properties":{"zip":"10996","geo_score":0.714,"id":"agrubx0n3fbx","geo_precision":"zip"},"type":"Feature","geometry":{"type":"Point","coordinates":[-73.998375,41.36471]}},{"properties":{"zip":"19087","geo_score":0.714,"id":"agrubx2mi0jr","geo_precision":"zip"},"type":"Feature","geometry":{"type":"Point","coordinates":[-75.393522,40.072886]}},{"properties":{"zip":"98467","geo_score":0.714,"id":"agrubx412ljm","geo_precision":"zip"},"type":"Feature","geometry":{"type":"Point","coordinates":[-122.532335,47.18717]}},{"properties":{"zip":"42224","geo_score":0.0,"id":"agrubwxklyn9","geo_precision":"unmatched"},"type":"Feature","geometry":null},{"properties":{"zip":"73505","geo_score":0.714,"id":"agrubwxi8e63","geo_precision":"zip"},"type":"Feature","geometry":{"type":"Point","coordinates":[-98.436365,34.678734]}},{"properties":{"zip":"17013","geo_score":0.714,"id":"agrubx5497fl","geo_precision":"zip"},"type":"Feature","geometry":{"type":"Point","coordinates":[-77.164425,40.27092]}},{"properties":{"zip":"92058","geo_score":0.714,"id":"agrubx415w00","geo_precision":"zip"},"type":"Feature","geometry":{"type":"Point","coordinates":[-116.846046,33.016928]}},{"properties":{"zip":"79936","geo_score":0.714,"id":"agrubwub4ifo","geo_precision":"zip"},"type":"Feature","geometry":{"type":"Point","coordinates":[-106.243004,31.711209]}},{"properties":{"zip":"90293","geo_score":0.714,"id":"agrubwtj5ire","geo_precision":"zip"},"type":"Feature","geometry":{"type":"Point","coordinates":[-118.298662,33.786594]}},{"properties":{"zip":"96786","geo_score":0.714,"id":"agrubwtmply7","geo_precision":"zip"},"type":"Feature","geometry":{"type":"Point","coordinates":[-158.016389,21.4675]}},{"properties":{"zip":"96204","geo_score":0.0,"id":"agrubx7lfkw7","geo_precision":"unmatched"},"type":"Feature","geometry":null},{"properties":{"zip":"31909","geo_score":0.714,"id":"agrubx1wg7qd","geo_precision":"zip"},"type":"Feature","geometry":{"type":"Point","coordinates":[-84.920187,32.542198]}},{"properties":{"zip":"40121","geo_score":0.714,"id":"agrubx3xvs85","geo_precision":"zip"},"type":"Feature","geometry":{"type":"Point","coordinates":[-85.952833,37.899466]}},{"properties":{"zip":"22079","geo_score":0.714,"id":"agrubwtdmmok","geo_precision":"zip"},"type":"Feature","geometry":{"type":"Point","coordinates":[-77.234149,38.668728]}},{"properties":{"zip":"85307","geo_score":0.714,"id":"agrubx25iz0m","geo_precision":"zip"},"type":"Feature","geometry":{"type":"Point","coordinates":[-112.18717,33.276539]}},{"properties":{"zip":"22152","geo_score":0.714,"id":"agrubwwspvu6","geo_precision":"zip"},"type":"Feature","geometry":{"type":"Point","coordinates":[-77.221094,38.772614]}},{"properties":{"zip":"23454","geo_score":0.714,"id":"agrubx97fp4n","geo_precision":"zip"},"type":"Feature","geometry":{"type":"Point","coordinates":[-76.041876,36.88237]}},{"properties":{"zip":"87112","geo_score":0.714,"id":"agrubx7obim3","geo_precision":"zip"},"type":"Feature","geometry":{"type":"Point","coordinates":[-106.444113,35.085042]}},{"properties":{"zip":"22309","geo_score":0.714,"id":"agrubx0t8stt","geo_precision":"zip"},"type":"Feature","geometry":{"type":"Point","coordinates":[-77.100812,38.71706]}},{"properties":{"zip":"92124","geo_score":0.714,"id":"agrubwv4arve","geo_precision":"zip"},"type":"Feature","geometry":{"type":"Point","coordinates":[-117.082387,32.818733]}},{"properties":{"zip":"28460","geo_score":0.714,"id":"agrubwuguo1y","geo_precision":"zip"},"type":"Feature","geometry":{"type":"Point","coordinates":[-77.367738,34.550721]}},{"properties":{"zip":"23323","geo_score":0.714,"id":"agrubx320wjc","geo_precision":"zip"},"type":"Feature","geometry":{"type":"Point","coordinates":[-76.16299,36.630429]}},{"properties":{"zip":"72076","geo_score":0.714,"id":"agrubx2cdker","geo_precision":"zip"},"type":"Feature","geometry":{"type":"Point","coordinates":[-92.15149,34.918774]}},{"properties":{"zip":"98374","geo_score":0.714,"id":"agrubwxg1y48","geo_precision":"zip"},"type":"Feature","geometry":{"type":"Point","coordinates":[-122.258646,47.139095]}},{"properties":{"zip":"28532","geo_score":0.714,"id":"agrubx4sn8vy","geo_precision":"zip"},"type":"Feature","geometry":{"type":"Point","coordinates":[-77.053443,35.028677]}},{"properties":{"zip":"80840","geo_score":0.714,"id":"agrubwx5jo8t","geo_precision":"zip"},"type":"Feature","geometry":{"type":"Point","coordinates":[-104.86375,38.994252]}},{"properties":{"zip":"92277","geo_score":0.714,"id":"agrubx8gvzhv","geo_precision":"zip"},"type":"Feature","geometry":{"type":"Point","coordinates":[-116.235073,34.234411]}},{"properties":{"zip":"80906","geo_score":0.714,"id":"agrubwtc0o4r","geo_precision":"zip"},"type":"Feature","geometry":{"type":"Point","coordinates":[-104.835252,38.810548]}},{"properties":{"zip":"66048","geo_score":0.714,"id":"agrubwwsue50","geo_precision":"zip"},"type":"Feature","geometry":{"type":"Point","coordinates":[-94.971076,39.398887]}},{"properties":{"zip":"36113","geo_score":0.714,"id":"agrubwuea6rt","geo_precision":"zip"},"type":"Feature","geometry":{"type":"Point","coordinates":[-86.303868,32.384587]}},{"properties":{"zip":"76905","geo_score":0.714,"id":"agrubwy17qqs","geo_precision":"zip"},"type":"Feature","geometry":{"type":"Point","coordinates":[-100.301587,31.441909]}},{"properties":{"zip":"21853","geo_score":0.714,"id":"agrubx6mi11f","geo_precision":"zip"},"type":"Feature","geometry":{"type":"Point","coordinates":[-75.820486,38.187067]}},{"properties":{"zip":"80902","geo_score":0.714,"id":"agrubx909sur","geo_precision":"zip"},"type":"Feature","geometry":{"type":"Point","coordinates":[-104.821363,38.833882]}},{"properties":{"zip":"28307","geo_score":0.714,"id":"agrubx2ymkl0","geo_precision":"zip"},"type":"Feature","geometry":{"type":"Point","coordinates":[-78.987942,35.140193]}},{"properties":{"zip":"28547","geo_score":0.714,"id":"agrubwyh43mq","geo_precision":"zip"},"type":"Feature","geometry":{"type":"Point","coordinates":[-77.361429,34.690934]}},{"properties":{"zip":"32544","geo_score":0.714,"id":"agrubx925skj","geo_precision":"zip"},"type":"Feature","geometry":{"type":"Point","coordinates":[-86.698525,30.422926]}},{"properties":{"zip":"76544","geo_score":0.714,"id":"agrubwymjym0","geo_precision":"zip"},"type":"Feature","geometry":{"type":"Point","coordinates":[-97.759186,31.134063]}},{"properties":{"zip":"91913","geo_score":0.714,"id":"agrubx1zule7","geo_precision":"zip"},"type":"Feature","geometry":{"type":"Point","coordinates":[-116.984669,32.639967]}},{"properties":{"zip":"85653","geo_score":0.714,"id":"agrubwxq36oz","geo_precision":"zip"},"type":"Feature","geometry":{"type":"Point","coordinates":[-111.159344,32.442979]}},{"properties":{"zip":"78253","geo_score":0.714,"id":"agrubx5i8i5r","geo_precision":"zip"},"type":"Feature","geometry":{"type":"Point","coordinates":[-98.757439,29.471977]}},{"properties":{"zip":"31088","geo_score":0.714,"id":"agrubx3p5pl4","geo_precision":"zip"},"type":"Feature","geometry":{"type":"Point","coordinates":[-83.644751,32.555039]}},{"properties":{"zip":"80902","geo_score":0.714,"id":"agrubww82i90","geo_precision":"zip"},"type":"Feature","geometry":{"type":"Point","coordinates":[-104.821363,38.833882]}},{"properties":{"zip":"80249","geo_score":0.714,"id":"agrubx68uxqo","geo_precision":"zip"},"type":"Feature","geometry":{"type":"Point","coordinates":[-104.697674,39.83776]}},{"properties":{"zip":"70037","geo_score":0.714,"id":"agrubwxg3iai","geo_precision":"zip"},"type":"Feature","geometry":{"type":"Point","coordinates":[-89.969515,29.663824]}},{"properties":{"zip":"98277","geo_score":0.714,"id":"agrubx52nqgl","geo_precision":"zip"},"type":"Feature","geometry":{"type":"Point","coordinates":[-122.673225,48.239822]}},{"properties":{"zip":"65336","geo_score":0.714,"id":"agrubwyonadd","geo_precision":"zip"},"type":"Feature","geometry":{"type":"Point","coordinates":[-93.611881,38.865569]}},{"properties":{"zip":"76544","geo_score":0.714,"id":"agrubwzyl9of","geo_precision":"zip"},"type":"Feature","geometry":{"type":"Point","coordinates":[-97.759186,31.134063]}},{"properties":{"zip":"80817","geo_score":0.714,"id":"agrubx4enwhx","geo_precision":"zip"},"type":"Feature","geometry":{"type":"Point","coordinates":[-104.652221,38.663856]}},{"properties":{"zip":"37043","geo_score":0.714,"id":"agrubwx50put","geo_precision":"zip"},"type":"Feature","geometry":{"type":"Point","coordinates":[-87.218617,36.439772]}},{"properties":{"zip":"23609","geo_score":0.714,"id":"agrubx0uwqt9","geo_precision":"zip"},"type":"Feature","geometry":{"type":"Point","coordinates":[-76.524805,37.195924]}},{"properties":{"zip":"23464","geo_score":0.714,"id":"agrubx41lzi1","geo_precision":"zip"},"type":"Feature","geometry":{"type":"Point","coordinates":[-76.178375,36.799473]}},{"properties":{"zip":"31602","geo_score":0.714,"id":"agrubx0w1bj1","geo_precision":"zip"},"type":"Feature","geometry":{"type":"Point","coordinates":[-83.241263,30.933257]}},{"properties":{"zip":"92277","geo_score":0.714,"id":"agrubx15bfw1","geo_precision":"zip"},"type":"Feature","geometry":{"type":"Point","coordinates":[-116.235073,34.234411]}},{"properties":{"zip":"98597","geo_score":0.714,"id":"agrubwxml3ew","geo_precision":"zip"},"type":"Feature","geometry":{"type":"Point","coordinates":[-122.589568,46.932877]}},{"properties":{"zip":"60073","geo_score":0.714,"id":"agrubwswpxpm","geo_precision":"zip"},"type":"Feature","geometry":{"type":"Point","coordinates":[-88.167861,42.326133]}},{"properties":{"zip":"96818","geo_score":0.714,"id":"agrubx8jn23s","geo_precision":"zip"},"type":"Feature","geometry":{"type":"Point","coordinates":[-157.93965,21.347951]}},{"properties":{"zip":"32405","geo_score":0.714,"id":"agrubwxxnofi","geo_precision":"zip"},"type":"Feature","geometry":{"type":"Point","coordinates":[-85.626871,30.201034]}},{"properties":{"zip":"99654","geo_score":0.714,"id":"agrubx2yf64o","geo_precision":"zip"},"type":"Feature","geometry":{"type":"Point","coordinates":[-149.374335,61.581305]}},{"properties":{"zip":"32233","geo_score":0.714,"id":"agrubwu4hs6p","geo_precision":"zip"},"type":"Feature","geometry":{"type":"Point","coordinates":[-81.413141,30.368852]}},{"properties":{"zip":"92106","geo_score":0.714,"id":"agrubx59uvvr","geo_precision":"zip"},"type":"Feature","geometry":{"type":"Point","coordinates":[-117.232764,32.709355]}},{"properties":{"zip":"89081","geo_score":0.0,"id":"agrubx21phso","geo_precision":"unmatched"},"type":"Feature","geometry":null},{"properties":{"zip":"36869","geo_score":0.714,"id":"agrubwtth1xx","geo_precision":"zip"},"type":"Feature","geometry":{"type":"Point","coordinates":[-85.111997,32.318701]}},{"properties":{"zip":"73521","geo_score":0.714,"id":"agrubx7kz7zx","geo_precision":"zip"},"type":"Feature","geometry":{"type":"Point","coordinates":[-99.228973,34.695901]}},{"properties":{"zip":"78251","geo_score":0.714,"id":"agrubx29htdj","geo_precision":"zip"},"type":"Feature","geometry":{"type":"Point","coordinates":[-98.671774,29.464885]}},{"properties":{"zip":"92101","geo_score":0.714,"id":"agrubx7g84s4","geo_precision":"zip"},"type":"Feature","geometry":{"type":"Point","coordinates":[-117.174366,32.7211]}},{"properties":{"zip":"85364","geo_score":0.714,"id":"agrubwxynrtq","geo_precision":"zip"},"type":"Feature","geometry":{"type":"Point","coordinates":[-114.648722,32.615305]}},{"properties":{"zip":"98374","geo_score":0.714,"id":"agrubx3iujh8","geo_precision":"zip"},"type":"Feature","geometry":{"type":"Point","coordinates":[-122.258646,47.139095]}},{"properties":{"zip":"20751","geo_score":0.714,"id":"agrubwupniw6","geo_precision":"zip"},"type":"Feature","geometry":{"type":"Point","coordinates":[-76.550236,38.786505]}},{"properties":{"zip":"19125","geo_score":0.714,"id":"agrubx300qc8","geo_precision":"zip"},"type":"Feature","geometry":{"type":"Point","coordinates":[-75.13292,39.977262]}},{"properties":{"zip":"76544","geo_score":0.714,"id":"agrubx1gfcbp","geo_precision":"zip"},"type":"Feature","geometry":{"type":"Point","coordinates":[-97.759186,31.134063]}},{"properties":{"zip":"28307","geo_score":0.714,"id":"agrubx08unu9","geo_precision":"zip"},"type":"Feature","geometry":{"type":"Point","coordinates":[-78.987942,35.140193]}},{"properties":{"zip":"98388","geo_score":0.714,"id":"agrubx7yxdoo","geo_precision":"zip"},"type":"Feature","geometry":{"type":"Point","coordinates":[-122.331781,47.132671]}},{"properties":{"zip":"88101","geo_score":0.714,"id":"agrubwt97kcd","geo_precision":"zip"},"type":"Feature","geometry":{"type":"Point","coordinates":[-103.09078,34.777566]}},{"properties":{"zip":"93955","geo_score":0.714,"id":"agrubwt4lv7r","geo_precision":"zip"},"type":"Feature","geometry":{"type":"Point","coordinates":[-121.848286,36.617182]}},{"properties":{"zip":"84056","geo_score":0.714,"id":"agrubwt8izfq","geo_precision":"zip"},"type":"Feature","geometry":{"type":"Point","coordinates":[-111.989813,41.120219]}},{"properties":{"zip":"37040","geo_score":0.714,"id":"agrubx488i6b","geo_precision":"zip"},"type":"Feature","geometry":{"type":"Point","coordinates":[-87.184727,36.463938]}},{"properties":{"zip":"19057","geo_score":0.714,"id":"agrubx20lb8a","geo_precision":"zip"},"type":"Feature","geometry":{"type":"Point","coordinates":[-74.846373,40.143309]}},{"properties":{"zip":"85650","geo_score":0.714,"id":"agrubwtoggm5","geo_precision":"zip"},"type":"Feature","geometry":{"type":"Point","coordinates":[-110.215304,31.489157]}},{"properties":{"zip":"13637","geo_score":0.714,"id":"agrubx6g03tn","geo_precision":"zip"},"type":"Feature","geometry":{"type":"Point","coordinates":[-75.817097,44.0981]}},{"properties":{"zip":"23452","geo_score":0.714,"id":"agrubww14ie0","geo_precision":"zip"},"type":"Feature","geometry":{"type":"Point","coordinates":[-76.100489,36.829593]}},{"properties":{"zip":"99504","geo_score":0.714,"id":"agrubx66nher","geo_precision":"zip"},"type":"Feature","geometry":{"type":"Point","coordinates":[-149.771928,61.205284]}},{"properties":{"zip":"78218","geo_score":0.714,"id":"agrubwxuqjdw","geo_precision":"zip"},"type":"Feature","geometry":{"type":"Point","coordinates":[-98.461582,29.437532]}},{"properties":{"zip":"79906","geo_score":0.714,"id":"agrubwzds08n","geo_precision":"zip"},"type":"Feature","geometry":{"type":"Point","coordinates":[-106.41224,31.813569]}},{"properties":{"zip":"23455","geo_score":0.714,"id":"agrubx48m16n","geo_precision":"zip"},"type":"Feature","geometry":{"type":"Point","coordinates":[-76.13188,36.877926]}},{"properties":{"zip":"23453","geo_score":0.714,"id":"agrubx1090z7","geo_precision":"zip"},"type":"Feature","geometry":{"type":"Point","coordinates":[-76.076408,36.786299]}},{"properties":{"zip":"98516","geo_score":0.714,"id":"agrubwvtzi93","geo_precision":"zip"},"type":"Feature","geometry":{"type":"Point","coordinates":[-122.779419,47.112575]}},{"properties":{"zip":"29206","geo_score":0.714,"id":"agrubwy4eslm","geo_precision":"zip"},"type":"Feature","geometry":{"type":"Point","coordinates":[-80.967312,34.034044]}},{"properties":{"zip":"39564","geo_score":0.714,"id":"agrubwwx8ndj","geo_precision":"zip"},"type":"Feature","geometry":{"type":"Point","coordinates":[-88.719746,30.402144]}},{"properties":{"zip":"79930","geo_score":0.714,"id":"agrubxn5z0bv","geo_precision":"zip"},"type":"Feature","geometry":{"type":"Point","coordinates":[-106.464242,31.809457]}},{"properties":{"zip":"76179","geo_score":0.714,"id":"agrubxmnyeoq","geo_precision":"zip"},"type":"Feature","geometry":{"type":"Point","coordinates":[-97.363907,32.860128]}},{"properties":{"zip":"23518","geo_score":0.714,"id":"agrubxhmw1id","geo_precision":"zip"},"type":"Feature","geometry":{"type":"Point","coordinates":[-76.216448,36.907997]}},{"properties":{"zip":"76544","geo_score":0.714,"id":"agrubxpsdmwo","geo_precision":"zip"},"type":"Feature","geometry":{"type":"Point","coordinates":[-97.759186,31.134063]}},{"properties":{"zip":"29406","geo_score":0.714,"id":"agrubxmtkzfu","geo_precision":"zip"},"type":"Feature","geometry":{"type":"Point","coordinates":[-79.97481,32.85462]}},{"properties":{"zip":"95903","geo_score":0.714,"id":"agrubxino57a","geo_precision":"zip"},"type":"Feature","geometry":{"type":"Point","coordinates":[-121.360957,39.111453]}},{"properties":{"zip":"28532","geo_score":0.714,"id":"agrubxd1mkeh","geo_precision":"zip"},"type":"Feature","geometry":{"type":"Point","coordinates":[-77.053443,35.028677]}},{"properties":{"zip":"20155","geo_score":0.714,"id":"agrubxj0piue","geo_precision":"zip"},"type":"Feature","geometry":{"type":"Point","coordinates":[-77.621613,38.815714]}},{"properties":{"zip":"98499","geo_score":0.714,"id":"agrubxpccqd9","geo_precision":"zip"},"type":"Feature","geometry":{"type":"Point","coordinates":[-122.483735,47.180932]}},{"properties":{"zip":"38017","geo_score":0.714,"id":"agrubxeyzzxz","geo_precision":"zip"},"type":"Feature","geometry":{"type":"Point","coordinates":[-89.728695,35.050925]}},{"properties":{"zip":"92562","geo_score":0.714,"id":"agrubxmi1nae","geo_precision":"zip"},"type":"Feature","geometry":{"type":"Point","coordinates":[-116.861027,33.44204]}},{"properties":{"zip":"23435","geo_score":0.714,"id":"agrubx9xou95","geo_precision":"zip"},"type":"Feature","geometry":{"type":"Point","coordinates":[-76.485782,36.864038]}},{"properties":{"zip":"80916","geo_score":0.714,"id":"agrubxauyr4u","geo_precision":"zip"},"type":"Feature","geometry":{"type":"Point","coordinates":[-104.718555,38.81033]}},{"properties":{"zip":"31602","geo_score":0.714,"id":"agrubxg8ka59","geo_precision":"zip"},"type":"Feature","geometry":{"type":"Point","coordinates":[-83.241263,30.933257]}},{"properties":{"zip":"31905","geo_score":0.714,"id":"agrubxkp3slu","geo_precision":"zip"},"type":"Feature","geometry":{"type":"Point","coordinates":[-84.931457,32.392337]}},{"properties":{"zip":"92040","geo_score":0.714,"id":"agrubx9wvflu","geo_precision":"zip"},"type":"Feature","geometry":{"type":"Point","coordinates":[-116.931971,32.84505]}},{"properties":{"zip":"23454","geo_score":0.714,"id":"agrubxe5h1av","geo_precision":"zip"},"type":"Feature","geometry":{"type":"Point","coordinates":[-76.041876,36.88237]}},{"properties":{"zip":"79906","geo_score":0.714,"id":"agrubxgvjtge","geo_precision":"zip"},"type":"Feature","geometry":{"type":"Point","coordinates":[-106.41224,31.813569]}},{"properties":{"zip":"23665","geo_score":0.714,"id":"agrubxfobuuj","geo_precision":"zip"},"type":"Feature","geometry":{"type":"Point","coordinates":[-76.360036,37.083118]}},{"properties":{"zip":"20008","geo_score":0.714,"id":"agrubxde3jac","geo_precision":"zip"},"type":"Feature","geometry":{"type":"Point","coordinates":[-77.065533,38.936222]}},{"properties":{"zip":"43614","geo_score":0.714,"id":"agrubxhwqie4","geo_precision":"zip"},"type":"Feature","geometry":{"type":"Point","coordinates":[-83.633941,41.609041]}},{"properties":{"zip":"30813","geo_score":0.714,"id":"agrubxk5yxwe","geo_precision":"zip"},"type":"Feature","geometry":{"type":"Point","coordinates":[-82.213991,33.466721]}},{"properties":{"zip":"64093","geo_score":0.714,"id":"agrubxpchfye","geo_precision":"zip"},"type":"Feature","geometry":{"type":"Point","coordinates":[-93.756329,38.881122]}},{"properties":{"zip":"22025","geo_score":0.714,"id":"agrubxpupu9t","geo_precision":"zip"},"type":"Feature","geometry":{"type":"Point","coordinates":[-77.902218,38.960388]}},{"properties":{"zip":"42240","geo_score":0.714,"id":"agrubxeyfvro","geo_precision":"zip"},"type":"Feature","geometry":{"type":"Point","coordinates":[-87.630291,36.799214]}},{"properties":{"zip":"39531","geo_score":0.714,"id":"agrubxgt02mp","geo_precision":"zip"},"type":"Feature","geometry":{"type":"Point","coordinates":[-88.967255,30.393809]}},{"properties":{"zip":"65584","geo_score":0.714,"id":"agrubxmwbiuf","geo_precision":"zip"},"type":"Feature","geometry":{"type":"Point","coordinates":[-92.157142,37.705756]}},{"properties":{"zip":"96818","geo_score":0.714,"id":"agrubxb9ej5t","geo_precision":"zip"},"type":"Feature","geometry":{"type":"Point","coordinates":[-157.93965,21.347951]}},{"properties":{"zip":"65583","geo_score":0.714,"id":"agrubxgbylns","geo_precision":"zip"},"type":"Feature","geometry":{"type":"Point","coordinates":[-92.277948,37.858651]}},{"properties":{"zip":"34787","geo_score":0.714,"id":"agrubxc19okq","geo_precision":"zip"},"type":"Feature","geometry":{"type":"Point","coordinates":[-81.512343,28.468581]}},{"properties":{"zip":"30813","geo_score":0.714,"id":"agrubxj2iatp","geo_precision":"zip"},"type":"Feature","geometry":{"type":"Point","coordinates":[-82.213991,33.466721]}},{"properties":{"zip":"23320","geo_score":0.714,"id":"agrubxg5r9kg","geo_precision":"zip"},"type":"Feature","geometry":{"type":"Point","coordinates":[-76.223827,36.743482]}},{"properties":{"zip":"33025","geo_score":0.714,"id":"agrubxfd4j41","geo_precision":"zip"},"type":"Feature","geometry":{"type":"Point","coordinates":[-80.231595,26.142322]}},{"properties":{"zip":"92563","geo_score":0.714,"id":"agrubxpe9o6d","geo_precision":"zip"},"type":"Feature","geometry":{"type":"Point","coordinates":[-116.055617,33.752886]}},{"properties":{"zip":"76559","geo_score":0.714,"id":"agrubxllw2j7","geo_precision":"zip"},"type":"Feature","geometry":{"type":"Point","coordinates":[-97.5083,31.037986]}},{"properties":{"zip":"92058","geo_score":0.714,"id":"agrubxlpjlfp","geo_precision":"zip"},"type":"Feature","geometry":{"type":"Point","coordinates":[-116.846046,33.016928]}},{"properties":{"zip":"76177","geo_score":0.714,"id":"agrubxh8l362","geo_precision":"zip"},"type":"Feature","geometry":{"type":"Point","coordinates":[-97.32362,32.93455]}},{"properties":{"zip":"32508","geo_score":0.714,"id":"agrubxgswbeb","geo_precision":"zip"},"type":"Feature","geometry":{"type":"Point","coordinates":[-87.312205,30.359464]}},{"properties":{"zip":"92110","geo_score":0.714,"id":"agrubxp6cnpl","geo_precision":"zip"},"type":"Feature","geometry":{"type":"Point","coordinates":[-117.207965,32.775849]}},{"properties":{"zip":"21042","geo_score":0.714,"id":"agrubxp9vh7k","geo_precision":"zip"},"type":"Feature","geometry":{"type":"Point","coordinates":[-76.897247,39.261897]}},{"properties":{"zip":"45324","geo_score":0.714,"id":"agrubxlbzis4","geo_precision":"zip"},"type":"Feature","geometry":{"type":"Point","coordinates":[-84.021323,39.789781]}},{"properties":{"zip":"48103","geo_score":0.714,"id":"agrubxdfin2m","geo_precision":"zip"},"type":"Feature","geometry":{"type":"Point","coordinates":[-83.849042,42.266638]}},{"properties":{"zip":"62226","geo_score":0.714,"id":"agrubxnz28me","geo_precision":"zip"},"type":"Feature","geometry":{"type":"Point","coordinates":[-89.998685,38.509999]}},{"properties":{"zip":"66007","geo_score":0.714,"id":"agrubxc95jz9","geo_precision":"zip"},"type":"Feature","geometry":{"type":"Point","coordinates":[-94.938576,39.128892]}},{"properties":{"zip":"79938","geo_score":0.714,"id":"agrubxm4hskm","geo_precision":"zip"},"type":"Feature","geometry":{"type":"Point","coordinates":[-106.3044,31.849828]}},{"properties":{"zip":"28390","geo_score":0.714,"id":"agrubxppuxft","geo_precision":"zip"},"type":"Feature","geometry":{"type":"Point","coordinates":[-78.986417,35.192661]}},{"properties":{"zip":"85613","geo_score":0.714,"id":"agrubxg40r7q","geo_precision":"zip"},"type":"Feature","geometry":{"type":"Point","coordinates":[-110.36258,31.55815]}},{"properties":{"zip":"96818","geo_score":0.714,"id":"agrubxlfz9m0","geo_precision":"zip"},"type":"Feature","geometry":{"type":"Point","coordinates":[-157.93965,21.347951]}},{"properties":{"zip":"91932","geo_score":0.714,"id":"agrubxohz951","geo_precision":"zip"},"type":"Feature","geometry":{"type":"Point","coordinates":[-117.117351,32.578991]}},{"properties":{"zip":"98433","geo_score":0.714,"id":"agrubxi4at2p","geo_precision":"zip"},"type":"Feature","geometry":{"type":"Point","coordinates":[-122.491749,47.126735]}},{"properties":{"zip":"67210","geo_score":0.714,"id":"agrubxgf1bsy","geo_precision":"zip"},"type":"Feature","geometry":{"type":"Point","coordinates":[-97.247359,37.615901]}},{"properties":{"zip":"80925","geo_score":0.714,"id":"agrubxkvl3ut","geo_precision":"zip"},"type":"Feature","geometry":{"type":"Point","coordinates":[-104.645854,38.737774]}},{"properties":{"zip":"13619","geo_score":0.714,"id":"agrubxhnsi2f","geo_precision":"zip"},"type":"Feature","geometry":{"type":"Point","coordinates":[-75.920097,44.068221]}},{"properties":{"zip":"39705","geo_score":0.714,"id":"agrubxlg2its","geo_precision":"zip"},"type":"Feature","geometry":{"type":"Point","coordinates":[-88.486521,33.550752]}},{"properties":{"zip":"31324","geo_score":0.714,"id":"agrubxfzlbf6","geo_precision":"zip"},"type":"Feature","geometry":{"type":"Point","coordinates":[-81.364277,31.913821]}},{"properties":{"zip":"92614","geo_score":0.714,"id":"agrubxcpluxz","geo_precision":"zip"},"type":"Feature","geometry":{"type":"Point","coordinates":[-117.827913,33.685319]}},{"properties":{"zip":"92058","geo_score":0.714,"id":"agrubxiuuh7a","geo_precision":"zip"},"type":"Feature","geometry":{"type":"Point","coordinates":[-116.846046,33.016928]}},{"properties":{"zip":"22003","geo_score":0.714,"id":"agrubxnbpoq5","geo_precision":"zip"},"type":"Feature","geometry":{"type":"Point","coordinates":[-77.239149,38.83539]}},{"properties":{"zip":"28543","geo_score":0.714,"id":"agrubxhpngxh","geo_precision":"zip"},"type":"Feature","geometry":{"type":"Point","coordinates":[-77.382049,34.736045]}},{"properties":{"zip":"96707","geo_score":0.714,"id":"agrubxiwqgpf","geo_precision":"zip"},"type":"Feature","geometry":{"type":"Point","coordinates":[-158.091383,21.341784]}},{"properties":{"zip":"22060","geo_score":0.714,"id":"agrubxniiqct","geo_precision":"zip"},"type":"Feature","geometry":{"type":"Point","coordinates":[-77.167886,38.714562]}},{"properties":{"zip":"96786","geo_score":0.714,"id":"agrubxf1jnfb","geo_precision":"zip"},"type":"Feature","geometry":{"type":"Point","coordinates":[-158.016389,21.4675]}},{"properties":{"zip":"80817","geo_score":0.714,"id":"agrubxfybnij","geo_precision":"zip"},"type":"Feature","geometry":{"type":"Point","coordinates":[-104.652221,38.663856]}},{"properties":{"zip":"99577","geo_score":0.714,"id":"agrubxdju2kl","geo_precision":"zip"},"type":"Feature","geometry":{"type":"Point","coordinates":[-149.424518,61.303131]}},{"properties":{"zip":"23322","geo_score":0.714,"id":"agrubxkhvxp5","geo_precision":"zip"},"type":"Feature","geometry":{"type":"Point","coordinates":[-76.197436,36.60654]}},{"properties":{"zip":"92058","geo_score":0.714,"id":"agrubxe34zec","geo_precision":"zip"},"type":"Feature","geometry":{"type":"Point","coordinates":[-116.846046,33.016928]}},{"properties":{"zip":"39501","geo_score":0.714,"id":"agrubxpp3r6m","geo_precision":"zip"},"type":"Feature","geometry":{"type":"Point","coordinates":[-89.102817,30.437974]}},{"properties":{"zip":"18078","geo_score":0.714,"id":"agrubxig7zs0","geo_precision":"zip"},"type":"Feature","geometry":{"type":"Point","coordinates":[-75.620901,40.669675]}},{"properties":{"zip":"20762","geo_score":0.714,"id":"agrubxn46rvd","geo_precision":"zip"},"type":"Feature","geometry":{"type":"Point","coordinates":[-76.875551,38.806207]}},{"properties":{"zip":"59405","geo_score":0.714,"id":"agrubxhaj58a","geo_precision":"zip"},"type":"Feature","geometry":{"type":"Point","coordinates":[-111.290803,47.277623]}},{"properties":{"zip":"92672","geo_score":0.714,"id":"agrubxilh6if","geo_precision":"zip"},"type":"Feature","geometry":{"type":"Point","coordinates":[-117.616082,33.568923]}},{"properties":{"zip":"78218","geo_score":0.714,"id":"agrubxp70pjx","geo_precision":"zip"},"type":"Feature","geometry":{"type":"Point","coordinates":[-98.461582,29.437532]}},{"properties":{"zip":"37040","geo_score":0.714,"id":"agrubxdbcg4x","geo_precision":"zip"},"type":"Feature","geometry":{"type":"Point","coordinates":[-87.184727,36.463938]}},{"properties":{"zip":"32937","geo_score":0.714,"id":"agrubxf0iiz6","geo_precision":"zip"},"type":"Feature","geometry":{"type":"Point","coordinates":[-80.595607,28.198623]}},{"properties":{"zip":"22152","geo_score":0.714,"id":"agrubxegfmwa","geo_precision":"zip"},"type":"Feature","geometry":{"type":"Point","coordinates":[-77.221094,38.772614]}},{"properties":{"zip":"66441","geo_score":0.714,"id":"agrubxnz1676","geo_precision":"zip"},"type":"Feature","geometry":{"type":"Point","coordinates":[-96.789175,39.029165]}},{"properties":{"zip":"92058","geo_score":0.714,"id":"agrubxcixoqa","geo_precision":"zip"},"type":"Feature","geometry":{"type":"Point","coordinates":[-116.846046,33.016928]}},{"properties":{"zip":"76548","geo_score":0.714,"id":"agrubxgosoz2","geo_precision":"zip"},"type":"Feature","geometry":{"type":"Point","coordinates":[-97.611484,31.028627]}},{"properties":{"zip":"98366","geo_score":0.714,"id":"agrubxfh3mse","geo_precision":"zip"},"type":"Feature","geometry":{"type":"Point","coordinates":[-120.336741,47.472904]}},{"properties":{"zip":"23456","geo_score":0.714,"id":"agrubxmp6wt8","geo_precision":"zip"},"type":"Feature","geometry":{"type":"Point","coordinates":[-75.944094,36.745984]}},{"properties":{"zip":"96915","geo_score":0.714,"id":"agrubxii3f9n","geo_precision":"zip"},"type":"Feature","geometry":{"type":"Point","coordinates":[144.786297,13.444257]}},{"properties":{"zip":"99686","geo_score":0.714,"id":"agrubxm1i5ym","geo_precision":"zip"},"type":"Feature","geometry":{"type":"Point","coordinates":[-145.775152,61.68557]}},{"properties":{"zip":"31322","geo_score":0.714,"id":"agrubxp3y40n","geo_precision":"zip"},"type":"Feature","geometry":{"type":"Point","coordinates":[-81.083881,32.071917]}},{"properties":{"zip":"22003","geo_score":0.714,"id":"agrubxdlt36j","geo_precision":"zip"},"type":"Feature","geometry":{"type":"Point","coordinates":[-77.239149,38.83539]}},{"properties":{"zip":"92109","geo_score":0.714,"id":"agrubxekm81s","geo_precision":"zip"},"type":"Feature","geometry":{"type":"Point","coordinates":[-117.240314,32.797827]}},{"properties":{"zip":"36322","geo_score":0.714,"id":"agrubxncsgmm","geo_precision":"zip"},"type":"Feature","geometry":{"type":"Point","coordinates":[-85.705129,31.272415]}},{"properties":{"zip":"33706","geo_score":0.714,"id":"agrubxeid4tu","geo_precision":"zip"},"type":"Feature","geometry":{"type":"Point","coordinates":[-82.754223,27.749529]}},{"properties":{"zip":"36693","geo_score":0.714,"id":"agrubx9qcweg","geo_precision":"zip"},"type":"Feature","geometry":{"type":"Point","coordinates":[-88.174502,30.635741]}},{"properties":{"zip":"23462","geo_score":0.714,"id":"agrubxne824n","geo_precision":"zip"},"type":"Feature","geometry":{"type":"Point","coordinates":[-76.159102,36.818204]}},{"properties":{"zip":"99686","geo_score":0.714,"id":"agrubxja6q99","geo_precision":"zip"},"type":"Feature","geometry":{"type":"Point","coordinates":[-145.775152,61.68557]}},{"properties":{"zip":"97212","geo_score":0.714,"id":"agrubxf7egsl","geo_precision":"zip"},"type":"Feature","geometry":{"type":"Point","coordinates":[-122.643106,45.54374]}},{"properties":{"zip":"36695","geo_score":0.714,"id":"agrubxmdy7ha","geo_precision":"zip"},"type":"Feature","geometry":{"type":"Point","coordinates":[-88.226989,30.666959]}},{"properties":{"zip":"45431","geo_score":0.714,"id":"agrubxn6yrmg","geo_precision":"zip"},"type":"Feature","geometry":{"type":"Point","coordinates":[-84.10966,39.765892]}},{"properties":{"zip":"36695","geo_score":0.714,"id":"agrubxe3gzo5","geo_precision":"zip"},"type":"Feature","geometry":{"type":"Point","coordinates":[-88.226989,30.666959]}},{"properties":{"zip":"79928","geo_score":0.714,"id":"agrubxnjh5kr","geo_precision":"zip"},"type":"Feature","geometry":{"type":"Point","coordinates":[-106.153868,31.669052]}},{"properties":{"zip":"45431","geo_score":0.714,"id":"agrubxpw76kl","geo_precision":"zip"},"type":"Feature","geometry":{"type":"Point","coordinates":[-84.10966,39.765892]}},{"properties":{"zip":"62265","geo_score":0.714,"id":"agrubxk3vmcl","geo_precision":"zip"},"type":"Feature","geometry":{"type":"Point","coordinates":[-89.587348,38.513254]}},{"properties":{"zip":"99686","geo_score":0.714,"id":"agrubxesw7ha","geo_precision":"zip"},"type":"Feature","geometry":{"type":"Point","coordinates":[-145.775152,61.68557]}},{"properties":{"zip":"99686","geo_score":0.714,"id":"agrubx9hpwbf","geo_precision":"zip"},"type":"Feature","geometry":{"type":"Point","coordinates":[-145.775152,61.68557]}},{"properties":{"zip":"28562","geo_score":0.714,"id":"agrubxjtjfm5","geo_precision":"zip"},"type":"Feature","geometry":{"type":"Point","coordinates":[-77.159952,35.145994]}},{"properties":{"zip":"77549","geo_score":0.714,"id":"agrubxfapon2","geo_precision":"zip"},"type":"Feature","geometry":{"type":"Point","coordinates":[-94.800238,29.330501]}},{"properties":{"zip":"23188","geo_score":0.714,"id":"agrubxai6ghj","geo_precision":"zip"},"type":"Feature","geometry":{"type":"Point","coordinates":[-76.773832,37.34822]}},{"properties":{"zip":"33621","geo_score":0.714,"id":"agrubxaieh6t","geo_precision":"zip"},"type":"Feature","geometry":{"type":"Point","coordinates":[-82.494582,27.849135]}},{"properties":{"zip":"76063","geo_score":0.714,"id":"agrubx9oj911","geo_precision":"zip"},"type":"Feature","geometry":{"type":"Point","coordinates":[-97.184178,32.609024]}},{"properties":{"zip":"23704","geo_score":0.714,"id":"agrubxn01bwb","geo_precision":"zip"},"type":"Feature","geometry":{"type":"Point","coordinates":[-76.315663,36.824298]}},{"properties":{"zip":"23452","geo_score":0.714,"id":"agrubxcsds8t","geo_precision":"zip"},"type":"Feature","geometry":{"type":"Point","coordinates":[-76.100489,36.829593]}},{"properties":{"zip":"76140","geo_score":0.714,"id":"agrubxbcztpl","geo_precision":"zip"},"type":"Feature","geometry":{"type":"Point","coordinates":[-97.289182,32.630968]}},{"properties":{"zip":"39501","geo_score":0.714,"id":"agrubxm73frr","geo_precision":"zip"},"type":"Feature","geometry":{"type":"Point","coordinates":[-89.102817,30.437974]}},{"properties":{"zip":"39531","geo_score":0.714,"id":"agrubxbk85rp","geo_precision":"zip"},"type":"Feature","geometry":{"type":"Point","coordinates":[-88.967255,30.393809]}},{"properties":{"zip":"71110","geo_score":0.714,"id":"agrubxi4uorm","geo_precision":"zip"},"type":"Feature","geometry":{"type":"Point","coordinates":[-93.640362,32.513749]}},{"properties":{"zip":"92629","geo_score":0.714,"id":"agrubxhyi98p","geo_precision":"zip"},"type":"Feature","geometry":{"type":"Point","coordinates":[-117.696366,33.485903]}},{"properties":{"zip":"90731","geo_score":0.714,"id":"agrubxox73v0","geo_precision":"zip"},"type":"Feature","geometry":{"type":"Point","coordinates":[-118.253053,33.753088]}},{"properties":{"zip":"23456","geo_score":0.714,"id":"agrubxe0wcuj","geo_precision":"zip"},"type":"Feature","geometry":{"type":"Point","coordinates":[-75.944094,36.745984]}},{"properties":{"zip":"96786","geo_score":0.714,"id":"agrubxc3yyc2","geo_precision":"zip"},"type":"Feature","geometry":{"type":"Point","coordinates":[-158.016389,21.4675]}},{"properties":{"zip":"15108","geo_score":0.714,"id":"agrubxd7b4t2","geo_precision":"zip"},"type":"Feature","geometry":{"type":"Point","coordinates":[-80.239226,40.508957]}},{"properties":{"zip":"27534","geo_score":0.714,"id":"agrubxkhesrq","geo_precision":"zip"},"type":"Feature","geometry":{"type":"Point","coordinates":[-78.03207,35.385571]}},{"properties":{"zip":"66503","geo_score":0.714,"id":"agrubxpddllm","geo_precision":"zip"},"type":"Feature","geometry":{"type":"Point","coordinates":[-96.633596,39.245797]}},{"properties":{"zip":"32566","geo_score":0.714,"id":"agrubxgqhk17","geo_precision":"zip"},"type":"Feature","geometry":{"type":"Point","coordinates":[-86.281889,30.988514]}},{"properties":{"zip":"92058","geo_score":0.714,"id":"agrubxkscoid","geo_precision":"zip"},"type":"Feature","geometry":{"type":"Point","coordinates":[-116.846046,33.016928]}},{"properties":{"zip":"80927","geo_score":0.714,"id":"agrubxngfuik","geo_precision":"zip"},"type":"Feature","geometry":{"type":"Point","coordinates":[-104.821363,38.833882]}},{"properties":{"zip":"92056","geo_score":0.714,"id":"agrubxn4d0fa","geo_precision":"zip"},"type":"Feature","geometry":{"type":"Point","coordinates":[-116.846046,33.016928]}},{"properties":{"zip":"10996","geo_score":0.714,"id":"agrubxadmwzd","geo_precision":"zip"},"type":"Feature","geometry":{"type":"Point","coordinates":[-73.998375,41.36471]}},{"properties":{"zip":"85212","geo_score":0.714,"id":"agrubxkafzk7","geo_precision":"zip"},"type":"Feature","geometry":{"type":"Point","coordinates":[-111.635307,33.342476]}},{"properties":{"zip":"98258","geo_score":0.714,"id":"agrubxe26wxu","geo_precision":"zip"},"type":"Feature","geometry":{"type":"Point","coordinates":[-122.032076,48.051488]}},{"properties":{"zip":"31704","geo_score":0.714,"id":"agrubxheq9j7","geo_precision":"zip"},"type":"Feature","geometry":{"type":"Point","coordinates":[-84.061155,31.549975]}},{"properties":{"zip":"98433","geo_score":0.714,"id":"agrubxgyl7s3","geo_precision":"zip"},"type":"Feature","geometry":{"type":"Point","coordinates":[-122.491749,47.126735]}},{"properties":{"zip":"29902","geo_score":0.714,"id":"agrubxjdcyu1","geo_precision":"zip"},"type":"Feature","geometry":{"type":"Point","coordinates":[-80.653104,32.404673]}},{"properties":{"zip":"45419","geo_score":0.714,"id":"agrubxlmymmy","geo_precision":"zip"},"type":"Feature","geometry":{"type":"Point","coordinates":[-84.174106,39.725337]}},{"properties":{"zip":"88310","geo_score":0.714,"id":"agrubxi1du31","geo_precision":"zip"},"type":"Feature","geometry":{"type":"Point","coordinates":[-105.948967,32.870046]}},{"properties":{"zip":"36575","geo_score":0.714,"id":"agrubxi7dlqr","geo_precision":"zip"},"type":"Feature","geometry":{"type":"Point","coordinates":[-88.272544,30.779545]}},{"properties":{"zip":"39701","geo_score":0.714,"id":"agrubxh3v7s9","geo_precision":"zip"},"type":"Feature","geometry":{"type":"Point","coordinates":[-88.450638,33.641516]}},{"properties":{"zip":"22201","geo_score":0.714,"id":"agrubxhvuy6d","geo_precision":"zip"},"type":"Feature","geometry":{"type":"Point","coordinates":[-77.099113,38.885484]}},{"properties":{"zip":"21113","geo_score":0.714,"id":"agrubxjd91fy","geo_precision":"zip"},"type":"Feature","geometry":{"type":"Point","coordinates":[-76.586886,38.975412]}},{"properties":{"zip":"68123","geo_score":0.714,"id":"agrubxmwj2uy","geo_precision":"zip"},"type":"Feature","geometry":{"type":"Point","coordinates":[-95.923622,41.074721]}},{"properties":{"zip":"92058","geo_score":0.714,"id":"agrubxhsqapj","geo_precision":"zip"},"type":"Feature","geometry":{"type":"Point","coordinates":[-116.846046,33.016928]}},{"properties":{"zip":"31405","geo_score":0.714,"id":"agrubxb9l9sk","geo_precision":"zip"},"type":"Feature","geometry":{"type":"Point","coordinates":[-81.186222,31.974655]}},{"properties":{"zip":"36526","geo_score":0.714,"id":"agrubxnh1zzk","geo_precision":"zip"},"type":"Feature","geometry":{"type":"Point","coordinates":[-87.912216,30.643247]}},{"properties":{"zip":"36526","geo_score":0.714,"id":"agrubxlmgp74","geo_precision":"zip"},"type":"Feature","geometry":{"type":"Point","coordinates":[-87.912216,30.643247]}},{"properties":{"zip":"65583","geo_score":0.714,"id":"agrubxglabmf","geo_precision":"zip"},"type":"Feature","geometry":{"type":"Point","coordinates":[-92.277948,37.858651]}},{"properties":{"zip":"65583","geo_score":0.714,"id":"agrubx9vyogm","geo_precision":"zip"},"type":"Feature","geometry":{"type":"Point","coordinates":[-92.277948,37.858651]}},{"properties":{"zip":"92058","geo_score":0.714,"id":"agrubxfz0miv","geo_precision":"zip"},"type":"Feature","geometry":{"type":"Point","coordinates":[-116.846046,33.016928]}},{"properties":{"zip":"33616","geo_score":0.714,"id":"agrubxi02s3g","geo_precision":"zip"},"type":"Feature","geometry":{"type":"Point","coordinates":[-82.526763,27.863635]}},{"properties":{"zip":"23185","geo_score":0.714,"id":"agrubxmjy0kx","geo_precision":"zip"},"type":"Feature","geometry":{"type":"Point","coordinates":[-76.670511,37.267091]}},{"properties":{"zip":"80908","geo_score":0.714,"id":"agrubxbvcpa5","geo_precision":"zip"},"type":"Feature","geometry":{"type":"Point","coordinates":[-104.705498,39.020647]}},{"properties":{"zip":"29229","geo_score":0.714,"id":"agrubxnfh770","geo_precision":"zip"},"type":"Feature","geometry":{"type":"Point","coordinates":[-80.884194,34.12266]}},{"properties":{"zip":"76544","geo_score":0.714,"id":"agrubxgna765","geo_precision":"zip"},"type":"Feature","geometry":{"type":"Point","coordinates":[-97.759186,31.134063]}},{"properties":{"zip":"80920","geo_score":0.714,"id":"agrubxcwhld6","geo_precision":"zip"},"type":"Feature","geometry":{"type":"Point","coordinates":[-104.755956,38.965298]}},{"properties":{"zip":"79938","geo_score":0.714,"id":"agrubxmzwcia","geo_precision":"zip"},"type":"Feature","geometry":{"type":"Point","coordinates":[-106.3044,31.849828]}},{"properties":{"zip":"80906","geo_score":0.714,"id":"agrubxaomzx7","geo_precision":"zip"},"type":"Feature","geometry":{"type":"Point","coordinates":[-104.835252,38.810548]}},{"properties":{"zip":"92614","geo_score":0.714,"id":"agrubxg5zet2","geo_precision":"zip"},"type":"Feature","geometry":{"type":"Point","coordinates":[-117.827913,33.685319]}},{"properties":{"zip":"22201","geo_score":0.714,"id":"agrubxgcl2pc","geo_precision":"zip"},"type":"Feature","geometry":{"type":"Point","coordinates":[-77.099113,38.885484]}},{"properties":{"zip":"85629","geo_score":0.714,"id":"agrubxpppdzh","geo_precision":"zip"},"type":"Feature","geometry":{"type":"Point","coordinates":[-110.895188,31.932883]}},{"properties":{"zip":"23511","geo_score":0.714,"id":"agrubxjsx0e7","geo_precision":"zip"},"type":"Feature","geometry":{"type":"Point","coordinates":[-76.303417,36.935579]}},{"properties":{"zip":"23691","geo_score":0.714,"id":"agrubxk4nv2h","geo_precision":"zip"},"type":"Feature","geometry":{"type":"Point","coordinates":[-76.494054,37.203185]}},{"properties":{"zip":"23508","geo_score":0.714,"id":"agrubxj1eec2","geo_precision":"zip"},"type":"Feature","geometry":{"type":"Point","coordinates":[-76.299963,36.884447]}},{"properties":{"zip":"66502","geo_score":0.714,"id":"agrubxn4vsss","geo_precision":"zip"},"type":"Feature","geometry":{"type":"Point","coordinates":[-96.708617,39.223607]}},{"properties":{"zip":"22193","geo_score":0.714,"id":"agrubxnvqhq9","geo_precision":"zip"},"type":"Feature","geometry":{"type":"Point","coordinates":[-77.359152,38.680395]}},{"properties":{"zip":"92069","geo_score":0.714,"id":"agrubxnwf69s","geo_precision":"zip"},"type":"Feature","geometry":{"type":"Point","coordinates":[-117.154756,33.185315]}},{"properties":{"zip":"96818","geo_score":0.714,"id":"agrubxgpjhlg","geo_precision":"zip"},"type":"Feature","geometry":{"type":"Point","coordinates":[-157.93965,21.347951]}},{"properties":{"zip":"66061","geo_score":0.714,"id":"agrubxc3pvkc","geo_precision":"zip"},"type":"Feature","geometry":{"type":"Point","coordinates":[-94.723848,38.850286]}},{"properties":{"zip":"31905","geo_score":0.714,"id":"agrubxeapy7j","geo_precision":"zip"},"type":"Feature","geometry":{"type":"Point","coordinates":[-84.931457,32.392337]}},{"properties":{"zip":"22003","geo_score":0.714,"id":"agrubxnxba8c","geo_precision":"zip"},"type":"Feature","geometry":{"type":"Point","coordinates":[-77.239149,38.83539]}},{"properties":{"zip":"92058","geo_score":0.714,"id":"agrubxe03qw6","geo_precision":"zip"},"type":"Feature","geometry":{"type":"Point","coordinates":[-116.846046,33.016928]}},{"properties":{"zip":"22302","geo_score":0.714,"id":"agrubx9ltusr","geo_precision":"zip"},"type":"Feature","geometry":{"type":"Point","coordinates":[-77.079422,38.837057]}},{"properties":{"zip":"80924","geo_score":0.714,"id":"agrubxe3g0t8","geo_precision":"zip"},"type":"Feature","geometry":{"type":"Point","coordinates":[-104.821363,38.833882]}},{"properties":{"zip":"79934","geo_score":0.714,"id":"agrubxeb12be","geo_precision":"zip"},"type":"Feature","geometry":{"type":"Point","coordinates":[-106.39227,31.963221]}},{"properties":{"zip":"31907","geo_score":0.714,"id":"agrubxcv5wva","geo_precision":"zip"},"type":"Feature","geometry":{"type":"Point","coordinates":[-84.914976,32.483084]}},{"properties":{"zip":"80925","geo_score":0.714,"id":"agrubxkj3isu","geo_precision":"zip"},"type":"Feature","geometry":{"type":"Point","coordinates":[-104.645854,38.737774]}},{"properties":{"zip":"96818","geo_score":0.714,"id":"agrubxenkjdj","geo_precision":"zip"},"type":"Feature","geometry":{"type":"Point","coordinates":[-157.93965,21.347951]}},{"properties":{"zip":"22310","geo_score":0.714,"id":"agrubxhxs8gq","geo_precision":"zip"},"type":"Feature","geometry":{"type":"Point","coordinates":[-77.104701,38.789002]}},{"properties":{"zip":"92009","geo_score":0.714,"id":"agrubxaf8tnd","geo_precision":"zip"},"type":"Feature","geometry":{"type":"Point","coordinates":[-117.267169,33.082192]}},{"properties":{"zip":"79928","geo_score":0.714,"id":"agrubxigdlxm","geo_precision":"zip"},"type":"Feature","geometry":{"type":"Point","coordinates":[-106.153868,31.669052]}},{"properties":{"zip":"76549","geo_score":0.714,"id":"agrubxm5e11g","geo_precision":"zip"},"type":"Feature","geometry":{"type":"Point","coordinates":[-97.590787,31.043013]}},{"properties":{"zip":"35758","geo_score":0.714,"id":"agrubxgjdb6e","geo_precision":"zip"},"type":"Feature","geometry":{"type":"Point","coordinates":[-86.742478,34.710815]}},{"properties":{"zip":"32218","geo_score":0.714,"id":"agrubxe52cg7","geo_precision":"zip"},"type":"Feature","geometry":{"type":"Point","coordinates":[-81.698988,30.440794]}},{"properties":{"zip":"30907","geo_score":0.714,"id":"agrubxd7rsoc","geo_precision":"zip"},"type":"Feature","geometry":{"type":"Point","coordinates":[-82.12123,33.442082]}},{"properties":{"zip":"30813","geo_score":0.714,"id":"agrubxkiu49z","geo_precision":"zip"},"type":"Feature","geometry":{"type":"Point","coordinates":[-82.213991,33.466721]}},{"properties":{"zip":"29210","geo_score":0.714,"id":"agrubxcvspnw","geo_precision":"zip"},"type":"Feature","geometry":{"type":"Point","coordinates":[-81.103149,34.048763]}},{"properties":{"zip":"80916","geo_score":0.714,"id":"agrubxj21pl7","geo_precision":"zip"},"type":"Feature","geometry":{"type":"Point","coordinates":[-104.718555,38.81033]}},{"properties":{"zip":"28540","geo_score":0.714,"id":"agrubxcgwcf6","geo_precision":"zip"},"type":"Feature","geometry":{"type":"Point","coordinates":[-77.356071,34.804606]}},{"properties":{"zip":"93550","geo_score":0.714,"id":"agrubxaorob4","geo_precision":"zip"},"type":"Feature","geometry":{"type":"Point","coordinates":[-117.969235,34.579991]}},{"properties":{"zip":"20755","geo_score":0.714,"id":"agrubxgpskqy","geo_precision":"zip"},"type":"Feature","geometry":{"type":"Point","coordinates":[-76.765249,39.114553]}},{"properties":{"zip":"83709","geo_score":0.714,"id":"agrubxan17jr","geo_precision":"zip"},"type":"Feature","geometry":{"type":"Point","coordinates":[-116.276002,43.558127]}},{"properties":{"zip":"20603","geo_score":0.714,"id":"agrubxnluiuz","geo_precision":"zip"},"type":"Feature","geometry":{"type":"Point","coordinates":[-77.062012,38.52115]}},{"properties":{"zip":"22060","geo_score":0.714,"id":"agrubxda4st0","geo_precision":"zip"},"type":"Feature","geometry":{"type":"Point","coordinates":[-77.167886,38.714562]}},{"properties":{"zip":"80922","geo_score":0.714,"id":"agrubxo4bjr5","geo_precision":"zip"},"type":"Feature","geometry":{"type":"Point","coordinates":[-104.70124,38.904817]}},{"properties":{"zip":"36695","geo_score":0.714,"id":"agrubxl4mnbh","geo_precision":"zip"},"type":"Feature","geometry":{"type":"Point","coordinates":[-88.226989,30.666959]}},{"properties":{"zip":"28306","geo_score":0.714,"id":"agrubxhks9vb","geo_precision":"zip"},"type":"Feature","geometry":{"type":"Point","coordinates":[-78.898915,35.024886]}},{"properties":{"zip":"95864","geo_score":0.714,"id":"agrubxd1lfpg","geo_precision":"zip"},"type":"Feature","geometry":{"type":"Point","coordinates":[-121.379467,38.586554]}},{"properties":{"zip":"30253","geo_score":0.714,"id":"agrubxk9819q","geo_precision":"zip"},"type":"Feature","geometry":{"type":"Point","coordinates":[-84.168808,33.392892]}},{"properties":{"zip":"31905","geo_score":0.714,"id":"agrubxjeyxri","geo_precision":"zip"},"type":"Feature","geometry":{"type":"Point","coordinates":[-84.931457,32.392337]}},{"properties":{"zip":"29290","geo_score":0.714,"id":"agrubxi3oklg","geo_precision":"zip"},"type":"Feature","geometry":{"type":"Point","coordinates":[-80.970766,34.005992]}},{"properties":{"zip":"62959","geo_score":0.714,"id":"agrubxe6kv9p","geo_precision":"zip"},"type":"Feature","geometry":{"type":"Point","coordinates":[-88.803953,37.763938]}},{"properties":{"zip":"99208","geo_score":0.714,"id":"agrubxda3zzc","geo_precision":"zip"},"type":"Feature","geometry":{"type":"Point","coordinates":[-117.455375,47.780541]}},{"properties":{"zip":"30813","geo_score":0.714,"id":"agrubxdljcyt","geo_precision":"zip"},"type":"Feature","geometry":{"type":"Point","coordinates":[-82.213991,33.466721]}},{"properties":{"zip":"22553","geo_score":0.714,"id":"agrubxdyarli","geo_precision":"zip"},"type":"Feature","geometry":{"type":"Point","coordinates":[-77.854439,38.188468]}},{"properties":{"zip":"32003","geo_score":0.0,"id":"agrubxdmszqe","geo_precision":"unmatched"},"type":"Feature","geometry":null},{"properties":{"zip":"20639","geo_score":0.714,"id":"agrubxk8zvoz","geo_precision":"zip"},"type":"Feature","geometry":{"type":"Point","coordinates":[-76.613848,38.592065]}},{"properties":{"zip":"93940","geo_score":0.714,"id":"agrubxk6pq16","geo_precision":"zip"},"type":"Feature","geometry":{"type":"Point","coordinates":[-121.688623,36.521811]}},{"properties":{"zip":"85307","geo_score":0.714,"id":"agrubxekqker","geo_precision":"zip"},"type":"Feature","geometry":{"type":"Point","coordinates":[-112.18717,33.276539]}},{"properties":{"zip":"71459","geo_score":0.714,"id":"agrubxghszo4","geo_precision":"zip"},"type":"Feature","geometry":{"type":"Point","coordinates":[-93.167939,31.114631]}},{"properties":{"zip":"45066","geo_score":0.714,"id":"agrubxcxlagt","geo_precision":"zip"},"type":"Feature","geometry":{"type":"Point","coordinates":[-84.14633,39.465762]}},{"properties":{"zip":"76544","geo_score":0.714,"id":"agrubxc2vtlw","geo_precision":"zip"},"type":"Feature","geometry":{"type":"Point","coordinates":[-97.759186,31.134063]}},{"properties":{"zip":"92058","geo_score":0.714,"id":"agrubxdet1w1","geo_precision":"zip"},"type":"Feature","geometry":{"type":"Point","coordinates":[-116.846046,33.016928]}},{"properties":{"zip":"48043","geo_score":0.714,"id":"agrubxbiagwf","geo_precision":"zip"},"type":"Feature","geometry":{"type":"Point","coordinates":[-82.919921,42.586979]}},{"properties":{"zip":"92078","geo_score":0.714,"id":"agrubxo9w6d3","geo_precision":"zip"},"type":"Feature","geometry":{"type":"Point","coordinates":[-116.972526,32.741719]}},{"properties":{"zip":"32068","geo_score":0.714,"id":"agrubxdk1mun","geo_precision":"zip"},"type":"Feature","geometry":{"type":"Point","coordinates":[-81.847794,30.078597]}},{"properties":{"zip":"80132","geo_score":0.714,"id":"agrubxmc9ca7","geo_precision":"zip"},"type":"Feature","geometry":{"type":"Point","coordinates":[-104.847479,39.101381]}},{"properties":{"zip":"30135","geo_score":0.714,"id":"agrubxl15sim","geo_precision":"zip"},"type":"Feature","geometry":{"type":"Point","coordinates":[-84.750615,33.667491]}},{"properties":{"zip":"20350","geo_score":0.714,"id":"agrubxfyb7hq","geo_precision":"zip"},"type":"Feature","geometry":{"type":"Point","coordinates":[-77.014647,38.893311]}},{"properties":{"zip":"28312","geo_score":0.0,"id":"agrubxn2bpnz","geo_precision":"unmatched"},"type":"Feature","geometry":null},{"properties":{"zip":"79938","geo_score":0.714,"id":"agrubxmc0o2a","geo_precision":"zip"},"type":"Feature","geometry":{"type":"Point","coordinates":[-106.3044,31.849828]}},{"properties":{"zip":"36066","geo_score":0.714,"id":"agrubxm57lob","geo_precision":"zip"},"type":"Feature","geometry":{"type":"Point","coordinates":[-86.440879,32.50919]}},{"properties":{"zip":"20814","geo_score":0.714,"id":"agrubxfy5p6l","geo_precision":"zip"},"type":"Feature","geometry":{"type":"Point","coordinates":[-77.109978,38.98261]}},{"properties":{"zip":"20874","geo_score":0.714,"id":"agrubxa46ru4","geo_precision":"zip"},"type":"Feature","geometry":{"type":"Point","coordinates":[-77.282223,39.135512]}},{"properties":{"zip":"20721","geo_score":0.714,"id":"agrubxgdqntp","geo_precision":"zip"},"type":"Feature","geometry":{"type":"Point","coordinates":[-76.787141,38.919357]}},{"properties":{"zip":"55337","geo_score":0.714,"id":"agrubxieo7hb","geo_precision":"zip"},"type":"Feature","geometry":{"type":"Point","coordinates":[-93.226258,44.771547]}},{"properties":{"zip":"80902","geo_score":0.714,"id":"agrubx9j55db","geo_precision":"zip"},"type":"Feature","geometry":{"type":"Point","coordinates":[-104.821363,38.833882]}},{"properties":{"zip":"99016","geo_score":0.714,"id":"agrubxm4dsth","geo_precision":"zip"},"type":"Feature","geometry":{"type":"Point","coordinates":[-117.138178,47.622784]}},{"properties":{"zip":"80921","geo_score":0.714,"id":"agrubxi20d7w","geo_precision":"zip"},"type":"Feature","geometry":{"type":"Point","coordinates":[-104.89122,39.055054]}},{"properties":{"zip":"91913","geo_score":0.714,"id":"agrubxeuxomm","geo_precision":"zip"},"type":"Feature","geometry":{"type":"Point","coordinates":[-116.984669,32.639967]}},{"properties":{"zip":"80911","geo_score":0.714,"id":"agrubxl9vk2f","geo_precision":"zip"},"type":"Feature","geometry":{"type":"Point","coordinates":[-104.789157,38.922849]}},{"properties":{"zip":"32097","geo_score":0.714,"id":"agrubxji842l","geo_precision":"zip"},"type":"Feature","geometry":{"type":"Point","coordinates":[-81.655933,30.617181]}},{"properties":{"zip":"22305","geo_score":0.714,"id":"agrubx9wdxsz","geo_precision":"zip"},"type":"Feature","geometry":{"type":"Point","coordinates":[-77.063959,38.835412]}},{"properties":{"zip":"22191","geo_score":0.714,"id":"agrubxkozmfm","geo_precision":"zip"},"type":"Feature","geometry":{"type":"Point","coordinates":[-77.271644,38.625541]}},{"properties":{"zip":"77584","geo_score":0.714,"id":"agrubxk6k356","geo_precision":"zip"},"type":"Feature","geometry":{"type":"Point","coordinates":[-95.33232,29.54017]}},{"properties":{"zip":"65583","geo_score":0.714,"id":"agrubxlvwixy","geo_precision":"zip"},"type":"Feature","geometry":{"type":"Point","coordinates":[-92.277948,37.858651]}},{"properties":{"zip":"21144","geo_score":0.714,"id":"agrubxe95ca4","geo_precision":"zip"},"type":"Feature","geometry":{"type":"Point","coordinates":[-76.683579,39.114831]}},{"properties":{"zip":"23604","geo_score":0.714,"id":"agrubxi54gwb","geo_precision":"zip"},"type":"Feature","geometry":{"type":"Point","coordinates":[-76.584469,37.157438]}},{"properties":{"zip":"37042","geo_score":0.714,"id":"agrubxoegkm6","geo_precision":"zip"},"type":"Feature","geometry":{"type":"Point","coordinates":[-87.220839,36.506437]}},{"properties":{"zip":"28546","geo_score":0.714,"id":"agrubxds10ee","geo_precision":"zip"},"type":"Feature","geometry":{"type":"Point","coordinates":[-77.444847,34.720825]}},{"properties":{"zip":"29150","geo_score":0.714,"id":"agrubxfomsr1","geo_precision":"zip"},"type":"Feature","geometry":{"type":"Point","coordinates":[-80.317022,34.078767]}},{"properties":{"zip":"37128","geo_score":0.714,"id":"agrubxevy5l7","geo_precision":"zip"},"type":"Feature","geometry":{"type":"Point","coordinates":[-86.486683,35.845418]}},{"properties":{"zip":"80951","geo_score":0.0,"id":"agrubxhu8b72","geo_precision":"unmatched"},"type":"Feature","geometry":null},{"properties":{"zip":"68046","geo_score":0.714,"id":"agrubxkgosbw","geo_precision":"zip"},"type":"Feature","geometry":{"type":"Point","coordinates":[-96.150297,41.183888]}},{"properties":{"zip":"32258","geo_score":0.714,"id":"agrubxmo7x2i","geo_precision":"zip"},"type":"Feature","geometry":{"type":"Point","coordinates":[-81.724267,30.409961]}},{"properties":{"zip":"98433","geo_score":0.714,"id":"agrubxgv5o1z","geo_precision":"zip"},"type":"Feature","geometry":{"type":"Point","coordinates":[-122.491749,47.126735]}},{"properties":{"zip":"76513","geo_score":0.714,"id":"agrubxiwzduq","geo_precision":"zip"},"type":"Feature","geometry":{"type":"Point","coordinates":[-97.411118,31.07879]}},{"properties":{"zip":"76542","geo_score":0.714,"id":"agrubxp2uvfd","geo_precision":"zip"},"type":"Feature","geometry":{"type":"Point","coordinates":[-97.680866,31.03757]}},{"properties":{"zip":"79934","geo_score":0.714,"id":"agrubxop8q6w","geo_precision":"zip"},"type":"Feature","geometry":{"type":"Point","coordinates":[-106.39227,31.963221]}},{"properties":{"zip":"98374","geo_score":0.714,"id":"agrubxfx9j8p","geo_precision":"zip"},"type":"Feature","geometry":{"type":"Point","coordinates":[-122.258646,47.139095]}},{"properties":{"zip":"98126","geo_score":0.714,"id":"agrubxmvwvfi","geo_precision":"zip"},"type":"Feature","geometry":{"type":"Point","coordinates":[-121.803388,47.432251]}},{"properties":{"zip":"28547","geo_score":0.714,"id":"agrubxf9v5be","geo_precision":"zip"},"type":"Feature","geometry":{"type":"Point","coordinates":[-77.361429,34.690934]}},{"properties":{"zip":"33713","geo_score":0.714,"id":"agrubxbsg6ii","geo_precision":"zip"},"type":"Feature","geometry":{"type":"Point","coordinates":[-82.677321,27.789403]}},{"properties":{"zip":"46383","geo_score":0.714,"id":"agrubxe8vz7n","geo_precision":"zip"},"type":"Feature","geometry":{"type":"Point","coordinates":[-87.107531,41.458928]}},{"properties":{"zip":"68521","geo_score":0.714,"id":"agrubxdjs4xb","geo_precision":"zip"},"type":"Feature","geometry":{"type":"Point","coordinates":[-96.718994,40.863301]}},{"properties":{"zip":"15905","geo_score":0.714,"id":"agrubxj2zq6w","geo_precision":"zip"},"type":"Feature","geometry":{"type":"Point","coordinates":[-78.936414,40.282575]}},{"properties":{"zip":"89502","geo_score":0.714,"id":"agrubxg7ygzc","geo_precision":"zip"},"type":"Feature","geometry":{"type":"Point","coordinates":[-119.717965,39.491856]}},{"properties":{"zip":"92118","geo_score":0.714,"id":"agrubxiey7w0","geo_precision":"zip"},"type":"Feature","geometry":{"type":"Point","coordinates":[-117.160815,32.656176]}},{"properties":{"zip":"31548","geo_score":0.714,"id":"agrubxfxk4z7","geo_precision":"zip"},"type":"Feature","geometry":{"type":"Point","coordinates":[-81.692042,30.784384]}},{"properties":{"zip":"92058","geo_score":0.714,"id":"agrubxlxlwg7","geo_precision":"zip"},"type":"Feature","geometry":{"type":"Point","coordinates":[-116.846046,33.016928]}},{"properties":{"zip":"23665","geo_score":0.714,"id":"agrubxofkjrr","geo_precision":"zip"},"type":"Feature","geometry":{"type":"Point","coordinates":[-76.360036,37.083118]}},{"properties":{"zip":"39501","geo_score":0.714,"id":"agrubxif8d8u","geo_precision":"zip"},"type":"Feature","geometry":{"type":"Point","coordinates":[-89.102817,30.437974]}},{"properties":{"zip":"70065","geo_score":0.714,"id":"agrubxjerowo","geo_precision":"zip"},"type":"Feature","geometry":{"type":"Point","coordinates":[-90.250547,30.027041]}},{"properties":{"zip":"28546","geo_score":0.714,"id":"agrubxcx10r1","geo_precision":"zip"},"type":"Feature","geometry":{"type":"Point","coordinates":[-77.444847,34.720825]}},{"properties":{"zip":"80924","geo_score":0.714,"id":"agrubxkbeu9i","geo_precision":"zip"},"type":"Feature","geometry":{"type":"Point","coordinates":[-104.821363,38.833882]}},{"properties":{"zip":"42223","geo_score":0.714,"id":"agrubxlyzjvv","geo_precision":"zip"},"type":"Feature","geometry":{"type":"Point","coordinates":[-87.458858,36.657253]}},{"properties":{"zip":"98387","geo_score":0.714,"id":"agrubxn8xp5s","geo_precision":"zip"},"type":"Feature","geometry":{"type":"Point","coordinates":[-122.39762,47.053155]}},{"properties":{"zip":"80831","geo_score":0.714,"id":"agrubxan1val","geo_precision":"zip"},"type":"Feature","geometry":{"type":"Point","coordinates":[-104.526328,38.984206]}},{"properties":{"zip":"79607","geo_score":0.714,"id":"agrubxei9t2f","geo_precision":"zip"},"type":"Feature","geometry":{"type":"Point","coordinates":[-99.745385,32.427052]}},{"properties":{"zip":"23188","geo_score":0.714,"id":"agrubxiuo76x","geo_precision":"zip"},"type":"Feature","geometry":{"type":"Point","coordinates":[-76.773832,37.34822]}},{"properties":{"zip":"80903","geo_score":0.714,"id":"agrubxnm14a2","geo_precision":"zip"},"type":"Feature","geometry":{"type":"Point","coordinates":[-104.809929,38.828893]}},{"properties":{"zip":"98366","geo_score":0.714,"id":"agrubxd8c7vt","geo_precision":"zip"},"type":"Feature","geometry":{"type":"Point","coordinates":[-120.336741,47.472904]}},{"properties":{"zip":"98374","geo_score":0.714,"id":"agrubxei0fyl","geo_precision":"zip"},"type":"Feature","geometry":{"type":"Point","coordinates":[-122.258646,47.139095]}},{"properties":{"zip":"98383","geo_score":0.714,"id":"agrubxp3dxjj","geo_precision":"zip"},"type":"Feature","geometry":{"type":"Point","coordinates":[-122.707982,47.672498]}},{"properties":{"zip":"33621","geo_score":0.714,"id":"agrubxc8x8y7","geo_precision":"zip"},"type":"Feature","geometry":{"type":"Point","coordinates":[-82.494582,27.849135]}},{"properties":{"zip":"13603","geo_score":0.714,"id":"agrubxodsxe6","geo_precision":"zip"},"type":"Feature","geometry":{"type":"Point","coordinates":[-75.896719,43.908739]}},{"properties":{"zip":"92058","geo_score":0.714,"id":"agrubxb0zj0o","geo_precision":"zip"},"type":"Feature","geometry":{"type":"Point","coordinates":[-116.846046,33.016928]}},{"properties":{"zip":"29485","geo_score":0.714,"id":"agrubxilz25e","geo_precision":"zip"},"type":"Feature","geometry":{"type":"Point","coordinates":[-80.329328,32.999726]}},{"properties":{"zip":"85742","geo_score":0.714,"id":"agrubxnvo0bn","geo_precision":"zip"},"type":"Feature","geometry":{"type":"Point","coordinates":[-111.065029,32.407562]}},{"properties":{"zip":"98207","geo_score":0.714,"id":"agrubxl4s7cf","geo_precision":"zip"},"type":"Feature","geometry":{"type":"Point","coordinates":[-121.682271,48.037258]}},{"properties":{"zip":"98403","geo_score":0.714,"id":"agrubxocop8f","geo_precision":"zip"},"type":"Feature","geometry":{"type":"Point","coordinates":[-122.457087,47.265371]}},{"properties":{"zip":"32003","geo_score":0.0,"id":"agrubxo2q1bb","geo_precision":"unmatched"},"type":"Feature","geometry":null},{"properties":{"zip":"48128","geo_score":0.714,"id":"agrubxdqqxi5","geo_precision":"zip"},"type":"Feature","geometry":{"type":"Point","coordinates":[-83.251428,42.31927]}},{"properties":{"zip":"33558","geo_score":0.714,"id":"agrubx9z8apn","geo_precision":"zip"},"type":"Feature","geometry":{"type":"Point","coordinates":[-82.51849,28.145913]}},{"properties":{"zip":"58704","geo_score":0.714,"id":"agrubxap9jrq","geo_precision":"zip"},"type":"Feature","geometry":{"type":"Point","coordinates":[-101.319942,48.42429]}},{"properties":{"zip":"29016","geo_score":0.714,"id":"agrubxnv6jhv","geo_precision":"zip"},"type":"Feature","geometry":{"type":"Point","coordinates":[-80.918919,34.104758]}},{"properties":{"zip":"22202","geo_score":0.714,"id":"agrubxeyxyj0","geo_precision":"zip"},"type":"Feature","geometry":{"type":"Point","coordinates":[-77.059721,38.854462]}},{"properties":{"zip":"76522","geo_score":0.714,"id":"agrubxd2i5y1","geo_precision":"zip"},"type":"Feature","geometry":{"type":"Point","coordinates":[-97.930051,31.202919]}},{"properties":{"zip":"98277","geo_score":0.714,"id":"agrubxjqckwn","geo_precision":"zip"},"type":"Feature","geometry":{"type":"Point","coordinates":[-122.673225,48.239822]}},{"properties":{"zip":"79906","geo_score":0.714,"id":"agrubxaxly11","geo_precision":"zip"},"type":"Feature","geometry":{"type":"Point","coordinates":[-106.41224,31.813569]}},{"properties":{"zip":"28314","geo_score":0.714,"id":"agrubxonuezs","geo_precision":"zip"},"type":"Feature","geometry":{"type":"Point","coordinates":[-79.011328,35.05425]}},{"properties":{"zip":"20906","geo_score":0.714,"id":"agrubxmh516n","geo_precision":"zip"},"type":"Feature","geometry":{"type":"Point","coordinates":[-77.077756,39.062609]}},{"properties":{"zip":"92108","geo_score":0.714,"id":"agrubxk1tzqh","geo_precision":"zip"},"type":"Feature","geometry":{"type":"Point","coordinates":[-117.148616,32.774699]}},{"properties":{"zip":"28539","geo_score":0.714,"id":"agrubxcho7ja","geo_precision":"zip"},"type":"Feature","geometry":{"type":"Point","coordinates":[-77.222926,34.709544]}},{"properties":{"zip":"28539","geo_score":0.714,"id":"agrubxexeh7y","geo_precision":"zip"},"type":"Feature","geometry":{"type":"Point","coordinates":[-77.222926,34.709544]}},{"properties":{"zip":"32404","geo_score":0.714,"id":"agrubxk8lm7h","geo_precision":"zip"},"type":"Feature","geometry":{"type":"Point","coordinates":[-85.569925,30.152979]}},{"properties":{"zip":"98312","geo_score":0.714,"id":"agrubxbraj08","geo_precision":"zip"},"type":"Feature","geometry":{"type":"Point","coordinates":[-122.766816,47.604538]}},{"properties":{"zip":"84108","geo_score":0.714,"id":"agrubxhl4nno","geo_precision":"zip"},"type":"Feature","geometry":{"type":"Point","coordinates":[-111.834101,40.743002]}},{"properties":{"zip":"92058","geo_score":0.714,"id":"agrubxl3whe7","geo_precision":"zip"},"type":"Feature","geometry":{"type":"Point","coordinates":[-116.846046,33.016928]}},{"properties":{"zip":"79906","geo_score":0.714,"id":"agrubxemq3r1","geo_precision":"zip"},"type":"Feature","geometry":{"type":"Point","coordinates":[-106.41224,31.813569]}},{"properties":{"zip":"20603","geo_score":0.714,"id":"agrubxnur93w","geo_precision":"zip"},"type":"Feature","geometry":{"type":"Point","coordinates":[-77.062012,38.52115]}},{"properties":{"zip":"98311","geo_score":0.714,"id":"agrubxa8rka4","geo_precision":"zip"},"type":"Feature","geometry":{"type":"Point","coordinates":[-122.637276,47.627129]}},{"properties":{"zip":"98366","geo_score":0.714,"id":"agrubxel0jsb","geo_precision":"zip"},"type":"Feature","geometry":{"type":"Point","coordinates":[-120.336741,47.472904]}},{"properties":{"zip":"98315","geo_score":0.714,"id":"agrubxgaglte","geo_precision":"zip"},"type":"Feature","geometry":{"type":"Point","coordinates":[-122.712678,47.690048]}}],"is_temporal":false,"author":{"url":"","metadata":"","contact_name":"","contact_address":"","source":"","contact_phone":""},"source":"","pagination":{"sort":null,"start":0,"total":459,"limit":1000000},"state":"complete","tags":"","published":"2014-08-17T00:33:19-04:00","id":389760}