{"type":"FeatureCollection","data_type":"Dataset","url_type":null,"permissions":[{"permissions":{"download":true,"view":true},"group_id":"everyone"}],"classification":null,"title":"CT vitist from RI","count":40,"stream_id":390090,"contributor":{"url":"http://geocommons.com/users/81070","name":"dsaabye@alm.com"},"data_attributes":null,"calculation_params":null,"icon_link":null,"link":"http://geocommons.com/overlays/390090.json","extent":[-71.7107,41.2845,-71.1752,41.9824],"geometry_types":["point"],"unique_name":null,"name":"CT vitist from RI","feature_count":40,"description":"","next_feature":null,"is_raster":false,"short_classification":"Y","stats":{"instances":{"max":288,"variance":2154.73782051282,"mean":17.925,"stdev":46.4191535953944,"min":1,"median":6},"page views":{"max":644,"variance":11256.2666666667,"mean":40.8,"stdev":106.095554415191,"min":1,"median":11},"unique visitors":{"max":117,"variance":379.323076923077,"mean":10.4,"stdev":19.4762182397681,"min":1,"median":5}},"features":[{"properties":{"city":"providence","instances":288,"geo_score":0.714,"page views":644,"id":"agsrn4krd8x5","unique visitors":117,"geo_precision":"city","state":"Rhode Island"},"type":"Feature","geometry":{"type":"Point","coordinates":[-71.414451,41.82275]}},{"properties":{"city":"west warwick","instances":75,"geo_score":0.714,"page views":182,"id":"agsrn4ht1uy0","unique visitors":36,"geo_precision":"city","state":"Rhode Island"},"type":"Feature","geometry":{"type":"Point","coordinates":[-71.507304,41.696822]}},{"properties":{"city":"cranston","instances":53,"geo_score":0.714,"page views":145,"id":"agsrn4qgdtxn","unique visitors":35,"geo_precision":"city","state":"Rhode Island"},"type":"Feature","geometry":{"type":"Point","coordinates":[-71.435251,41.7917]}},{"properties":{"city":"east greenwich","instances":35,"geo_score":0.714,"page views":134,"id":"agsrn4ekgb4u","unique visitors":24,"geo_precision":"city","state":"Rhode Island"},"type":"Feature","geometry":{"type":"Point","coordinates":[-71.478002,41.64335]}},{"properties":{"city":"west warwick","instances":28,"geo_score":0.714,"page views":78,"id":"agsrn4j7qbp8","unique visitors":17,"geo_precision":"city","state":"Rhode Island"},"type":"Feature","geometry":{"type":"Point","coordinates":[-71.507304,41.696822]}},{"properties":{"city":"westerly","instances":37,"geo_score":0.714,"page views":72,"id":"agsrn4qohesd","unique visitors":28,"geo_precision":"city","state":"Rhode Island"},"type":"Feature","geometry":{"type":"Point","coordinates":[-71.710708,41.284494]}},{"properties":{"city":"wakefield","instances":18,"geo_score":0.714,"page views":34,"id":"agsrn4oi22pn","unique visitors":16,"geo_precision":"city","state":"Rhode Island"},"type":"Feature","geometry":{"type":"Point","coordinates":[-71.534202,41.443653]}},{"properties":{"city":"barrington","instances":21,"geo_score":0.714,"page views":29,"id":"agsrn4eqr3x0","unique visitors":10,"geo_precision":"city","state":"Rhode Island"},"type":"Feature","geometry":{"type":"Point","coordinates":[-71.320395,41.742501]}},{"properties":{"city":"charlestown","instances":13,"geo_score":0.714,"page views":29,"id":"agsrn4r6xtia","unique visitors":12,"geo_precision":"city","state":"Rhode Island"},"type":"Feature","geometry":{"type":"Point","coordinates":[-71.66542,41.395079]}},{"properties":{"city":"central falls","instances":8,"geo_score":0.714,"page views":28,"id":"agsrn4jspc1k","unique visitors":7,"geo_precision":"city","state":"Rhode Island"},"type":"Feature","geometry":{"type":"Point","coordinates":[-71.394186,41.889849]}},{"properties":{"city":"middletown","instances":6,"geo_score":0.714,"page views":26,"id":"agsrn4gw7d53","unique visitors":5,"geo_precision":"city","state":"Rhode Island"},"type":"Feature","geometry":{"type":"Point","coordinates":[-71.291439,41.545658]}},{"properties":{"city":"narragansett","instances":15,"geo_score":0.714,"page views":21,"id":"agsrn4hhuw31","unique visitors":12,"geo_precision":"city","state":"Rhode Island"},"type":"Feature","geometry":{"type":"Point","coordinates":[-71.497793,41.377185]}},{"properties":{"city":"newport","instances":12,"geo_score":0.714,"page views":21,"id":"agsrn4mnh71i","unique visitors":11,"geo_precision":"city","state":"Rhode Island"},"type":"Feature","geometry":{"type":"Point","coordinates":[-71.327084,41.487552]}},{"properties":{"city":"central falls","instances":12,"geo_score":0.714,"page views":21,"id":"agsrn4ikbk8n","unique visitors":9,"geo_precision":"city","state":"Rhode Island"},"type":"Feature","geometry":{"type":"Point","coordinates":[-71.394186,41.889849]}},{"properties":{"city":"lincoln","instances":12,"geo_score":0.714,"page views":21,"id":"agsrn4g5aa5k","unique visitors":7,"geo_precision":"city","state":"Rhode Island"},"type":"Feature","geometry":{"type":"Point","coordinates":[-71.493355,41.925298]}},{"properties":{"city":"foster","instances":9,"geo_score":0.714,"page views":16,"id":"agsrn4i6mosi","unique visitors":1,"geo_precision":"city","state":"Rhode Island"},"type":"Feature","geometry":{"type":"Point","coordinates":[-71.70644,41.790569]}},{"properties":{"city":"jamestown","instances":7,"geo_score":0.714,"page views":15,"id":"agsrn4ce5x1y","unique visitors":5,"geo_precision":"city","state":"Rhode Island"},"type":"Feature","geometry":{"type":"Point","coordinates":[-71.389221,41.529824]}},{"properties":{"city":"smithfield","instances":7,"geo_score":0.714,"page views":14,"id":"agsrn4ojw9d1","unique visitors":7,"geo_precision":"city","state":"Rhode Island"},"type":"Feature","geometry":{"type":"Point","coordinates":[-71.497804,41.853899]}},{"properties":{"city":"portsmouth","instances":5,"geo_score":0.714,"page views":12,"id":"agsrn4jd0a3n","unique visitors":5,"geo_precision":"city","state":"Rhode Island"},"type":"Feature","geometry":{"type":"Point","coordinates":[-71.264197,41.58523]}},{"properties":{"city":"bristol","instances":8,"geo_score":0.714,"page views":11,"id":"agsrn4qda96w","unique visitors":5,"geo_precision":"city","state":"Rhode Island"},"type":"Feature","geometry":{"type":"Point","coordinates":[-71.253659,41.632602]}},{"properties":{"city":"north kingstown","instances":7,"geo_score":0.714,"page views":10,"id":"agsrn4j0usuc","unique visitors":7,"geo_precision":"city","state":"Rhode Island"},"type":"Feature","geometry":{"type":"Point","coordinates":[-71.524317,41.482901]}},{"properties":{"city":"tiverton","instances":4,"geo_score":0.714,"page views":9,"id":"agsrn4g3rr1i","unique visitors":4,"geo_precision":"city","state":"Rhode Island"},"type":"Feature","geometry":{"type":"Point","coordinates":[-71.175183,41.61018]}},{"properties":{"city":"harrisville","instances":2,"geo_score":0.714,"page views":9,"id":"agsrn4kpgzmp","unique visitors":2,"geo_precision":"city","state":"Rhode Island"},"type":"Feature","geometry":{"type":"Point","coordinates":[-71.648502,41.97239]}},{"properties":{"city":"north smithfield","instances":4,"geo_score":0.714,"page views":7,"id":"agsrn4r6qqk0","unique visitors":4,"geo_precision":"city","state":"Rhode Island"},"type":"Feature","geometry":{"type":"Point","coordinates":[-71.497804,41.853899]}},{"properties":{"city":"coventry","instances":6,"geo_score":0.714,"page views":6,"id":"agsrn4ix8wby","unique visitors":6,"geo_precision":"city","state":"Rhode Island"},"type":"Feature","geometry":{"type":"Point","coordinates":[-71.636786,41.694251]}},{"properties":{"city":"warren","instances":2,"geo_score":0.714,"page views":5,"id":"agsrn4q99g5h","unique visitors":2,"geo_precision":"city","state":"Rhode Island"},"type":"Feature","geometry":{"type":"Point","coordinates":[-71.257492,41.727451]}},{"properties":{"city":"north scituate","instances":3,"geo_score":0.714,"page views":4,"id":"agsrn4jm7kf7","unique visitors":3,"geo_precision":"city","state":"Rhode Island"},"type":"Feature","geometry":{"type":"Point","coordinates":[-71.655006,41.838827]}},{"properties":{"city":"johnston","instances":3,"geo_score":0.714,"page views":4,"id":"agsrn4gzicxl","unique visitors":2,"geo_precision":"city","state":"Rhode Island"},"type":"Feature","geometry":{"type":"Point","coordinates":[-71.497604,41.870932]}},{"properties":{"city":"block island","instances":1,"geo_score":0.714,"page views":4,"id":"agsrn4kpjbu4","unique visitors":1,"geo_precision":"city","state":"Rhode Island"},"type":"Feature","geometry":{"type":"Point","coordinates":[-71.227269,41.623436]}},{"properties":{"city":"east providence","instances":3,"geo_score":0.714,"page views":3,"id":"agsrn4nhtw8t","unique visitors":3,"geo_precision":"city","state":"Rhode Island"},"type":"Feature","geometry":{"type":"Point","coordinates":[-71.414451,41.82275]}},{"properties":{"city":"riverside","instances":2,"geo_score":0.714,"page views":3,"id":"agsrn4ecfyzk","unique visitors":2,"geo_precision":"city","state":"Rhode Island"},"type":"Feature","geometry":{"type":"Point","coordinates":[-71.349697,41.7743]}},{"properties":{"city":"cumberland","instances":2,"geo_score":0.714,"page views":3,"id":"agsrn4rhrj0z","unique visitors":2,"geo_precision":"city","state":"Rhode Island"},"type":"Feature","geometry":{"type":"Point","coordinates":[-71.467004,41.974543]}},{"properties":{"city":"kingston","instances":2,"geo_score":0.714,"page views":2,"id":"agsrn4evglzl","unique visitors":2,"geo_precision":"city","state":"Rhode Island"},"type":"Feature","geometry":{"type":"Point","coordinates":[-71.524317,41.482901]}},{"properties":{"city":"fiskeville","instances":1,"geo_score":0.714,"page views":2,"id":"agsrn4cqie9t","unique visitors":1,"geo_precision":"city","state":"Rhode Island"},"type":"Feature","geometry":{"type":"Point","coordinates":[-71.546756,41.7312]}},{"properties":{"city":"hope valley","instances":1,"geo_score":0.714,"page views":2,"id":"agsrn4gxy6i1","unique visitors":1,"geo_precision":"city","state":"Rhode Island"},"type":"Feature","geometry":{"type":"Point","coordinates":[-71.577746,41.753594]}},{"properties":{"city":"glendale","instances":1,"geo_score":0.714,"page views":2,"id":"agsrn4hmvwiq","unique visitors":1,"geo_precision":"city","state":"Rhode Island"},"type":"Feature","geometry":{"type":"Point","coordinates":[-71.600848,41.982417]}},{"properties":{"city":"north smithfield","instances":1,"geo_score":0.714,"page views":1,"id":"agsrn4fy4gud","unique visitors":1,"geo_precision":"city","state":"Rhode Island"},"type":"Feature","geometry":{"type":"Point","coordinates":[-71.497804,41.853899]}},{"properties":{"city":"rumford","instances":1,"geo_score":0.714,"page views":1,"id":"agsrn4r30zls","unique visitors":1,"geo_precision":"city","state":"Rhode Island"},"type":"Feature","geometry":{"type":"Point","coordinates":[-71.355798,41.842727]}},{"properties":{"city":"albion","instances":1,"geo_score":0.714,"page views":1,"id":"agsrn4dhu6yw","unique visitors":1,"geo_precision":"city","state":"Rhode Island"},"type":"Feature","geometry":{"type":"Point","coordinates":[-71.462053,41.954098]}},{"properties":{"city":"chepachet","instances":1,"geo_score":0.714,"page views":1,"id":"agsrn4crjtih","unique visitors":1,"geo_precision":"city","state":"Rhode Island"},"type":"Feature","geometry":{"type":"Point","coordinates":[-71.688769,41.888971]}}],"is_temporal":false,"author":{"url":"","metadata":"","contact_name":"","contact_address":"","source":"","contact_phone":""},"source":"","pagination":{"sort":null,"start":0,"total":40,"limit":1000000},"state":"complete","tags":"","published":"2014-08-16T13:06:30-04:00","id":390090}