{"type":"FeatureCollection","data_type":"Dataset","url_type":null,"permissions":[{"permissions":{"download":true,"view":true},"group_id":"everyone"}],"classification":null,"title":"CT visits from MA","count":283,"stream_id":390092,"contributor":{"url":"http://geocommons.com/users/81070","name":"dsaabye@alm.com"},"data_attributes":null,"calculation_params":null,"icon_link":null,"link":"http://geocommons.com/overlays/390092.json","extent":[-73.4462,41.4012,-70.0154,42.8535],"geometry_types":["point"],"unique_name":null,"name":"CT visits from MA","feature_count":283,"description":"","next_feature":null,"is_raster":false,"short_classification":"Y","stats":{"instances":{"max":1013,"variance":4414.27173395482,"mean":19.4134275618375,"stdev":66.4399859569132,"min":1,"median":7},"page views":{"max":2141,"variance":20127.4207703681,"mean":40.7067137809187,"stdev":141.871141429003,"min":1,"median":12},"unique visitors":{"max":711,"variance":2153.92451695361,"mean":13.9681978798587,"stdev":46.4103923378548,"min":1,"median":5}},"features":[{"properties":{"city":"boston","instances":1013,"geo_score":0.714,"page views":2141,"id":"agsryn61o9i9","unique visitors":711,"geo_precision":"city","state":"Massachusetts"},"type":"Feature","geometry":{"type":"Point","coordinates":[-71.026964,42.370567]}},{"properties":{"city":"springfield","instances":274,"geo_score":0.714,"page views":579,"id":"agsrynipt6e9","unique visitors":189,"geo_precision":"city","state":"Massachusetts"},"type":"Feature","geometry":{"type":"Point","coordinates":[-72.604842,42.170731]}},{"properties":{"city":"cambridge","instances":202,"geo_score":0.714,"page views":565,"id":"agsrynl1ts3i","unique visitors":140,"geo_precision":"city","state":"Massachusetts"},"type":"Feature","geometry":{"type":"Point","coordinates":[-71.103663,42.358431]}},{"properties":{"city":"worcester","instances":209,"geo_score":0.714,"page views":356,"id":"agsrynaxczq7","unique visitors":131,"geo_precision":"city","state":"Massachusetts"},"type":"Feature","geometry":{"type":"Point","coordinates":[-71.879415,42.265275]}},{"properties":{"city":"belmont","instances":90,"geo_score":0.714,"page views":344,"id":"agsrynixj7w1","unique visitors":45,"geo_precision":"city","state":"Massachusetts"},"type":"Feature","geometry":{"type":"Point","coordinates":[-71.459405,42.446396]}},{"properties":{"city":"west springfield","instances":136,"geo_score":0.714,"page views":249,"id":"agsryni3jnn6","unique visitors":110,"geo_precision":"city","state":"Massachusetts"},"type":"Feature","geometry":{"type":"Point","coordinates":[-72.604842,42.170731]}},{"properties":{"city":"westfield","instances":106,"geo_score":0.714,"page views":217,"id":"agsryn62pu4f","unique visitors":29,"geo_precision":"city","state":"Massachusetts"},"type":"Feature","geometry":{"type":"Point","coordinates":[-70.638189,41.603946]}},{"properties":{"city":"lowell","instances":128,"geo_score":0.714,"page views":211,"id":"agsrynj515m5","unique visitors":87,"geo_precision":"city","state":"Massachusetts"},"type":"Feature","geometry":{"type":"Point","coordinates":[-71.459405,42.446396]}},{"properties":{"city":"ayer","instances":103,"geo_score":0.714,"page views":169,"id":"agsrynhcumz1","unique visitors":83,"geo_precision":"city","state":"Massachusetts"},"type":"Feature","geometry":{"type":"Point","coordinates":[-71.459405,42.446396]}},{"properties":{"city":"somerville","instances":55,"geo_score":0.714,"page views":168,"id":"agsryn675afg","unique visitors":44,"geo_precision":"city","state":"Massachusetts"},"type":"Feature","geometry":{"type":"Point","coordinates":[-71.098896,42.38092]}},{"properties":{"city":"natick","instances":84,"geo_score":0.0,"page views":167,"id":"agsrync7o3cw","unique visitors":59,"geo_precision":"unmatched","state":"Massachusetts"},"type":"Feature","geometry":null},{"properties":{"city":"webster","instances":61,"geo_score":0.714,"page views":164,"id":"agsrynlmg5sr","unique visitors":15,"geo_precision":"city","state":"Massachusetts"},"type":"Feature","geometry":{"type":"Point","coordinates":[-71.994169,42.1351]}},{"properties":{"city":"monson","instances":77,"geo_score":0.714,"page views":161,"id":"agsrynitzgpk","unique visitors":62,"geo_precision":"city","state":"Massachusetts"},"type":"Feature","geometry":{"type":"Point","coordinates":[-72.282063,42.095323]}},{"properties":{"city":"brighton","instances":88,"geo_score":0.714,"page views":159,"id":"agsrynkbjlh7","unique visitors":76,"geo_precision":"city","state":"Massachusetts"},"type":"Feature","geometry":{"type":"Point","coordinates":[-71.104888,42.349768]}},{"properties":{"city":"chicopee","instances":54,"geo_score":0.714,"page views":157,"id":"agsrynaxdu6e","unique visitors":39,"geo_precision":"city","state":"Massachusetts"},"type":"Feature","geometry":{"type":"Point","coordinates":[-72.667341,42.161492]}},{"properties":{"city":"new bedford","instances":29,"geo_score":0.714,"page views":151,"id":"agsryngwduus","unique visitors":13,"geo_precision":"city","state":"Massachusetts"},"type":"Feature","geometry":{"type":"Point","coordinates":[-71.270891,42.516205]}},{"properties":{"city":"waltham","instances":69,"geo_score":0.714,"page views":126,"id":"agsrynjbauhb","unique visitors":44,"geo_precision":"city","state":"Massachusetts"},"type":"Feature","geometry":{"type":"Point","coordinates":[-71.2398,42.388938]}},{"properties":{"city":"malden","instances":62,"geo_score":0.714,"page views":118,"id":"agsrynf6m0oa","unique visitors":52,"geo_precision":"city","state":"Massachusetts"},"type":"Feature","geometry":{"type":"Point","coordinates":[-71.085396,42.436545]}},{"properties":{"city":"watertown","instances":51,"geo_score":0.714,"page views":117,"id":"agsryn5zzq2q","unique visitors":33,"geo_precision":"city","state":"Massachusetts"},"type":"Feature","geometry":{"type":"Point","coordinates":[-71.177998,42.372596]}},{"properties":{"city":"lawrence","instances":27,"geo_score":0.714,"page views":117,"id":"agsryn66iygy","unique visitors":12,"geo_precision":"city","state":"Massachusetts"},"type":"Feature","geometry":{"type":"Point","coordinates":[-71.161052,42.70734]}},{"properties":{"city":"vineyard haven","instances":60,"geo_score":0.714,"page views":116,"id":"agsryn61cb00","unique visitors":22,"geo_precision":"city","state":"Massachusetts"},"type":"Feature","geometry":{"type":"Point","coordinates":[-70.566139,41.464001]}},{"properties":{"city":"sudbury","instances":51,"geo_score":0.714,"page views":110,"id":"agsrynafm0r6","unique visitors":46,"geo_precision":"city","state":"Massachusetts"},"type":"Feature","geometry":{"type":"Point","coordinates":[-71.459405,42.446396]}},{"properties":{"city":"agawam","instances":11,"geo_score":0.714,"page views":98,"id":"agsrynlv1t85","unique visitors":8,"geo_precision":"city","state":"Massachusetts"},"type":"Feature","geometry":{"type":"Point","coordinates":[-72.788661,42.140549]}},{"properties":{"city":"walpole","instances":22,"geo_score":0.714,"page views":95,"id":"agsrynha6t07","unique visitors":14,"geo_precision":"city","state":"Massachusetts"},"type":"Feature","geometry":{"type":"Point","coordinates":[-71.255533,42.148624]}},{"properties":{"city":"centerville","instances":32,"geo_score":0.714,"page views":94,"id":"agsryn7g8twa","unique visitors":11,"geo_precision":"city","state":"Massachusetts"},"type":"Feature","geometry":{"type":"Point","coordinates":[-70.84116,42.580651]}},{"properties":{"city":"rutland","instances":27,"geo_score":0.714,"page views":94,"id":"agsryn9qcqyn","unique visitors":10,"geo_precision":"city","state":"Massachusetts"},"type":"Feature","geometry":{"type":"Point","coordinates":[-71.95463,42.383516]}},{"properties":{"city":"quincy","instances":54,"geo_score":0.714,"page views":93,"id":"agsrynfas4ws","unique visitors":46,"geo_precision":"city","state":"Massachusetts"},"type":"Feature","geometry":{"type":"Point","coordinates":[-71.006042,42.241799]}},{"properties":{"city":"wellesley hills","instances":34,"geo_score":0.714,"page views":91,"id":"agsrynis26in","unique visitors":22,"geo_precision":"city","state":"Massachusetts"},"type":"Feature","geometry":{"type":"Point","coordinates":[-71.278668,42.30843]}},{"properties":{"city":"longmeadow","instances":43,"geo_score":0.714,"page views":86,"id":"agsryna3vwyg","unique visitors":33,"geo_precision":"city","state":"Massachusetts"},"type":"Feature","geometry":{"type":"Point","coordinates":[-72.567882,42.049194]}},{"properties":{"city":"milford","instances":54,"geo_score":0.714,"page views":85,"id":"agsrynlnan8w","unique visitors":19,"geo_precision":"city","state":"Massachusetts"},"type":"Feature","geometry":{"type":"Point","coordinates":[-71.528085,42.147087]}},{"properties":{"city":"north brookfield","instances":46,"geo_score":0.714,"page views":83,"id":"agsrynigltnz","unique visitors":2,"geo_precision":"city","state":"Massachusetts"},"type":"Feature","geometry":{"type":"Point","coordinates":[-71.672568,42.134818]}},{"properties":{"city":"brookline","instances":36,"geo_score":0.714,"page views":81,"id":"agsrynga03fh","unique visitors":29,"geo_precision":"city","state":"Massachusetts"},"type":"Feature","geometry":{"type":"Point","coordinates":[-71.08923,42.180048]}},{"properties":{"city":"easthampton","instances":55,"geo_score":0.714,"page views":80,"id":"agsrynfegdhy","unique visitors":50,"geo_precision":"city","state":"Massachusetts"},"type":"Feature","geometry":{"type":"Point","coordinates":[-72.768839,42.368303]}},{"properties":{"city":"concord","instances":30,"geo_score":0.714,"page views":76,"id":"agsryn8m3t14","unique visitors":24,"geo_precision":"city","state":"Massachusetts"},"type":"Feature","geometry":{"type":"Point","coordinates":[-71.459405,42.446396]}},{"properties":{"city":"arlington","instances":45,"geo_score":0.714,"page views":71,"id":"agsrynhkl4uu","unique visitors":35,"geo_precision":"city","state":"Massachusetts"},"type":"Feature","geometry":{"type":"Point","coordinates":[-71.167083,42.417695]}},{"properties":{"city":"hyde park","instances":30,"geo_score":0.714,"page views":71,"id":"agsryn7coscq","unique visitors":25,"geo_precision":"city","state":"Massachusetts"},"type":"Feature","geometry":{"type":"Point","coordinates":[-71.129321,42.254248]}},{"properties":{"city":"barre","instances":38,"geo_score":0.714,"page views":68,"id":"agsryncy8iod","unique visitors":6,"geo_precision":"city","state":"Massachusetts"},"type":"Feature","geometry":{"type":"Point","coordinates":[-72.139465,42.32916]}},{"properties":{"city":"framingham","instances":33,"geo_score":0.714,"page views":68,"id":"agsrynbp5wbr","unique visitors":30,"geo_precision":"city","state":"Massachusetts"},"type":"Feature","geometry":{"type":"Point","coordinates":[-71.437006,42.297318]}},{"properties":{"city":"peabody","instances":24,"geo_score":0.714,"page views":64,"id":"agsryn8j673z","unique visitors":12,"geo_precision":"city","state":"Massachusetts"},"type":"Feature","geometry":{"type":"Point","coordinates":[-70.973646,42.536996]}},{"properties":{"city":"mashpee","instances":27,"geo_score":0.714,"page views":59,"id":"agsryneekd8m","unique visitors":12,"geo_precision":"city","state":"Massachusetts"},"type":"Feature","geometry":{"type":"Point","coordinates":[-70.253543,41.788337]}},{"properties":{"city":"saugus","instances":26,"geo_score":0.714,"page views":58,"id":"agsryndkne08","unique visitors":23,"geo_precision":"city","state":"Massachusetts"},"type":"Feature","geometry":{"type":"Point","coordinates":[-70.997794,42.472112]}},{"properties":{"city":"gardner","instances":10,"geo_score":0.714,"page views":58,"id":"agsryne26ivp","unique visitors":9,"geo_precision":"city","state":"Massachusetts"},"type":"Feature","geometry":{"type":"Point","coordinates":[-72.025884,42.582529]}},{"properties":{"city":"northampton","instances":34,"geo_score":0.714,"page views":57,"id":"agsryncneccs","unique visitors":25,"geo_precision":"city","state":"Massachusetts"},"type":"Feature","geometry":{"type":"Point","coordinates":[-72.76927,42.415154]}},{"properties":{"city":"woburn","instances":38,"geo_score":0.714,"page views":56,"id":"agsrynkazb0l","unique visitors":34,"geo_precision":"city","state":"Massachusetts"},"type":"Feature","geometry":{"type":"Point","coordinates":[-71.157271,42.488595]}},{"properties":{"city":"southbridge","instances":37,"geo_score":0.714,"page views":56,"id":"agsrynktaqz5","unique visitors":31,"geo_precision":"city","state":"Massachusetts"},"type":"Feature","geometry":{"type":"Point","coordinates":[-72.031155,42.129251]}},{"properties":{"city":"burlington","instances":25,"geo_score":0.714,"page views":55,"id":"agsrynijnmie","unique visitors":22,"geo_precision":"city","state":"Massachusetts"},"type":"Feature","geometry":{"type":"Point","coordinates":[-71.201539,42.504844]}},{"properties":{"city":"salem","instances":25,"geo_score":0.714,"page views":53,"id":"agsrynd7v7r6","unique visitors":12,"geo_precision":"city","state":"Massachusetts"},"type":"Feature","geometry":{"type":"Point","coordinates":[-70.873647,42.642845]}},{"properties":{"city":"plainville","instances":16,"geo_score":0.714,"page views":53,"id":"agsryncbq7wb","unique visitors":8,"geo_precision":"city","state":"Massachusetts"},"type":"Feature","geometry":{"type":"Point","coordinates":[-72.958397,42.448984]}},{"properties":{"city":"westford","instances":18,"geo_score":0.714,"page views":52,"id":"agsryn9bzgxo","unique visitors":16,"geo_precision":"city","state":"Massachusetts"},"type":"Feature","geometry":{"type":"Point","coordinates":[-72.714814,42.309811]}},{"properties":{"city":"newton","instances":20,"geo_score":0.714,"page views":50,"id":"agsryni4gxg4","unique visitors":17,"geo_precision":"city","state":"Massachusetts"},"type":"Feature","geometry":{"type":"Point","coordinates":[-70.438637,41.671776]}},{"properties":{"city":"west yarmouth","instances":19,"geo_score":0.714,"page views":48,"id":"agsrynjbc5ds","unique visitors":9,"geo_precision":"city","state":"Massachusetts"},"type":"Feature","geometry":{"type":"Point","coordinates":[-70.228631,41.705666]}},{"properties":{"city":"marlborough","instances":24,"geo_score":0.714,"page views":47,"id":"agsryn6k5xug","unique visitors":20,"geo_precision":"city","state":"Massachusetts"},"type":"Feature","geometry":{"type":"Point","coordinates":[-71.459405,42.446396]}},{"properties":{"city":"oxford","instances":21,"geo_score":0.0,"page views":46,"id":"agsrynlifnra","unique visitors":10,"geo_precision":"unmatched","state":"Massachusetts"},"type":"Feature","geometry":null},{"properties":{"city":"jamaica plain","instances":27,"geo_score":0.714,"page views":44,"id":"agsryndkfxb9","unique visitors":25,"geo_precision":"city","state":"Massachusetts"},"type":"Feature","geometry":{"type":"Point","coordinates":[-71.121097,42.309661]}},{"properties":{"city":"billerica","instances":25,"geo_score":0.714,"page views":43,"id":"agsryn6hbbm8","unique visitors":21,"geo_precision":"city","state":"Massachusetts"},"type":"Feature","geometry":{"type":"Point","coordinates":[-71.459405,42.446396]}},{"properties":{"city":"holliston","instances":18,"geo_score":0.714,"page views":43,"id":"agsryn9ep85t","unique visitors":13,"geo_precision":"city","state":"Massachusetts"},"type":"Feature","geometry":{"type":"Point","coordinates":[-71.459405,42.446396]}},{"properties":{"city":"needham heights","instances":7,"geo_score":0.714,"page views":43,"id":"agsrynd6n8mt","unique visitors":6,"geo_precision":"city","state":"Massachusetts"},"type":"Feature","geometry":{"type":"Point","coordinates":[-71.232833,42.294542]}},{"properties":{"city":"clinton","instances":24,"geo_score":0.714,"page views":42,"id":"agsrynlr5g3j","unique visitors":22,"geo_precision":"city","state":"Massachusetts"},"type":"Feature","geometry":{"type":"Point","coordinates":[-71.687523,42.413972]}},{"properties":{"city":"lynn","instances":22,"geo_score":0.714,"page views":40,"id":"agsrynlt1yj2","unique visitors":14,"geo_precision":"city","state":"Massachusetts"},"type":"Feature","geometry":{"type":"Point","coordinates":[-70.946743,42.461246]}},{"properties":{"city":"holyoke","instances":29,"geo_score":0.714,"page views":38,"id":"agsryn95fm9m","unique visitors":23,"geo_precision":"city","state":"Massachusetts"},"type":"Feature","geometry":{"type":"Point","coordinates":[-72.64207,42.198291]}},{"properties":{"city":"edgartown","instances":16,"geo_score":0.714,"page views":38,"id":"agsryn7a1187","unique visitors":8,"geo_precision":"city","state":"Massachusetts"},"type":"Feature","geometry":{"type":"Point","coordinates":[-70.552054,41.401176]}},{"properties":{"city":"brockton","instances":22,"geo_score":0.714,"page views":36,"id":"agsrynjdb5hj","unique visitors":20,"geo_precision":"city","state":"Massachusetts"},"type":"Feature","geometry":{"type":"Point","coordinates":[-71.014775,42.584816]}},{"properties":{"city":"charlestown","instances":19,"geo_score":0.714,"page views":36,"id":"agsrynjraruq","unique visitors":14,"geo_precision":"city","state":"Massachusetts"},"type":"Feature","geometry":{"type":"Point","coordinates":[-71.065287,42.382588]}},{"properties":{"city":"hyannis","instances":20,"geo_score":0.714,"page views":34,"id":"agsrynkbd8e1","unique visitors":11,"geo_precision":"city","state":"Massachusetts"},"type":"Feature","geometry":{"type":"Point","coordinates":[-70.138834,41.829813]}},{"properties":{"city":"newtonville","instances":19,"geo_score":0.714,"page views":32,"id":"agsryncp5ss9","unique visitors":17,"geo_precision":"city","state":"Massachusetts"},"type":"Feature","geometry":{"type":"Point","coordinates":[-71.203666,42.350097]}},{"properties":{"city":"medford","instances":15,"geo_score":0.714,"page views":32,"id":"agsrynbst7di","unique visitors":14,"geo_precision":"city","state":"Massachusetts"},"type":"Feature","geometry":{"type":"Point","coordinates":[-71.459405,42.446396]}},{"properties":{"city":"acton","instances":13,"geo_score":0.714,"page views":32,"id":"agsrynlz14av","unique visitors":12,"geo_precision":"city","state":"Massachusetts"},"type":"Feature","geometry":{"type":"Point","coordinates":[-71.459405,42.446396]}},{"properties":{"city":"westborough","instances":19,"geo_score":0.714,"page views":31,"id":"agsrynibprv2","unique visitors":19,"geo_precision":"city","state":"Massachusetts"},"type":"Feature","geometry":{"type":"Point","coordinates":[-72.260635,42.175649]}},{"properties":{"city":"beverly","instances":20,"geo_score":0.714,"page views":30,"id":"agsrynbe467u","unique visitors":13,"geo_precision":"city","state":"Massachusetts"},"type":"Feature","geometry":{"type":"Point","coordinates":[-70.853843,42.565145]}},{"properties":{"city":"amherst","instances":19,"geo_score":0.714,"page views":30,"id":"agsrynencz0y","unique visitors":18,"geo_precision":"city","state":"Massachusetts"},"type":"Feature","geometry":{"type":"Point","coordinates":[-72.464571,42.367092]}},{"properties":{"city":"andover","instances":14,"geo_score":0.714,"page views":30,"id":"agsrynblgz32","unique visitors":14,"geo_precision":"city","state":"Massachusetts"},"type":"Feature","geometry":{"type":"Point","coordinates":[-71.165685,42.647991]}},{"properties":{"city":"haverhill","instances":11,"geo_score":0.714,"page views":29,"id":"agsryn939f6i","unique visitors":9,"geo_precision":"city","state":"Massachusetts"},"type":"Feature","geometry":{"type":"Point","coordinates":[-71.072501,42.792639]}},{"properties":{"city":"southwick","instances":15,"geo_score":0.0,"page views":28,"id":"agsryncthzjp","unique visitors":14,"geo_precision":"unmatched","state":"Massachusetts"},"type":"Feature","geometry":null},{"properties":{"city":"west newton","instances":11,"geo_score":0.714,"page views":28,"id":"agsrynhrobtk","unique visitors":5,"geo_precision":"city","state":"Massachusetts"},"type":"Feature","geometry":{"type":"Point","coordinates":[-71.232833,42.350097]}},{"properties":{"city":"marshfield","instances":8,"geo_score":0.714,"page views":28,"id":"agsryncje2kk","unique visitors":8,"geo_precision":"city","state":"Massachusetts"},"type":"Feature","geometry":{"type":"Point","coordinates":[-70.71615,42.116769]}},{"properties":{"city":"chelsea","instances":22,"geo_score":0.714,"page views":27,"id":"agsrynfkjcm6","unique visitors":18,"geo_precision":"city","state":"Massachusetts"},"type":"Feature","geometry":{"type":"Point","coordinates":[-71.038894,42.378197]}},{"properties":{"city":"sterling","instances":18,"geo_score":0.714,"page views":27,"id":"agsryn8ecbke","unique visitors":15,"geo_precision":"city","state":"Massachusetts"},"type":"Feature","geometry":{"type":"Point","coordinates":[-71.939375,42.366765]}},{"properties":{"city":"nantucket","instances":17,"geo_score":0.0,"page views":27,"id":"agsrynkcpf24","unique visitors":16,"geo_precision":"unmatched","state":"Massachusetts"},"type":"Feature","geometry":null},{"properties":{"city":"provincetown","instances":20,"geo_score":0.714,"page views":25,"id":"agsryng7077j","unique visitors":18,"geo_precision":"city","state":"Massachusetts"},"type":"Feature","geometry":{"type":"Point","coordinates":[-70.091057,41.888775]}},{"properties":{"city":"newton center","instances":20,"geo_score":0.714,"page views":25,"id":"agsryn7xjlt0","unique visitors":16,"geo_precision":"city","state":"Massachusetts"},"type":"Feature","geometry":{"type":"Point","coordinates":[-70.438637,41.671776]}},{"properties":{"city":"canton","instances":11,"geo_score":0.714,"page views":25,"id":"agsrynlrb7a1","unique visitors":11,"geo_precision":"city","state":"Massachusetts"},"type":"Feature","geometry":{"type":"Point","coordinates":[-71.121185,42.179146]}},{"properties":{"city":"maynard","instances":11,"geo_score":0.714,"page views":25,"id":"agsrynfkmid5","unique visitors":7,"geo_precision":"city","state":"Massachusetts"},"type":"Feature","geometry":{"type":"Point","coordinates":[-71.459405,42.446396]}},{"properties":{"city":"attleboro","instances":8,"geo_score":0.714,"page views":25,"id":"agsrynfjx1ua","unique visitors":8,"geo_precision":"city","state":"Massachusetts"},"type":"Feature","geometry":{"type":"Point","coordinates":[-71.302297,41.938976]}},{"properties":{"city":"feeding hills","instances":17,"geo_score":0.0,"page views":24,"id":"agsrynbtstk4","unique visitors":16,"geo_precision":"unmatched","state":"Massachusetts"},"type":"Feature","geometry":null},{"properties":{"city":"marstons mills","instances":14,"geo_score":0.714,"page views":24,"id":"agsryn939bvt","unique visitors":2,"geo_precision":"city","state":"Massachusetts"},"type":"Feature","geometry":{"type":"Point","coordinates":[-71.36126,42.165249]}},{"properties":{"city":"sharon","instances":11,"geo_score":0.714,"page views":24,"id":"agsrynj3evuv","unique visitors":11,"geo_precision":"city","state":"Massachusetts"},"type":"Feature","geometry":{"type":"Point","coordinates":[-71.184785,42.105288]}},{"properties":{"city":"northbridge","instances":8,"geo_score":0.714,"page views":24,"id":"agsryn9s359q","unique visitors":8,"geo_precision":"city","state":"Massachusetts"},"type":"Feature","geometry":{"type":"Point","coordinates":[-71.672568,42.134818]}},{"properties":{"city":"revere","instances":8,"geo_score":0.714,"page views":24,"id":"agsrynaderjy","unique visitors":7,"geo_precision":"city","state":"Massachusetts"},"type":"Feature","geometry":{"type":"Point","coordinates":[-71.020494,42.366303]}},{"properties":{"city":"chestnut hill","instances":16,"geo_score":0.714,"page views":23,"id":"agsrynf9ddbh","unique visitors":15,"geo_precision":"city","state":"Massachusetts"},"type":"Feature","geometry":{"type":"Point","coordinates":[-72.877873,42.564529]}},{"properties":{"city":"brewster","instances":15,"geo_score":0.714,"page views":23,"id":"agsryn90t8ub","unique visitors":15,"geo_precision":"city","state":"Massachusetts"},"type":"Feature","geometry":{"type":"Point","coordinates":[-70.044462,41.852997]}},{"properties":{"city":"roslindale","instances":13,"geo_score":0.714,"page views":23,"id":"agsrynepxsg5","unique visitors":13,"geo_precision":"city","state":"Massachusetts"},"type":"Feature","geometry":{"type":"Point","coordinates":[-71.120896,42.284197]}},{"properties":{"city":"norwood","instances":13,"geo_score":0.714,"page views":23,"id":"agsryniutnql","unique visitors":12,"geo_precision":"city","state":"Massachusetts"},"type":"Feature","geometry":{"type":"Point","coordinates":[-71.196277,42.182798]}},{"properties":{"city":"eastham","instances":13,"geo_score":0.714,"page views":23,"id":"agsrynakkr3x","unique visitors":7,"geo_precision":"city","state":"Massachusetts"},"type":"Feature","geometry":{"type":"Point","coordinates":[-70.020648,41.850612]}},{"properties":{"city":"milton","instances":15,"geo_score":0.714,"page views":22,"id":"agsryn6uynve","unique visitors":15,"geo_precision":"city","state":"Massachusetts"},"type":"Feature","geometry":{"type":"Point","coordinates":[-71.085396,42.436545]}},{"properties":{"city":"holden","instances":12,"geo_score":0.714,"page views":22,"id":"agsrynhqb40z","unique visitors":10,"geo_precision":"city","state":"Massachusetts"},"type":"Feature","geometry":{"type":"Point","coordinates":[-71.845316,42.336791]}},{"properties":{"city":"west roxbury","instances":11,"geo_score":0.0,"page views":22,"id":"agsrynf65ou9","unique visitors":11,"geo_precision":"unmatched","state":"Massachusetts"},"type":"Feature","geometry":null},{"properties":{"city":"melrose","instances":11,"geo_score":0.714,"page views":22,"id":"agsrynbnd1tv","unique visitors":11,"geo_precision":"city","state":"Massachusetts"},"type":"Feature","geometry":{"type":"Point","coordinates":[-71.053095,42.458995]}},{"properties":{"city":"lexington","instances":16,"geo_score":0.0,"page views":21,"id":"agsrynee5qqq","unique visitors":16,"geo_precision":"unmatched","state":"Massachusetts"},"type":"Feature","geometry":null},{"properties":{"city":"erving","instances":16,"geo_score":0.714,"page views":21,"id":"agsryn9v2x6a","unique visitors":16,"geo_precision":"city","state":"Massachusetts"},"type":"Feature","geometry":{"type":"Point","coordinates":[-72.553654,42.627072]}},{"properties":{"city":"east falmouth","instances":10,"geo_score":0.714,"page views":21,"id":"agsryniwt23j","unique visitors":8,"geo_precision":"city","state":"Massachusetts"},"type":"Feature","geometry":{"type":"Point","coordinates":[-70.493263,41.614199]}},{"properties":{"city":"east sandwich","instances":4,"geo_score":0.714,"page views":21,"id":"agsryn7uxmoe","unique visitors":3,"geo_precision":"city","state":"Massachusetts"},"type":"Feature","geometry":{"type":"Point","coordinates":[-70.477482,41.711291]}},{"properties":{"city":"chelmsford","instances":14,"geo_score":0.714,"page views":20,"id":"agsryn6owst6","unique visitors":10,"geo_precision":"city","state":"Massachusetts"},"type":"Feature","geometry":{"type":"Point","coordinates":[-71.459405,42.446396]}},{"properties":{"city":"shrewsbury","instances":11,"geo_score":0.714,"page views":20,"id":"agsryniwx1i4","unique visitors":7,"geo_precision":"city","state":"Massachusetts"},"type":"Feature","geometry":{"type":"Point","coordinates":[-71.715313,42.286992]}},{"properties":{"city":"pembroke","instances":7,"geo_score":0.714,"page views":20,"id":"agsrynckg0g9","unique visitors":5,"geo_precision":"city","state":"Massachusetts"},"type":"Feature","geometry":{"type":"Point","coordinates":[-70.800778,42.065702]}},{"properties":{"city":"foxboro","instances":4,"geo_score":0.0,"page views":20,"id":"agsryngpa3bs","unique visitors":3,"geo_precision":"unmatched","state":"Massachusetts"},"type":"Feature","geometry":null},{"properties":{"city":"fitchburg","instances":14,"geo_score":0.714,"page views":19,"id":"agsrynbxdakp","unique visitors":9,"geo_precision":"city","state":"Massachusetts"},"type":"Feature","geometry":{"type":"Point","coordinates":[-71.247831,42.065377]}},{"properties":{"city":"east longmeadow","instances":10,"geo_score":0.714,"page views":19,"id":"agsrynlprjq2","unique visitors":8,"geo_precision":"city","state":"Massachusetts"},"type":"Feature","geometry":{"type":"Point","coordinates":[-70.927271,42.469541]}},{"properties":{"city":"tyngsboro","instances":6,"geo_score":0.714,"page views":19,"id":"agsryn63b4jh","unique visitors":6,"geo_precision":"city","state":"Massachusetts"},"type":"Feature","geometry":{"type":"Point","coordinates":[-71.459405,42.446396]}},{"properties":{"city":"georgetown","instances":5,"geo_score":0.714,"page views":19,"id":"agsrynbkq779","unique visitors":2,"geo_precision":"city","state":"Massachusetts"},"type":"Feature","geometry":{"type":"Point","coordinates":[-70.981298,42.72377]}},{"properties":{"city":"leominster","instances":11,"geo_score":0.714,"page views":18,"id":"agsrynj1tba3","unique visitors":10,"geo_precision":"city","state":"Massachusetts"},"type":"Feature","geometry":{"type":"Point","coordinates":[-71.837509,42.471316]}},{"properties":{"city":"amesbury","instances":9,"geo_score":0.714,"page views":18,"id":"agsryn80wf5d","unique visitors":7,"geo_precision":"city","state":"Massachusetts"},"type":"Feature","geometry":{"type":"Point","coordinates":[-70.948211,42.853539]}},{"properties":{"city":"plymouth","instances":8,"geo_score":0.714,"page views":18,"id":"agsrynbuj8qi","unique visitors":7,"geo_precision":"city","state":"Massachusetts"},"type":"Feature","geometry":{"type":"Point","coordinates":[-70.638717,41.886207]}},{"properties":{"city":"salisbury","instances":8,"geo_score":0.714,"page views":18,"id":"agsryndzu05g","unique visitors":4,"geo_precision":"city","state":"Massachusetts"},"type":"Feature","geometry":{"type":"Point","coordinates":[-70.911999,42.841757]}},{"properties":{"city":"methuen","instances":7,"geo_score":0.714,"page views":18,"id":"agsryneew4o2","unique visitors":7,"geo_precision":"city","state":"Massachusetts"},"type":"Feature","geometry":{"type":"Point","coordinates":[-71.186915,42.73184]}},{"properties":{"city":"north andover","instances":5,"geo_score":0.714,"page views":18,"id":"agsrynlkk5j7","unique visitors":4,"geo_precision":"city","state":"Massachusetts"},"type":"Feature","geometry":{"type":"Point","coordinates":[-71.165685,42.647991]}},{"properties":{"city":"sturbridge","instances":3,"geo_score":0.714,"page views":18,"id":"agsryna5ze6f","unique visitors":3,"geo_precision":"city","state":"Massachusetts"},"type":"Feature","geometry":{"type":"Point","coordinates":[-72.080996,42.10273]}},{"properties":{"city":"cotuit","instances":1,"geo_score":0.714,"page views":18,"id":"agsrynm0o8zk","unique visitors":1,"geo_precision":"city","state":"Massachusetts"},"type":"Feature","geometry":{"type":"Point","coordinates":[-70.43638,41.624341]}},{"properties":{"city":"south weymouth","instances":10,"geo_score":0.714,"page views":17,"id":"agsrynjbpi3c","unique visitors":7,"geo_precision":"city","state":"Massachusetts"},"type":"Feature","geometry":{"type":"Point","coordinates":[-70.95514,42.20794]}},{"properties":{"city":"florence","instances":8,"geo_score":0.714,"page views":17,"id":"agsrynfcm8r3","unique visitors":7,"geo_precision":"city","state":"Massachusetts"},"type":"Feature","geometry":{"type":"Point","coordinates":[-72.671758,42.335645]}},{"properties":{"city":"stoneham","instances":8,"geo_score":0.714,"page views":17,"id":"agsrynhfmno4","unique visitors":6,"geo_precision":"city","state":"Massachusetts"},"type":"Feature","geometry":{"type":"Point","coordinates":[-71.098146,42.474595]}},{"properties":{"city":"falmouth","instances":2,"geo_score":0.714,"page views":17,"id":"agsryn8e10j4","unique visitors":2,"geo_precision":"city","state":"Massachusetts"},"type":"Feature","geometry":{"type":"Point","coordinates":[-70.493263,41.614199]}},{"properties":{"city":"pittsfield","instances":13,"geo_score":0.714,"page views":16,"id":"agsrynavuupe","unique visitors":12,"geo_precision":"city","state":"Massachusetts"},"type":"Feature","geometry":{"type":"Point","coordinates":[-73.24807,42.479475]}},{"properties":{"city":"boylston","instances":12,"geo_score":0.714,"page views":16,"id":"agsryni8btg1","unique visitors":9,"geo_precision":"city","state":"Massachusetts"},"type":"Feature","geometry":{"type":"Point","coordinates":[-71.943458,42.300037]}},{"properties":{"city":"spencer","instances":9,"geo_score":0.714,"page views":16,"id":"agsrynjcawrx","unique visitors":8,"geo_precision":"city","state":"Massachusetts"},"type":"Feature","geometry":{"type":"Point","coordinates":[-72.065612,42.254837]}},{"properties":{"city":"auburn","instances":7,"geo_score":0.714,"page views":16,"id":"agsryn70nlw2","unique visitors":6,"geo_precision":"city","state":"Massachusetts"},"type":"Feature","geometry":{"type":"Point","coordinates":[-71.947184,42.184835]}},{"properties":{"city":"marblehead","instances":11,"geo_score":0.714,"page views":15,"id":"agsryn7f0b0y","unique visitors":10,"geo_precision":"city","state":"Massachusetts"},"type":"Feature","geometry":{"type":"Point","coordinates":[-70.770768,42.56142]}},{"properties":{"city":"randolph","instances":8,"geo_score":0.714,"page views":15,"id":"agsryn6nz8ry","unique visitors":8,"geo_precision":"city","state":"Massachusetts"},"type":"Feature","geometry":{"type":"Point","coordinates":[-71.055602,42.171467]}},{"properties":{"city":"palmer","instances":7,"geo_score":0.714,"page views":15,"id":"agsrynlbqo42","unique visitors":7,"geo_precision":"city","state":"Massachusetts"},"type":"Feature","geometry":{"type":"Point","coordinates":[-72.31457,42.176131]}},{"properties":{"city":"topsfield","instances":6,"geo_score":0.714,"page views":15,"id":"agsrynlghan4","unique visitors":4,"geo_precision":"city","state":"Massachusetts"},"type":"Feature","geometry":{"type":"Point","coordinates":[-70.954487,42.661793]}},{"properties":{"city":"east bridgewater","instances":6,"geo_score":0.714,"page views":15,"id":"agsrynh4ip2o","unique visitors":3,"geo_precision":"city","state":"Massachusetts"},"type":"Feature","geometry":{"type":"Point","coordinates":[-70.974492,42.2251]}},{"properties":{"city":"wilmington","instances":4,"geo_score":0.714,"page views":15,"id":"agsrynm0yzze","unique visitors":2,"geo_precision":"city","state":"Massachusetts"},"type":"Feature","geometry":{"type":"Point","coordinates":[-71.173888,42.561782]}},{"properties":{"city":"north easton","instances":2,"geo_score":0.714,"page views":15,"id":"agsryn7jf787","unique visitors":2,"geo_precision":"city","state":"Massachusetts"},"type":"Feature","geometry":{"type":"Point","coordinates":[-71.404506,42.409261]}},{"properties":{"city":"dudley","instances":10,"geo_score":0.714,"page views":14,"id":"agsrynlpk2mb","unique visitors":10,"geo_precision":"city","state":"Massachusetts"},"type":"Feature","geometry":{"type":"Point","coordinates":[-71.937037,42.059189]}},{"properties":{"city":"taunton","instances":9,"geo_score":0.714,"page views":14,"id":"agsryna3p23m","unique visitors":9,"geo_precision":"city","state":"Massachusetts"},"type":"Feature","geometry":{"type":"Point","coordinates":[-71.092827,41.858851]}},{"properties":{"city":"barnstable","instances":9,"geo_score":0.714,"page views":14,"id":"agsryndh1en6","unique visitors":1,"geo_precision":"city","state":"Massachusetts"},"type":"Feature","geometry":{"type":"Point","coordinates":[-70.366135,41.683443]}},{"properties":{"city":"middleboro","instances":8,"geo_score":0.714,"page views":14,"id":"agsryndo7au2","unique visitors":8,"geo_precision":"city","state":"Massachusetts"},"type":"Feature","geometry":{"type":"Point","coordinates":[-70.701357,41.970474]}},{"properties":{"city":"east weymouth","instances":8,"geo_score":0.714,"page views":14,"id":"agsrynhf4qu2","unique visitors":7,"geo_precision":"city","state":"Massachusetts"},"type":"Feature","geometry":{"type":"Point","coordinates":[-70.95514,42.20794]}},{"properties":{"city":"chatham","instances":6,"geo_score":0.714,"page views":14,"id":"agsrynija0xq","unique visitors":5,"geo_precision":"city","state":"Massachusetts"},"type":"Feature","geometry":{"type":"Point","coordinates":[-70.0468,41.859559]}},{"properties":{"city":"tewksbury","instances":5,"geo_score":0.714,"page views":14,"id":"agsryn9kezc3","unique visitors":4,"geo_precision":"city","state":"Massachusetts"},"type":"Feature","geometry":{"type":"Point","coordinates":[-71.459405,42.446396]}},{"properties":{"city":"charlton","instances":9,"geo_score":0.714,"page views":13,"id":"agsrync10dpg","unique visitors":8,"geo_precision":"city","state":"Massachusetts"},"type":"Feature","geometry":{"type":"Point","coordinates":[-71.896868,42.364807]}},{"properties":{"city":"bellingham","instances":9,"geo_score":0.0,"page views":13,"id":"agsrynfont41","unique visitors":6,"geo_precision":"unmatched","state":"Massachusetts"},"type":"Feature","geometry":null},{"properties":{"city":"southborough","instances":12,"geo_score":0.0,"page views":12,"id":"agsryn8gjqhf","unique visitors":12,"geo_precision":"unmatched","state":"Massachusetts"},"type":"Feature","geometry":null},{"properties":{"city":"littleton","instances":9,"geo_score":0.714,"page views":12,"id":"agsryn64ga2x","unique visitors":6,"geo_precision":"city","state":"Massachusetts"},"type":"Feature","geometry":{"type":"Point","coordinates":[-71.459405,42.446396]}},{"properties":{"city":"needham","instances":7,"geo_score":0.714,"page views":12,"id":"agsryn7bbxrj","unique visitors":7,"geo_precision":"city","state":"Massachusetts"},"type":"Feature","geometry":{"type":"Point","coordinates":[-71.08923,42.180048]}},{"properties":{"city":"great barrington","instances":7,"geo_score":0.714,"page views":12,"id":"agsryne8i9lv","unique visitors":5,"geo_precision":"city","state":"Massachusetts"},"type":"Feature","geometry":{"type":"Point","coordinates":[-73.26665,42.299392]}},{"properties":{"city":"pepperell","instances":5,"geo_score":0.714,"page views":12,"id":"agsrynkqw30g","unique visitors":4,"geo_precision":"city","state":"Massachusetts"},"type":"Feature","geometry":{"type":"Point","coordinates":[-71.459405,42.446396]}},{"properties":{"city":"wakefield","instances":9,"geo_score":0.714,"page views":11,"id":"agsryn7mabdj","unique visitors":8,"geo_precision":"city","state":"Massachusetts"},"type":"Feature","geometry":{"type":"Point","coordinates":[-71.07033,42.495929]}},{"properties":{"city":"gilbertville","instances":8,"geo_score":0.714,"page views":11,"id":"agsryngjrnwn","unique visitors":8,"geo_precision":"city","state":"Massachusetts"},"type":"Feature","geometry":{"type":"Point","coordinates":[-72.205724,42.352554]}},{"properties":{"city":"hudson","instances":8,"geo_score":0.714,"page views":11,"id":"agsryngge5j1","unique visitors":8,"geo_precision":"city","state":"Massachusetts"},"type":"Feature","geometry":{"type":"Point","coordinates":[-71.459405,42.446396]}},{"properties":{"city":"grafton","instances":8,"geo_score":0.714,"page views":11,"id":"agsrynks3i2d","unique visitors":8,"geo_precision":"city","state":"Massachusetts"},"type":"Feature","geometry":{"type":"Point","coordinates":[-71.682862,42.203944]}},{"properties":{"city":"hingham","instances":8,"geo_score":0.0,"page views":11,"id":"agsrynbcthba","unique visitors":7,"geo_precision":"unmatched","state":"Massachusetts"},"type":"Feature","geometry":null},{"properties":{"city":"wayland","instances":7,"geo_score":0.714,"page views":11,"id":"agsrynjn5lua","unique visitors":7,"geo_precision":"city","state":"Massachusetts"},"type":"Feature","geometry":{"type":"Point","coordinates":[-71.459405,42.446396]}},{"properties":{"city":"south hadley","instances":6,"geo_score":0.714,"page views":11,"id":"agsryncr907u","unique visitors":4,"geo_precision":"city","state":"Massachusetts"},"type":"Feature","geometry":{"type":"Point","coordinates":[-72.576613,42.356804]}},{"properties":{"city":"bolton","instances":5,"geo_score":0.714,"page views":11,"id":"agsrynacd1kk","unique visitors":5,"geo_precision":"city","state":"Massachusetts"},"type":"Feature","geometry":{"type":"Point","coordinates":[-71.605916,42.436043]}},{"properties":{"city":"wareham","instances":4,"geo_score":0.714,"page views":11,"id":"agsrynecc6ns","unique visitors":4,"geo_precision":"city","state":"Massachusetts"},"type":"Feature","geometry":{"type":"Point","coordinates":[-70.694662,41.760216]}},{"properties":{"city":"berlin","instances":4,"geo_score":0.714,"page views":11,"id":"agsryner82e2","unique visitors":3,"geo_precision":"city","state":"Massachusetts"},"type":"Feature","geometry":{"type":"Point","coordinates":[-71.841656,42.3129]}},{"properties":{"city":"ludlow","instances":11,"geo_score":0.714,"page views":10,"id":"agsrynf54gic","unique visitors":11,"geo_precision":"city","state":"Massachusetts"},"type":"Feature","geometry":{"type":"Point","coordinates":[-72.627038,42.173276]}},{"properties":{"city":"braintree","instances":7,"geo_score":0.714,"page views":10,"id":"agsrynl094dt","unique visitors":6,"geo_precision":"city","state":"Massachusetts"},"type":"Feature","geometry":{"type":"Point","coordinates":[-70.643868,42.081825]}},{"properties":{"city":"groton","instances":5,"geo_score":0.714,"page views":10,"id":"agsryngttp7g","unique visitors":5,"geo_precision":"city","state":"Massachusetts"},"type":"Feature","geometry":{"type":"Point","coordinates":[-71.459405,42.446396]}},{"properties":{"city":"wilbraham","instances":2,"geo_score":0.714,"page views":10,"id":"agsrynlzghzv","unique visitors":2,"geo_precision":"city","state":"Massachusetts"},"type":"Feature","geometry":{"type":"Point","coordinates":[-72.489988,42.125974]}},{"properties":{"city":"berkshire","instances":7,"geo_score":0.714,"page views":9,"id":"agsrynexxp6e","unique visitors":7,"geo_precision":"city","state":"Massachusetts"},"type":"Feature","geometry":{"type":"Point","coordinates":[-73.228483,42.3929]}},{"properties":{"city":"millbury","instances":6,"geo_score":0.714,"page views":9,"id":"agsryn7ftwq9","unique visitors":6,"geo_precision":"city","state":"Massachusetts"},"type":"Feature","geometry":{"type":"Point","coordinates":[-71.819961,42.255642]}},{"properties":{"city":"gloucester","instances":6,"geo_score":0.714,"page views":9,"id":"agsryn70rdk1","unique visitors":6,"geo_precision":"city","state":"Massachusetts"},"type":"Feature","geometry":{"type":"Point","coordinates":[-70.694179,42.630011]}},{"properties":{"city":"south yarmouth","instances":4,"geo_score":0.714,"page views":9,"id":"agsrynf3zl1s","unique visitors":4,"geo_precision":"city","state":"Massachusetts"},"type":"Feature","geometry":{"type":"Point","coordinates":[-70.228631,41.705666]}},{"properties":{"city":"dracut","instances":3,"geo_score":0.714,"page views":9,"id":"agsrync64or9","unique visitors":3,"geo_precision":"city","state":"Massachusetts"},"type":"Feature","geometry":{"type":"Point","coordinates":[-71.459405,42.446396]}},{"properties":{"city":"westwood","instances":2,"geo_score":0.714,"page views":9,"id":"agsryn6pdshg","unique visitors":2,"geo_precision":"city","state":"Massachusetts"},"type":"Feature","geometry":{"type":"Point","coordinates":[-71.199238,42.220548]}},{"properties":{"city":"north grafton","instances":8,"geo_score":0.714,"page views":8,"id":"agsrynly1pw6","unique visitors":7,"geo_precision":"city","state":"Massachusetts"},"type":"Feature","geometry":{"type":"Point","coordinates":[-73.446234,42.198648]}},{"properties":{"city":"ashland","instances":8,"geo_score":0.714,"page views":8,"id":"agsrynco05pn","unique visitors":4,"geo_precision":"city","state":"Massachusetts"},"type":"Feature","geometry":{"type":"Point","coordinates":[-71.459405,42.446396]}},{"properties":{"city":"wrentham","instances":7,"geo_score":0.714,"page views":8,"id":"agsryn78db5s","unique visitors":7,"geo_precision":"city","state":"Massachusetts"},"type":"Feature","geometry":{"type":"Point","coordinates":[-71.371169,42.054311]}},{"properties":{"city":"franklin","instances":6,"geo_score":0.714,"page views":8,"id":"agsrynai08f5","unique visitors":4,"geo_precision":"city","state":"Massachusetts"},"type":"Feature","geometry":{"type":"Point","coordinates":[-71.016162,42.441763]}},{"properties":{"city":"everett","instances":4,"geo_score":0.714,"page views":8,"id":"agsrynht5uii","unique visitors":4,"geo_precision":"city","state":"Massachusetts"},"type":"Feature","geometry":{"type":"Point","coordinates":[-71.051183,42.407396]}},{"properties":{"city":"newburyport","instances":6,"geo_score":0.714,"page views":7,"id":"agsryngqcemf","unique visitors":6,"geo_precision":"city","state":"Massachusetts"},"type":"Feature","geometry":{"type":"Point","coordinates":[-70.873196,42.80965]}},{"properties":{"city":"mansfield","instances":6,"geo_score":0.714,"page views":7,"id":"agsryngk1qgm","unique visitors":5,"geo_precision":"city","state":"Massachusetts"},"type":"Feature","geometry":{"type":"Point","coordinates":[-71.218373,42.013182]}},{"properties":{"city":"shelburne falls","instances":5,"geo_score":0.714,"page views":7,"id":"agsrynisndos","unique visitors":3,"geo_precision":"city","state":"Massachusetts"},"type":"Feature","geometry":{"type":"Point","coordinates":[-71.071163,42.441763]}},{"properties":{"city":"south dennis","instances":4,"geo_score":0.714,"page views":7,"id":"agsryncvd8v7","unique visitors":4,"geo_precision":"city","state":"Massachusetts"},"type":"Feature","geometry":{"type":"Point","coordinates":[-70.089244,41.80038]}},{"properties":{"city":"rehoboth","instances":4,"geo_score":0.714,"page views":7,"id":"agsrynh08oii","unique visitors":4,"geo_precision":"city","state":"Massachusetts"},"type":"Feature","geometry":{"type":"Point","coordinates":[-71.243061,41.852989]}},{"properties":{"city":"belchertown","instances":4,"geo_score":0.714,"page views":7,"id":"agsryndkub51","unique visitors":4,"geo_precision":"city","state":"Massachusetts"},"type":"Feature","geometry":{"type":"Point","coordinates":[-72.402056,42.280267]}},{"properties":{"city":"orleans","instances":3,"geo_score":0.714,"page views":7,"id":"agsrynlm285p","unique visitors":3,"geo_precision":"city","state":"Massachusetts"},"type":"Feature","geometry":{"type":"Point","coordinates":[-70.01539,41.852933]}},{"properties":{"city":"greenfield","instances":3,"geo_score":0.714,"page views":7,"id":"agsryn8gcdcy","unique visitors":3,"geo_precision":"city","state":"Massachusetts"},"type":"Feature","geometry":{"type":"Point","coordinates":[-72.87871,42.067316]}},{"properties":{"city":"forestdale","instances":3,"geo_score":0.714,"page views":7,"id":"agsryn7fs4ma","unique visitors":1,"geo_precision":"city","state":"Massachusetts"},"type":"Feature","geometry":{"type":"Point","coordinates":[-70.268632,41.790031]}},{"properties":{"city":"north attleboro","instances":6,"geo_score":0.714,"page views":6,"id":"agsrynfqech6","unique visitors":6,"geo_precision":"city","state":"Massachusetts"},"type":"Feature","geometry":{"type":"Point","coordinates":[-71.302297,41.938976]}},{"properties":{"city":"dedham","instances":6,"geo_score":0.714,"page views":6,"id":"agsrynlq5zgv","unique visitors":6,"geo_precision":"city","state":"Massachusetts"},"type":"Feature","geometry":{"type":"Point","coordinates":[-71.181141,42.244733]}},{"properties":{"city":"danvers","instances":6,"geo_score":0.714,"page views":6,"id":"agsrynjyfc4w","unique visitors":4,"geo_precision":"city","state":"Massachusetts"},"type":"Feature","geometry":{"type":"Point","coordinates":[-70.920328,42.548428]}},{"properties":{"city":"west boylston","instances":5,"geo_score":0.714,"page views":6,"id":"agsryng80rfs","unique visitors":4,"geo_precision":"city","state":"Massachusetts"},"type":"Feature","geometry":{"type":"Point","coordinates":[-71.943458,42.300037]}},{"properties":{"city":"lee","instances":4,"geo_score":0.714,"page views":6,"id":"agsrynal7isl","unique visitors":4,"geo_precision":"city","state":"Massachusetts"},"type":"Feature","geometry":{"type":"Point","coordinates":[-73.267465,42.369856]}},{"properties":{"city":"winchester","instances":4,"geo_score":0.714,"page views":6,"id":"agsryne6xz4j","unique visitors":4,"geo_precision":"city","state":"Massachusetts"},"type":"Feature","geometry":{"type":"Point","coordinates":[-71.148779,42.454545]}},{"properties":{"city":"uxbridge","instances":4,"geo_score":0.0,"page views":6,"id":"agsryniqrsy4","unique visitors":3,"geo_precision":"unmatched","state":"Massachusetts"},"type":"Feature","geometry":null},{"properties":{"city":"avon","instances":3,"geo_score":0.714,"page views":6,"id":"agsrynk9djp2","unique visitors":3,"geo_precision":"city","state":"Massachusetts"},"type":"Feature","geometry":{"type":"Point","coordinates":[-71.048216,42.126049]}},{"properties":{"city":"bondsville","instances":2,"geo_score":0.714,"page views":6,"id":"agsryn8qfx8m","unique visitors":2,"geo_precision":"city","state":"Massachusetts"},"type":"Feature","geometry":{"type":"Point","coordinates":[-72.340486,42.206092]}},{"properties":{"city":"ipswich","instances":2,"geo_score":0.714,"page views":6,"id":"agsrync0dwi2","unique visitors":2,"geo_precision":"city","state":"Massachusetts"},"type":"Feature","geometry":{"type":"Point","coordinates":[-70.864132,42.68571]}},{"properties":{"city":"lanesboro","instances":2,"geo_score":0.714,"page views":6,"id":"agsrynifwktr","unique visitors":1,"geo_precision":"city","state":"Massachusetts"},"type":"Feature","geometry":{"type":"Point","coordinates":[-73.22816,42.517306]}},{"properties":{"city":"bedford","instances":5,"geo_score":0.714,"page views":5,"id":"agsryn9ttcfr","unique visitors":5,"geo_precision":"city","state":"Massachusetts"},"type":"Feature","geometry":{"type":"Point","coordinates":[-71.270891,42.516205]}},{"properties":{"city":"weston","instances":5,"geo_score":0.714,"page views":5,"id":"agsrynfizs5y","unique visitors":4,"geo_precision":"city","state":"Massachusetts"},"type":"Feature","geometry":{"type":"Point","coordinates":[-71.459405,42.446396]}},{"properties":{"city":"rockland","instances":4,"geo_score":0.0,"page views":5,"id":"agsrynlmc5uo","unique visitors":4,"geo_precision":"unmatched","state":"Massachusetts"},"type":"Feature","geometry":null},{"properties":{"city":"scituate","instances":4,"geo_score":0.714,"page views":5,"id":"agsrynh6ndu9","unique visitors":4,"geo_precision":"city","state":"Massachusetts"},"type":"Feature","geometry":{"type":"Point","coordinates":[-70.770188,42.207254]}},{"properties":{"city":"norton","instances":4,"geo_score":0.714,"page views":5,"id":"agsrynglxcd4","unique visitors":4,"geo_precision":"city","state":"Massachusetts"},"type":"Feature","geometry":{"type":"Point","coordinates":[-71.180393,41.959149]}},{"properties":{"city":"swansea","instances":3,"geo_score":0.714,"page views":5,"id":"agsryn6t9a12","unique visitors":3,"geo_precision":"city","state":"Massachusetts"},"type":"Feature","geometry":{"type":"Point","coordinates":[-71.234443,41.766629]}},{"properties":{"city":"weymouth","instances":3,"geo_score":0.714,"page views":5,"id":"agsryn7djv23","unique visitors":3,"geo_precision":"city","state":"Massachusetts"},"type":"Feature","geometry":{"type":"Point","coordinates":[-70.95514,42.20794]}},{"properties":{"city":"new braintree","instances":2,"geo_score":0.714,"page views":5,"id":"agsrynakvl0x","unique visitors":2,"geo_precision":"city","state":"Massachusetts"},"type":"Feature","geometry":{"type":"Point","coordinates":[-70.643868,42.081825]}},{"properties":{"city":"fall river","instances":4,"geo_score":0.714,"page views":4,"id":"agsryn6i47wj","unique visitors":4,"geo_precision":"city","state":"Massachusetts"},"type":"Feature","geometry":{"type":"Point","coordinates":[-71.165971,41.819766]}},{"properties":{"city":"cheshire","instances":4,"geo_score":0.714,"page views":4,"id":"agsryn8eoc3a","unique visitors":4,"geo_precision":"city","state":"Massachusetts"},"type":"Feature","geometry":{"type":"Point","coordinates":[-73.127483,42.482125]}},{"properties":{"city":"north reading","instances":4,"geo_score":0.714,"page views":4,"id":"agsrynguegzw","unique visitors":4,"geo_precision":"city","state":"Massachusetts"},"type":"Feature","geometry":{"type":"Point","coordinates":[-71.083725,42.581332]}},{"properties":{"city":"abington","instances":3,"geo_score":0.714,"page views":4,"id":"agsrynf22qkg","unique visitors":3,"geo_precision":"city","state":"Massachusetts"},"type":"Feature","geometry":{"type":"Point","coordinates":[-70.959888,42.11749]}},{"properties":{"city":"south easton","instances":3,"geo_score":0.714,"page views":4,"id":"agsryn9966xl","unique visitors":3,"geo_precision":"city","state":"Massachusetts"},"type":"Feature","geometry":{"type":"Point","coordinates":[-71.712013,42.100096]}},{"properties":{"city":"wellfleet","instances":3,"geo_score":0.714,"page views":4,"id":"agsryni44b3e","unique visitors":3,"geo_precision":"city","state":"Massachusetts"},"type":"Feature","geometry":{"type":"Point","coordinates":[-70.022806,41.821307]}},{"properties":{"city":"allston","instances":3,"geo_score":0.714,"page views":4,"id":"agsrynglwzlr","unique visitors":3,"geo_precision":"city","state":"Massachusetts"},"type":"Feature","geometry":{"type":"Point","coordinates":[-71.112646,42.357169]}},{"properties":{"city":"dunstable","instances":3,"geo_score":0.714,"page views":4,"id":"agsryn9gq5ri","unique visitors":3,"geo_precision":"city","state":"Massachusetts"},"type":"Feature","geometry":{"type":"Point","coordinates":[-71.459405,42.446396]}},{"properties":{"city":"east walpole","instances":3,"geo_score":0.714,"page views":4,"id":"agsryn9mckfe","unique visitors":3,"geo_precision":"city","state":"Massachusetts"},"type":"Feature","geometry":{"type":"Point","coordinates":[-71.255533,42.148624]}},{"properties":{"city":"douglas","instances":3,"geo_score":0.714,"page views":4,"id":"agsrync2hpnz","unique visitors":2,"geo_precision":"city","state":"Massachusetts"},"type":"Feature","geometry":{"type":"Point","coordinates":[-71.891139,42.113076]}},{"properties":{"city":"fairhaven","instances":2,"geo_score":0.714,"page views":4,"id":"agsryn7zz0yb","unique visitors":2,"geo_precision":"city","state":"Massachusetts"},"type":"Feature","geometry":{"type":"Point","coordinates":[-70.870045,41.631672]}},{"properties":{"city":"princeton","instances":2,"geo_score":0.714,"page views":4,"id":"agsrynfrrsov","unique visitors":2,"geo_precision":"city","state":"Massachusetts"},"type":"Feature","geometry":{"type":"Point","coordinates":[-71.880057,42.451926]}},{"properties":{"city":"buzzards bay","instances":1,"geo_score":0.714,"page views":4,"id":"agsrynkkbdgy","unique visitors":1,"geo_precision":"city","state":"Massachusetts"},"type":"Feature","geometry":{"type":"Point","coordinates":[-70.590471,41.745505]}},{"properties":{"city":"oakham","instances":3,"geo_score":0.714,"page views":3,"id":"agsryn6dfncx","unique visitors":3,"geo_precision":"city","state":"Massachusetts"},"type":"Feature","geometry":{"type":"Point","coordinates":[-72.058847,42.346144]}},{"properties":{"city":"wellesley","instances":3,"geo_score":0.714,"page views":3,"id":"agsrynewtzmv","unique visitors":3,"geo_precision":"city","state":"Massachusetts"},"type":"Feature","geometry":{"type":"Point","coordinates":[-71.27875,42.300596]}},{"properties":{"city":"athol","instances":3,"geo_score":0.714,"page views":3,"id":"agsrynk0q970","unique visitors":3,"geo_precision":"city","state":"Massachusetts"},"type":"Feature","geometry":{"type":"Point","coordinates":[-72.183903,42.547302]}},{"properties":{"city":"sandisfield","instances":3,"geo_score":0.714,"page views":3,"id":"agsrync2dqdu","unique visitors":3,"geo_precision":"city","state":"Massachusetts"},"type":"Feature","geometry":{"type":"Point","coordinates":[-73.14861,42.148975]}},{"properties":{"city":"stoughton","instances":3,"geo_score":0.0,"page views":3,"id":"agsrynb0rfk5","unique visitors":3,"geo_precision":"unmatched","state":"Massachusetts"},"type":"Feature","geometry":null},{"properties":{"city":"auburndale","instances":3,"geo_score":0.714,"page views":3,"id":"agsrynkbjc2z","unique visitors":3,"geo_precision":"city","state":"Massachusetts"},"type":"Feature","geometry":{"type":"Point","coordinates":[-71.243057,42.346146]}},{"properties":{"city":"cherry valley","instances":3,"geo_score":0.714,"page views":3,"id":"agsrynaqxcbm","unique visitors":3,"geo_precision":"city","state":"Massachusetts"},"type":"Feature","geometry":{"type":"Point","coordinates":[-71.878716,42.239392]}},{"properties":{"city":"duxbury","instances":3,"geo_score":0.0,"page views":3,"id":"agsrynfrgdvv","unique visitors":3,"geo_precision":"unmatched","state":"Massachusetts"},"type":"Feature","geometry":null},{"properties":{"city":"harwich","instances":3,"geo_score":0.714,"page views":3,"id":"agsryn6j2gvl","unique visitors":2,"geo_precision":"city","state":"Massachusetts"},"type":"Feature","geometry":{"type":"Point","coordinates":[-70.043359,41.835582]}},{"properties":{"city":"mattapan","instances":3,"geo_score":0.714,"page views":3,"id":"agsryn5y7j1d","unique visitors":2,"geo_precision":"city","state":"Massachusetts"},"type":"Feature","geometry":{"type":"Point","coordinates":[-71.105195,42.301247]}},{"properties":{"city":"whitinsville","instances":3,"geo_score":0.714,"page views":3,"id":"agsryniwjnos","unique visitors":1,"geo_precision":"city","state":"Massachusetts"},"type":"Feature","geometry":{"type":"Point","coordinates":[-71.899484,42.166554]}},{"properties":{"city":"swampscott","instances":2,"geo_score":0.714,"page views":3,"id":"agsrynh0q1lt","unique visitors":2,"geo_precision":"city","state":"Massachusetts"},"type":"Feature","geometry":{"type":"Point","coordinates":[-70.905893,42.513295]}},{"properties":{"city":"lynnfield","instances":2,"geo_score":0.714,"page views":3,"id":"agsryn6au6jp","unique visitors":2,"geo_precision":"city","state":"Massachusetts"},"type":"Feature","geometry":{"type":"Point","coordinates":[-71.028775,42.533732]}},{"properties":{"city":"cohasset","instances":2,"geo_score":0.714,"page views":3,"id":"agsrynljzrf6","unique visitors":2,"geo_precision":"city","state":"Massachusetts"},"type":"Feature","geometry":{"type":"Point","coordinates":[-70.815826,42.233938]}},{"properties":{"city":"stow","instances":2,"geo_score":0.714,"page views":3,"id":"agsrynh2hqzb","unique visitors":2,"geo_precision":"city","state":"Massachusetts"},"type":"Feature","geometry":{"type":"Point","coordinates":[-71.459405,42.446396]}},{"properties":{"city":"medfield","instances":2,"geo_score":0.714,"page views":3,"id":"agsrynfk7b99","unique visitors":2,"geo_precision":"city","state":"Massachusetts"},"type":"Feature","geometry":{"type":"Point","coordinates":[-71.309934,42.181265]}},{"properties":{"city":"south dartmouth","instances":2,"geo_score":0.714,"page views":3,"id":"agsryn9xfkka","unique visitors":2,"geo_precision":"city","state":"Massachusetts"},"type":"Feature","geometry":{"type":"Point","coordinates":[-71.067062,41.756214]}},{"properties":{"city":"merrimac","instances":2,"geo_score":0.714,"page views":3,"id":"agsrynjuhc0q","unique visitors":2,"geo_precision":"city","state":"Massachusetts"},"type":"Feature","geometry":{"type":"Point","coordinates":[-71.0896,42.802441]}},{"properties":{"city":"north adams","instances":2,"geo_score":0.714,"page views":3,"id":"agsrynj8iwh2","unique visitors":2,"geo_precision":"city","state":"Massachusetts"},"type":"Feature","geometry":{"type":"Point","coordinates":[-73.18632,42.426974]}},{"properties":{"city":"yarmouth port","instances":2,"geo_score":0.714,"page views":3,"id":"agsrync9nll3","unique visitors":1,"geo_precision":"city","state":"Massachusetts"},"type":"Feature","geometry":{"type":"Point","coordinates":[-70.228631,41.705666]}},{"properties":{"city":"sheffield","instances":2,"geo_score":0.714,"page views":3,"id":"agsrynkznidw","unique visitors":1,"geo_precision":"city","state":"Massachusetts"},"type":"Feature","geometry":{"type":"Point","coordinates":[-73.267694,42.314564]}},{"properties":{"city":"somerset","instances":2,"geo_score":0.714,"page views":3,"id":"agsrynehr1ph","unique visitors":1,"geo_precision":"city","state":"Massachusetts"},"type":"Feature","geometry":{"type":"Point","coordinates":[-71.173989,41.723851]}},{"properties":{"city":"northborough","instances":1,"geo_score":0.714,"page views":3,"id":"agsryn84kuj3","unique visitors":1,"geo_precision":"city","state":"Massachusetts"},"type":"Feature","geometry":{"type":"Point","coordinates":[-71.672568,42.134818]}},{"properties":{"city":"hubbardston","instances":1,"geo_score":0.714,"page views":3,"id":"agsrynd8r0qa","unique visitors":1,"geo_precision":"city","state":"Massachusetts"},"type":"Feature","geometry":{"type":"Point","coordinates":[-72.011516,42.483895]}},{"properties":{"city":"winchendon","instances":1,"geo_score":0.714,"page views":3,"id":"agsryn8zk2q5","unique visitors":1,"geo_precision":"city","state":"Massachusetts"},"type":"Feature","geometry":{"type":"Point","coordinates":[-72.047876,42.661612]}},{"properties":{"city":"deerfield","instances":1,"geo_score":0.714,"page views":3,"id":"agsrynkaoua9","unique visitors":1,"geo_precision":"city","state":"Massachusetts"},"type":"Feature","geometry":{"type":"Point","coordinates":[-72.607679,42.54723]}},{"properties":{"city":"indian orchard","instances":1,"geo_score":0.714,"page views":3,"id":"agsryni2llyt","unique visitors":1,"geo_precision":"city","state":"Massachusetts"},"type":"Feature","geometry":{"type":"Point","coordinates":[-72.51278,42.150593]}},{"properties":{"city":"norwell","instances":2,"geo_score":0.714,"page views":2,"id":"agsryn8ndiri","unique visitors":2,"geo_precision":"city","state":"Massachusetts"},"type":"Feature","geometry":{"type":"Point","coordinates":[-70.823035,42.154145]}},{"properties":{"city":"newton upper falls","instances":2,"geo_score":0.714,"page views":2,"id":"agsrynjhura0","unique visitors":2,"geo_precision":"city","state":"Massachusetts"},"type":"Feature","geometry":{"type":"Point","coordinates":[-71.219499,42.313986]}},{"properties":{"city":"reading","instances":2,"geo_score":0.714,"page views":2,"id":"agsryn9xe07w","unique visitors":2,"geo_precision":"city","state":"Massachusetts"},"type":"Feature","geometry":{"type":"Point","coordinates":[-71.107172,42.537065]}},{"properties":{"city":"fiskdale","instances":2,"geo_score":0.714,"page views":2,"id":"agsryniapc3j","unique visitors":2,"geo_precision":"city","state":"Massachusetts"},"type":"Feature","geometry":{"type":"Point","coordinates":[-72.114045,42.106405]}},{"properties":{"city":"carlisle","instances":2,"geo_score":0.714,"page views":2,"id":"agsrynf3sm82","unique visitors":2,"geo_precision":"city","state":"Massachusetts"},"type":"Feature","geometry":{"type":"Point","coordinates":[-71.459405,42.446396]}},{"properties":{"city":"sunderland","instances":2,"geo_score":0.714,"page views":2,"id":"agsrynkavuq6","unique visitors":2,"geo_precision":"city","state":"Massachusetts"},"type":"Feature","geometry":{"type":"Point","coordinates":[-71.15061,42.491206]}},{"properties":{"city":"marion","instances":2,"geo_score":0.714,"page views":2,"id":"agsryn9qm68a","unique visitors":2,"geo_precision":"city","state":"Massachusetts"},"type":"Feature","geometry":{"type":"Point","coordinates":[-70.754015,41.736735]}},{"properties":{"city":"newton highlands","instances":2,"geo_score":0.714,"page views":2,"id":"agsrynebiuou","unique visitors":2,"geo_precision":"city","state":"Massachusetts"},"type":"Feature","geometry":{"type":"Point","coordinates":[-70.438637,41.671776]}},{"properties":{"city":"wenham","instances":2,"geo_score":0.714,"page views":2,"id":"agsrynfsluuv","unique visitors":2,"geo_precision":"city","state":"Massachusetts"},"type":"Feature","geometry":{"type":"Point","coordinates":[-70.8732,42.597691]}},{"properties":{"city":"mattapoisett","instances":2,"geo_score":0.714,"page views":2,"id":"agsrynhu3db6","unique visitors":1,"geo_precision":"city","state":"Massachusetts"},"type":"Feature","geometry":{"type":"Point","coordinates":[-70.810856,41.664976]}},{"properties":{"city":"groveland","instances":2,"geo_score":0.714,"page views":2,"id":"agsrynk19dav","unique visitors":1,"geo_precision":"city","state":"Massachusetts"},"type":"Feature","geometry":{"type":"Point","coordinates":[-71.021437,42.751074]}},{"properties":{"city":"monterey","instances":2,"geo_score":0.714,"page views":2,"id":"agsrynldewkv","unique visitors":1,"geo_precision":"city","state":"Massachusetts"},"type":"Feature","geometry":{"type":"Point","coordinates":[-73.206498,42.18669]}},{"properties":{"city":"carver","instances":1,"geo_score":0.714,"page views":2,"id":"agsryndgfa1i","unique visitors":1,"geo_precision":"city","state":"Massachusetts"},"type":"Feature","geometry":{"type":"Point","coordinates":[-70.759689,41.896238]}},{"properties":{"city":"waban","instances":1,"geo_score":0.714,"page views":2,"id":"agsrynga94rg","unique visitors":1,"geo_precision":"city","state":"Massachusetts"},"type":"Feature","geometry":{"type":"Point","coordinates":[-71.459405,42.446396]}},{"properties":{"city":"west wareham","instances":1,"geo_score":0.714,"page views":2,"id":"agsryn7wncd0","unique visitors":1,"geo_precision":"city","state":"Massachusetts"},"type":"Feature","geometry":{"type":"Point","coordinates":[-72.986488,42.423142]}},{"properties":{"city":"hardwick","instances":1,"geo_score":0.714,"page views":2,"id":"agsryna319eh","unique visitors":1,"geo_precision":"city","state":"Massachusetts"},"type":"Feature","geometry":{"type":"Point","coordinates":[-72.225251,42.347856]}},{"properties":{"city":"woods hole","instances":1,"geo_score":0.714,"page views":2,"id":"agsrynd3bvqo","unique visitors":1,"geo_precision":"city","state":"Massachusetts"},"type":"Feature","geometry":{"type":"Point","coordinates":[-72.877873,42.564529]}},{"properties":{"city":"ware","instances":1,"geo_score":0.714,"page views":2,"id":"agsrynga2zst","unique visitors":1,"geo_precision":"city","state":"Massachusetts"},"type":"Feature","geometry":{"type":"Point","coordinates":[-72.548549,42.377471]}},{"properties":{"city":"hopkinton","instances":1,"geo_score":0.714,"page views":2,"id":"agsryn8hktnw","unique visitors":1,"geo_precision":"city","state":"Massachusetts"},"type":"Feature","geometry":{"type":"Point","coordinates":[-71.459405,42.446396]}},{"properties":{"city":"warren","instances":1,"geo_score":0.714,"page views":2,"id":"agsrynfe00dq","unique visitors":1,"geo_precision":"city","state":"Massachusetts"},"type":"Feature","geometry":{"type":"Point","coordinates":[-72.199439,42.204027]}},{"properties":{"city":"south grafton","instances":1,"geo_score":0.714,"page views":2,"id":"agsryncfv40m","unique visitors":1,"geo_precision":"city","state":"Massachusetts"},"type":"Feature","geometry":{"type":"Point","coordinates":[-71.681912,42.176544]}},{"properties":{"city":"still river","instances":1,"geo_score":0.714,"page views":1,"id":"agsryncg5j0d","unique visitors":1,"geo_precision":"city","state":"Massachusetts"},"type":"Feature","geometry":{"type":"Point","coordinates":[-71.613078,42.487056]}},{"properties":{"city":"brimfield","instances":1,"geo_score":0.714,"page views":1,"id":"agsrynjce5k8","unique visitors":1,"geo_precision":"city","state":"Massachusetts"},"type":"Feature","geometry":{"type":"Point","coordinates":[-72.20448,42.108585]}},{"properties":{"city":"conway","instances":1,"geo_score":0.714,"page views":1,"id":"agsryn6yep6q","unique visitors":1,"geo_precision":"city","state":"Massachusetts"},"type":"Feature","geometry":{"type":"Point","coordinates":[-72.70976,42.590824]}},{"properties":{"city":"west tisbury","instances":1,"geo_score":0.714,"page views":1,"id":"agsryn62tavl","unique visitors":1,"geo_precision":"city","state":"Massachusetts"},"type":"Feature","geometry":{"type":"Point","coordinates":[-70.642806,41.42125]}},{"properties":{"city":"pocasset","instances":1,"geo_score":0.714,"page views":1,"id":"agsrynfss00v","unique visitors":1,"geo_precision":"city","state":"Massachusetts"},"type":"Feature","geometry":{"type":"Point","coordinates":[-70.622769,41.694771]}},{"properties":{"city":"lenox","instances":1,"geo_score":0.0,"page views":1,"id":"agsryn8kklkt","unique visitors":1,"geo_precision":"unmatched","state":"Massachusetts"},"type":"Feature","geometry":null},{"properties":{"city":"southampton","instances":1,"geo_score":0.714,"page views":1,"id":"agsrynkd8yhj","unique visitors":1,"geo_precision":"city","state":"Massachusetts"},"type":"Feature","geometry":{"type":"Point","coordinates":[-72.728463,42.230008]}},{"properties":{"city":"turners falls","instances":1,"geo_score":0.714,"page views":1,"id":"agsrynklg5dd","unique visitors":1,"geo_precision":"city","state":"Massachusetts"},"type":"Feature","geometry":{"type":"Point","coordinates":[-72.705633,42.621412]}},{"properties":{"city":"dover","instances":1,"geo_score":0.714,"page views":1,"id":"agsrynh2nc8i","unique visitors":1,"geo_precision":"city","state":"Massachusetts"},"type":"Feature","geometry":{"type":"Point","coordinates":[-71.283072,42.236114]}},{"properties":{"city":"upton","instances":1,"geo_score":0.714,"page views":1,"id":"agsryn6hu0xa","unique visitors":1,"geo_precision":"city","state":"Massachusetts"},"type":"Feature","geometry":{"type":"Point","coordinates":[-71.603197,42.175591]}},{"properties":{"city":"winthrop","instances":1,"geo_score":0.714,"page views":1,"id":"agsryn8lepes","unique visitors":1,"geo_precision":"city","state":"Massachusetts"},"type":"Feature","geometry":{"type":"Point","coordinates":[-70.981679,42.378447]}},{"properties":{"city":"east brookfield","instances":1,"geo_score":0.714,"page views":1,"id":"agsrynf7ik9d","unique visitors":1,"geo_precision":"city","state":"Massachusetts"},"type":"Feature","geometry":{"type":"Point","coordinates":[-70.974492,42.2251]}},{"properties":{"city":"shirley","instances":1,"geo_score":0.714,"page views":1,"id":"agsrynflucrr","unique visitors":1,"geo_precision":"city","state":"Massachusetts"},"type":"Feature","geometry":{"type":"Point","coordinates":[-71.459405,42.446396]}},{"properties":{"city":"oak bluffs","instances":1,"geo_score":0.714,"page views":1,"id":"agsrynhfdu8x","unique visitors":1,"geo_precision":"city","state":"Massachusetts"},"type":"Feature","geometry":{"type":"Point","coordinates":[-70.560032,41.417376]}},{"properties":{"city":"rochester","instances":1,"geo_score":0.714,"page views":1,"id":"agsryn7o7nan","unique visitors":1,"geo_precision":"city","state":"Massachusetts"},"type":"Feature","geometry":{"type":"Point","coordinates":[-70.846041,41.751812]}},{"properties":{"city":"cummington","instances":1,"geo_score":0.714,"page views":1,"id":"agsrynbhajsr","unique visitors":1,"geo_precision":"city","state":"Massachusetts"},"type":"Feature","geometry":{"type":"Point","coordinates":[-72.909841,42.428617]}},{"properties":{"city":"kingston","instances":1,"geo_score":0.714,"page views":1,"id":"agsryn7jocaa","unique visitors":1,"geo_precision":"city","state":"Massachusetts"},"type":"Feature","geometry":{"type":"Point","coordinates":[-70.744813,41.979405]}},{"properties":{"city":"medway","instances":1,"geo_score":0.714,"page views":1,"id":"agsrynct3xao","unique visitors":1,"geo_precision":"city","state":"Massachusetts"},"type":"Feature","geometry":{"type":"Point","coordinates":[-71.427663,42.156282]}},{"properties":{"city":"halifax","instances":1,"geo_score":0.0,"page views":1,"id":"agsrynkdp5bx","unique visitors":1,"geo_precision":"unmatched","state":"Massachusetts"},"type":"Feature","geometry":null},{"properties":{"city":"three rivers","instances":1,"geo_score":0.714,"page views":1,"id":"agsryn5t4o0h","unique visitors":1,"geo_precision":"city","state":"Massachusetts"},"type":"Feature","geometry":{"type":"Point","coordinates":[-72.517813,42.179805]}},{"properties":{"city":"westport","instances":1,"geo_score":0.714,"page views":1,"id":"agsrynjceds1","unique visitors":1,"geo_precision":"city","state":"Massachusetts"},"type":"Feature","geometry":{"type":"Point","coordinates":[-71.049486,41.638992]}},{"properties":{"city":"lunenburg","instances":1,"geo_score":0.714,"page views":1,"id":"agsryn7wb7kw","unique visitors":1,"geo_precision":"city","state":"Massachusetts"},"type":"Feature","geometry":{"type":"Point","coordinates":[-71.752266,42.583322]}},{"properties":{"city":"rowley","instances":1,"geo_score":0.714,"page views":1,"id":"agsrynanmmbr","unique visitors":1,"geo_precision":"city","state":"Massachusetts"},"type":"Feature","geometry":{"type":"Point","coordinates":[-70.892754,42.716155]}}],"is_temporal":false,"author":{"url":"","metadata":"","contact_name":"","contact_address":"","source":"","contact_phone":""},"source":"","pagination":{"sort":null,"start":0,"total":283,"limit":1000000},"state":"complete","tags":"","published":"2014-08-16T13:06:37-04:00","id":390092}