{"type":"FeatureCollection","data_type":"Dataset","url_type":null,"permissions":[{"permissions":{"download":true,"view":true},"group_id":"everyone"}],"classification":null,"title":"beer_and_votes","count":51,"stream_id":390151,"contributor":{"url":"http://geocommons.com/users/42499","name":"ablegler"},"data_attributes":null,"calculation_params":null,"icon_link":null,"link":"http://geocommons.com/overlays/390151.json","extent":[0.0,0.0,0.0,0.0],"geometry_types":null,"unique_name":null,"name":"beer_and_votes","feature_count":51,"description":"","next_feature":null,"is_raster":false,"short_classification":"Y","features":[{"properties":{"shipments":"753,150","2012 election":"1","rank":"1","per capita":"45.8","id":"agsyrvtsec7w","consumption":"509,226","state":"North Dakota"},"type":"Feature","geometry":null},{"properties":{"shipments":"978,877","2012 election":"1","rank":"3","per capita":"41","id":"agsyrvwmaj8f","consumption":"740,965","state":"Montana"},"type":"Feature","geometry":null},{"properties":{"shipments":"742,952","2012 election":"1","rank":"4","per capita":"38.9","id":"agsyrw4tzlud","consumption":"591,547","state":"South Dakota"},"type":"Feature","geometry":null},{"properties":{"shipments":"1,487,657","2012 election":"1","rank":"8","per capita":"35.2","id":"agsyrw6iew8w","consumption":"1,308,461","state":"Nebraska"},"type":"Feature","geometry":null},{"properties":{"shipments":"19,889,355","2012 election":"1","rank":"9","per capita":"34.4","id":"agsyrw5698ay","consumption":"17,934,667","state":"Texas"},"type":"Feature","geometry":null},{"properties":{"shipments":"3,600,357","2012 election":"1","rank":"11","per capita":"33.9","id":"agsyrw1w046r","consumption":"3,293,112","state":"Louisiana"},"type":"Feature","geometry":null},{"properties":{"shipments":"2,300,737","2012 election":"1","rank":"12","per capita":"33.9","id":"agsyrvws9z65","consumption":"2,105,729","state":"Mississippi"},"type":"Feature","geometry":null},{"properties":{"shipments":"443,659","2012 election":"1","rank":"15","per capita":"33","id":"agsyrvuqf168","consumption":"417,034","state":"Wyoming"},"type":"Feature","geometry":null},{"properties":{"shipments":"3,631,748","2012 election":"1","rank":"16","per capita":"32.7","id":"agsyrw26tcs6","consumption":"3,439,725","state":"South Carolina"},"type":"Feature","geometry":null},{"properties":{"shipments":"4,362,037","2012 election":"1","rank":"18","per capita":"31","id":"agsyrvv8gny5","consumption":"4,362,875","state":"Missouri"},"type":"Feature","geometry":null},{"properties":{"shipments":"1,367,366","2012 election":"1","rank":"21","per capita":"30.3","id":"agsyrvyzodrv","consumption":"1,399,038","state":"West Virginia"},"type":"Feature","geometry":null},{"properties":{"shipments":"3,405,054","2012 election":"1","rank":"22","per capita":"30.2","id":"agsyrw7nupwv","consumption":"3,495,392","state":"Alabama"},"type":"Feature","geometry":null},{"properties":{"shipments":"4,436,917","2012 election":"1","rank":"25","per capita":"29.5","id":"agsyrw8abm7d","consumption":"4,663,900","state":"Arizona"},"type":"Feature","geometry":null},{"properties":{"shipments":"475,298","2012 election":"1","rank":"27","per capita":"28.7","id":"agsyrw42nz5a","consumption":"513,228","state":"Alaska"},"type":"Feature","geometry":null},{"properties":{"shipments":"2,481,159","2012 election":"1","rank":"30","per capita":"28.3","id":"agsyrw1ik8mj","consumption":"2,713,986","state":"Oklahoma"},"type":"Feature","geometry":null},{"properties":{"shipments":"1,852,707","2012 election":"1","rank":"31","per capita":"28.3","id":"agsyrw8lv021","consumption":"2,031,369","state":"Kansas"},"type":"Feature","geometry":null},{"properties":{"shipments":"987,314","2012 election":"1","rank":"33","per capita":"27.8","id":"agsyrw5rlzqj","consumption":"1,102,202","state":"Idaho"},"type":"Feature","geometry":null},{"properties":{"shipments":"6,167,486","2012 election":"1","rank":"35","per capita":"27.1","id":"agsyrw5db9cq","consumption":"7,048,067","state":"North Carolina"},"type":"Feature","geometry":null},{"properties":{"shipments":"1,823,822","2012 election":"1","rank":"37","per capita":"26.7","id":"agsyrvs7cx3m","consumption":"2,119,568","state":"Arkansas"},"type":"Feature","geometry":null},{"properties":{"shipments":"3,971,793","2012 election":"1","rank":"41","per capita":"26.2","id":"agsyrw81lli8","consumption":"4,704,160","state":"Tennessee"},"type":"Feature","geometry":null},{"properties":{"shipments":"3,885,980","2012 election":"1","rank":"42","per capita":"25.9","id":"agsyrw50qu15","consumption":"4,652,578","state":"Indiana"},"type":"Feature","geometry":null},{"properties":{"shipments":"5,795,422","2012 election":"1","rank":"43","per capita":"25.7","id":"agsyrvv2jaaz","consumption":"6,994,011","state":"Georgia"},"type":"Feature","geometry":null},{"properties":{"shipments":"2,509,430","2012 election":"1","rank":"46","per capita":"24.4","id":"agsyrw1usne9","consumption":"3,186,609","state":"Kentucky"},"type":"Feature","geometry":null},{"properties":{"shipments":"1,194,026","2012 election":"1","rank":"51","per capita":"20.2","id":"agsyrw1vh4v9","consumption":"1,836,271","state":"Utah"},"type":"Feature","geometry":null},{"properties":{"shipments":"1,397,740","2012 election":"2","rank":"2","per capita":"43.9","id":"agsyrvw3frde","consumption":"986,074","state":"New Hampshire"},"type":"Feature","geometry":null},{"properties":{"shipments":"4,859,589","2012 election":"2","rank":"5","per capita":"36.2","id":"agsyrvwffigd","consumption":"4,160,398","state":"Wisconsin"},"type":"Feature","geometry":null},{"properties":{"shipments":"2,302,338","2012 election":"2","rank":"6","per capita":"35.8","id":"agsyrw7nga71","consumption":"1,995,542","state":"Nevada"},"type":"Feature","geometry":null},{"properties":{"shipments":"534,524","2012 election":"2","rank":"7","per capita":"35.3","id":"agsyrvsx3w5e","consumption":"468,943","state":"Vermont"},"type":"Feature","geometry":null},{"properties":{"shipments":"1,108,492","2012 election":"2","rank":"10","per capita":"34","id":"agsyrw11q88q","consumption":"1,010,315","state":"Maine"},"type":"Feature","geometry":null},{"properties":{"shipments":"2,397,885","2012 election":"2","rank":"13","per capita":"33.6","id":"agsyrw1sb8bu","consumption":"2,209,302","state":"Iowa"},"type":"Feature","geometry":null},{"properties":{"shipments":"727,676","2012 election":"2","rank":"14","per capita":"33.6","id":"agsyrw35cp0j","consumption":"671,947","state":"Delaware"},"type":"Feature","geometry":null},{"properties":{"shipments":"1,551,902","2012 election":"2","rank":"17","per capita":"32.4","id":"agsyrvwz94en","consumption":"1,483,933","state":"New Mexico"},"type":"Feature","geometry":null},{"properties":{"shipments":"1,018,000","2012 election":"2","rank":"19","per capita":"30.4","id":"agsyrw3bq2ox","consumption":"1,037,311","state":"Hawaii"},"type":"Feature","geometry":null},{"properties":{"shipments":"2,824,541","2012 election":"2","rank":"20","per capita":"30.3","id":"agsyrvulshtg","consumption":"2,887,855","state":"Oregon"},"type":"Feature","geometry":null},{"properties":{"shipments":"8,153,103","2012 election":"2","rank":"23","per capita":"30.1","id":"agsyrw336k8m","consumption":"8,396,361","state":"Ohio"},"type":"Feature","geometry":null},{"properties":{"shipments":"3,628,449","2012 election":"2","rank":"24","per capita":"30","id":"agsyrvsrqlkq","consumption":"3,743,962","state":"Colorado"},"type":"Feature","geometry":null},{"properties":{"shipments":"8,708,195","2012 election":"2","rank":"26","per capita":"29.1","id":"agsyrw6z9zfk","consumption":"9,268,030","state":"Illinois"},"type":"Feature","geometry":null},{"properties":{"shipments":"8,734,643","2012 election":"2","rank":"28","per capita":"28.6","id":"agsyrw1qvcy4","consumption":"9,463,602","state":"Pennsylvania"},"type":"Feature","geometry":null},{"properties":{"shipments":"3,564,936","2012 election":"2","rank":"29","per capita":"28.5","id":"agsyrw4ke1p6","consumption":"3,878,373","state":"Minnesota"},"type":"Feature","geometry":null},{"properties":{"shipments":"445,508","2012 election":"2","rank":"32","per capita":"28.3","id":"agsyrvwgi0eb","consumption":"488,490","state":"D.C."},"type":"Feature","geometry":null},{"properties":{"shipments":"12,881,385","2012 election":"2","rank":"34","per capita":"27.4","id":"agsyrvuy5476","consumption":"14,587,186","state":"Florida"},"type":"Feature","geometry":null},{"properties":{"shipments":"6,219,773","2012 election":"2","rank":"36","per capita":"26.8","id":"agsyrw05xwgg","consumption":"7,184,978","state":"Michigan"},"type":"Feature","geometry":null},{"properties":{"shipments":"5,144,231","2012 election":"2","rank":"38","per capita":"26.7","id":"agsyrvz4hx2a","consumption":"5,981,454","state":"Virginia"},"type":"Feature","geometry":null},{"properties":{"shipments":"661,213","2012 election":"2","rank":"39","per capita":"26.3","id":"agsyrvubrofl","consumption":"778,808","state":"Rhode Island"},"type":"Feature","geometry":null},{"properties":{"shipments":"4,169,574","2012 election":"2","rank":"40","per capita":"26.2","id":"agsyrw09md1j","consumption":"4,932,640","state":"Massachusetts"},"type":"Feature","geometry":null},{"properties":{"shipments":"22,317,858","2012 election":"2","rank":"44","per capita":"25.5","id":"agsyrw5zjan9","consumption":"27,136,252","state":"California"},"type":"Feature","geometry":null},{"properties":{"shipments":"4,029,277","2012 election":"2","rank":"45","per capita":"24.8","id":"agsyrw53k368","consumption":"5,041,656","state":"Washington"},"type":"Feature","geometry":null},{"properties":{"shipments":"3,216,919","2012 election":"2","rank":"47","per capita":"23.2","id":"agsyrw8d9kk9","consumption":"4,298,739","state":"Maryland"},"type":"Feature","geometry":null},{"properties":{"shipments":"10,459,229","2012 election":"2","rank":"48","per capita":"22.4","id":"agsyrw4a4xui","consumption":"14,475,962","state":"New York"},"type":"Feature","geometry":null},{"properties":{"shipments":"4,691,905","2012 election":"2","rank":"49","per capita":"22.4","id":"agsyrw21k0pp","consumption":"6,496,123","state":"New Jersey"},"type":"Feature","geometry":null},{"properties":{"shipments":"1,883,859","2012 election":"2","rank":"50","per capita":"22.1","id":"agsyrw859k3n","consumption":"2,637,510","state":"Connecticut"},"type":"Feature","geometry":null}],"is_temporal":false,"author":{"url":"","metadata":null,"contact_name":null,"contact_address":null,"source":null,"contact_phone":null},"source":"","pagination":{"sort":null,"start":0,"total":51,"limit":1000000},"state":"parsed","tags":"","published":"2014-08-16T13:08:56-04:00","id":390151}