{"type":"FeatureCollection","data_type":"Dataset","url_type":null,"permissions":[{"permissions":{"download":true,"view":true},"group_id":"everyone"}],"classification":null,"title":"IP-Check","count":29,"stream_id":390461,"contributor":{"url":"http://geocommons.com/users/31147","name":"bmoothedan"},"data_attributes":null,"calculation_params":null,"icon_link":null,"link":"http://geocommons.com/overlays/390461.json","extent":[-82.2859,13.3333,85.8333,39.2904],"geometry_types":["point"],"unique_name":null,"name":"IP-Check","feature_count":29,"description":"","next_feature":null,"is_raster":false,"short_classification":"Y","stats":{"lat":{"max":39.2904,"variance":22.9742582317734,"mean":19.7952034482759,"stdev":4.79314700711061,"min":13.3333,"median":18.5333},"long":{"max":85.8333,"variance":1596.83000775707,"mean":64.4312275862069,"stdev":39.9603554508349,"min":-82.2859,"median":73.8667}},"features":[{"properties":{"city":"Pune","country":"India","isp or org":"Tata Indicom","id":"agtzzzln4ayt","ip address":"14.97.146.14","lat":18.5333,"long":73.8667,"state":"Maharashtra"},"type":"Feature","geometry":{"type":"Point","coordinates":[73.8667,18.5333]}},{"properties":{"city":"Columbia","country":"USA","isp or org":"EBP","id":"agtzzzntpnnc","ip address":"12.110.122.75","lat":39.2904,"long":-76.6122,"state":"Maryland"},"type":"Feature","geometry":{"type":"Point","coordinates":[-76.6122,39.2904]}},{"properties":{"city":"Pune","country":"India","isp or org":"Tata Communications","id":"agtzzztj33xj","ip address":"121.242.76.226","lat":18.5333,"long":73.8667,"state":"Maharashtra"},"type":"Feature","geometry":{"type":"Point","coordinates":[73.8667,18.5333]}},{"properties":{"city":"Pune","country":"India","isp or org":"BSNL","id":"agtzzzi775rx","ip address":"117.195.44.219","lat":18.5333,"long":73.8667,"state":"Maharashtra"},"type":"Feature","geometry":{"type":"Point","coordinates":[73.8667,18.5333]}},{"properties":{"city":"Davenport","country":"USA","isp or org":"Road Runner","id":"agtzzzha048w","ip address":"173.171.49.55","lat":27.9378,"long":-82.2859,"state":"Florida"},"type":"Feature","geometry":{"type":"Point","coordinates":[-82.2859,27.9378]}},{"properties":{"city":"Nagari","country":"India","isp or org":"Idea","id":"agtzzzod2nll","ip address":"223.196.198.61","lat":13.3333,"long":79.5833,"state":"Andhra Pradesh"},"type":"Feature","geometry":{"type":"Point","coordinates":[79.5833,13.3333]}},{"properties":{"city":"Pune","country":"India","isp or org":"D-Vois Broadband Pvt","id":"agtzzzoapklh","ip address":"1.186.101.246","lat":18.5333,"long":73.8667,"state":"Maharashtra"},"type":"Feature","geometry":{"type":"Point","coordinates":[73.8667,18.5333]}},{"properties":{"city":"Nagari","country":"India","isp or org":"GPRS Delhi Mobile Subscriber IP","id":"agtzzzu7xtzl","ip address":"106.67.191.166","lat":13.3333,"long":79.5833,"state":"Andhra Pradesh"},"type":"Feature","geometry":{"type":"Point","coordinates":[79.5833,13.3333]}},{"properties":{"city":"Solapur","country":"India","isp or org":"Tata Communications","id":"agtzzzjk5pdi","ip address":"115.118.182.80","lat":17.6833,"long":75.9167,"state":"Maharashtra"},"type":"Feature","geometry":{"type":"Point","coordinates":[75.9167,17.6833]}},{"properties":{"city":"Pune","country":"India","isp or org":"Airtel Broadband","id":"agtzzzuv7cxq","ip address":"122.169.87.108","lat":18.5333,"long":73.8667,"state":"Maharashtra"},"type":"Feature","geometry":{"type":"Point","coordinates":[73.8667,18.5333]}},{"properties":{"city":"Bhubaneswar","country":"India","isp or org":"BSNL","id":"agtzzzleteby","ip address":"59.94.215.40","lat":20.2333,"long":85.8333,"state":"Orissa"},"type":"Feature","geometry":{"type":"Point","coordinates":[85.8333,20.2333]}},{"properties":{"city":"Pune","country":"India","isp or org":"BSNL","id":"agtzzzk9pp9w","ip address":"117.195.78.31","lat":18.5333,"long":73.8667,"state":"Maharashtra"},"type":"Feature","geometry":{"type":"Point","coordinates":[73.8667,18.5333]}},{"properties":{"city":"Pune","country":"India","isp or org":"Airtel Broadband","id":"agtzzzlb94zm","ip address":"122.179.149.133","lat":18.975,"long":72.8258,"state":"Maharashtra"},"type":"Feature","geometry":{"type":"Point","coordinates":[72.8258,18.975]}},{"properties":{"city":null,"country":null,"isp or org":"BHARTI Airtel","id":"agtzzzl4wwee","ip address":"171.48.94.80","lat":20.0,"long":77.0,"state":null},"type":"Feature","geometry":{"type":"Point","coordinates":[77.0,20.0]}},{"properties":{"city":"Pune","country":"India","isp or org":"Reliance Communications","id":"agtzzztj1lj8","ip address":"115.240.91.135","lat":18.5333,"long":73.8667,"state":"Maharashtra"},"type":"Feature","geometry":{"type":"Point","coordinates":[73.8667,18.5333]}},{"properties":{"city":"Pune","country":"India","isp or org":"Tikona","id":"agtzzzv0z3yd","ip address":"1.23.150.248","lat":28.6667,"long":77.2167,"state":"Maharashtra"},"type":"Feature","geometry":{"type":"Point","coordinates":[77.2167,28.6667]}},{"properties":{"city":"Pune","country":"India","isp or org":"BSNL","id":"agtzzzle5ra1","ip address":"59.95.27.6","lat":18.5333,"long":73.8667,"state":"Maharashtra"},"type":"Feature","geometry":{"type":"Point","coordinates":[73.8667,18.5333]}},{"properties":{"city":"Pune","country":"India","isp or org":"BSNL","id":"agtzzzsagja9","ip address":"117.219.97.199","lat":18.5333,"long":73.8667,"state":"Maharashtra"},"type":"Feature","geometry":{"type":"Point","coordinates":[73.8667,18.5333]}},{"properties":{"city":"Pune","country":"India","isp or org":"Airtel Broadband","id":"agtzzzxagvtn","ip address":"122.169.89.75","lat":18.5333,"long":73.8667,"state":"Maharashtra"},"type":"Feature","geometry":{"type":"Point","coordinates":[73.8667,18.5333]}},{"properties":{"city":"Nagpur","country":"India","isp or org":"Tata Communications","id":"agtzzzw5nj68","ip address":"59.161.35.126","lat":21.15,"long":79.1,"state":"Maharashtra"},"type":"Feature","geometry":{"type":"Point","coordinates":[79.1,21.15]}},{"properties":{"city":"Pune","country":"India","isp or org":"Tata Teleservices","id":"agtzzzl2p1gk","ip address":"49.249.131.12","lat":18.5333,"long":73.8667,"state":"Maharashtra"},"type":"Feature","geometry":{"type":"Point","coordinates":[73.8667,18.5333]}},{"properties":{"city":"Pune","country":"India","isp or org":"Hathway IP Over Cable Internet","id":"agtzzzgyqpsh","ip address":"116.75.22.10","lat":18.5333,"long":73.8667,"state":"Maharashtra"},"type":"Feature","geometry":{"type":"Point","coordinates":[73.8667,18.5333]}},{"properties":{"city":"Pune","country":"India","isp or org":"Reliance Communications","id":"agtzzzw99odc","ip address":"115.241.190.65","lat":18.975,"long":72.8258,"state":"Maharashtra"},"type":"Feature","geometry":{"type":"Point","coordinates":[72.8258,18.975]}},{"properties":{"city":"Pune","country":"India","isp or org":"Tata Indicom","id":"agtzzzjx44yu","ip address":"14.97.91.244","lat":18.975,"long":72.8258,"state":"Maharashtra"},"type":"Feature","geometry":{"type":"Point","coordinates":[72.8258,18.975]}},{"properties":{"city":"Pune","country":"India","isp or org":"Bsnl","id":"agtzzzo3xz19","ip address":"117.195.96.36","lat":18.5333,"long":73.8667,"state":"Maharashtra"},"type":"Feature","geometry":{"type":"Point","coordinates":[73.8667,18.5333]}},{"properties":{"city":"Pune","country":"India","isp or org":"TATA Communications","id":"agtzzzpo4bgt","ip address":"59.161.24.240","lat":18.975,"long":72.8258,"state":"Maharashtra"},"type":"Feature","geometry":{"type":"Point","coordinates":[72.8258,18.975]}},{"properties":{"city":"Pune","country":"India","isp or org":"Tata Teleservices","id":"agtzzzvrr9kc","ip address":"49.249.136.226","lat":18.5333,"long":73.8667,"state":"Maharashtra"},"type":"Feature","geometry":{"type":"Point","coordinates":[73.8667,18.5333]}},{"properties":{"city":"Pune","country":"India","isp or org":"Tikona","id":"agtzzzmbdj18","ip address":"113.193.128.166","lat":18.5333,"long":73.8667,"state":"Maharashtra"},"type":"Feature","geometry":{"type":"Point","coordinates":[73.8667,18.5333]}},{"properties":{"city":"Pune","country":"India","isp or org":"YOU Broadband &amp; Cable India Ltd","id":"agtzzztsxc2p","ip address":"175.100.138.246","lat":18.5333,"long":73.8667,"state":"Maharashtra"},"type":"Feature","geometry":{"type":"Point","coordinates":[73.8667,18.5333]}}],"is_temporal":false,"author":{"url":"","metadata":"","contact_name":"","contact_address":"","source":"","contact_phone":""},"source":"","pagination":{"sort":null,"start":0,"total":29,"limit":1000000},"state":"complete","tags":"","published":"2014-08-16T13:25:47-04:00","id":390461}