{"type":"FeatureCollection","data_type":"Dataset","url_type":null,"permissions":[{"permissions":{"download":true,"view":true},"group_id":"everyone"}],"classification":null,"title":"City State dailies","count":82,"stream_id":390883,"contributor":{"url":"http://geocommons.com/users/81378","name":"tendelle"},"data_attributes":null,"calculation_params":null,"icon_link":null,"link":"http://geocommons.com/overlays/390883.json","extent":[-122.922,13.4742,144.748,47.402],"geometry_types":["point"],"unique_name":null,"name":"City State dailies","feature_count":82,"description":"","next_feature":null,"is_raster":false,"short_classification":"Y","stats":{},"features":[{"properties":{"city":"Montgomery","geo_score":0.714,"id":"agv9ie5hxte5","geo_precision":"city","state":"Alabama"},"type":"Feature","geometry":{"type":"Point","coordinates":[-86.257817,32.356988]}},{"properties":{"city":"Phoenix","geo_score":0.0,"id":"agv9iee6yyj9","geo_precision":"unmatched","state":"Arizona"},"type":"Feature","geometry":null},{"properties":{"city":"Mountain Home","geo_score":0.714,"id":"agv9iecqcauv","geo_precision":"city","state":"Arkansas"},"type":"Feature","geometry":{"type":"Point","coordinates":[-91.80903,35.386749]}},{"properties":{"city":"Palm Springs","geo_score":0.714,"id":"agv9iecmqrhg","geo_precision":"city","state":"California"},"type":"Feature","geometry":{"type":"Point","coordinates":[-120.78606,39.894894]}},{"properties":{"city":"Visalia","geo_score":0.714,"id":"agv9ieajxi3q","geo_precision":"city","state":"California"},"type":"Feature","geometry":{"type":"Point","coordinates":[-119.355559,36.13188]}},{"properties":{"city":"Salinas","geo_score":0.714,"id":"agv9ie6u1t5d","geo_precision":"city","state":"California"},"type":"Feature","geometry":{"type":"Point","coordinates":[-121.416603,36.441768]}},{"properties":{"city":"Fort Collins","geo_score":0.714,"id":"agv9iebwxer8","geo_precision":"city","state":"Colorado"},"type":"Feature","geometry":{"type":"Point","coordinates":[-108.685164,39.149614]}},{"properties":{"city":"Wilmington","geo_score":0.714,"id":"agv9ie8wjaud","geo_precision":"city","state":"Delaware"},"type":"Feature","geometry":{"type":"Point","coordinates":[-75.58437,39.68678]}},{"properties":{"city":"Fort Myers","geo_score":0.714,"id":"agv9ie9ip32a","geo_precision":"city","state":"Florida"},"type":"Feature","geometry":{"type":"Point","coordinates":[-81.863698,26.561465]}},{"properties":{"city":"Brevard County","geo_score":0.0,"id":"agv9ie04x6i5","geo_precision":"unmatched","state":"Florida"},"type":"Feature","geometry":null},{"properties":{"city":"Pensacola","geo_score":0.714,"id":"agv9idzt6v4y","geo_precision":"city","state":"Florida"},"type":"Feature","geometry":{"type":"Point","coordinates":[-87.256471,30.424838]}},{"properties":{"city":"Tallahassee","geo_score":0.714,"id":"agv9idz2zx99","geo_precision":"city","state":"Florida"},"type":"Feature","geometry":{"type":"Point","coordinates":[-84.203379,30.418514]}},{"properties":{"city":"Hagatna","geo_score":0.714,"id":"agv9ie7pkxd3","geo_precision":"city","state":"Guam"},"type":"Feature","geometry":{"type":"Point","coordinates":[144.747778,13.474167]}},{"properties":{"city":"Indianapolis","geo_score":0.714,"id":"agv9ie4jyd9a","geo_precision":"city","state":"Indiana"},"type":"Feature","geometry":{"type":"Point","coordinates":[-86.13216,39.775092]}},{"properties":{"city":"Lafayette","geo_score":0.714,"id":"agv9idxrsu87","geo_precision":"city","state":"Indiana"},"type":"Feature","geometry":{"type":"Point","coordinates":[-86.830286,40.39905]}},{"properties":{"city":"Muncie","geo_score":0.714,"id":"agv9iebhprdb","geo_precision":"city","state":"Indiana"},"type":"Feature","geometry":{"type":"Point","coordinates":[-85.389874,40.142124]}},{"properties":{"city":"Richmond","geo_score":0.714,"id":"agv9iecovs7c","geo_precision":"city","state":"Indiana"},"type":"Feature","geometry":{"type":"Point","coordinates":[-85.010442,39.84081]}},{"properties":{"city":"Des Moines","geo_score":0.714,"id":"agv9iec66ov2","geo_precision":"city","state":"Iowa"},"type":"Feature","geometry":{"type":"Point","coordinates":[-93.572173,41.672687]}},{"properties":{"city":"Iowa City","geo_score":0.714,"id":"agv9ie7845y7","geo_precision":"city","state":"Iowa"},"type":"Feature","geometry":{"type":"Point","coordinates":[-92.161281,43.198027]}},{"properties":{"city":"Louisville","geo_score":0.714,"id":"agv9ie0tpue6","geo_precision":"city","state":"Kentucky"},"type":"Feature","geometry":{"type":"Point","coordinates":[-85.676819,38.188962]}},{"properties":{"city":"Shreveport","geo_score":0.714,"id":"agv9ie0yecwi","geo_precision":"city","state":"Louisiana"},"type":"Feature","geometry":{"type":"Point","coordinates":[-93.750228,32.498202]}},{"properties":{"city":"Lafayette","geo_score":0.714,"id":"agv9idzpeva5","geo_precision":"city","state":"Louisiana"},"type":"Feature","geometry":{"type":"Point","coordinates":[-92.066574,30.232955]}},{"properties":{"city":"Monroe","geo_score":0.714,"id":"agv9ie3rj73w","geo_precision":"city","state":"Louisiana"},"type":"Feature","geometry":{"type":"Point","coordinates":[-92.094583,32.502833]}},{"properties":{"city":"Alexandria","geo_score":0.0,"id":"agv9ie66tqmn","geo_precision":"unmatched","state":"Louisiana"},"type":"Feature","geometry":null},{"properties":{"city":"Opelousas","geo_score":0.714,"id":"agv9ie72vx38","geo_precision":"city","state":"Louisiana"},"type":"Feature","geometry":{"type":"Point","coordinates":[-92.00983,30.529765]}},{"properties":{"city":"Salisbury","geo_score":0.714,"id":"agv9iea7xmyh","geo_precision":"city","state":"Maryland"},"type":"Feature","geometry":{"type":"Point","coordinates":[-75.633621,38.382445]}},{"properties":{"city":"Detroit","geo_score":0.714,"id":"agv9ie0utvgf","geo_precision":"city","state":"Michigan"},"type":"Feature","geometry":{"type":"Point","coordinates":[-83.150823,42.239933]}},{"properties":{"city":"Lansing","geo_score":0.714,"id":"agv9ie7h5l01","geo_precision":"city","state":"Michigan"},"type":"Feature","geometry":{"type":"Point","coordinates":[-84.555535,42.732535]}},{"properties":{"city":"Port Huron","geo_score":0.714,"id":"agv9ie8d1n1r","geo_precision":"city","state":"Michigan"},"type":"Feature","geometry":{"type":"Point","coordinates":[-83.667641,44.996329]}},{"properties":{"city":"Battle Creek","geo_score":0.714,"id":"agv9iebudik7","geo_precision":"city","state":"Michigan"},"type":"Feature","geometry":{"type":"Point","coordinates":[-85.860379,43.712217]}},{"properties":{"city":"Livingston County","geo_score":0.714,"id":"agv9iecoetnm","geo_precision":"city","state":"Michigan"},"type":"Feature","geometry":{"type":"Point","coordinates":[-82.944266,43.961537]}},{"properties":{"city":"St. Cloud","geo_score":0.714,"id":"agv9iebezcyx","geo_precision":"city","state":"Minnesota"},"type":"Feature","geometry":{"type":"Point","coordinates":[-91.979323,43.894685]}},{"properties":{"city":"Jackson","geo_score":0.0,"id":"agv9ie72nqge","geo_precision":"unmatched","state":"Mississippi"},"type":"Feature","geometry":null},{"properties":{"city":"Hattiesburg","geo_score":0.714,"id":"agv9iecnas49","geo_precision":"city","state":"Mississippi"},"type":"Feature","geometry":{"type":"Point","coordinates":[-89.28071,31.245138]}},{"properties":{"city":"Springfield","geo_score":0.714,"id":"agv9idxudpq4","geo_precision":"city","state":"Missouri"},"type":"Feature","geometry":{"type":"Point","coordinates":[-92.02405,37.762541]}},{"properties":{"city":"Great Falls","geo_score":0.714,"id":"agv9ie9gecv3","geo_precision":"city","state":"Montana"},"type":"Feature","geometry":{"type":"Point","coordinates":[-111.422948,47.402024]}},{"properties":{"city":"Reno","geo_score":0.571,"id":"agv9ie3fvqlb","geo_precision":"city","state":"Nevada"},"type":"Feature","geometry":{"type":"Point","coordinates":[-91.275134,43.601082]}},{"properties":{"city":"Asbury Park","geo_score":0.714,"id":"agv9ie9tkcvs","geo_precision":"city","state":"New Jersey"},"type":"Feature","geometry":{"type":"Point","coordinates":[-75.028089,40.695034]}},{"properties":{"city":"Cherry Hill","geo_score":0.714,"id":"agv9ie8yllaq","geo_precision":"city","state":"New Jersey"},"type":"Feature","geometry":{"type":"Point","coordinates":[-75.010307,39.908663]}},{"properties":{"city":"East Brunswick","geo_score":0.714,"id":"agv9ie6xmwid","geo_precision":"city","state":"New Jersey"},"type":"Feature","geometry":{"type":"Point","coordinates":[-74.421695,40.427697]}},{"properties":{"city":"Morristown","geo_score":0.714,"id":"agv9ie2kzqdr","geo_precision":"city","state":"New Jersey"},"type":"Feature","geometry":{"type":"Point","coordinates":[-74.253756,40.425107]}},{"properties":{"city":"Bridgewater","geo_score":0.714,"id":"agv9idzdu9js","geo_precision":"city","state":"New Jersey"},"type":"Feature","geometry":{"type":"Point","coordinates":[-74.607518,40.598702]}},{"properties":{"city":"Vineland","geo_score":0.714,"id":"agv9iebrc7ve","geo_precision":"city","state":"New Jersey"},"type":"Feature","geometry":{"type":"Point","coordinates":[-75.025676,39.392671]}},{"properties":{"city":"Rochester","geo_score":0.714,"id":"agv9idy7vago","geo_precision":"city","state":"New York"},"type":"Feature","geometry":{"type":"Point","coordinates":[-77.684264,43.286024]}},{"properties":{"city":"Westchester County","geo_score":0.714,"id":"agv9ieb1d5yb","geo_precision":"city","state":"New York"},"type":"Feature","geometry":{"type":"Point","coordinates":[-78.174601,42.257674]}},{"properties":{"city":"Binghamton","geo_score":0.0,"id":"agv9idyndxrm","geo_precision":"unmatched","state":"New York"},"type":"Feature","geometry":null},{"properties":{"city":"Poughkeepsie","geo_score":0.0,"id":"agv9ie6f4ijp","geo_precision":"unmatched","state":"New York"},"type":"Feature","geometry":null},{"properties":{"city":"Elmira","geo_score":0.714,"id":"agv9iebu0wkm","geo_precision":"city","state":"New York"},"type":"Feature","geometry":{"type":"Point","coordinates":[-76.71857,42.082585]}},{"properties":{"city":"Ithaca","geo_score":0.714,"id":"agv9idygpup0","geo_precision":"city","state":"New York"},"type":"Feature","geometry":{"type":"Point","coordinates":[-76.483999,42.402794]}},{"properties":{"city":"Asheville","geo_score":0.714,"id":"agv9iebtc1sv","geo_precision":"city","state":"North Carolina"},"type":"Feature","geometry":{"type":"Point","coordinates":[-82.567281,35.602711]}},{"properties":{"city":"Cincinnati","geo_score":0.714,"id":"agv9ie7cdspl","geo_precision":"city","state":"Ohio"},"type":"Feature","geometry":{"type":"Point","coordinates":[-84.53822,39.166759]}},{"properties":{"city":"Mansfield","geo_score":0.714,"id":"agv9ie2whwk9","geo_precision":"city","state":"Ohio"},"type":"Feature","geometry":{"type":"Point","coordinates":[-82.242093,39.712291]}},{"properties":{"city":"Zanesville","geo_score":0.714,"id":"agv9ie37b79t","geo_precision":"city","state":"Ohio"},"type":"Feature","geometry":{"type":"Point","coordinates":[-82.004058,39.927415]}},{"properties":{"city":"Newark","geo_score":0.714,"id":"agv9iecm55hr","geo_precision":"city","state":"Ohio"},"type":"Feature","geometry":{"type":"Point","coordinates":[-82.485985,40.085963]}},{"properties":{"city":"Chillicothe","geo_score":0.714,"id":"agv9iebyplam","geo_precision":"city","state":"Ohio"},"type":"Feature","geometry":{"type":"Point","coordinates":[-82.991332,39.337384]}},{"properties":{"city":"Lancaster","geo_score":0.714,"id":"agv9idyut9ss","geo_precision":"city","state":"Ohio"},"type":"Feature","geometry":{"type":"Point","coordinates":[-82.220149,39.498125]}},{"properties":{"city":"Marion","geo_score":0.714,"id":"agv9iedbmk5e","geo_precision":"city","state":"Ohio"},"type":"Feature","geometry":{"type":"Point","coordinates":[-83.069296,40.616604]}},{"properties":{"city":"Fremont","geo_score":0.714,"id":"agv9ie30ugkf","geo_precision":"city","state":"Ohio"},"type":"Feature","geometry":{"type":"Point","coordinates":[-84.553555,39.127837]}},{"properties":{"city":"Bucyrus","geo_score":0.714,"id":"agv9ie4lj6ax","geo_precision":"city","state":"Ohio"},"type":"Feature","geometry":{"type":"Point","coordinates":[-82.973876,40.832674]}},{"properties":{"city":"Coshocton","geo_score":0.714,"id":"agv9iecjoymz","geo_precision":"city","state":"Ohio"},"type":"Feature","geometry":{"type":"Point","coordinates":[-81.864066,40.300934]}},{"properties":{"city":"Port Clinton","geo_score":0.714,"id":"agv9ie9j25i7","geo_precision":"city","state":"Ohio"},"type":"Feature","geometry":{"type":"Point","coordinates":[-82.338486,40.200344]}},{"properties":{"city":"Salem","geo_score":0.714,"id":"agv9ieadkmru","geo_precision":"city","state":"Oregon"},"type":"Feature","geometry":{"type":"Point","coordinates":[-122.921721,44.90472]}},{"properties":{"city":"Greenville","geo_score":0.714,"id":"agv9ie3zew8b","geo_precision":"city","state":"South Carolina"},"type":"Feature","geometry":{"type":"Point","coordinates":[-82.402871,34.848567]}},{"properties":{"city":"Sioux Falls","geo_score":0.714,"id":"agv9ie6xvkry","geo_precision":"city","state":"South Dakota"},"type":"Feature","geometry":{"type":"Point","coordinates":[-97.597294,44.01053]}},{"properties":{"city":"Nashville","geo_score":0.714,"id":"agv9ie4c4avh","geo_precision":"city","state":"Tennessee"},"type":"Feature","geometry":{"type":"Point","coordinates":[-86.778098,36.165688]}},{"properties":{"city":"Jackson","geo_score":0.0,"id":"agv9iecgv0x7","geo_precision":"unmatched","state":"Tennessee"},"type":"Feature","geometry":null},{"properties":{"city":"Clarksville","geo_score":0.714,"id":"agv9ieceocpc","geo_precision":"city","state":"Tennessee"},"type":"Feature","geometry":{"type":"Point","coordinates":[-87.308491,36.51674]}},{"properties":{"city":"Murfreesboro","geo_score":0.714,"id":"agv9ieds5g39","geo_precision":"city","state":"Tennessee"},"type":"Feature","geometry":{"type":"Point","coordinates":[-86.372158,35.762951]}},{"properties":{"city":"St. George","geo_score":0.0,"id":"agv9ie74domx","geo_precision":"unmatched","state":"Utah"},"type":"Feature","geometry":null},{"properties":{"city":"Burlington","geo_score":0.714,"id":"agv9ie0r4szj","geo_precision":"city","state":"Vermont"},"type":"Feature","geometry":{"type":"Point","coordinates":[-73.151384,44.507404]}},{"properties":{"city":"McLean","geo_score":0.714,"id":"agv9ie1e85bz","geo_precision":"city","state":"Virginia"},"type":"Feature","geometry":{"type":"Point","coordinates":[-77.18672,38.935202]}},{"properties":{"city":"Staunton","geo_score":0.714,"id":"agv9ie339iyq","geo_precision":"city","state":"Virginia"},"type":"Feature","geometry":{"type":"Point","coordinates":[-79.065116,38.157368]}},{"properties":{"city":"Green Bay","geo_score":0.714,"id":"agv9ie98aswq","geo_precision":"city","state":"Wisconsin"},"type":"Feature","geometry":{"type":"Point","coordinates":[-87.745645,44.356106]}},{"properties":{"city":"Appleton","geo_score":0.714,"id":"agv9ie3vkj33","geo_precision":"city","state":"Wisconsin"},"type":"Feature","geometry":{"type":"Point","coordinates":[-88.370856,44.275702]}},{"properties":{"city":"Wausau","geo_score":0.714,"id":"agv9idzbzxqn","geo_precision":"city","state":"Wisconsin"},"type":"Feature","geometry":{"type":"Point","coordinates":[-89.794002,44.961874]}},{"properties":{"city":"Sheboygan","geo_score":0.714,"id":"agv9ie745mx2","geo_precision":"city","state":"Wisconsin"},"type":"Feature","geometry":{"type":"Point","coordinates":[-87.856793,43.722489]}},{"properties":{"city":"Oshkosh","geo_score":0.714,"id":"agv9idzwmqgb","geo_precision":"city","state":"Wisconsin"},"type":"Feature","geometry":{"type":"Point","coordinates":[-88.55756,44.005661]}},{"properties":{"city":"Manitowoc","geo_score":0.714,"id":"agv9idy0sp1o","geo_precision":"city","state":"Wisconsin"},"type":"Feature","geometry":{"type":"Point","coordinates":[-87.714403,44.109709]}},{"properties":{"city":"Fond du Lac","geo_score":0.714,"id":"agv9ieatexdf","geo_precision":"city","state":"Wisconsin"},"type":"Feature","geometry":{"type":"Point","coordinates":[-88.523176,43.734724]}},{"properties":{"city":"Marshfield","geo_score":0.714,"id":"agv9ie6pg4zz","geo_precision":"city","state":"Wisconsin"},"type":"Feature","geometry":{"type":"Point","coordinates":[-90.02136,44.466554]}},{"properties":{"city":"Wisconsin Rapids","geo_score":0.714,"id":"agv9ie0ax067","geo_precision":"city","state":"Wisconsin"},"type":"Feature","geometry":{"type":"Point","coordinates":[-89.918546,44.379694]}},{"properties":{"city":"Stevens Point","geo_score":0.714,"id":"agv9idyycrhw","geo_precision":"city","state":"Wisconsin"},"type":"Feature","geometry":{"type":"Point","coordinates":[-89.531871,44.551808]}}],"is_temporal":false,"author":{"url":"","metadata":"","contact_name":"","contact_address":"","source":"","contact_phone":""},"source":"","pagination":{"sort":null,"start":0,"total":82,"limit":1000000},"state":"complete","tags":"","published":"2014-08-16T13:55:13-04:00","id":390883}