{"type":"FeatureCollection","data_type":"Dataset","url_type":null,"permissions":[{"permissions":{"download":true,"view":true},"group_id":"everyone"}],"classification":null,"title":"Tribune Papers and TV v2","count":9,"stream_id":390882,"contributor":{"url":"http://geocommons.com/users/81384","name":"samredlitz"},"data_attributes":null,"calculation_params":null,"icon_link":null,"link":"http://geocommons.com/overlays/390882.json","extent":[-120.619,26.1665,-72.6771,41.8119],"geometry_types":["point"],"unique_name":null,"name":"Tribune Papers and TV v2","feature_count":9,"description":"","next_feature":null,"is_raster":false,"short_classification":"Y","stats":{},"features":[{"properties":{"city":"Los Angeles","geo_score":0.714,"id":"agv9ib0on5v2","geo_precision":"city","state":"CA"},"type":"Feature","geometry":{"type":"Point","coordinates":[-120.618608,38.052816]}},{"properties":{"city":"Chicago","geo_score":0.714,"id":"agv9iaum3mh6","geo_precision":"city","state":"IL"},"type":"Feature","geometry":{"type":"Point","coordinates":[-87.68732,41.811929]}},{"properties":{"city":"Baltimore","geo_score":0.714,"id":"agv9iat9s2cb","geo_precision":"city","state":"MD"},"type":"Feature","geometry":{"type":"Point","coordinates":[-75.844658,39.058168]}},{"properties":{"city":"Fort Lauderdale","geo_score":0.714,"id":"agv9ib0kafp6","geo_precision":"city","state":"FL"},"type":"Feature","geometry":{"type":"Point","coordinates":[-80.208381,26.166474]}},{"properties":{"city":"Orlando","geo_score":0.714,"id":"agv9iauy37zj","geo_precision":"city","state":"FL"},"type":"Feature","geometry":{"type":"Point","coordinates":[-81.373291,28.545179]}},{"properties":{"city":"Hartford","geo_score":0.714,"id":"agv9ib5sodd0","geo_precision":"city","state":"CT"},"type":"Feature","geometry":{"type":"Point","coordinates":[-72.677099,41.78007]}},{"properties":{"city":"Allentown","geo_score":0.714,"id":"agv9ib26zmz9","geo_precision":"city","state":"PA"},"type":"Feature","geometry":{"type":"Point","coordinates":[-75.470026,40.607497]}},{"properties":{"city":"Newport News","geo_score":0.714,"id":"agv9ib12j95g","geo_precision":"city","state":"VA"},"type":"Feature","geometry":{"type":"Point","coordinates":[-76.463471,37.058296]}},{"properties":{"city":"Chicago","geo_score":0.714,"id":"agv9ib02fsga","geo_precision":"city","state":"IL"},"type":"Feature","geometry":{"type":"Point","coordinates":[-87.68732,41.811929]}}],"is_temporal":false,"author":{"url":"","metadata":"","contact_name":"","contact_address":"","source":"","contact_phone":""},"source":"","pagination":{"sort":null,"start":0,"total":9,"limit":1000000},"state":"complete","tags":"","published":"2014-08-16T13:55:12-04:00","id":390882}