{"type":"FeatureCollection","data_type":"Dataset","url_type":null,"permissions":[{"permissions":{"download":true,"view":true},"group_id":"everyone"}],"classification":null,"title":"nk_chr_malnutr","count":12,"stream_id":391188,"contributor":{"url":"http://geocommons.com/users/81479","name":"cyberdoc73"},"data_attributes":null,"calculation_params":null,"icon_link":null,"link":"http://geocommons.com/overlays/391188.json","extent":[0.0,0.0,0.0,0.0],"geometry_types":[],"unique_name":null,"name":"nk_chr_malnutr","feature_count":12,"description":"","next_feature":null,"is_raster":false,"short_classification":"Y","stats":{"chrmalnutr":{"max":40.900002,"variance":26.7596404400009,"mean":32.4181819090909,"stdev":5.17297210895254,"min":22.5,"median":30.799999}},"features":[{"properties":{"geo_score":0.0,"chrmalnutr":40.900002,"id":"agxe4230adjn","province":"Chagang Province","geo_precision":"unmatched"},"type":"Feature","geometry":null},{"properties":{"geo_score":0.0,"chrmalnutr":29.200001,"id":"agxe423uvffb","province":"Kaesong City","geo_precision":"unmatched"},"type":"Feature","geometry":null},{"properties":{"geo_score":0.0,"chrmalnutr":34.200001,"id":"agxe425oagnh","province":"Kangwon Province","geo_precision":"unmatched"},"type":"Feature","geometry":null},{"properties":{"geo_score":0.0,"chrmalnutr":30.5,"id":"agxe41tw9v2y","province":"Namp'o","geo_precision":"unmatched"},"type":"Feature","geometry":null},{"properties":{"geo_score":0.0,"chrmalnutr":38.0,"id":"agxe424hknhf","province":"North Hamgyong Province","geo_precision":"unmatched"},"type":"Feature","geometry":null},{"properties":{"geo_score":0.0,"chrmalnutr":30.799999,"id":"agxe427c77pt","province":"North Hwanghae Province","geo_precision":"unmatched"},"type":"Feature","geometry":null},{"properties":{"geo_score":0.0,"chrmalnutr":30.4,"id":"agxe41xeb46w","province":"North P'yongan Province","geo_precision":"unmatched"},"type":"Feature","geometry":null},{"properties":{"geo_score":0.0,"chrmalnutr":22.5,"id":"agxe41yi73sp","province":"P'yongyang","geo_precision":"unmatched"},"type":"Feature","geometry":null},{"properties":{"geo_score":0.0,"chrmalnutr":38.5,"id":"agxe427qpcvh","province":"South Hamgyong Province","geo_precision":"unmatched"},"type":"Feature","geometry":null},{"properties":{"geo_score":0.0,"chrmalnutr":30.799999,"id":"agxe41zvs1yc","province":"South Hwanghae Province","geo_precision":"unmatched"},"type":"Feature","geometry":null},{"properties":{"geo_score":0.0,"chrmalnutr":30.799999,"id":"agxe41x5nsaw","province":"South P'yongan Province","geo_precision":"unmatched"},"type":"Feature","geometry":null},{"properties":{"geo_score":0.0,"chrmalnutr":null,"id":"agxe420h4fpy","province":"Yanggang Province","geo_precision":"unmatched"},"type":"Feature","geometry":null}],"is_temporal":false,"author":{"url":"","metadata":null,"contact_name":null,"contact_address":null,"source":null,"contact_phone":null},"source":"","pagination":{"sort":null,"start":0,"total":12,"limit":1000000},"state":"complete","tags":"","published":"2014-08-16T14:14:33-04:00","id":391188}