{"type":"FeatureCollection","data_type":"Dataset","url_type":null,"permissions":[{"permissions":{"download":true,"view":true},"group_id":"everyone"}],"classification":null,"title":"Open 8.29.13","count":649,"stream_id":391409,"contributor":{"url":"http://geocommons.com/users/71562","name":"csuch"},"data_attributes":null,"calculation_params":null,"icon_link":null,"link":"http://geocommons.com/overlays/391409.json","extent":[-122.798,26.2817,-71.0828,48.1524],"geometry_types":["point"],"unique_name":null,"name":"Open 8.29.13","feature_count":649,"description":"","next_feature":null,"is_raster":false,"short_classification":"Y","stats":{},"features":[{"properties":{"name":"Alvaro Garcia","city":"Buena Park","store number":"20088","zip":"90620","geo_score":1.0,"id":"agyi6x6fewan","address":"5974 Orangethorpe Ave","geo_precision":"range","state":"CA"},"type":"Feature","geometry":{"type":"Point","coordinates":[-118.030726,33.858627]}},{"properties":{"name":"Alvaro Garcia","city":"Costa Mesa","store number":"20068","zip":"92626","geo_score":1.0,"id":"agyi6xctcylx","address":"2300 Harbor Boulevard","geo_precision":"range","state":"CA"},"type":"Feature","geometry":{"type":"Point","coordinates":[-117.91927,33.66328]}},{"properties":{"name":"Alvaro Garcia","city":"Culver City","store number":"20098","zip":"90230","geo_score":1.0,"id":"agyi6x5m58vk","address":"4114 Sepulveda Blvd.","geo_precision":"range","state":"CA"},"type":"Feature","geometry":{"type":"Point","coordinates":[-118.412758,34.007016]}},{"properties":{"name":"Henry Gallo","city":"New York","store number":"34001","zip":"10038","geo_score":1.0,"id":"agyi6x0971ha","address":"80 Maiden Lane","geo_precision":"range","state":"NY"},"type":"Feature","geometry":{"type":"Point","coordinates":[-74.00687,40.706705]}},{"properties":{"name":"James R. Gallimore","city":"Canton","store number":"5040A","zip":"30114","geo_score":0.809,"id":"agyi6x6vlfpk","address":"149 Reinhardt College Pkwy.","geo_precision":"street","state":"GA"},"type":"Feature","geometry":{"type":"Point","coordinates":[-84.480955,34.256693]}},{"properties":{"name":"Amber Gagne","city":"Jupiter","store number":"13060","zip":"33458","geo_score":0.836,"id":"agyi6x1uru4f","address":"5500 North Military Trail","geo_precision":"range","state":"FL"},"type":"Feature","geometry":{"type":"Point","coordinates":[-80.102612,26.907697]}},{"properties":{"name":"Jon Fulghum","city":"Garner","store number":"3091A","zip":"27529","geo_score":1.0,"id":"agyi6x4ex5k1","address":"2345 Timber Drive","geo_precision":"range","state":"NC"},"type":"Feature","geometry":{"type":"Point","coordinates":[-78.63969,35.698136]}},{"properties":{"name":"Jake Forrester","city":"Jackson","store number":"1016A","zip":"8527","geo_score":0.684,"id":"agyi6x4lv1ws","address":"2275 West County Line Road","geo_precision":"street","state":"NJ"},"type":"Feature","geometry":{"type":"Point","coordinates":[-74.259478,40.120866]}},{"properties":{"name":"Matt Forbes","city":"Stuart","store number":"13009A","zip":"34997","geo_score":0.602,"id":"agyi6xay4zzs","address":"3321 S. Federal Highway","geo_precision":"street","state":"FL"},"type":"Feature","geometry":{"type":"Point","coordinates":[-80.231169,27.17219]}},{"properties":{"name":"Tim Fleischman","city":"Indianapolis","store number":"11011A","zip":"46250","geo_score":0.619,"id":"agyi6xd9uvye","address":"5025 E. 82nd Street","geo_precision":"street","state":"IN"},"type":"Feature","geometry":{"type":"Point","coordinates":[-86.104914,39.910183]}},{"properties":{"name":"Tim Fleischman","city":"Indianapolis","store number":"11005A","zip":"46254","geo_score":0.935,"id":"agyi6x1ldnts","address":"6985 West 38th Street","geo_precision":"range","state":"IN"},"type":"Feature","geometry":{"type":"Point","coordinates":[-86.281118,39.823361]}},{"properties":{"name":"Joseph Fischer","city":"Orlando","store number":"13032","zip":"32828","geo_score":1.0,"id":"agyi6xafx3dv","address":"12420 Lake Underhill Rd","geo_precision":"range","state":"FL"},"type":"Feature","geometry":{"type":"Point","coordinates":[-81.198478,28.545223]}},{"properties":{"name":"W. Charles Farris  Jr.","city":"Chapel Hill","store number":"3092B","zip":"27514","geo_score":0.607,"id":"agyi6x7we1wo","address":"245A S. Elliott Road","geo_precision":"street","state":"NC"},"type":"Feature","geometry":{"type":"Point","coordinates":[-79.028821,35.934522]}},{"properties":{"name":"James &amp; Shelli Fanning","city":"Tampa","store number":"13027","zip":"33618","geo_score":1.0,"id":"agyi6x6dkj17","address":"14839 North Dale Mabry Highway","geo_precision":"range","state":"FL"},"type":"Feature","geometry":{"type":"Point","coordinates":[-82.506672,28.077514]}},{"properties":{"name":"James Fanning","city":"Brandon","store number":"13026","zip":"33511","geo_score":0.719,"id":"agyi6xe4h7ik","address":"10951 Causeway Blvd","geo_precision":"street","state":"FL"},"type":"Feature","geometry":{"type":"Point","coordinates":[-82.332562,27.923071]}},{"properties":{"name":"Kimberly Ann Ensing","city":"Castaic","store number":"20015A","zip":"91384","geo_score":1.0,"id":"agyi6x0sdfek","address":"31765 Castaic Road","geo_precision":"range","state":"CA"},"type":"Feature","geometry":{"type":"Point","coordinates":[-118.621828,34.495817]}},{"properties":{"name":"J. David Emrich","city":"Matthews","store number":"3020","zip":"28105","geo_score":0.329,"id":"agyi6xea1jec","address":"2332A Matthews Twp. Parkway","geo_precision":"street","state":"NC"},"type":"Feature","geometry":{"type":"Point","coordinates":[-82.054471,35.400598]}},{"properties":{"name":"Chris Elwood","city":"Raleigh","store number":"3042B","zip":"27603","geo_score":1.0,"id":"agyi6xek9heq","address":"7949 Fayetteville Road","geo_precision":"range","state":"NC"},"type":"Feature","geometry":{"type":"Point","coordinates":[-78.698325,35.665704]}},{"properties":{"name":"Richard Dikran Elmassian","city":"Glendale","store number":"20072","zip":"91210","geo_score":0.585,"id":"agyi6xfysnds","address":"813 Americana Way","geo_precision":"zip","state":"CA"},"type":"Feature","geometry":{"type":"Point","coordinates":[-118.298662,33.786594]}},{"properties":{"name":"George Ebbs","city":"Daytona Beach","store number":"13042","zip":"32114","geo_score":0.586,"id":"agyi6x9ce6ee","address":"1808 W. International Speedway Blvd.","geo_precision":"street","state":"FL"},"type":"Feature","geometry":{"type":"Point","coordinates":[-81.022064,29.211131]}},{"properties":{"name":"George Ebbs","city":"Ormond Beach","store number":"13049","zip":"32174","geo_score":0.878,"id":"agyi6x4vh046","address":"1474 W Granada Blvd  Suite 25","geo_precision":"range","state":"FL"},"type":"Feature","geometry":{"type":"Point","coordinates":[-81.112364,29.257905]}},{"properties":{"name":"Sam Duran","city":"Jacksonville","store number":"3034","zip":"28546","geo_score":1.0,"id":"agyi6x9p87po","address":"301 Western Boulevard","geo_precision":"range","state":"NC"},"type":"Feature","geometry":{"type":"Point","coordinates":[-77.382194,34.760498]}},{"properties":{"name":"Frederick W. Downey","city":"San Diego","store number":"20122","zip":"92120","geo_score":0.445,"id":"agyi6xchn0uf","address":"6545 Mission Gorge Road","geo_precision":"street","state":"CA"},"type":"Feature","geometry":{"type":"Point","coordinates":[-117.105625,32.703637]}},{"properties":{"name":"Gary Dorfman","city":"Atlanta","store number":"5014B","zip":"30342","geo_score":1.0,"id":"agyi6x2urm3m","address":"3740 Roswell Road","geo_precision":"range","state":"GA"},"type":"Feature","geometry":{"type":"Point","coordinates":[-84.381999,33.857124]}},{"properties":{"name":"Gary Dorfman","city":"Atlanta","store number":"5037","zip":"30328","geo_score":1.0,"id":"agyi6x6vr3my","address":"227 Sandy Springs Place NE","geo_precision":"range","state":"GA"},"type":"Feature","geometry":{"type":"Point","coordinates":[-84.381752,33.921477]}},{"properties":{"name":"Richard Domanski","city":"Raleigh","store number":"3026","zip":"27603","geo_score":0.805,"id":"agyi6x7zveu2","address":"200 West Peace Street","geo_precision":"range","state":"NC"},"type":"Feature","geometry":{"type":"Point","coordinates":[-78.642595,35.788312]}},{"properties":{"name":"Richard J. Domanski","city":"Raleigh","store number":"3009","zip":"27609","geo_score":0.902,"id":"agyi6x18ei74","address":"3088 Wake Forest Road","geo_precision":"range","state":"NC"},"type":"Feature","geometry":{"type":"Point","coordinates":[-78.621878,35.82399]}},{"properties":{"name":"Richard J. Domanski","city":"Raleigh","store number":"3132","zip":"27607","geo_score":1.0,"id":"agyi6x14axvi","address":"2712 Hillsborough Street","geo_precision":"range","state":"NC"},"type":"Feature","geometry":{"type":"Point","coordinates":[-78.67293,35.788892]}},{"properties":{"name":"David Do","city":"Chicago","store number":"27035","zip":"60657","geo_score":0.604,"id":"agyi6xaonazt","address":"3152 N. Broadway","geo_precision":"street","state":"IL"},"type":"Feature","geometry":{"type":"Point","coordinates":[-87.644264,41.934252]}},{"properties":{"name":"Phillip Curtis Dillingham","city":"Asheville","store number":"3111","zip":"28805","geo_score":0.585,"id":"agyi6x0m95p7","address":"104A River Hills Road","geo_precision":"zip","state":"NC"},"type":"Feature","geometry":{"type":"Point","coordinates":[-82.471512,35.592892]}},{"properties":{"name":"Patrick Dillingham","city":"Arden","store number":"3125","zip":"28704","geo_score":0.878,"id":"agyi6xd8hxv0","address":"300 Airport Rd.","geo_precision":"street","state":"NC"},"type":"Feature","geometry":{"type":"Point","coordinates":[-82.525751,35.451198]}},{"properties":{"name":"Patrick Dillingham","city":"Asheville","store number":"3121","zip":"28804","geo_score":1.0,"id":"agyi6x2f7qmp","address":"674 Merrimon Avenue","geo_precision":"range","state":"NC"},"type":"Feature","geometry":{"type":"Point","coordinates":[-82.55464,35.622146]}},{"properties":{"name":"Patrick Dillingham","city":"Asheville","store number":"3113","zip":"28803","geo_score":1.0,"id":"agyi6xcn3ir7","address":"1550 Hendersonville Road","geo_precision":"range","state":"NC"},"type":"Feature","geometry":{"type":"Point","coordinates":[-82.527521,35.514884]}},{"properties":{"name":"Patrick Dillingham","city":"Asheville","store number":"3117","zip":"28806","geo_score":0.537,"id":"agyi6x59e0ye","address":"1341 Parkwood Road","geo_precision":"street","state":"NC"},"type":"Feature","geometry":{"type":"Point","coordinates":[-82.584617,35.636026]}},{"properties":{"name":"Ryan Delman","city":"Savannah","store number":"5042","zip":"31410","geo_score":1.0,"id":"agyi6x1fn6rj","address":"111 Jazie Drive","geo_precision":"range","state":"GA"},"type":"Feature","geometry":{"type":"Point","coordinates":[-81.008533,32.042885]}},{"properties":{"name":"Ryan Delman","city":"Summerville","store number":"7040","zip":"29483","geo_score":0.68,"id":"agyi6x45fe8v","address":"310 Azalea Square Blvd.","geo_precision":"street","state":"SC"},"type":"Feature","geometry":{"type":"Point","coordinates":[-80.115623,33.000785]}},{"properties":{"name":"Ryan Delman","city":"North Charleston","store number":"7045","zip":"29406","geo_score":1.0,"id":"agyi6x75ygys","address":"7225 Rivers Avenue","geo_precision":"range","state":"SC"},"type":"Feature","geometry":{"type":"Point","coordinates":[-80.036928,32.932756]}},{"properties":{"name":"Ryan Delman","city":"Savannah","store number":"5043","zip":"31406","geo_score":1.0,"id":"agyi6xbo0598","address":"7400 Abercorn St.","geo_precision":"range","state":"GA"},"type":"Feature","geometry":{"type":"Point","coordinates":[-81.114508,32.009828]}},{"properties":{"name":"Ryan Delman","city":"North Charleston","store number":"7035","zip":"29420","geo_score":0.805,"id":"agyi6x59rlmy","address":"8983 University Blvd.","geo_precision":"range","state":"SC"},"type":"Feature","geometry":{"type":"Point","coordinates":[-80.061378,32.974919]}},{"properties":{"name":"Ryan Delman","city":"Mt. Pleasant","store number":"7002A","zip":"29464","geo_score":0.972,"id":"agyi6xdp0870","address":"280D West Coleman Blvd.","geo_precision":"range","state":"SC"},"type":"Feature","geometry":{"type":"Point","coordinates":[-79.89326,32.797475]}},{"properties":{"name":"Ryan Delman","city":"Mt. Pleasant","store number":"7033","zip":"29466","geo_score":0.554,"id":"agyi6x15uwyd","address":"3010 S. Morgans Point Rd.","geo_precision":"street","state":"SC"},"type":"Feature","geometry":{"type":"Point","coordinates":[-79.774831,32.871499]}},{"properties":{"name":"Christopher M. Decker","city":"Opelika","store number":"12004A","zip":"36801","geo_score":0.454,"id":"agyi6xb6ird4","address":"2336 Tiger Town Parkway","geo_precision":"street","state":"AL"},"type":"Feature","geometry":{"type":"Point","coordinates":[-85.814523,32.807622]}},{"properties":{"name":"Christopher M. Decker","city":"Destin","store number":"13029A","zip":"32541","geo_score":0.92,"id":"agyi6x8sqe5y","address":"817 Harbor Blvd","geo_precision":"range","state":"FL"},"type":"Feature","geometry":{"type":"Point","coordinates":[-86.483571,30.412927]}},{"properties":{"name":"Chris Decker","city":"Hoover","store number":"12007","zip":"35244","geo_score":0.902,"id":"agyi6x0vgky6","address":"1851 Montgomery Highway","geo_precision":"range","state":"AL"},"type":"Feature","geometry":{"type":"Point","coordinates":[-86.795117,33.350835]}},{"properties":{"name":"Chris Decker","city":"Birmingham","store number":"12006","zip":"35235","geo_score":1.0,"id":"agyi6xd095h9","address":"1873 Gadsden Highway","geo_precision":"range","state":"AL"},"type":"Feature","geometry":{"type":"Point","coordinates":[-86.629345,33.60791]}},{"properties":{"name":"Chris Decker","city":"Birmingham","store number":"12002A","zip":"35242","geo_score":0.659,"id":"agyi6x5izta8","address":"4673 Hwy 280 East","geo_precision":"street","state":"AL"},"type":"Feature","geometry":{"type":"Point","coordinates":[-86.664215,33.406515]}},{"properties":{"name":"Charles A. Davis","city":"Marietta","store number":"5048","zip":"30062","geo_score":1.0,"id":"agyi6x8nrrnd","address":"4400 Roswell Road","geo_precision":"range","state":"GA"},"type":"Feature","geometry":{"type":"Point","coordinates":[-84.422407,33.985881]}},{"properties":{"name":"Ronald &amp; Mary Davenport","city":"Brick","store number":"1007D","zip":"8724","geo_score":0.854,"id":"agyi6xgpjxw3","address":"2085 Route 88","geo_precision":"range","state":"NJ"},"type":"Feature","geometry":{"type":"Point","coordinates":[-74.104823,40.075732]}},{"properties":{"name":"Bryan &amp; Colleen Davenport","city":"Manasquan","store number":"1011A","zip":"8736","geo_score":0.78,"id":"agyi6xe53pni","address":"2627 Highway 70","geo_precision":"range","state":"NJ"},"type":"Feature","geometry":{"type":"Point","coordinates":[-74.074602,40.111448]}},{"properties":{"name":"Chris Daniels","city":"Charlotte","store number":"3027C","zip":"28262","geo_score":1.0,"id":"agyi6xdkxu4i","address":"9211-12 North Tryon St.","geo_precision":"range","state":"NC"},"type":"Feature","geometry":{"type":"Point","coordinates":[-80.742461,35.313361]}},{"properties":{"name":"Wanda Dail","city":"Okeechobee","store number":"13035A","zip":"34972","geo_score":0.779,"id":"agyi6xahwhop","address":"611 South West Park St.","geo_precision":"street","state":"FL"},"type":"Feature","geometry":{"type":"Point","coordinates":[-80.839147,27.243133]}},{"properties":{"name":"Majid Dadmehr","city":"Acworth","store number":"5035B","zip":"30101","geo_score":0.571,"id":"agyi6x9o9kvz","address":"3330 N. Cobb Pkwy.","geo_precision":"street","state":"GA"},"type":"Feature","geometry":{"type":"Point","coordinates":[-84.671364,34.033584]}},{"properties":{"name":"Jeffrey Cunningham","city":"Easley","store number":"7043","zip":"29640","geo_score":0.667,"id":"agyi6x9e8xv1","address":"125 Rolling Hills Circle","geo_precision":"range","state":"SC"},"type":"Feature","geometry":{"type":"Point","coordinates":[-83.050781,34.652879]}},{"properties":{"name":"Suzanna Culp","city":"Greenville","store number":"7018","zip":"29607","geo_score":1.0,"id":"agyi6xa45v1h","address":"1507 Woodruff Road","geo_precision":"range","state":"SC"},"type":"Feature","geometry":{"type":"Point","coordinates":[-82.278296,34.820057]}},{"properties":{"name":"Suzanna Culp","city":"Greenville","store number":"7017A","zip":"29615","geo_score":1.0,"id":"agyi6x75im7k","address":"215 Pelham Rd.","geo_precision":"range","state":"SC"},"type":"Feature","geometry":{"type":"Point","coordinates":[-82.348591,34.866546]}},{"properties":{"name":"Suzanna Culp","city":"Simpsonville","store number":"7020","zip":"29680","geo_score":0.951,"id":"agyi6x0nq4nn","address":"325 Harrison Bridge Rd.","geo_precision":"range","state":"SC"},"type":"Feature","geometry":{"type":"Point","coordinates":[-82.244658,34.704537]}},{"properties":{"name":"Steven J. Cullen","city":"Austin","store number":"15007","zip":"78726","geo_score":0.806,"id":"agyi6x1x0lnn","address":"11521 FM 620 North","geo_precision":"street","state":"TX"},"type":"Feature","geometry":{"type":"Point","coordinates":[-97.829012,30.45195]}},{"properties":{"name":"Steven J. Cullen","city":"Austin","store number":"15003","zip":"78759","geo_score":1.0,"id":"agyi6x1ftegr","address":"10001 Research Blvd.","geo_precision":"range","state":"TX"},"type":"Feature","geometry":{"type":"Point","coordinates":[-97.745598,30.391854]}},{"properties":{"name":"Steven J. Cullen","city":"Austin","store number":"15009","zip":"78748","geo_score":0.585,"id":"agyi6x7upnay","address":"9500 South IH-35","geo_precision":"zip","state":"TX"},"type":"Feature","geometry":{"type":"Point","coordinates":[-97.823854,30.16696]}},{"properties":{"name":"Michael Cullen","city":"Austin","store number":"15048","zip":"78757","geo_score":1.0,"id":"agyi6x1zn854","address":"2700 West Anderson Lane","geo_precision":"range","state":"TX"},"type":"Feature","geometry":{"type":"Point","coordinates":[-97.73747,30.359419]}},{"properties":{"name":"Kimberly A. Crowell","city":"Gainesville","store number":"13054","zip":"32605","geo_score":0.809,"id":"agyi6xg7hqcq","address":"2015 NW 43rd Street","geo_precision":"street","state":"FL"},"type":"Feature","geometry":{"type":"Point","coordinates":[-82.388986,29.671031]}},{"properties":{"name":"Kimberly Crowell","city":"Tallahassee","store number":"13069","zip":"32308","geo_score":1.0,"id":"agyi6x9waeo1","address":"3122 Mahan Drive","geo_precision":"range","state":"FL"},"type":"Feature","geometry":{"type":"Point","coordinates":[-84.226542,30.460648]}},{"properties":{"name":"Kimberly A. Crowell","city":"Tallahassee","store number":"13047","zip":"32312","geo_score":1.0,"id":"agyi6xe99wvu","address":"1355 Market St.","geo_precision":"range","state":"FL"},"type":"Feature","geometry":{"type":"Point","coordinates":[-84.253809,30.506034]}},{"properties":{"name":"Kimberly Crowell","city":"Tallahassee","store number":"13076","zip":"32311","geo_score":0.585,"id":"agyi6x569u0w","address":"1970 Gainesborough Drive","geo_precision":"zip","state":"FL"},"type":"Feature","geometry":{"type":"Point","coordinates":[-84.135913,30.433478]}},{"properties":{"name":"Kimberly A. Crowell","city":"Tallahassee","store number":"13043","zip":"32304","geo_score":1.0,"id":"agyi6xb0sk8w","address":"1801 West Tennessee St.","geo_precision":"range","state":"FL"},"type":"Feature","geometry":{"type":"Point","coordinates":[-84.308628,30.449043]}},{"properties":{"name":"Mark Cross","city":"Wheaton","store number":"27013A","zip":"60187","geo_score":1.0,"id":"agyi6x8jioby","address":"3 Danada Square East","geo_precision":"range","state":"IL"},"type":"Feature","geometry":{"type":"Point","coordinates":[-88.101433,41.832846]}},{"properties":{"name":"Mark Cross","city":"Naperville","store number":"27001","zip":"60540","geo_score":0.333,"id":"agyi6x2fu5im","address":"2555 W. 75th Street","geo_precision":"street","state":"IL"},"type":"Feature","geometry":{"type":"Point","coordinates":[-87.991486,41.751514]}},{"properties":{"name":"Mark Cross","city":"Plainfield","store number":"27018","zip":"60585","geo_score":0.482,"id":"agyi6xefjb6u","address":"13400 S. Route 59","geo_precision":"street","state":"IL"},"type":"Feature","geometry":{"type":"Point","coordinates":[-88.201843,41.5999]}},{"properties":{"name":"Mark Cross","city":"Lisle","store number":"27016","zip":"60532","geo_score":0.878,"id":"agyi6xftpql4","address":"1032 Maple Avenue","geo_precision":"range","state":"IL"},"type":"Feature","geometry":{"type":"Point","coordinates":[-88.071901,41.786606]}},{"properties":{"name":"Mark Cross","city":"Naperville","store number":"27040","zip":"60563","geo_score":0.61,"id":"agyi6x4cenbe","address":"111 E. Ogden Avenue","geo_precision":"street","state":"IL"},"type":"Feature","geometry":{"type":"Point","coordinates":[-88.145772,41.785744]}},{"properties":{"name":"Mark Cross","city":"Aurora","store number":"27005","zip":"60504","geo_score":0.902,"id":"agyi6xf64528","address":"1147 North Eola Road","geo_precision":"street","state":"IL"},"type":"Feature","geometry":{"type":"Point","coordinates":[-88.240687,41.782851]}},{"properties":{"name":"Ralph Cox","city":"Oxnard","store number":"20004","zip":"93036","geo_score":0.585,"id":"agyi6x97f60i","address":"2041 North Oxnard Blvd.","geo_precision":"zip","state":"CA"},"type":"Feature","geometry":{"type":"Point","coordinates":[-119.21216,34.199838]}},{"properties":{"name":"Joseph Arnold Copeland","city":"Cincinnati","store number":"2038","zip":"45236","geo_score":1.0,"id":"agyi6x8317oa","address":"7346 Kenwood Rd.","geo_precision":"range","state":"OH"},"type":"Feature","geometry":{"type":"Point","coordinates":[-84.380475,39.197192]}},{"properties":{"name":"Joseph Arnold Copeland","city":"Mason","store number":"2019A","zip":"45040","geo_score":1.0,"id":"agyi6xawhvaf","address":"6651 Western Row Road","geo_precision":"range","state":"OH"},"type":"Feature","geometry":{"type":"Point","coordinates":[-84.33101,39.337279]}},{"properties":{"name":"James Connolly","city":"Pinellas Park","store number":"13074","zip":"33781","geo_score":0.947,"id":"agyi6xgqo6u6","address":"7066  US Highway 19 North","geo_precision":"range","state":"FL"},"type":"Feature","geometry":{"type":"Point","coordinates":[-82.682185,27.83678]}},{"properties":{"name":"James Connolly","city":"St. Petersburg","store number":"13056","zip":"33716","geo_score":0.783,"id":"agyi6x2lfvvb","address":"10304 Roosevelt Boulevard North","geo_precision":"street","state":"FL"},"type":"Feature","geometry":{"type":"Point","coordinates":[-82.645009,27.868395]}},{"properties":{"name":"Richard Comer","city":"Charles Town","store number":"26001","zip":"25414","geo_score":0.672,"id":"agyi6x8xtknw","address":"71-C Jefferson Crossing Way","geo_precision":"street","state":"WV"},"type":"Feature","geometry":{"type":"Point","coordinates":[-77.888297,39.329325]}},{"properties":{"name":"Scott Coleman","city":"Boca Raton","store number":"13058","zip":"33431","geo_score":0.61,"id":"agyi6x0p6xei","address":"1200 Yamato Rd.","geo_precision":"street","state":"FL"},"type":"Feature","geometry":{"type":"Point","coordinates":[-80.150241,26.394119]}},{"properties":{"name":"Todd Cohen","city":"Fairfax","store number":"6028","zip":"22030","geo_score":1.0,"id":"agyi6xdvhhzx","address":"10394 Willard Way","geo_precision":"range","state":"VA"},"type":"Feature","geometry":{"type":"Point","coordinates":[-77.304729,38.84746]}},{"properties":{"name":"Eric Clark","city":"Grovetown","store number":"5045","zip":"30813","geo_score":0.585,"id":"agyi6x6mr3gn","address":"4010 Gateway Blvd.","geo_precision":"zip","state":"GA"},"type":"Feature","geometry":{"type":"Point","coordinates":[-82.213991,33.466721]}},{"properties":{"name":"Eric Clark","city":"Martinez","store number":"5050","zip":"30907","geo_score":0.98,"id":"agyi6xdz9vtl","address":"403 Fury's Ferry Rd.","geo_precision":"range","state":"GA"},"type":"Feature","geometry":{"type":"Point","coordinates":[-82.074486,33.529715]}},{"properties":{"name":"Daniel R. Ciscel","city":"Huntington Beach","store number":"20014","zip":"92646","geo_score":1.0,"id":"agyi6x0qt0d0","address":"10035 Adams Avenue","geo_precision":"range","state":"CA"},"type":"Feature","geometry":{"type":"Point","coordinates":[-117.951731,33.672418]}},{"properties":{"name":"Daniel R. Ciscel","city":"Westminster","store number":"20090","zip":"92685","geo_score":0.683,"id":"agyi6xgqp220","address":"16470 Beach Blvd.","geo_precision":"street","state":"CA"},"type":"Feature","geometry":{"type":"Point","coordinates":[-117.98909,33.72296]}},{"properties":{"name":"Daniel R. Ciscel","city":"Huntington Beach","store number":"20094","zip":"92648","geo_score":1.0,"id":"agyi6x2fssg9","address":"21004 Beach Blvd.","geo_precision":"range","state":"CA"},"type":"Feature","geometry":{"type":"Point","coordinates":[-117.988116,33.654075]}},{"properties":{"name":"Daniel R. Ciscel","city":"Huntington Beach","store number":"20087","zip":"92647","geo_score":0.805,"id":"agyi6x69zten","address":"6041 Bolsa Ave.","geo_precision":"range","state":"CA"},"type":"Feature","geometry":{"type":"Point","coordinates":[-118.023183,33.744469]}},{"properties":{"name":"Daniel R. Ciscel","city":"Irvine","store number":"20047","zip":"92606","geo_score":0.948,"id":"agyi6xf6j9b0","address":"16525-G Von Karman Avenue","geo_precision":"range","state":"CA"},"type":"Feature","geometry":{"type":"Point","coordinates":[-117.838552,33.693424]}},{"properties":{"name":"Cindy &amp; Tim Christman","city":"Mooresville","store number":"3043A","zip":"28117","geo_score":1.0,"id":"agyi6xem161m","address":"647 Brawley School Road","geo_precision":"range","state":"NC"},"type":"Feature","geometry":{"type":"Point","coordinates":[-80.875809,35.582629]}},{"properties":{"name":"Joe Christensen","city":"Wilmington","store number":"3011A","zip":"28403","geo_score":1.0,"id":"agyi6x998l6h","address":"343-4 South College Rd.","geo_precision":"range","state":"NC"},"type":"Feature","geometry":{"type":"Point","coordinates":[-77.874826,34.233449]}},{"properties":{"name":"Joe Christensen","city":"Wilmington","store number":"3067A","zip":"28412","geo_score":0.969,"id":"agyi6x728y97","address":"3905 G Independence Blvd.","geo_precision":"range","state":"NC"},"type":"Feature","geometry":{"type":"Point","coordinates":[-77.927201,34.173344]}},{"properties":{"name":"Leisha Cherry","city":"Ft. Myers","store number":"13021A","zip":"33907","geo_score":0.529,"id":"agyi6x7mcwrw","address":"12377 S. Cleveland Ave","geo_precision":"street","state":"FL"},"type":"Feature","geometry":{"type":"Point","coordinates":[-81.871984,26.59355]}},{"properties":{"name":"Peter Chaump","city":"Richardson","store number":"15014","zip":"75081","geo_score":0.604,"id":"agyi6xceexrf","address":"700 E. Campbell Rd.","geo_precision":"street","state":"TX"},"type":"Feature","geometry":{"type":"Point","coordinates":[-96.715424,32.975353]}},{"properties":{"name":"Roger Chappell","city":"Huntsville","store number":"12003A","zip":"35806","geo_score":0.945,"id":"agyi6xajk8wm","address":"6290 University Dr.","geo_precision":"range","state":"AL"},"type":"Feature","geometry":{"type":"Point","coordinates":[-86.683881,34.746051]}},{"properties":{"name":"Tom Chambers","city":"Denver","store number":"22001","zip":"80203","geo_score":1.0,"id":"agyi6xbfneee","address":"555 Broadway","geo_precision":"range","state":"CO"},"type":"Feature","geometry":{"type":"Point","coordinates":[-104.987532,39.724812]}},{"properties":{"name":"Tom Chambers","city":"Edgewater","store number":"22002","zip":"80214","geo_score":0.78,"id":"agyi6x1fd8lz","address":"2255 Sheridan Blvd.","geo_precision":"range","state":"CO"},"type":"Feature","geometry":{"type":"Point","coordinates":[-105.053149,39.750868]}},{"properties":{"name":"Tom Chambers","city":"Westminster","store number":"22003","zip":"80234","geo_score":0.481,"id":"agyi6xglvues","address":"12003 N. Pecos Street","geo_precision":"street","state":"CO"},"type":"Feature","geometry":{"type":"Point","coordinates":[-105.006425,39.890327]}},{"properties":{"name":"Tom Chambers","city":"Greenwood Village","store number":"22005","zip":"80111","geo_score":0.925,"id":"agyi6xbk7m67","address":"5137 South Yosemite St.","geo_precision":"range","state":"CO"},"type":"Feature","geometry":{"type":"Point","coordinates":[-104.885404,39.622778]}},{"properties":{"name":"Tom Chambers","city":"Lakewood","store number":"22004","zip":"80226","geo_score":0.915,"id":"agyi6xb4z29g","address":"105 Wadsworth Blvd","geo_precision":"range","state":"CO"},"type":"Feature","geometry":{"type":"Point","coordinates":[-105.081568,39.719265]}},{"properties":{"name":"Raul Ceide","city":"Winter Garden","store number":"13071","zip":"34787","geo_score":0.805,"id":"agyi6x0y5oll","address":"3310 Daniels Road","geo_precision":"street","state":"FL"},"type":"Feature","geometry":{"type":"Point","coordinates":[-81.5835,28.54879]}},{"properties":{"name":"Raul Ceide","city":"Orlando","store number":"13048","zip":"32819","geo_score":1.0,"id":"agyi6x9btf77","address":"3042 West Sand Lake Road","geo_precision":"range","state":"FL"},"type":"Feature","geometry":{"type":"Point","coordinates":[-81.422515,28.45032]}},{"properties":{"name":"Raul Ceide","city":"Orlando","store number":"13068","zip":"32801","geo_score":0.61,"id":"agyi6x79hxee","address":"54 W. Church Street","geo_precision":"street","state":"FL"},"type":"Feature","geometry":{"type":"Point","coordinates":[-81.379888,28.540343]}},{"properties":{"name":"Raul Ceide","city":"Orlando","store number":"13020A","zip":"32835","geo_score":1.0,"id":"agyi6x96apbc","address":"6700 Conroy Rd","geo_precision":"range","state":"FL"},"type":"Feature","geometry":{"type":"Point","coordinates":[-81.473238,28.493691]}},{"properties":{"name":"Raul Ceide","city":"Orlando","store number":"13064","zip":"32837","geo_score":0.727,"id":"agyi6x8zuvis","address":"13651 Hunters Oak Dr.","geo_precision":"street","state":"FL"},"type":"Feature","geometry":{"type":"Point","coordinates":[-81.400553,28.378556]}},{"properties":{"name":"Ed Castaneda","city":"Laguna Woods","store number":"20022","zip":"92637","geo_score":0.892,"id":"agyi6xdxugxf","address":"24365-A El Toro Road","geo_precision":"range","state":"CA"},"type":"Feature","geometry":{"type":"Point","coordinates":[-117.727153,33.609363]}},{"properties":{"name":"Ed Castaneda","city":"Orange","store number":"20054","zip":"92867","geo_score":0.604,"id":"agyi6x819cbb","address":"1545 E. Katella Ave.","geo_precision":"street","state":"CA"},"type":"Feature","geometry":{"type":"Point","coordinates":[-117.855897,33.809052]}},{"properties":{"name":"Marcus Sledge","city":"Cary","store number":"3133","zip":"27513","geo_score":0.425,"id":"agyi6xfuz21b","address":"2055 Renaissance Park Place","geo_precision":"street","state":"NC"},"type":"Feature","geometry":{"type":"Point","coordinates":[-79.045052,35.91559]}},{"properties":{"name":"Rob Cancro","city":"Parkland","store number":"13078","zip":"33073","geo_score":0.925,"id":"agyi6x7lh853","address":"7011 N State Road 7","geo_precision":"range","state":"FL"},"type":"Feature","geometry":{"type":"Point","coordinates":[-80.202756,26.317745]}},{"properties":{"name":"Scott Coleman","city":"Coral Springs","store number":"13079","zip":"33073","geo_score":0.91,"id":"agyi6x5zazjl","address":"4230 North State Rd 7","geo_precision":"range","state":"FL"},"type":"Feature","geometry":{"type":"Point","coordinates":[-80.201904,26.281731]}},{"properties":{"name":"Rob Cancro","city":"Lavallette","store number":"1039","zip":"8735","geo_score":0.931,"id":"agyi6x0mlsoz","address":"604 Grand Central","geo_precision":"range","state":"NJ"},"type":"Feature","geometry":{"type":"Point","coordinates":[-74.068512,39.97338]}},{"properties":{"name":"John Cancro","city":"Point Pleasant Beach","store number":"1012","zip":"8742","geo_score":1.0,"id":"agyi6xgk22qq","address":"901 Richmond Avenue","geo_precision":"range","state":"NJ"},"type":"Feature","geometry":{"type":"Point","coordinates":[-74.049236,40.087937]}},{"properties":{"name":"Cathy Cancro","city":"Wall","store number":"1002","zip":"7719","geo_score":0.575,"id":"agyi6x0fol5u","address":"1933 Highway 35 &amp; Allaire Road","geo_precision":"street","state":"NJ"},"type":"Feature","geometry":{"type":"Point","coordinates":[-74.0275,40.182074]}},{"properties":{"name":"Robert L. Cady","city":"Columbus","store number":"2042","zip":"43221","geo_score":0.941,"id":"agyi6xbo83a0","address":"1293 West Lane Ave.","geo_precision":"range","state":"OH"},"type":"Feature","geometry":{"type":"Point","coordinates":[-83.041657,40.007034]}},{"properties":{"name":"Ken Bynum","city":"Delray Beach","store number":"13001B","zip":"33483","geo_score":1.0,"id":"agyi6xafnryh","address":"1554 South Federal Highway","geo_precision":"range","state":"FL"},"type":"Feature","geometry":{"type":"Point","coordinates":[-80.067045,26.446878]}},{"properties":{"name":"Dan Burrell","city":"Oxnard","store number":"20009A","zip":"93033","geo_score":0.902,"id":"agyi6x1de8rv","address":"2721 South Rose Ave.","geo_precision":"range","state":"CA"},"type":"Feature","geometry":{"type":"Point","coordinates":[-119.159997,34.182084]}},{"properties":{"name":"Dan Burrell","city":"Long Beach","store number":"20025","zip":"90831","geo_score":0.957,"id":"agyi6x0as4vi","address":"One World Trade Center","geo_precision":"street","state":"CA"},"type":"Feature","geometry":{"type":"Point","coordinates":[-118.199374,33.767319]}},{"properties":{"name":"Dan Burrell","city":"Ventura","store number":"20100","zip":"93003","geo_score":1.0,"id":"agyi6xd8uvt3","address":"3301 East Main St","geo_precision":"range","state":"CA"},"type":"Feature","geometry":{"type":"Point","coordinates":[-119.247534,34.265434]}},{"properties":{"name":"Dan Burrell","city":"Arroyo Grande","store number":"20029","zip":"93420","geo_score":0.947,"id":"agyi6x0d10f6","address":"1540 E Grand Ave.","geo_precision":"range","state":"CA"},"type":"Feature","geometry":{"type":"Point","coordinates":[-120.606186,35.120869]}},{"properties":{"name":"Dan Burrell","city":"Thousand Oaks","store number":"20048","zip":"91360","geo_score":0.614,"id":"agyi6xcmpnim","address":"605 E. Janss Road","geo_precision":"street","state":"CA"},"type":"Feature","geometry":{"type":"Point","coordinates":[-118.873611,34.200497]}},{"properties":{"name":"Dan Burrell","city":"Camarillo","store number":"20001","zip":"93010","geo_score":0.614,"id":"agyi6xamsans","address":"370 N. Lantana","geo_precision":"street","state":"CA"},"type":"Feature","geometry":{"type":"Point","coordinates":[-119.054237,34.232946]}},{"properties":{"name":"Dan Burrell","city":"Newbury Park","store number":"20013","zip":"91320","geo_score":1.0,"id":"agyi6x3locgf","address":"1610-2 Newbury Rd","geo_precision":"range","state":"CA"},"type":"Feature","geometry":{"type":"Point","coordinates":[-118.916276,34.183891]}},{"properties":{"name":"Dan Burrell","city":"Westlake Village","store number":"20011","zip":"91362","geo_score":0.477,"id":"agyi6x4s03wk","address":"3825 E. Thousand Oaks Blvd.","geo_precision":"street","state":"CA"},"type":"Feature","geometry":{"type":"Point","coordinates":[-118.874018,34.179148]}},{"properties":{"name":"Dan Burrell","city":"Ventura","store number":"20003","zip":"93003","geo_score":0.602,"id":"agyi6x764nh6","address":"1145 S. Victoria Avenue","geo_precision":"street","state":"CA"},"type":"Feature","geometry":{"type":"Point","coordinates":[-119.214447,34.275587]}},{"properties":{"name":"Dan Burrell","city":"Ojai","store number":"20006","zip":"93023","geo_score":0.614,"id":"agyi6x6si0uy","address":"423 E. Ojai Ave.","geo_precision":"street","state":"CA"},"type":"Feature","geometry":{"type":"Point","coordinates":[-119.249394,34.447489]}},{"properties":{"name":"Dan Burrell","city":"Santa Maria","store number":"20023","zip":"93455","geo_score":0.805,"id":"agyi6x9uqc6f","address":"2358 S Bradley Rd","geo_precision":"street","state":"CA"},"type":"Feature","geometry":{"type":"Point","coordinates":[-120.418523,34.909214]}},{"properties":{"name":"Ken Bullivant","city":"Middletown","store number":"1004","zip":"7748","geo_score":0.854,"id":"agyi6x7e0bsk","address":"1209 Route 35","geo_precision":"range","state":"NJ"},"type":"Feature","geometry":{"type":"Point","coordinates":[-74.113607,40.398588]}},{"properties":{"name":"Luther Scott Buckner","city":"Lynchburg","store number":"6018","zip":"24502","geo_score":1.0,"id":"agyi6xcacrz3","address":"3919 Wards Road","geo_precision":"range","state":"VA"},"type":"Feature","geometry":{"type":"Point","coordinates":[-79.183613,37.352888]}},{"properties":{"name":"William Spencer Bryant","city":"Bowie","store number":"28006","zip":"20715","geo_score":1.0,"id":"agyi6x4oua9j","address":"6844 Race Track Road","geo_precision":"range","state":"MD"},"type":"Feature","geometry":{"type":"Point","coordinates":[-76.729571,38.984106]}},{"properties":{"name":"William C. Brown","city":"Statesboro","store number":"5049","zip":"30458","geo_score":0.806,"id":"agyi6x925rq7","address":"721 South Main Street","geo_precision":"street","state":"GA"},"type":"Feature","geometry":{"type":"Point","coordinates":[-81.785007,32.432877]}},{"properties":{"name":"William C. Brown","city":"Bluffton","store number":"7039","zip":"29910","geo_score":1.0,"id":"agyi6x99xu7i","address":"1019 Fording Island Road","geo_precision":"range","state":"SC"},"type":"Feature","geometry":{"type":"Point","coordinates":[-80.850524,32.25772]}},{"properties":{"name":"William C. Brown","city":"Hilton Head","store number":"7049","zip":"29928","geo_score":0.962,"id":"agyi6x2vgbru","address":"11 Palmetto Bay Road","geo_precision":"range","state":"SC"},"type":"Feature","geometry":{"type":"Point","coordinates":[-80.764504,32.157834]}},{"properties":{"name":"Kevin Brown","city":"Oklahoma City","store number":"23008A","zip":"73128","geo_score":0.741,"id":"agyi6xbqx9sq","address":"6815 SW 3rd Street","geo_precision":"street","state":"OK"},"type":"Feature","geometry":{"type":"Point","coordinates":[-97.620725,35.461583]}},{"properties":{"name":"Kevin Brown","city":"Oklahoma City","store number":"23004A","zip":"73106","geo_score":0.941,"id":"agyi6xe5yi47","address":"1630 NW 23rd Street","geo_precision":"range","state":"OK"},"type":"Feature","geometry":{"type":"Point","coordinates":[-97.537916,35.493197]}},{"properties":{"name":"Kathrine A. Brown","city":"Spring","store number":"15051","zip":"77388","geo_score":1.0,"id":"agyi6x8bcnrt","address":"2150 FM 2920","geo_precision":"range","state":"TX"},"type":"Feature","geometry":{"type":"Point","coordinates":[-95.449116,30.070445]}},{"properties":{"name":"Jason Brown","city":"Highlands Ranch","store number":"22009","zip":"80126","geo_score":0.6,"id":"agyi6xao7t9r","address":"9362 S. Colorado Blvd.","geo_precision":"street","state":"CO"},"type":"Feature","geometry":{"type":"Point","coordinates":[-104.941711,39.565826]}},{"properties":{"name":"Dave Brown","city":"West Long Branch","store number":"1022B","zip":"7764","geo_score":1.0,"id":"agyi6xe3xc3z","address":"175 Monmouth Road","geo_precision":"range","state":"NJ"},"type":"Feature","geometry":{"type":"Point","coordinates":[-74.028145,40.294633]}},{"properties":{"name":"Christopher Brown","city":"Watauga","store number":"15019","zip":"76148","geo_score":0.824,"id":"agyi6xcbhw4p","address":"7608 Denton Hwy","geo_precision":"street","state":"TX"},"type":"Feature","geometry":{"type":"Point","coordinates":[-97.262063,32.874172]}},{"properties":{"name":"Christopher Brown","city":"Hurst","store number":"15027","zip":"76054","geo_score":0.805,"id":"agyi6xf156na","address":"1308 W Pipeline Rd","geo_precision":"range","state":"TX"},"type":"Feature","geometry":{"type":"Point","coordinates":[-97.202854,32.82372]}},{"properties":{"name":"Charles Brown","city":"Tulsa","store number":"23016","zip":"74133","geo_score":0.935,"id":"agyi6xfyaweg","address":"8216 E 71st St","geo_precision":"range","state":"OK"},"type":"Feature","geometry":{"type":"Point","coordinates":[-95.885147,36.06082]}},{"properties":{"name":"Cathy Brown","city":"San Diego","store number":"20043","zip":"92110","geo_score":1.0,"id":"agyi6x9jiqy7","address":"3670 Rosecrans St.","geo_precision":"range","state":"CA"},"type":"Feature","geometry":{"type":"Point","coordinates":[-117.204471,32.751681]}},{"properties":{"name":"Cathy Brown","city":"Santa Clara","store number":"20109","zip":"95054","geo_score":0.743,"id":"agyi6x7fx428","address":"3937 Rivermark Plaza","geo_precision":"street","state":"CA"},"type":"Feature","geometry":{"type":"Point","coordinates":[-121.94987,37.39684]}},{"properties":{"name":"Cathy Brown","city":"San Diego","store number":"20062","zip":"92115","geo_score":1.0,"id":"agyi6xd1oaay","address":"6083 El Cajon Blvd","geo_precision":"range","state":"CA"},"type":"Feature","geometry":{"type":"Point","coordinates":[-117.064764,32.762749]}},{"properties":{"name":"Cathy Brown","city":"San Diego","store number":"20035","zip":"92108","geo_score":1.0,"id":"agyi6x3ofhfj","address":"8590 Rio San Diego Drive","geo_precision":"range","state":"CA"},"type":"Feature","geometry":{"type":"Point","coordinates":[-117.143133,32.775268]}},{"properties":{"name":"Cathy Brown","city":"Mountain View","store number":"20115","zip":"94040","geo_score":1.0,"id":"agyi6x7031a9","address":"634 San Antonio Road","geo_precision":"range","state":"CA"},"type":"Feature","geometry":{"type":"Point","coordinates":[-122.11346,37.401387]}},{"properties":{"name":"Cathy Brown","city":"San Diego","store number":"20040","zip":"92126","geo_score":0.688,"id":"agyi6xf5qn19","address":"10764 Westview Parkway","geo_precision":"street","state":"CA"},"type":"Feature","geometry":{"type":"Point","coordinates":[-117.120548,32.917212]}},{"properties":{"name":"Cathy Brown","city":"San Diego","store number":"20086","zip":"92129","geo_score":0.317,"id":"agyi6xar83p3","address":"13173 - 6 Black Mountain Rd.","geo_precision":"street","state":"CA"},"type":"Feature","geometry":{"type":"Point","coordinates":[-117.163597,32.773719]}},{"properties":{"name":"Amy L Brown","city":"Moore","store number":"23015","zip":"73160","geo_score":0.941,"id":"agyi6x1n62og","address":"660 SW 19th Street","geo_precision":"range","state":"OK"},"type":"Feature","geometry":{"type":"Point","coordinates":[-97.496647,35.319698]}},{"properties":{"name":"Amy L. Brown","city":"Oklahoma City","store number":"23009","zip":"73116","geo_score":1.0,"id":"agyi6x1u8345","address":"6719 North May Avenue","geo_precision":"range","state":"OK"},"type":"Feature","geometry":{"type":"Point","coordinates":[-97.565759,35.539746]}},{"properties":{"name":"Amy L. Brown","city":"Oklahoma City","store number":"23012","zip":"73132","geo_score":1.0,"id":"agyi6x6vfm2c","address":"6401 Northwest Expressway","geo_precision":"range","state":"OK"},"type":"Feature","geometry":{"type":"Point","coordinates":[-97.631768,35.555003]}},{"properties":{"name":"Amy L. Brown","city":"Norman","store number":"23006","zip":"73072","geo_score":0.6,"id":"agyi6x9qkz6y","address":"1204 N. Interstate Dr.","geo_precision":"street","state":"OK"},"type":"Feature","geometry":{"type":"Point","coordinates":[-97.487723,35.219364]}},{"properties":{"name":"Steven Andrew Brooks","city":"Charleston","store number":"7013D","zip":"29407","geo_score":1.0,"id":"agyi6x1my717","address":"65A Sycamore Avenue","geo_precision":"range","state":"SC"},"type":"Feature","geometry":{"type":"Point","coordinates":[-79.990799,32.788842]}},{"properties":{"name":"Steven Andrew Brooks","city":"Charleston","store number":"7038","zip":"29412","geo_score":1.0,"id":"agyi6xe991jf","address":"520 Folly Road","geo_precision":"range","state":"SC"},"type":"Feature","geometry":{"type":"Point","coordinates":[-79.972333,32.754407]}},{"properties":{"name":"Stephen Andrew Brooks","city":"Goose Creek","store number":"7014D","zip":"29445","geo_score":0.5,"id":"agyi6xb1auiv","address":"217-A St. James Ave.","geo_precision":"street","state":"SC"},"type":"Feature","geometry":{"type":"Point","coordinates":[-80.688073,32.906673]}},{"properties":{"name":"Steven Andrew Brooks","city":"Mt. Pleasant","store number":"7021A","zip":"29464","geo_score":0.972,"id":"agyi6xd37oj7","address":"1909 N Highway 17","geo_precision":"range","state":"SC"},"type":"Feature","geometry":{"type":"Point","coordinates":[-79.825804,32.833458]}},{"properties":{"name":"Stuart Boyd","city":"Fuquay-Varina","store number":"3021B","zip":"27526","geo_score":0.667,"id":"agyi6x4hvcy2","address":"701-A N. Main St.","geo_precision":"street","state":"NC"},"type":"Feature","geometry":{"type":"Point","coordinates":[-78.799927,35.57891]}},{"properties":{"name":"Stuart Boyd","city":"Garner","store number":"3093A","zip":"27529","geo_score":1.0,"id":"agyi6x6toyn4","address":"106-1 Bratton Drive","geo_precision":"range","state":"NC"},"type":"Feature","geometry":{"type":"Point","coordinates":[-78.561842,35.611254]}},{"properties":{"name":"Kevin Bores","city":"Mankato","store number":"24002","zip":"56001","geo_score":1.0,"id":"agyi6x1jsjq6","address":"1924 Adams Street","geo_precision":"range","state":"MN"},"type":"Feature","geometry":{"type":"Point","coordinates":[-93.946658,44.170424]}},{"properties":{"name":"Kevin Bores","city":"Mankato","store number":"24005","zip":"56001","geo_score":0.6,"id":"agyi6xajaz9h","address":"500 S. Riverfront Drive","geo_precision":"street","state":"MN"},"type":"Feature","geometry":{"type":"Point","coordinates":[-94.005648,44.166153]}},{"properties":{"name":"Matthew Ryan Bohnsack","city":"Beaufort","store number":"7032A","zip":"29906","geo_score":1.0,"id":"agyi6x3cvuev","address":"272 Robert Smalls Pkwy","geo_precision":"range","state":"SC"},"type":"Feature","geometry":{"type":"Point","coordinates":[-80.72547,32.427008]}},{"properties":{"name":"David Bockstahler","city":"Greenville","store number":"7007A","zip":"29601","geo_score":1.0,"id":"agyi6xapzflh","address":"233 North Main Street","geo_precision":"range","state":"SC"},"type":"Feature","geometry":{"type":"Point","coordinates":[-82.397739,34.853525]}},{"properties":{"name":"Dave Bockstahler","city":"Clemson","store number":"7022B","zip":"29631","geo_score":1.0,"id":"agyi6x7ggyni","address":"1067 Tiger Boulevard","geo_precision":"range","state":"SC"},"type":"Feature","geometry":{"type":"Point","coordinates":[-82.849396,34.692754]}},{"properties":{"name":"Dave Bockstahler","city":"Greer","store number":"7011B","zip":"29651","geo_score":0.947,"id":"agyi6x9cgyki","address":"1311-A West Wade Hampton Blvd.","geo_precision":"range","state":"SC"},"type":"Feature","geometry":{"type":"Point","coordinates":[-82.185954,34.95139]}},{"properties":{"name":"Rodger Blake-Ward","city":"Charlotte","store number":"3126","zip":"28208","geo_score":1.0,"id":"agyi6x18y3en","address":"2908 Oak Lake Blvd.","geo_precision":"range","state":"NC"},"type":"Feature","geometry":{"type":"Point","coordinates":[-80.923098,35.19016]}},{"properties":{"name":"Rodger Blake-Ward","city":"Charlotte","store number":"3073B","zip":"28273","geo_score":0.932,"id":"agyi6xe9dzwl","address":"11112-A South Tryon St.","geo_precision":"range","state":"NC"},"type":"Feature","geometry":{"type":"Point","coordinates":[-80.962071,35.115343]}},{"properties":{"name":"Rodger Blake-Ward","city":"Rock Hill","store number":"7005C","zip":"29732","geo_score":0.805,"id":"agyi6x0scu6h","address":"735 Cherry Road","geo_precision":"street","state":"SC"},"type":"Feature","geometry":{"type":"Point","coordinates":[-80.991768,34.970027]}},{"properties":{"name":"Rodger Blake-Ward","city":"Charlotte","store number":"3018B","zip":"28210","geo_score":1.0,"id":"agyi6x101rpm","address":"10110 Johnston Road","geo_precision":"range","state":"NC"},"type":"Feature","geometry":{"type":"Point","coordinates":[-80.858353,35.094125]}},{"properties":{"name":"Rodger Blake-Ward","city":"Fort Mill","store number":"7016A","zip":"29708","geo_score":1.0,"id":"agyi6xg0qfwy","address":"1710 Gold Hill Road","geo_precision":"range","state":"SC"},"type":"Feature","geometry":{"type":"Point","coordinates":[-80.990874,35.061442]}},{"properties":{"name":"Rodger Blake-Ward","city":"Rock Hill","store number":"7006B","zip":"29732","geo_score":1.0,"id":"agyi6x6hzole","address":"2748 Celanese Road","geo_precision":"range","state":"SC"},"type":"Feature","geometry":{"type":"Point","coordinates":[-81.026446,34.975985]}},{"properties":{"name":"Rodger Blake-Ward","city":"Charlotte","store number":"3038C","zip":"28204","geo_score":0.927,"id":"agyi6xdrozap","address":"2001 East 7th Street","geo_precision":"range","state":"NC"},"type":"Feature","geometry":{"type":"Point","coordinates":[-80.816758,35.211445]}},{"properties":{"name":"Rodger Blake-Ward","city":"Cornelius","store number":"3081B","zip":"28031","geo_score":1.0,"id":"agyi6x88lxns","address":"20619 Torrence Chapel Road","geo_precision":"range","state":"NC"},"type":"Feature","geometry":{"type":"Point","coordinates":[-80.877935,35.483691]}},{"properties":{"name":"Manny Bhogal","city":"Simi Valley","store number":"20007A","zip":"93065","geo_score":1.0,"id":"agyi6xbmjqvt","address":"2790 Cochran Street","geo_precision":"range","state":"CA"},"type":"Feature","geometry":{"type":"Point","coordinates":[-118.743807,34.27899]}},{"properties":{"name":"Richard P. Bewley","city":"Kingsport","store number":"4001A","zip":"37664","geo_score":0.571,"id":"agyi6x95d0q1","address":"1127 B - N. Eastman Road","geo_precision":"street","state":"TN"},"type":"Feature","geometry":{"type":"Point","coordinates":[-82.538266,36.527188]}},{"properties":{"name":"Stephen Berry Jr.","city":"Mukilteo","store number":"18005","zip":"98275","geo_score":1.0,"id":"agyi6x7ldng5","address":"11815 Mukilteo Speedway","geo_precision":"range","state":"WA"},"type":"Feature","geometry":{"type":"Point","coordinates":[-122.288276,47.894901]}},{"properties":{"name":"Stephen Berry Jr.","city":"Redmond","store number":"18002A","zip":"98052","geo_score":0.752,"id":"agyi6x8g4l0m","address":"15230 NE 24th Street","geo_precision":"street","state":"WA"},"type":"Feature","geometry":{"type":"Point","coordinates":[-122.139364,47.631527]}},{"properties":{"name":"Stephen Berry Jr.","city":"Shoreline","store number":"18004B","zip":"98133","geo_score":0.614,"id":"agyi6xfx24cn","address":"1289 N. 205th St.","geo_precision":"street","state":"WA"},"type":"Feature","geometry":{"type":"Point","coordinates":[-122.356209,47.777766]}},{"properties":{"name":"Jeffrey Bengston","city":"Tarzana","store number":"20019","zip":"91356","geo_score":1.0,"id":"agyi6xege1ba","address":"19458 Ventura Blvd.","geo_precision":"range","state":"CA"},"type":"Feature","geometry":{"type":"Point","coordinates":[-118.557744,34.172687]}},{"properties":{"name":"Justin Barnes","city":"Kennesaw","store number":"5039","zip":"30144","geo_score":0.735,"id":"agyi6x0wkocs","address":"840 Ernest W. Barrett Pkwy NW","geo_precision":"street","state":"GA"},"type":"Feature","geometry":{"type":"Point","coordinates":[-84.561303,34.014033]}},{"properties":{"name":"Raymund Baluyut","city":"Portland","store number":"32003","zip":"97220","geo_score":1.0,"id":"agyi6x9k4omj","address":"10123 NE Cascades Parkway","geo_precision":"range","state":"OR"},"type":"Feature","geometry":{"type":"Point","coordinates":[-122.558519,45.572941]}},{"properties":{"name":"Raymund Baluyut","city":"Beaverton","store number":"32002","zip":"97008","geo_score":1.0,"id":"agyi6x8hkki1","address":"10035 SW Nimbus Avenue","geo_precision":"range","state":"OR"},"type":"Feature","geometry":{"type":"Point","coordinates":[-122.790658,45.448741]}},{"properties":{"name":"David Ball","city":"Danville","store number":"20119","zip":"94526","geo_score":1.0,"id":"agyi6xfgo9eu","address":"301 Hartz Avenue","geo_precision":"range","state":"CA"},"type":"Feature","geometry":{"type":"Point","coordinates":[-122.000844,37.822589]}},{"properties":{"name":"Adrian Baldieri","city":"Beverly Hills","store number":"20034A","zip":"90212","geo_score":1.0,"id":"agyi6xag7f9z","address":"279 South Beverly Dr.","geo_precision":"range","state":"CA"},"type":"Feature","geometry":{"type":"Point","coordinates":[-118.399142,34.064417]}},{"properties":{"name":"Leonard Babaie","city":"Van Nuys","store number":"20085","zip":"91401","geo_score":1.0,"id":"agyi6x5g61l1","address":"14441 Burbank Blvd","geo_precision":"range","state":"CA"},"type":"Feature","geometry":{"type":"Point","coordinates":[-118.448487,34.17219]}},{"properties":{"name":"Leonard Babaie","city":"Burbank","store number":"20020","zip":"91502","geo_score":0.6,"id":"agyi6x8lbsir","address":"875 N. San Fernando Blvd.","geo_precision":"street","state":"CA"},"type":"Feature","geometry":{"type":"Point","coordinates":[-118.308744,34.180839]}},{"properties":{"name":"Toussaint L. Avent  Jr.","city":"Stoney Creek","store number":"3087","zip":"27377","geo_score":0.663,"id":"agyi6xbx0fsl","address":"6307-L Burlington Rd","geo_precision":"street","state":"NC"},"type":"Feature","geometry":{"type":"Point","coordinates":[-79.608897,36.063094]}},{"properties":{"name":"William Atkins","city":"Tampa","store number":"13065","zip":"33606","geo_score":0.602,"id":"agyi6xd5onep","address":"2121 W. Kennedy Blvd.","geo_precision":"street","state":"FL"},"type":"Feature","geometry":{"type":"Point","coordinates":[-82.459657,27.947105]}},{"properties":{"name":"William Atkins","city":"Trinity","store number":"13072","zip":"34655","geo_score":0.734,"id":"agyi6xfzwzou","address":"10829 State Road 54","geo_precision":"street","state":"FL"},"type":"Feature","geometry":{"type":"Point","coordinates":[-82.635015,28.193215]}},{"properties":{"name":"Gillian Maria Armenta","city":"Granada Hills","store number":"20038","zip":"91344","geo_score":0.815,"id":"agyi6x4svigu","address":"18131 Chatsworth Street","geo_precision":"street","state":"CA"},"type":"Feature","geometry":{"type":"Point","coordinates":[-118.528112,34.26452]}},{"properties":{"name":"Martin Anderson","city":"Virginia Beach","store number":"6025","zip":"23455","geo_score":1.0,"id":"agyi6xa2td3h","address":"5832 Northampton Blvd.","geo_precision":"range","state":"VA"},"type":"Feature","geometry":{"type":"Point","coordinates":[-76.187703,36.880825]}},{"properties":{"name":"Martin Anderson","city":"Morehead City","store number":"3047A","zip":"28557","geo_score":1.0,"id":"agyi6xfm5xmb","address":"4950 Arendell Street","geo_precision":"range","state":"NC"},"type":"Feature","geometry":{"type":"Point","coordinates":[-76.78957,34.734305]}},{"properties":{"name":"Martin Anderson","city":"Norfolk","store number":"6024","zip":"23517","geo_score":0.935,"id":"agyi6x0nuybd","address":"520 West 21st Street","geo_precision":"range","state":"VA"},"type":"Feature","geometry":{"type":"Point","coordinates":[-76.292918,36.869502]}},{"properties":{"name":"Martin Anderson","city":"Chesapeake","store number":"6023","zip":"23320","geo_score":1.0,"id":"agyi6x3mv789","address":"733 Eden Way North","geo_precision":"range","state":"VA"},"type":"Feature","geometry":{"type":"Point","coordinates":[-76.240732,36.772221]}},{"properties":{"name":"Martin Anderson","city":"Virginia Beach","store number":"6019","zip":"23452","geo_score":1.0,"id":"agyi6xagkikv","address":"4224 Virginia Beach Blvd.","geo_precision":"range","state":"VA"},"type":"Feature","geometry":{"type":"Point","coordinates":[-76.120952,36.843444]}},{"properties":{"name":"Martin Anderson","city":"Norfolk","store number":"6022","zip":"23502","geo_score":0.602,"id":"agyi6xd67iwe","address":"1211 N. Military Highway","geo_precision":"street","state":"VA"},"type":"Feature","geometry":{"type":"Point","coordinates":[-76.210047,36.845737]}},{"properties":{"name":"Martin Anderson","city":"Rocky Mount","store number":"3016A","zip":"27804","geo_score":1.0,"id":"agyi6x9xwsz8","address":"1469 Hunter Hill Rd.","geo_precision":"range","state":"NC"},"type":"Feature","geometry":{"type":"Point","coordinates":[-77.820768,35.971974]}},{"properties":{"name":"Martin Anderson","city":"Virginia Beach","store number":"6031","zip":"23455","geo_score":1.0,"id":"agyi6xbu53ic","address":"1047 Independence Blvd.","geo_precision":"range","state":"VA"},"type":"Feature","geometry":{"type":"Point","coordinates":[-76.134594,36.875378]}},{"properties":{"name":"Billy Allen","city":"Oklahoma City","store number":"23014","zip":"73112","geo_score":1.0,"id":"agyi6xbwgbx2","address":"3604 N May Ave","geo_precision":"range","state":"OK"},"type":"Feature","geometry":{"type":"Point","coordinates":[-97.565596,35.506207]}},{"properties":{"name":"Arash Ainolhayat","city":"Fayetteville","store number":"3094C","zip":"28304","geo_score":0.805,"id":"agyi6xcp3hvu","address":"2043 Skibo Road","geo_precision":"range","state":"NC"},"type":"Feature","geometry":{"type":"Point","coordinates":[-78.972589,35.055102]}},{"properties":{"name":"Arash Ainolhayat","city":"Fayetteville","store number":"3071B","zip":"28311","geo_score":0.927,"id":"agyi6xcrn2hy","address":"4225-B Ramsey Street","geo_precision":"range","state":"NC"},"type":"Feature","geometry":{"type":"Point","coordinates":[-78.879925,35.118776]}},{"properties":{"name":"Fredy Acosta","city":"Loganville","store number":"5003E","zip":"30052","geo_score":1.0,"id":"agyi6x777k4l","address":"4018 Atlanta Highway","geo_precision":"range","state":"GA"},"type":"Feature","geometry":{"type":"Point","coordinates":[-83.911226,33.845994]}},{"properties":{"name":"Fredy Acosta","city":"Suwanee","store number":"5028A","zip":"30024","geo_score":0.805,"id":"agyi6xb8zuwm","address":"3463 Lawrenceville Suwanee Rd.","geo_precision":"street","state":"GA"},"type":"Feature","geometry":{"type":"Point","coordinates":[-84.04654,34.028417]}},{"properties":{"name":"Fredy Acosta","city":"Duluth","store number":"5032","zip":"30096","geo_score":0.902,"id":"agyi6xc17ai1","address":"3780 Old Norcross Rd.","geo_precision":"range","state":"GA"},"type":"Feature","geometry":{"type":"Point","coordinates":[-84.142545,33.962614]}},{"properties":{"name":"David G. Abrahams","city":"Redlands","store number":"20095","zip":"92374","geo_score":1.0,"id":"agyi6x13d7w6","address":"10040 Alabama Street","geo_precision":"range","state":"CA"},"type":"Feature","geometry":{"type":"Point","coordinates":[-117.208844,34.072881]}},{"properties":{"name":"Alvaro Garcia","city":"Upland","store number":"20114","zip":"91786","geo_score":0.602,"id":"agyi6xf8tmm2","address":"367 S. Mountain Avenue","geo_precision":"street","state":"CA"},"type":"Feature","geometry":{"type":"Point","coordinates":[-117.670138,34.092417]}},{"properties":{"name":"Alvaro Garcia","city":"La Verne","store number":"20077","zip":"91750","geo_score":1.0,"id":"agyi6xdefno9","address":"2212 Foothill Blvd.","geo_precision":"range","state":"CA"},"type":"Feature","geometry":{"type":"Point","coordinates":[-117.765163,34.113293]}},{"properties":{"name":"Alvaro Garcia","city":"Fountain Valley","store number":"20064","zip":"92708","geo_score":1.0,"id":"agyi6xbx5lgi","address":"18120 Brookhurst Street","geo_precision":"range","state":"CA"},"type":"Feature","geometry":{"type":"Point","coordinates":[-117.954119,33.69956]}},{"properties":{"name":"Alvaro Garcia","city":"Rancho Cucamonga","store number":"20060","zip":"91730","geo_score":1.0,"id":"agyi6x5y068y","address":"8880 Foothill Blvd.","geo_precision":"range","state":"CA"},"type":"Feature","geometry":{"type":"Point","coordinates":[-117.612568,34.106737]}},{"properties":{"name":"Alvaro Garcia","city":"Santa Monica","store number":"20096","zip":"90401","geo_score":1.0,"id":"agyi6xeii38w","address":"1447 Lincoln Blvd.","geo_precision":"range","state":"CA"},"type":"Feature","geometry":{"type":"Point","coordinates":[-118.490217,34.018657]}},{"properties":{"name":"Alvaro Garcia","city":"Glendora","store number":"20070","zip":"91740","geo_score":0.571,"id":"agyi6xcjhtuh","address":"865 W. Route 66","geo_precision":"street","state":"CA"},"type":"Feature","geometry":{"type":"Point","coordinates":[-117.863802,34.128675]}},{"properties":{"name":"Alvaro Garcia","city":"Santa Ana","store number":"20113","zip":"92704","geo_score":0.607,"id":"agyi6xfe6taj","address":"3941 S. Bristol Street","geo_precision":"street","state":"CA"},"type":"Feature","geometry":{"type":"Point","coordinates":[-117.885007,33.732814]}},{"properties":{"name":"Alvaro Garcia","city":"Upland","store number":"20073","zip":"91784","geo_score":0.607,"id":"agyi6x0t4pu5","address":"1945 N. Campus Ave.","geo_precision":"street","state":"CA"},"type":"Feature","geometry":{"type":"Point","coordinates":[-117.641616,34.126227]}},{"properties":{"name":"Alvaro Garcia","city":"Long Beach","store number":"20089","zip":"90815","geo_score":0.973,"id":"agyi6x4mfec5","address":"1831 Ximeno  Avenue","geo_precision":"range","state":"CA"},"type":"Feature","geometry":{"type":"Point","coordinates":[-118.13939,33.791676]}},{"properties":{"name":"Alvaro Garcia","city":"Marina del Rey","store number":"20081","zip":"90292","geo_score":1.0,"id":"agyi6xcu14wc","address":"4020 Lincoln Blvd.","geo_precision":"range","state":"CA"},"type":"Feature","geometry":{"type":"Point","coordinates":[-118.444694,33.987331]}},{"properties":{"name":"Jeffrey W. Gates","city":"Gig Harbor","store number":"18010","zip":"98335","geo_score":0.409,"id":"agyi6x7w7aky","address":"4819 Point Fosdick Drive NW","geo_precision":"street","state":"WA"},"type":"Feature","geometry":{"type":"Point","coordinates":[-122.588142,47.907958]}},{"properties":{"name":"Margaret M. Gellenbeck","city":"Raleigh","store number":"3031","zip":"27610","geo_score":1.0,"id":"agyi6xav3wb2","address":"4121-101 New Bern Avenue","geo_precision":"range","state":"NC"},"type":"Feature","geometry":{"type":"Point","coordinates":[-78.566332,35.798805]}},{"properties":{"name":"Patrick J. George","city":"Bradenton","store number":"13046","zip":"34205","geo_score":0.619,"id":"agyi6xfb6tbe","address":"4020 14th St. West","geo_precision":"street","state":"FL"},"type":"Feature","geometry":{"type":"Point","coordinates":[-82.575217,27.496122]}},{"properties":{"name":"Sean P. Getty","city":"Fairview Park","store number":"2050","zip":"44126","geo_score":0.805,"id":"agyi6x6lunnz","address":"20647 Center Ridge Road","geo_precision":"range","state":"OH"},"type":"Feature","geometry":{"type":"Point","coordinates":[-81.848863,41.462953]}},{"properties":{"name":"Salem A. Ghanem","city":"Nashville","store number":"4021","zip":"37204","geo_score":0.829,"id":"agyi6x762cfr","address":"736 Thompson Lane","geo_precision":"street","state":"TN"},"type":"Feature","geometry":{"type":"Point","coordinates":[-86.762921,36.111929]}},{"properties":{"name":"Rhonda Gibbs","city":"Columbia","store number":"7034","zip":"29229","geo_score":0.619,"id":"agyi6x8qiyo6","address":"136-3 Forum Drive","geo_precision":"range","state":"SC"},"type":"Feature","geometry":{"type":"Point","coordinates":[-80.886688,34.131424]}},{"properties":{"name":"Lauri Gibson","city":"Las Vegas","store number":"17008","zip":"89148","geo_score":0.598,"id":"agyi6xfqovxc","address":"8680 W. Warm Springs Road","geo_precision":"street","state":"NV"},"type":"Feature","geometry":{"type":"Point","coordinates":[-115.294554,36.046679]}},{"properties":{"name":"Ron Gibson","city":"Laurinburg","store number":"3114","zip":"28352","geo_score":0.585,"id":"agyi6x8p0b6m","address":"12280 McColl Road","geo_precision":"zip","state":"NC"},"type":"Feature","geometry":{"type":"Point","coordinates":[-79.50866,34.794604]}},{"properties":{"name":"Ron Gibson","city":"Pembroke","store number":"3120","zip":"28372","geo_score":0.927,"id":"agyi6x0tj7cn","address":"409 West 3rd Street","geo_precision":"range","state":"NC"},"type":"Feature","geometry":{"type":"Point","coordinates":[-79.195619,34.680961]}},{"properties":{"name":"Sean Gillespie","city":"Winter Park","store number":"13055","zip":"32792","geo_score":0.607,"id":"agyi6xb7g7io","address":"4004 N. Goldenrod Road","geo_precision":"street","state":"FL"},"type":"Feature","geometry":{"type":"Point","coordinates":[-81.27327,28.618579]}},{"properties":{"name":"Sean Gillespie","city":"Orlando","store number":"13044","zip":"32817","geo_score":1.0,"id":"agyi6xagzg37","address":"3402 Technological Ave.","geo_precision":"range","state":"FL"},"type":"Feature","geometry":{"type":"Point","coordinates":[-81.220378,28.598625]}},{"properties":{"name":"Keith A. Glynn","city":"Ft. Myers","store number":"13024","zip":"33912","geo_score":0.641,"id":"agyi6x84zkhd","address":"6810 Shoppes at Plantation Drive","geo_precision":"street","state":"FL"},"type":"Feature","geometry":{"type":"Point","coordinates":[-81.811096,26.488018]}},{"properties":{"name":"David Gonzalez","city":"Houston","store number":"15046","zip":"77049","geo_score":0.571,"id":"agyi6x945lw8","address":"5815 E. Sam Houston Parkway","geo_precision":"street","state":"TX"},"type":"Feature","geometry":{"type":"Point","coordinates":[-95.163732,29.813525]}},{"properties":{"name":"John Justin Gray","city":"Yukon","store number":"23007","zip":"73099","geo_score":0.902,"id":"agyi6xe7kl8f","address":"1600 Garth Brooks Blvd.","geo_precision":"range","state":"OK"},"type":"Feature","geometry":{"type":"Point","coordinates":[-97.760292,35.492824]}},{"properties":{"name":"Norman Greco","city":"Westfield","store number":"1025","zip":"7090","geo_score":0.614,"id":"agyi6xgolp5w","address":"144 E. Broad Street","geo_precision":"street","state":"NJ"},"type":"Feature","geometry":{"type":"Point","coordinates":[-74.35009,40.649868]}},{"properties":{"name":"Gary &amp; Carol Greenwell","city":"Louisville","store number":"10007","zip":"40299","geo_score":1.0,"id":"agyi6x76b4kf","address":"9156 Taylorsville Rd.","geo_precision":"range","state":"KY"},"type":"Feature","geometry":{"type":"Point","coordinates":[-85.588473,38.213389]}},{"properties":{"name":"Todd Gregory","city":"Los Angeles","store number":"20069","zip":"90049","geo_score":0.805,"id":"agyi6x7zm1wa","address":"12003 Wilshire Boulevard","geo_precision":"range","state":"CA"},"type":"Feature","geometry":{"type":"Point","coordinates":[-118.467501,34.044178]}},{"properties":{"name":"John Griparis","city":"Elmhurst","store number":"27010A","zip":"60126","geo_score":0.677,"id":"agyi6xd39b14","address":"297 N York Rd","geo_precision":"street","state":"IL"},"type":"Feature","geometry":{"type":"Point","coordinates":[-87.932442,41.867391]}},{"properties":{"name":"John Griparis","city":"Vernon Hills","store number":"27002","zip":"60061","geo_score":0.805,"id":"agyi6x30li7h","address":"1640 North Milwaukee Avenue","geo_precision":"street","state":"IL"},"type":"Feature","geometry":{"type":"Point","coordinates":[-87.938108,42.220631]}},{"properties":{"name":"John Griparis","city":"Blaine","store number":"24006","zip":"55449","geo_score":0.47,"id":"agyi6x8uc94i","address":"10340 Baltimore Street N.E.","geo_precision":"street","state":"MN"},"type":"Feature","geometry":{"type":"Point","coordinates":[-93.232923,45.128153]}},{"properties":{"name":"John Griparis","city":"Mount Prospect","store number":"27007","zip":"60056","geo_score":0.604,"id":"agyi6xfvorqq","address":"106 E. Kensington Rd.","geo_precision":"street","state":"IL"},"type":"Feature","geometry":{"type":"Point","coordinates":[-87.904468,42.080595]}},{"properties":{"name":"John Griparis","city":"Glenview","store number":"27015A","zip":"60025","geo_score":0.74,"id":"agyi6x0h7ola","address":"2149 Willow Road","geo_precision":"street","state":"IL"},"type":"Feature","geometry":{"type":"Point","coordinates":[-87.852043,42.101907]}},{"properties":{"name":"John Griparis","city":"Coon Rapids","store number":"24003","zip":"55448","geo_score":0.838,"id":"agyi6x8sm3uf","address":"3473 River Rapids Drive NW","geo_precision":"range","state":"MN"},"type":"Feature","geometry":{"type":"Point","coordinates":[-93.351548,45.199608]}},{"properties":{"name":"John Griparis","city":"St. Anthony Village","store number":"24001A","zip":"55418","geo_score":0.755,"id":"agyi6x84qvdk","address":"2704 Highway 88","geo_precision":"range","state":"MN"},"type":"Feature","geometry":{"type":"Point","coordinates":[-93.217225,45.016732]}},{"properties":{"name":"Miguel A. Guerra","city":"Houston","store number":"15043","zip":"77069","geo_score":0.927,"id":"agyi6xc1bm6u","address":"4765 FM 1960 Rd West","geo_precision":"range","state":"TX"},"type":"Feature","geometry":{"type":"Point","coordinates":[-95.50256,29.985585]}},{"properties":{"name":"Robert J. Guros","city":"Mishawaka","store number":"11001","zip":"46545","geo_score":0.619,"id":"agyi6x1cjqkv","address":"5718 N. Main Street","geo_precision":"street","state":"IN"},"type":"Feature","geometry":{"type":"Point","coordinates":[-86.180453,41.663047]}},{"properties":{"name":"Hector Haget","city":"Orange","store number":"20080","zip":"92868","geo_score":0.619,"id":"agyi6x0amia5","address":"763 S. Main Street","geo_precision":"street","state":"CA"},"type":"Feature","geometry":{"type":"Point","coordinates":[-117.86729,33.786069]}},{"properties":{"name":"Hector Haget","city":"Irvine","store number":"20102","zip":"92614","geo_score":1.0,"id":"agyi6x1v6jeq","address":"17917 MacArthur Boulevard","geo_precision":"range","state":"CA"},"type":"Feature","geometry":{"type":"Point","coordinates":[-117.85402,33.687813]}},{"properties":{"name":"Hector Haget","city":"Tustin","store number":"20078","zip":"92780","geo_score":1.0,"id":"agyi6x2ei3o8","address":"13681 Newport Ave.","geo_precision":"range","state":"CA"},"type":"Feature","geometry":{"type":"Point","coordinates":[-117.818295,33.742073]}},{"properties":{"name":"Hector Haget","city":"Lake Forest","store number":"20017","zip":"92610","geo_score":0.805,"id":"agyi6xa391ks","address":"45 Auto Center Drive","geo_precision":"range","state":"CA"},"type":"Feature","geometry":{"type":"Point","coordinates":[-117.723027,33.634636]}},{"properties":{"name":"Hector Haget","city":"Mission Viejo","store number":"20037","zip":"92692","geo_score":0.951,"id":"agyi6x9l7tqu","address":"25280-C Marguerite Parkway","geo_precision":"range","state":"CA"},"type":"Feature","geometry":{"type":"Point","coordinates":[-117.659188,33.594832]}},{"properties":{"name":"Hector Haget","city":"Lake Forest","store number":"20030","zip":"92630","geo_score":1.0,"id":"agyi6x747ydi","address":"23572 El Toro Road","geo_precision":"range","state":"CA"},"type":"Feature","geometry":{"type":"Point","coordinates":[-117.701472,33.619624]}},{"properties":{"name":"Josh Haines","city":"Raleigh","store number":"3002A","zip":"27612","geo_score":0.585,"id":"agyi6x6bgy1w","address":"5910-119 Duraleigh Rd.","geo_precision":"zip","state":"NC"},"type":"Feature","geometry":{"type":"Point","coordinates":[-78.675135,35.821942]}},{"properties":{"name":"John Hankinson","city":"Parsippany","store number":"1030","zip":"7054","geo_score":1.0,"id":"agyi6xch29ph","address":"317 Smith Rd.","geo_precision":"range","state":"NJ"},"type":"Feature","geometry":{"type":"Point","coordinates":[-74.41116,40.857593]}},{"properties":{"name":"John Mark Hankinson","city":"Whippany","store number":"1023","zip":"7981","geo_score":0.683,"id":"agyi6xar4atf","address":"831 Route 10 East","geo_precision":"range","state":"NJ"},"type":"Feature","geometry":{"type":"Point","coordinates":[-74.424338,40.826482]}},{"properties":{"name":"Mike Hanrahan","city":"Sumter","store number":"7015","zip":"29150","geo_score":1.0,"id":"agyi6x620gjh","address":"1222 Alice Drive","geo_precision":"range","state":"SC"},"type":"Feature","geometry":{"type":"Point","coordinates":[-80.387372,33.951695]}},{"properties":{"name":"Al Hardie","city":"Cary","store number":"3099A","zip":"27511","geo_score":0.787,"id":"agyi6xa3fre2","address":"3490 Kildare Farm Road","geo_precision":"street","state":"NC"},"type":"Feature","geometry":{"type":"Point","coordinates":[-78.787971,35.716477]}},{"properties":{"name":"Al Hardie","city":"Cary","store number":"3024A","zip":"27511","geo_score":1.0,"id":"agyi6xbyc7oa","address":"701 Cary Towne Blvd.","geo_precision":"range","state":"NC"},"type":"Feature","geometry":{"type":"Point","coordinates":[-78.764718,35.775956]}},{"properties":{"name":"Al Hardie","city":"Cary","store number":"3127","zip":"27518","geo_score":0.612,"id":"agyi6x9uehyz","address":"280 Meeting Street","geo_precision":"street","state":"NC"},"type":"Feature","geometry":{"type":"Point","coordinates":[-79.062385,35.884366]}},{"properties":{"name":"Al Hardie","city":"Cary","store number":"3005A","zip":"27513","geo_score":0.692,"id":"agyi6xdny27x","address":"957 High House Road","geo_precision":"range","state":"NC"},"type":"Feature","geometry":{"type":"Point","coordinates":[-78.173659,35.69836]}},{"properties":{"name":"William Harrison","city":"Murrells Inlet","store number":"7025","zip":"29576","geo_score":0.61,"id":"agyi6x4tcaxg","address":"4390 Hwy. 17 Bypass","geo_precision":"street","state":"SC"},"type":"Feature","geometry":{"type":"Point","coordinates":[-79.065629,33.524611]}},{"properties":{"name":"Kenneth J. Hartpence","city":"Salisbury","store number":"3037","zip":"28147","geo_score":0.286,"id":"agyi6x72z81e","address":"850 Jake Alexander Blvd.West","geo_precision":"street","state":"NC"},"type":"Feature","geometry":{"type":"Point","coordinates":[-80.818038,35.557707]}},{"properties":{"name":"Eric S. Heikkala","city":"Tualatin","store number":"32006","zip":"97062","geo_score":0.805,"id":"agyi6xe96qt8","address":"7698 SW Nyberg Road","geo_precision":"street","state":"OR"},"type":"Feature","geometry":{"type":"Point","coordinates":[-122.762945,45.38265]}},{"properties":{"name":"Eric S. Heikkala","city":"Beaverton","store number":"32001","zip":"97005","geo_score":1.0,"id":"agyi6xevd83b","address":"4105 SW 117th Ave","geo_precision":"range","state":"OR"},"type":"Feature","geometry":{"type":"Point","coordinates":[-122.797814,45.490776]}},{"properties":{"name":"John Helm","city":"Cherry Hill","store number":"1037","zip":"8002","geo_score":1.0,"id":"agyi6xa0l6j6","address":"512 Haddonfield Road","geo_precision":"range","state":"NJ"},"type":"Feature","geometry":{"type":"Point","coordinates":[-75.030934,39.934199]}},{"properties":{"name":"John Helm","city":"Brick","store number":"1026","zip":"8723","geo_score":1.0,"id":"agyi6x0tcey4","address":"602 Mantoloking Road","geo_precision":"range","state":"NJ"},"type":"Feature","geometry":{"type":"Point","coordinates":[-74.111453,40.046448]}},{"properties":{"name":"John Helm","city":"Brick","store number":"1029","zip":"8723","geo_score":0.829,"id":"agyi6xfr3u5j","address":"56 Chambers Bridge Road","geo_precision":"range","state":"NJ"},"type":"Feature","geometry":{"type":"Point","coordinates":[-74.139226,40.059342]}},{"properties":{"name":"John Helm","city":"Cinnaminson","store number":"1032","zip":"8077","geo_score":0.702,"id":"agyi6xcli2v8","address":"195 Route 130","geo_precision":"range","state":"NJ"},"type":"Feature","geometry":{"type":"Point","coordinates":[-75.010613,39.987353]}},{"properties":{"name":"John Helm","city":"Moorestown","store number":"1033","zip":"8057","geo_score":0.585,"id":"agyi6x1d4dmp","address":"1624 Nixon Drive","geo_precision":"zip","state":"NJ"},"type":"Feature","geometry":{"type":"Point","coordinates":[-74.982391,39.962335]}},{"properties":{"name":"Manuel A Hernandez","city":"Austin","store number":"15010","zip":"78749","geo_score":0.594,"id":"agyi6x1fnxcb","address":"4404 W. William Cannon","geo_precision":"street","state":"TX"},"type":"Feature","geometry":{"type":"Point","coordinates":[-97.836954,30.220663]}},{"properties":{"name":"Chris Herndon","city":"Nashville","store number":"4038","zip":"37201","geo_score":1.0,"id":"agyi6x4wvt4b","address":"211 Union Street","geo_precision":"range","state":"TN"},"type":"Feature","geometry":{"type":"Point","coordinates":[-86.778526,36.165621]}},{"properties":{"name":"Chris Herndon","city":"Nashville","store number":"4005A","zip":"37205","geo_score":0.879,"id":"agyi6xe1hffv","address":"73 White Bridge Road","geo_precision":"range","state":"TN"},"type":"Feature","geometry":{"type":"Point","coordinates":[-86.857141,36.131117]}},{"properties":{"name":"Chris Herndon","city":"Nashville","store number":"4041","zip":"37215","geo_score":1.0,"id":"agyi6xaglrr9","address":"2184 Bandywood Drive","geo_precision":"range","state":"TN"},"type":"Feature","geometry":{"type":"Point","coordinates":[-86.817592,36.104961]}},{"properties":{"name":"Chris Herndon","city":"Nashville","store number":"4010A","zip":"37221","geo_score":0.619,"id":"agyi6x5ma5eh","address":"7114 U.S.HWY 70-South","geo_precision":"street","state":"TN"},"type":"Feature","geometry":{"type":"Point","coordinates":[-86.903308,36.129462]}},{"properties":{"name":"Dale Herring","city":"Orange Park","store number":"13063","zip":"32073","geo_score":1.0,"id":"agyi6xagwke8","address":"410 Blanding Blvd.","geo_precision":"range","state":"FL"},"type":"Feature","geometry":{"type":"Point","coordinates":[-81.747491,30.163316]}},{"properties":{"name":"Dale Herring","city":"Jacksonville","store number":"13051","zip":"32205","geo_score":0.806,"id":"agyi6x70g9pf","address":"4261 Roosevelt Blvd.","geo_precision":"street","state":"FL"},"type":"Feature","geometry":{"type":"Point","coordinates":[-81.720025,30.293772]}},{"properties":{"name":"Jeff Herter","city":"Chicago","store number":"27037","zip":"60605","geo_score":0.602,"id":"agyi6x29gvgl","address":"26 E. Roosevelt Road","geo_precision":"street","state":"IL"},"type":"Feature","geometry":{"type":"Point","coordinates":[-87.629298,41.867457]}},{"properties":{"name":"Jeffrey Herter","city":"Chicago","store number":"27028","zip":"60611","geo_score":0.619,"id":"agyi6x3v6piu","address":"203 E. Ohio Street","geo_precision":"street","state":"IL"},"type":"Feature","geometry":{"type":"Point","coordinates":[-87.626747,41.892496]}},{"properties":{"name":"Scott Hiatt","city":"High Point","store number":"3055A","zip":"27262","geo_score":0.619,"id":"agyi6x9ssr49","address":"2200 N. Main St","geo_precision":"street","state":"NC"},"type":"Feature","geometry":{"type":"Point","coordinates":[-80.005783,35.957813]}},{"properties":{"name":"Scott Eugene Hiatt","city":"High Point","store number":"3090","zip":"27263","geo_score":0.619,"id":"agyi6x8tqk4c","address":"2620 S. Main Street","geo_precision":"street","state":"NC"},"type":"Feature","geometry":{"type":"Point","coordinates":[-80.005235,35.955596]}},{"properties":{"name":"Charles (Mike) Hogan Jr.","city":"Snellville","store number":"5030","zip":"30078","geo_score":0.806,"id":"agyi6x64ymid","address":"2050 Highway 124","geo_precision":"street","state":"GA"},"type":"Feature","geometry":{"type":"Point","coordinates":[-84.020005,33.857566]}},{"properties":{"name":"Timothy Holliday","city":"Colorado Springs","store number":"22010","zip":"80909","geo_score":0.602,"id":"agyi6xfxvrae","address":"737 N. Academy Blvd.","geo_precision":"street","state":"CO"},"type":"Feature","geometry":{"type":"Point","coordinates":[-104.757425,38.832858]}},{"properties":{"name":"Jeff Horn","city":"Clarksville","store number":"4012","zip":"37043","geo_score":0.951,"id":"agyi6xb5637i","address":"1960 L Madison Street","geo_precision":"range","state":"TN"},"type":"Feature","geometry":{"type":"Point","coordinates":[-87.294638,36.513557]}},{"properties":{"name":"Jeff Horn","city":"Hopkinsville","store number":"10010","zip":"42240","geo_score":0.694,"id":"agyi6x4jf7qb","address":"2413 Ft. Campbell Blvd.","geo_precision":"street","state":"KY"},"type":"Feature","geometry":{"type":"Point","coordinates":[-87.432673,36.817464]}},{"properties":{"name":"Jeff Horn","city":"Oak Grove","store number":"10011","zip":"42262","geo_score":0.408,"id":"agyi6xfzifvs","address":"16472 Ft. Campbell Blvd.","geo_precision":"street","state":"KY"},"type":"Feature","geometry":{"type":"Point","coordinates":[-87.432673,36.817464]}},{"properties":{"name":"Jeffrey L. Horn","city":"Clarksville","store number":"4039","zip":"37040","geo_score":1.0,"id":"agyi6x6pjspe","address":"2808 Wilma Rudolph Blvd.","geo_precision":"range","state":"TN"},"type":"Feature","geometry":{"type":"Point","coordinates":[-87.292922,36.58917]}},{"properties":{"name":"Jim Hudson","city":"Johnson City","store number":"4020","zip":"37604","geo_score":0.785,"id":"agyi6x92vrib","address":"2106 Mount Castle Drive","geo_precision":"street","state":"TN"},"type":"Feature","geometry":{"type":"Point","coordinates":[-82.369712,36.342611]}},{"properties":{"name":"Jim Hudson","city":"Johnson City","store number":"4002","zip":"37604","geo_score":0.752,"id":"agyi6xbf5ndc","address":"1805  West State of Franklin","geo_precision":"street","state":"TN"},"type":"Feature","geometry":{"type":"Point","coordinates":[-82.397195,36.354732]}},{"properties":{"name":"Richard Hudson","city":"Brentwood","store number":"4018C","zip":"37027","geo_score":1.0,"id":"agyi6xbm7c1k","address":"214 Ward Circle","geo_precision":"range","state":"TN"},"type":"Feature","geometry":{"type":"Point","coordinates":[-86.802343,36.031863]}},{"properties":{"name":"Jeffrey G. Hunt","city":"Winston-Salem","store number":"3062A","zip":"27105","geo_score":1.0,"id":"agyi6x5lui1t","address":"5940 University Parkway","geo_precision":"range","state":"NC"},"type":"Feature","geometry":{"type":"Point","coordinates":[-80.275864,36.186487]}},{"properties":{"name":"John Hurley","city":"Bayville","store number":"1031A","zip":"8721","geo_score":1.0,"id":"agyi6x1czus6","address":"333 Atlantic City Blvd","geo_precision":"range","state":"NJ"},"type":"Feature","geometry":{"type":"Point","coordinates":[-74.160763,39.91991]}},{"properties":{"name":"John Hurley","city":"Forked River","store number":"1009B","zip":"8731","geo_score":1.0,"id":"agyi6x43jbum","address":"1 Lacey Road","geo_precision":"range","state":"NJ"},"type":"Feature","geometry":{"type":"Point","coordinates":[-74.191985,39.841113]}},{"properties":{"name":"Alexander Ilic","city":"Lake Elsinore","store number":"20106","zip":"92532","geo_score":0.878,"id":"agyi6x8589sc","address":"31800 Grape Street","geo_precision":"range","state":"CA"},"type":"Feature","geometry":{"type":"Point","coordinates":[-117.296792,33.661767]}},{"properties":{"name":"Boris Ilic","city":"Murrieta","store number":"20067","zip":"92562","geo_score":1.0,"id":"agyi6xdh4yw2","address":"25359 Madison Avenue","geo_precision":"range","state":"CA"},"type":"Feature","geometry":{"type":"Point","coordinates":[-117.201153,33.558068]}},{"properties":{"name":"Steven Bradley Inskeep","city":"Powell","store number":"2022A","zip":"43065","geo_score":0.947,"id":"agyi6x96q3qt","address":"3958 Powell Road","geo_precision":"range","state":"OH"},"type":"Feature","geometry":{"type":"Point","coordinates":[-83.096367,40.158742]}},{"properties":{"name":"John Jett","city":"West Chester","store number":"2043","zip":"45069","geo_score":0.63,"id":"agyi6x3e9xg6","address":"7240 Towne Center Drive","geo_precision":"street","state":"OH"},"type":"Feature","geometry":{"type":"Point","coordinates":[-84.363393,39.326017]}},{"properties":{"name":"Danny Jew","city":"Houston","store number":"15001A","zip":"77005","geo_score":1.0,"id":"agyi6x9j1pp8","address":"5819 Kirby Drive","geo_precision":"range","state":"TX"},"type":"Feature","geometry":{"type":"Point","coordinates":[-95.418508,29.720449]}},{"properties":{"name":"Jeremy Jhingree","city":"Jamestown","store number":"3014B","zip":"27282","geo_score":0.602,"id":"agyi6xg2scti","address":"4835 W. Wendover Ave.","geo_precision":"street","state":"NC"},"type":"Feature","geometry":{"type":"Point","coordinates":[-79.919641,36.048656]}},{"properties":{"name":"Jeremy Jhingree","city":"Greensboro","store number":"3025A","zip":"27408","geo_score":1.0,"id":"agyi6xebrzfg","address":"2104 Georgia Street","geo_precision":"range","state":"NC"},"type":"Feature","geometry":{"type":"Point","coordinates":[-79.786693,36.10263]}},{"properties":{"name":"Jeremy Jhingree","city":"Greensboro","store number":"3052B","zip":"27408","geo_score":0.759,"id":"agyi6x48ispp","address":"2939-B Battleground Avenue","geo_precision":"street","state":"NC"},"type":"Feature","geometry":{"type":"Point","coordinates":[-79.81563,36.094429]}},{"properties":{"name":"Chris Johnson","city":"Columbia","store number":"7042","zip":"29212","geo_score":0.364,"id":"agyi6x8poaej","address":"7001 St. Andrews Road","geo_precision":"street","state":"SC"},"type":"Feature","geometry":{"type":"Point","coordinates":[-81.033461,34.047616]}},{"properties":{"name":"Chris Johnson","city":"Irmo","store number":"7027","zip":"29063","geo_score":0.958,"id":"agyi6x9ak9ql","address":"7241 Broad River Road","geo_precision":"range","state":"SC"},"type":"Feature","geometry":{"type":"Point","coordinates":[-81.157508,34.094705]}},{"properties":{"name":"Jeffrey Johnson","city":"Raleigh","store number":"3008C","zip":"27613","geo_score":1.0,"id":"agyi6x21b0s2","address":"8111 Creedmoor Rd.","geo_precision":"range","state":"NC"},"type":"Feature","geometry":{"type":"Point","coordinates":[-78.680653,35.89741]}},{"properties":{"name":"Jeffrey Johnson","city":"Raleigh","store number":"3029B","zip":"27614","geo_score":0.961,"id":"agyi6x2d8ze1","address":"1121-105 Falls River Ave.","geo_precision":"range","state":"NC"},"type":"Feature","geometry":{"type":"Point","coordinates":[-78.587752,35.907616]}},{"properties":{"name":"Thomas Dave Johnson","city":"Durham","store number":"3098B","zip":"27703","geo_score":1.0,"id":"agyi6xc1nquc","address":"2945 South Miami Blvd","geo_precision":"range","state":"NC"},"type":"Feature","geometry":{"type":"Point","coordinates":[-78.845794,35.925717]}},{"properties":{"name":"Phillip M. Jones","city":"Vista","store number":"20092","zip":"92081","geo_score":1.0,"id":"agyi6x819kt3","address":"620 Hacienda Drive","geo_precision":"range","state":"CA"},"type":"Feature","geometry":{"type":"Point","coordinates":[-117.257139,33.193412]}},{"properties":{"name":"Robert Jones","city":"Cincinnati","store number":"2003B","zip":"45209","geo_score":0.585,"id":"agyi6xaecmu2","address":"3770 Paxton Ave","geo_precision":"zip","state":"OH"},"type":"Feature","geometry":{"type":"Point","coordinates":[-84.450692,39.15471]}},{"properties":{"name":"Gerald Kallman","city":"Atlanta","store number":"5016","zip":"30319","geo_score":0.708,"id":"agyi6xa6fkz8","address":"2036 Johnson Ferry Road","geo_precision":"street","state":"GA"},"type":"Feature","geometry":{"type":"Point","coordinates":[-84.350136,33.905775]}},{"properties":{"name":"Gerald Kallman","city":"Topeka","store number":"21002","zip":"66603","geo_score":1.0,"id":"agyi6x7vxn18","address":"718 South Kansas Avenue","geo_precision":"range","state":"KS"},"type":"Feature","geometry":{"type":"Point","coordinates":[-95.674517,39.048814]}},{"properties":{"name":"Gerald Kallman","city":"Peachtree Corners","store number":"5007C","zip":"30092","geo_score":0.874,"id":"agyi6xgl8ot5","address":"6050 Peachtree Pkwy.","geo_precision":"range","state":"GA"},"type":"Feature","geometry":{"type":"Point","coordinates":[-84.232923,33.95454]}},{"properties":{"name":"Gerald Kallman","city":"Topeka","store number":"21001","zip":"66614","geo_score":1.0,"id":"agyi6x0iyxf2","address":"2121 SW Wanamaker Road","geo_precision":"range","state":"KS"},"type":"Feature","geometry":{"type":"Point","coordinates":[-95.762328,39.026541]}},{"properties":{"name":"Natalie Karpa","city":"Parker","store number":"22006","zip":"80134","geo_score":0.604,"id":"agyi6xeq0m2d","address":"18366 E. Lincoln Avenue","geo_precision":"street","state":"CO"},"type":"Feature","geometry":{"type":"Point","coordinates":[-104.866391,39.536238]}},{"properties":{"name":"Christopher Glen Kellum","city":"Madison","store number":"4028A","zip":"37115","geo_score":1.0,"id":"agyi6x6t3prc","address":"1706 Gallatin Pike N.","geo_precision":"range","state":"TN"},"type":"Feature","geometry":{"type":"Point","coordinates":[-86.700617,36.294915]}},{"properties":{"name":"Brian Kenny","city":"Oldsmar","store number":"13039","zip":"34677","geo_score":1.0,"id":"agyi6xax3mj5","address":"3860 Tampa Road","geo_precision":"range","state":"FL"},"type":"Feature","geometry":{"type":"Point","coordinates":[-82.672836,28.041937]}},{"properties":{"name":"Kevin Kenny","city":"Solana Beach","store number":"20050","zip":"92075","geo_score":1.0,"id":"agyi6xb8e3hy","address":"915 Lomas Santa Fe Dr.","geo_precision":"range","state":"CA"},"type":"Feature","geometry":{"type":"Point","coordinates":[-117.255134,32.995703]}},{"properties":{"name":"Kevin Kenny","city":"San Diego","store number":"20074","zip":"92109","geo_score":1.0,"id":"agyi6x3lr5nx","address":"1975 Garnet Ave","geo_precision":"range","state":"CA"},"type":"Feature","geometry":{"type":"Point","coordinates":[-117.234709,32.801026]}},{"properties":{"name":"Kevin Kenny","city":"La Jolla","store number":"20066","zip":"92037","geo_score":1.0,"id":"agyi6x1cdjc5","address":"7836 Herschel Avenue","geo_precision":"range","state":"CA"},"type":"Feature","geometry":{"type":"Point","coordinates":[-117.273167,32.846345]}},{"properties":{"name":"James Kern","city":"West Covina","store number":"20063","zip":"91791","geo_score":0.805,"id":"agyi6xfd29sa","address":"2536 E Workman Ave","geo_precision":"street","state":"CA"},"type":"Feature","geometry":{"type":"Point","coordinates":[-117.905053,34.075486]}},{"properties":{"name":"Garen Khodaverdian","city":"El Segundo","store number":"20105","zip":"90245","geo_score":1.0,"id":"agyi6x9ccbnl","address":"530A N Sepulveda Blvd.","geo_precision":"range","state":"CA"},"type":"Feature","geometry":{"type":"Point","coordinates":[-118.396188,33.923401]}},{"properties":{"name":"Garen Khodaverdian","city":"Hawthorne","store number":"20033","zip":"90250","geo_score":1.0,"id":"agyi6x57gd8s","address":"5342 Rosecrans Ave.","geo_precision":"range","state":"CA"},"type":"Feature","geometry":{"type":"Point","coordinates":[-118.373889,33.901755]}},{"properties":{"name":"Garen Khodaverdian","city":"Torrance","store number":"20055","zip":"90505","geo_score":1.0,"id":"agyi6x80rzw3","address":"24631 Crenshaw Blvd.","geo_precision":"range","state":"CA"},"type":"Feature","geometry":{"type":"Point","coordinates":[-118.328004,33.802812]}},{"properties":{"name":"Robert Patton Kincade","city":"Oxnard","store number":"20012","zip":"93035","geo_score":0.708,"id":"agyi6xaro51b","address":"1231 South Victoria Ave.","geo_precision":"street","state":"CA"},"type":"Feature","geometry":{"type":"Point","coordinates":[-119.213741,34.272107]}},{"properties":{"name":"Peter Knezevich","city":"Alpharetta","store number":"5005B","zip":"30005","geo_score":0.878,"id":"agyi6xflw6he","address":"4075 Old Milton Pkwy.","geo_precision":"range","state":"GA"},"type":"Feature","geometry":{"type":"Point","coordinates":[-84.239796,34.060306]}},{"properties":{"name":"Stacy Knight","city":"Bakersfield","store number":"20059","zip":"93309","geo_score":0.585,"id":"agyi6x5suud9","address":"5120 Stockdale Highway","geo_precision":"zip","state":"CA"},"type":"Feature","geometry":{"type":"Point","coordinates":[-118.905173,35.294405]}},{"properties":{"name":"Stacy Knight","city":"Bakersfield","store number":"20032","zip":"93308","geo_score":1.0,"id":"agyi6x1ficrt","address":"4715 Coffee Road","geo_precision":"range","state":"CA"},"type":"Feature","geometry":{"type":"Point","coordinates":[-119.092146,35.399962]}},{"properties":{"name":"Lori Kollar","city":"Fairfax","store number":"6033","zip":"22033","geo_score":1.0,"id":"agyi6x31hszp","address":"12703 Shoppes Lane","geo_precision":"range","state":"VA"},"type":"Feature","geometry":{"type":"Point","coordinates":[-77.386746,38.86205]}},{"properties":{"name":"Joseph E. Koon","city":"Mebane","store number":"3082B","zip":"27302","geo_score":0.585,"id":"agyi6xgeu28n","address":"102 Millstead Dr.","geo_precision":"zip","state":"NC"},"type":"Feature","geometry":{"type":"Point","coordinates":[-79.220017,36.211527]}},{"properties":{"name":"Joseph E. Koon","city":"Burlington","store number":"3033A","zip":"27215","geo_score":1.0,"id":"agyi6x9041iy","address":"2138 South Church Street","geo_precision":"range","state":"NC"},"type":"Feature","geometry":{"type":"Point","coordinates":[-79.467152,36.082367]}},{"properties":{"name":"Thomas Kuhns","city":"Newnan","store number":"5013A","zip":"30265","geo_score":0.725,"id":"agyi6x39d8sd","address":"90 Glenda Trace","geo_precision":"range","state":"GA"},"type":"Feature","geometry":{"type":"Point","coordinates":[-85.019392,33.070412]}},{"properties":{"name":"Thomas Kuhns","city":"Peachtree City","store number":"5029","zip":"30269","geo_score":0.756,"id":"agyi6xdnz9fz","address":"2729 Highway 54 West","geo_precision":"range","state":"GA"},"type":"Feature","geometry":{"type":"Point","coordinates":[-84.594783,33.396804]}},{"properties":{"name":"James Larson","city":"Lynnwood","store number":"18003","zip":"98037","geo_score":0.649,"id":"agyi6xa47lfl","address":"2701 184th St.  SW","geo_precision":"street","state":"WA"},"type":"Feature","geometry":{"type":"Point","coordinates":[-122.289173,47.832011]}},{"properties":{"name":"David Lee","city":"Los Angeles","store number":"20024A","zip":"90024","geo_score":1.0,"id":"agyi6xf69dm5","address":"1020 Glendon Ave.","geo_precision":"range","state":"CA"},"type":"Feature","geometry":{"type":"Point","coordinates":[-118.444274,34.061282]}},{"properties":{"name":"Michael K. Lee","city":"Smyrna","store number":"5020","zip":"30080","geo_score":0.951,"id":"agyi6x2k6l4q","address":"4715 South Atlanta Road","geo_precision":"range","state":"GA"},"type":"Feature","geometry":{"type":"Point","coordinates":[-84.483922,33.839324]}},{"properties":{"name":"Steve Leonard","city":"San Marcos","store number":"20053","zip":"92078","geo_score":0.837,"id":"agyi6xb1j863","address":"595 Grand Ave.","geo_precision":"street","state":"CA"},"type":"Feature","geometry":{"type":"Point","coordinates":[-117.178041,33.134524]}},{"properties":{"name":"Steve Leonard","city":"Poway","store number":"20099","zip":"92064","geo_score":1.0,"id":"agyi6xfyik1t","address":"12285 Scripps Poway Parkway","geo_precision":"range","state":"CA"},"type":"Feature","geometry":{"type":"Point","coordinates":[-117.053583,32.938495]}},{"properties":{"name":"Steve Leonard","city":"San Diego","store number":"20061","zip":"92127","geo_score":0.902,"id":"agyi6x2syt21","address":"15805 Bernardo Center Drive","geo_precision":"range","state":"CA"},"type":"Feature","geometry":{"type":"Point","coordinates":[-117.090925,33.00564]}},{"properties":{"name":"Steve Leonard","city":"Escondido","store number":"20071","zip":"92025","geo_score":1.0,"id":"agyi6x63mayz","address":"1829 S Centre City Pkwy","geo_precision":"range","state":"CA"},"type":"Feature","geometry":{"type":"Point","coordinates":[-117.075593,33.103358]}},{"properties":{"name":"Lance Steven Liptak","city":"Jupiter","store number":"13011","zip":"33458","geo_score":1.0,"id":"agyi6x3mhsra","address":"6390 West Indiantown Road","geo_precision":"range","state":"FL"},"type":"Feature","geometry":{"type":"Point","coordinates":[-80.132994,26.934456]}},{"properties":{"name":"Cheng (Steve) Liu","city":"Atlanta","store number":"5025","zip":"30341","geo_score":1.0,"id":"agyi6x8s7ojh","address":"3489A Chamblee Tucker Road","geo_precision":"range","state":"GA"},"type":"Feature","geometry":{"type":"Point","coordinates":[-84.248378,33.885525]}},{"properties":{"name":"Michael S. Longhofer","city":"Aurora","store number":"22008","zip":"80013","geo_score":1.0,"id":"agyi6x1rcjnw","address":"3571 S Tower Rd.","geo_precision":"range","state":"CO"},"type":"Feature","geometry":{"type":"Point","coordinates":[-104.772539,39.65288]}},{"properties":{"name":"Ronald P. Longo","city":"Roswell","store number":"5015","zip":"30076","geo_score":0.826,"id":"agyi6x8ufjvu","address":"665 Holcomb Bridge Road","geo_precision":"range","state":"GA"},"type":"Feature","geometry":{"type":"Point","coordinates":[-84.34189,34.034448]}},{"properties":{"name":"Paul Loupakos","city":"Philadelphia","store number":"8008","zip":"19104","geo_score":0.694,"id":"agyi6x437f3u","address":"Amtrack 30th Street Station","geo_precision":"street","state":"PA"},"type":"Feature","geometry":{"type":"Point","coordinates":[-75.183264,39.954896]}},{"properties":{"name":"Paul Loupakos","city":"Las Vegas","store number":"17010","zip":"89139","geo_score":0.805,"id":"agyi6x4qqyls","address":"5757 Wayne Newton Blvd.","geo_precision":"range","state":"NV"},"type":"Feature","geometry":{"type":"Point","coordinates":[-115.150894,36.088051]}},{"properties":{"name":"Paul Loupakos","city":"Newark","store number":"1035","zip":"7114","geo_score":0.738,"id":"agyi6x4girxu","address":"Newark Liberty International Airport","geo_precision":"street","state":"NJ"},"type":"Feature","geometry":{"type":"Point","coordinates":[-74.18444,40.70549]}},{"properties":{"name":"Bob Macko","city":"Morrisville","store number":"3013","zip":"27560","geo_score":1.0,"id":"agyi6x4duvrj","address":"962D Airport Boulevard","geo_precision":"range","state":"NC"},"type":"Feature","geometry":{"type":"Point","coordinates":[-78.819475,35.859185]}},{"properties":{"name":"Thomas James Magglos","city":"Woodland Hills","store number":"20051","zip":"91364","geo_score":1.0,"id":"agyi6xcjfewd","address":"22649 Ventura Blvd.","geo_precision":"range","state":"CA"},"type":"Feature","geometry":{"type":"Point","coordinates":[-118.620013,34.167195]}},{"properties":{"name":"Thomas James Magglos","city":"Chatsworth","store number":"20039","zip":"91311","geo_score":1.0,"id":"agyi6x5foz6l","address":"9840E Topanga Canyon Blvd.","geo_precision":"range","state":"CA"},"type":"Feature","geometry":{"type":"Point","coordinates":[-118.605883,34.249015]}},{"properties":{"name":"Danny Malamis","city":"Frederick","store number":"28003","zip":"21703","geo_score":1.0,"id":"agyi6x2op3tj","address":"5599 Spectrum Drive","geo_precision":"range","state":"MD"},"type":"Feature","geometry":{"type":"Point","coordinates":[-77.404686,39.384823]}},{"properties":{"name":"Danny Malamis","city":"Greenbelt","store number":"28007","zip":"20770","geo_score":1.0,"id":"agyi6x1n2ywb","address":"6000 Greenbelt Road","geo_precision":"range","state":"MD"},"type":"Feature","geometry":{"type":"Point","coordinates":[-76.912037,38.998021]}},{"properties":{"name":"Danny Malamis","city":"Laurel","store number":"28002","zip":"20707","geo_score":1.0,"id":"agyi6x0broyo","address":"13600 Baltimore Ave.","geo_precision":"range","state":"MD"},"type":"Feature","geometry":{"type":"Point","coordinates":[-76.867894,39.07657]}},{"properties":{"name":"Danny Malamis","city":"Gaithersburg","store number":"28005","zip":"20878","geo_score":1.0,"id":"agyi6x29q4ia","address":"249 Kentlands Blvd.","geo_precision":"range","state":"MD"},"type":"Feature","geometry":{"type":"Point","coordinates":[-77.241756,39.124737]}},{"properties":{"name":"Danny Malamis","city":"Germantown","store number":"28001","zip":"20876","geo_score":0.941,"id":"agyi6xd6pygf","address":"21040-F Frederick Rd.","geo_precision":"range","state":"MD"},"type":"Feature","geometry":{"type":"Point","coordinates":[-77.245911,39.203536]}},{"properties":{"name":"Humayune Malik","city":"Delray Beach","store number":"13010B","zip":"33483","geo_score":0.867,"id":"agyi6xfg3pab","address":"455-C NE 5th Avenue","geo_precision":"range","state":"FL"},"type":"Feature","geometry":{"type":"Point","coordinates":[-80.068135,26.469842]}},{"properties":{"name":"Kevin Manna","city":"Hamilton","store number":"1024","zip":"8691","geo_score":0.585,"id":"agyi6x16jcox","address":"620 Marketplace Blvd.","geo_precision":"zip","state":"NJ"},"type":"Feature","geometry":{"type":"Point","coordinates":[-74.593949,40.219738]}},{"properties":{"name":"William Mapes","city":"Phoenix","store number":"9017","zip":"85032","geo_score":1.0,"id":"agyi6xg9bk6f","address":"4603 East Cactus Rd.","geo_precision":"range","state":"AZ"},"type":"Feature","geometry":{"type":"Point","coordinates":[-111.980408,33.598603]}},{"properties":{"name":"William Mapes","city":"Scottsdale","store number":"9009","zip":"85260","geo_score":0.589,"id":"agyi6xca8ksz","address":"15807 E. Frank Lloyd Wright","geo_precision":"street","state":"AZ"},"type":"Feature","geometry":{"type":"Point","coordinates":[-111.897646,33.632337]}},{"properties":{"name":"William Mapes","city":"Chandler","store number":"9005","zip":"85224","geo_score":0.6,"id":"agyi6xef9eu9","address":"2780 W. Chandler Blvd.","geo_precision":"street","state":"AZ"},"type":"Feature","geometry":{"type":"Point","coordinates":[-111.842745,33.306159]}},{"properties":{"name":"William Mapes","city":"Glendale","store number":"9007","zip":"85308","geo_score":1.0,"id":"agyi6xfulhq1","address":"7410 West Bell Rd.","geo_precision":"range","state":"AZ"},"type":"Feature","geometry":{"type":"Point","coordinates":[-112.218044,33.638304]}},{"properties":{"name":"William Mapes","city":"Phoenix","store number":"9006","zip":"85048","geo_score":1.0,"id":"agyi6x6iwyt3","address":"4605 East Chandler Blvd.","geo_precision":"range","state":"AZ"},"type":"Feature","geometry":{"type":"Point","coordinates":[-111.984704,33.305173]}},{"properties":{"name":"William Mapes","city":"Tempe","store number":"9002","zip":"85281","geo_score":1.0,"id":"agyi6xb5knvz","address":"555 North Scottsdale Rd.","geo_precision":"range","state":"AZ"},"type":"Feature","geometry":{"type":"Point","coordinates":[-111.926178,33.434349]}},{"properties":{"name":"William Mapes","city":"Scottsdale","store number":"9004","zip":"85254","geo_score":0.61,"id":"agyi6x0uzyeu","address":"10392 North Scottsdale Rd.","geo_precision":"street","state":"AZ"},"type":"Feature","geometry":{"type":"Point","coordinates":[-111.926117,33.489745]}},{"properties":{"name":"William Mapes","city":"Las Vegas","store number":"17012","zip":"89117","geo_score":0.597,"id":"agyi6x2hrywr","address":"8780 W. Charleston Blvd.","geo_precision":"street","state":"NV"},"type":"Feature","geometry":{"type":"Point","coordinates":[-115.243707,36.159127]}},{"properties":{"name":"William Mapes","city":"Las Vegas","store number":"17006B","zip":"89146","geo_score":0.602,"id":"agyi6x9fsckb","address":"1772 S. Rainbow Blvd.","geo_precision":"street","state":"NV"},"type":"Feature","geometry":{"type":"Point","coordinates":[-115.243707,36.159127]}},{"properties":{"name":"William Mapes","city":"Phoenix","store number":"9015","zip":"85022","geo_score":1.0,"id":"agyi6x0gy13d","address":"245 East Bell Road","geo_precision":"range","state":"AZ"},"type":"Feature","geometry":{"type":"Point","coordinates":[-112.070938,33.6402]}},{"properties":{"name":"William Mapes","city":"Phoenix","store number":"9003","zip":"85032","geo_score":1.0,"id":"agyi6x81heo9","address":"4550 East Bell Road","geo_precision":"range","state":"AZ"},"type":"Feature","geometry":{"type":"Point","coordinates":[-111.983178,33.64068]}},{"properties":{"name":"William Mapes","city":"Phoenix","store number":"9008","zip":"85058","geo_score":0.805,"id":"agyi6xbbe9ja","address":"2501 West Happy Valley Road","geo_precision":"range","state":"AZ"},"type":"Feature","geometry":{"type":"Point","coordinates":[-112.113139,33.712894]}},{"properties":{"name":"William Mapes","city":"Las Vegas","store number":"17011","zip":"89169","geo_score":1.0,"id":"agyi6x12kzs7","address":"3900 Paradise Road","geo_precision":"range","state":"NV"},"type":"Feature","geometry":{"type":"Point","coordinates":[-115.154731,36.116734]}},{"properties":{"name":"Jeffrey Marcotte","city":"Lincoln","store number":"33001","zip":"68508","geo_score":0.935,"id":"agyi6x1ecu6e","address":"210 North 14th Street","geo_precision":"range","state":"NE"},"type":"Feature","geometry":{"type":"Point","coordinates":[-96.701072,40.815729]}},{"properties":{"name":"Edmund H. Maxeiner","city":"Columbus","store number":"2024","zip":"43240","geo_score":1.0,"id":"agyi6x3ha2gg","address":"1213 Polaris Parkway","geo_precision":"range","state":"OH"},"type":"Feature","geometry":{"type":"Point","coordinates":[-82.990306,40.144082]}},{"properties":{"name":"Marie May","city":"Orange","store number":"20082","zip":"92869","geo_score":0.604,"id":"agyi6x0tpl3u","address":"3428 E. Chapman Avenue","geo_precision":"street","state":"CA"},"type":"Feature","geometry":{"type":"Point","coordinates":[-117.82842,33.78781]}},{"properties":{"name":"Keith McCarroll","city":"Cincinnati","store number":"2007","zip":"45255","geo_score":1.0,"id":"agyi6xcvf81v","address":"8138 Beechmont Avenue","geo_precision":"range","state":"OH"},"type":"Feature","geometry":{"type":"Point","coordinates":[-84.331463,39.073121]}},{"properties":{"name":"Dan McDonald","city":"Nashville","store number":"4009A","zip":"37217","geo_score":1.0,"id":"agyi6x2n8q5a","address":"2280 Murfreesboro Pike","geo_precision":"range","state":"TN"},"type":"Feature","geometry":{"type":"Point","coordinates":[-86.649583,36.088642]}},{"properties":{"name":"Dan McDonald","city":"Nashville","store number":"4025A","zip":"37211","geo_score":0.585,"id":"agyi6xbj4wd9","address":"5527 Edmonson Pike","geo_precision":"zip","state":"TN"},"type":"Feature","geometry":{"type":"Point","coordinates":[-82.758763,36.175103]}},{"properties":{"name":"Dan McDonald","city":"Franklin","store number":"4003B","zip":"37064","geo_score":1.0,"id":"agyi6xal7typ","address":"1010 Murfreesboro Rd.","geo_precision":"range","state":"TN"},"type":"Feature","geometry":{"type":"Point","coordinates":[-86.838871,35.916427]}},{"properties":{"name":"Dan McDonald","city":"Nashville","store number":"4004B","zip":"37203","geo_score":1.0,"id":"agyi6x11ai29","address":"2311 Elliston Place","geo_precision":"range","state":"TN"},"type":"Feature","geometry":{"type":"Point","coordinates":[-86.806867,36.148797]}},{"properties":{"name":"Dan McDonald","city":"Smyrna","store number":"4036","zip":"37167","geo_score":1.0,"id":"agyi6x7jt49m","address":"479 Sam Ridley Parkway West","geo_precision":"range","state":"TN"},"type":"Feature","geometry":{"type":"Point","coordinates":[-86.53251,35.996027]}},{"properties":{"name":"Michael McGuire","city":"St. Louis Park","store number":"24007","zip":"55416","geo_score":0.851,"id":"agyi6xahc51o","address":"1650 Park Place Boulevard","geo_precision":"range","state":"MN"},"type":"Feature","geometry":{"type":"Point","coordinates":[-93.349225,44.963191]}},{"properties":{"name":"Ryan McLaughlin","city":"Jacksonville","store number":"13070","zip":"32217","geo_score":1.0,"id":"agyi6xed8ec7","address":"3541-1 University Blvd West","geo_precision":"range","state":"FL"},"type":"Feature","geometry":{"type":"Point","coordinates":[-81.624117,30.262579]}},{"properties":{"name":"Ryan McLaughlin","city":"Jacksonville","store number":"13059","zip":"32207","geo_score":1.0,"id":"agyi6xghkq6u","address":"1615 Hendricks Avenue","geo_precision":"range","state":"FL"},"type":"Feature","geometry":{"type":"Point","coordinates":[-81.65426,30.307513]}},{"properties":{"name":"Ryan McLaughlin","city":"Jacksonville","store number":"13067","zip":"32246","geo_score":1.0,"id":"agyi6x4odh1v","address":"9700 Deer Lake Court","geo_precision":"range","state":"FL"},"type":"Feature","geometry":{"type":"Point","coordinates":[-81.554454,30.268145]}},{"properties":{"name":"Mike McMenaman","city":"Boynton Beach","store number":"13012","zip":"33426","geo_score":0.961,"id":"agyi6x55va1d","address":"2260 Woolbright Rd.","geo_precision":"range","state":"FL"},"type":"Feature","geometry":{"type":"Point","coordinates":[-80.089841,26.513137]}},{"properties":{"name":"Vana Mehrabian","city":"Arcadia","store number":"20076","zip":"91007","geo_score":1.0,"id":"agyi6xfzg5ex","address":"400 South Baldwin Avenue","geo_precision":"range","state":"CA"},"type":"Feature","geometry":{"type":"Point","coordinates":[-118.054255,34.134837]}},{"properties":{"name":"Vana Mehrabian","city":"Monrovia","store number":"20046","zip":"91016","geo_score":1.0,"id":"agyi6x24yhli","address":"444 West Huntington Dr.","geo_precision":"range","state":"CA"},"type":"Feature","geometry":{"type":"Point","coordinates":[-118.009199,34.140196]}},{"properties":{"name":"Mark Michalak","city":"Lake in the Hills","store number":"27009","zip":"60156","geo_score":0.607,"id":"agyi6xfmewnv","address":"285 N. Randall Road","geo_precision":"street","state":"IL"},"type":"Feature","geometry":{"type":"Point","coordinates":[-88.335472,42.181716]}},{"properties":{"name":"Mark Michalak","city":"Crystal Lake","store number":"27022","zip":"60014","geo_score":0.842,"id":"agyi6x7o769g","address":"5006 Northwest Highway","geo_precision":"range","state":"IL"},"type":"Feature","geometry":{"type":"Point","coordinates":[-88.292236,42.226099]}},{"properties":{"name":"Robert Middleton","city":"Rochester Hills","store number":"31002","zip":"48307","geo_score":0.545,"id":"agyi6xdf6w8f","address":"2670 S. Rochester Road","geo_precision":"street","state":"MI"},"type":"Feature","geometry":{"type":"Point","coordinates":[-83.133686,42.678232]}},{"properties":{"name":"Robert Middleton","city":"Shelby Township","store number":"31003","zip":"48315","geo_score":0.568,"id":"agyi6x6tbxgf","address":"12161 23 Mile Road","geo_precision":"street","state":"MI"},"type":"Feature","geometry":{"type":"Point","coordinates":[-83.48343,42.641025]}},{"properties":{"name":"Joseph Minyon","city":"Aberdeen","store number":"3102B","zip":"28315","geo_score":0.945,"id":"agyi6x72mb27","address":"1814B Sandhill Blvd.","geo_precision":"range","state":"NC"},"type":"Feature","geometry":{"type":"Point","coordinates":[-79.414852,35.154863]}},{"properties":{"name":"Joseph Minyon","city":"Fayetteville","store number":"3049A","zip":"28304","geo_score":0.977,"id":"agyi6xgnwktk","address":"3057 Boone Trail Extension","geo_precision":"range","state":"NC"},"type":"Feature","geometry":{"type":"Point","coordinates":[-78.926724,35.029425]}},{"properties":{"name":"Ryan Morganroth","city":"Cincinnati","store number":"2045A","zip":"45247","geo_score":1.0,"id":"agyi6xdh9q2w","address":"5624 Cheviot Road","geo_precision":"range","state":"OH"},"type":"Feature","geometry":{"type":"Point","coordinates":[-84.599057,39.192128]}},{"properties":{"name":"Brad Mouly","city":"Rehoboth Beach","store number":"35001","zip":"19971","geo_score":0.805,"id":"agyi6x4n2cgt","address":"18598 Coastal Highway","geo_precision":"street","state":"DE"},"type":"Feature","geometry":{"type":"Point","coordinates":[-75.129144,38.727926]}},{"properties":{"name":"Tyrone Muldowney","city":"Lawton","store number":"23013","zip":"73505","geo_score":0.922,"id":"agyi6x7rpxcy","address":"2504-A  NW Cache Road","geo_precision":"range","state":"OK"},"type":"Feature","geometry":{"type":"Point","coordinates":[-98.429513,34.623334]}},{"properties":{"name":"Tyrone Muldowney","city":"Altus","store number":"23018","zip":"73521","geo_score":0.633,"id":"agyi6xa4bqmb","address":"2221 N. Main Street","geo_precision":"street","state":"OK"},"type":"Feature","geometry":{"type":"Point","coordinates":[-99.331724,34.780508]}},{"properties":{"name":"Derek Murph","city":"San Antonio","store number":"15028","zip":"78245","geo_score":0.684,"id":"agyi6xf3n1vu","address":"8603 State Highway 151","geo_precision":"street","state":"TX"},"type":"Feature","geometry":{"type":"Point","coordinates":[-98.658943,29.438789]}},{"properties":{"name":"Derek Murph","city":"San Antonio","store number":"15029","zip":"78229","geo_score":1.0,"id":"agyi6x963fbs","address":"7970 Fredericksburg Road","geo_precision":"range","state":"TX"},"type":"Feature","geometry":{"type":"Point","coordinates":[-98.567166,29.510873]}},{"properties":{"name":"Derek Murph","city":"San Antonio","store number":"15030","zip":"78258","geo_score":1.0,"id":"agyi6x58nkr1","address":"20323 Huebner Road","geo_precision":"range","state":"TX"},"type":"Feature","geometry":{"type":"Point","coordinates":[-98.501176,29.626116]}},{"properties":{"name":"Timothy Murphy","city":"Brookfield","store number":"29001","zip":"53045","geo_score":0.633,"id":"agyi6x6lbc5a","address":"17550-C W. Bluemound Rd.","geo_precision":"street","state":"WI"},"type":"Feature","geometry":{"type":"Point","coordinates":[-88.13519,43.104628]}},{"properties":{"name":"Timothy Murphy","city":"West Milwaukee","store number":"29003","zip":"53214","geo_score":0.773,"id":"agyi6x8lovxb","address":"1232 South Miller Park Way","geo_precision":"street","state":"WI"},"type":"Feature","geometry":{"type":"Point","coordinates":[-87.967498,43.016849]}},{"properties":{"name":"Timothy Murphy","city":"Waukesha","store number":"29002","zip":"53189","geo_score":0.824,"id":"agyi6x5wxu0u","address":"1190 West Sunset Dr.","geo_precision":"street","state":"WI"},"type":"Feature","geometry":{"type":"Point","coordinates":[-88.263849,42.988436]}},{"properties":{"name":"Daniel Mustian","city":"Charlotte","store number":"3134","zip":"28216","geo_score":1.0,"id":"agyi6x8r4f1t","address":"10125 Perimeter Parkway","geo_precision":"range","state":"NC"},"type":"Feature","geometry":{"type":"Point","coordinates":[-80.854669,35.34515]}},{"properties":{"name":"James W. Myers","city":"West Palm Beach","store number":"13002B","zip":"33409","geo_score":1.0,"id":"agyi6xfu9dwi","address":"931 Village Blvd","geo_precision":"range","state":"FL"},"type":"Feature","geometry":{"type":"Point","coordinates":[-80.100252,26.714586]}},{"properties":{"name":"Riann Amy Anderson Neu","city":"Blacklick","store number":"2011C","zip":"43004","geo_score":0.811,"id":"agyi6x0vji01","address":"7175 East Broad Street","geo_precision":"street","state":"OH"},"type":"Feature","geometry":{"type":"Point","coordinates":[-82.80829,39.983326]}},{"properties":{"name":"Riann Amy Anderson Neu","city":"Heath","store number":"2020","zip":"43056","geo_score":1.0,"id":"agyi6x6tbf78","address":"609 Hebron Road","geo_precision":"range","state":"OH"},"type":"Feature","geometry":{"type":"Point","coordinates":[-82.431492,40.036281]}},{"properties":{"name":"Riann Amy Anderson Neu","city":"Pickerington","store number":"2016A","zip":"43147","geo_score":1.0,"id":"agyi6x3gxmhd","address":"1213  Hill Road North","geo_precision":"range","state":"OH"},"type":"Feature","geometry":{"type":"Point","coordinates":[-82.779885,39.914065]}},{"properties":{"name":"Jon Newton","city":"Spring Hill","store number":"4042","zip":"37174","geo_score":0.493,"id":"agyi6x569nix","address":"5018 Spedale Court","geo_precision":"street","state":"TN"},"type":"Feature","geometry":{"type":"Point","coordinates":[-86.078925,36.102208]}},{"properties":{"name":"Ray E. Neyens","city":"Kent","store number":"18001","zip":"98032","geo_score":0.619,"id":"agyi6x2pt956","address":"18119 E. Valley Highway South","geo_precision":"street","state":"WA"},"type":"Feature","geometry":{"type":"Point","coordinates":[-122.232377,47.348479]}},{"properties":{"name":"Anthony Nigito","city":"Vero Beach","store number":"13023A","zip":"32960","geo_score":0.916,"id":"agyi6x3zqm64","address":"628 21st Street","geo_precision":"range","state":"FL"},"type":"Feature","geometry":{"type":"Point","coordinates":[-80.385999,27.639829]}},{"properties":{"name":"Terry Nordenstrom","city":"Houston","store number":"15031","zip":"77077","geo_score":1.0,"id":"agyi6x2iwgbb","address":"1635 Eldridge Parkway","geo_precision":"range","state":"TX"},"type":"Feature","geometry":{"type":"Point","coordinates":[-95.625184,29.754393]}},{"properties":{"name":"Terry Nordenstrom","city":"Houston","store number":"15038","zip":"77025","geo_score":1.0,"id":"agyi6x2yswun","address":"8001 South Main St","geo_precision":"range","state":"TX"},"type":"Feature","geometry":{"type":"Point","coordinates":[-95.414864,29.693835]}},{"properties":{"name":"Terry Nordenstrom","city":"Houston","store number":"15039","zip":"77065","geo_score":0.772,"id":"agyi6xbtfaon","address":"11560 FM 1960 West","geo_precision":"street","state":"TX"},"type":"Feature","geometry":{"type":"Point","coordinates":[-95.615453,29.916802]}},{"properties":{"name":"Terry Nordenstrom","city":"Houston","store number":"15034","zip":"77007","geo_score":1.0,"id":"agyi6xaczcn9","address":"103 Yale Street","geo_precision":"range","state":"TX"},"type":"Feature","geometry":{"type":"Point","coordinates":[-95.398696,29.77149]}},{"properties":{"name":"Robert Normandin","city":"Wilmington","store number":"3032B","zip":"28411","geo_score":1.0,"id":"agyi6xearwzu","address":"8207 Market Street","geo_precision":"range","state":"NC"},"type":"Feature","geometry":{"type":"Point","coordinates":[-77.791653,34.298401]}},{"properties":{"name":"Jim Van Nostrand","city":"Point Pleasant","store number":"1008A","zip":"8742","geo_score":0.912,"id":"agyi6x742rqb","address":"2600 Bridge Avenue","geo_precision":"range","state":"NJ"},"type":"Feature","geometry":{"type":"Point","coordinates":[-74.078496,40.074058]}},{"properties":{"name":"Ryan Obman","city":"Raleigh","store number":"3101A","zip":"27614","geo_score":0.953,"id":"agyi6xbuaybq","address":"14460-113 New Falls of the Neuse Road","geo_precision":"range","state":"NC"},"type":"Feature","geometry":{"type":"Point","coordinates":[-78.541692,35.945846]}},{"properties":{"name":"John Vincent O'Donnell Jr","city":"Holly Springs","store number":"5038","zip":"30188","geo_score":0.917,"id":"agyi6x31apgk","address":"5341 Old Highway 5","geo_precision":"range","state":"GA"},"type":"Feature","geometry":{"type":"Point","coordinates":[-84.503854,34.139872]}},{"properties":{"name":"Ken Osselborn","city":"Wexford","store number":"8004A","zip":"15090","geo_score":1.0,"id":"agyi6xg963tm","address":"10640 Perry Highway","geo_precision":"range","state":"PA"},"type":"Feature","geometry":{"type":"Point","coordinates":[-80.055007,40.619745]}},{"properties":{"name":"Jill Mona Otagaki","city":"Edmond","store number":"23005","zip":"73013","geo_score":0.958,"id":"agyi6x68vzpa","address":"1724 S Broadway Extension","geo_precision":"range","state":"OK"},"type":"Feature","geometry":{"type":"Point","coordinates":[-97.491988,35.6156]}},{"properties":{"name":"Michael Ouimet","city":"Blue Ash","store number":"2002B","zip":"45241","geo_score":0.835,"id":"agyi6xgpimk3","address":"4776 Cornell Plaza","geo_precision":"range","state":"OH"},"type":"Feature","geometry":{"type":"Point","coordinates":[-84.378154,39.270666]}},{"properties":{"name":"Michael Ouimet","city":"Cincinnati","store number":"2001D","zip":"45242","geo_score":1.0,"id":"agyi6x1lgzqr","address":"9525 Kenwood Rd","geo_precision":"range","state":"OH"},"type":"Feature","geometry":{"type":"Point","coordinates":[-84.377153,39.230829]}},{"properties":{"name":"Michael Ouimet","city":"Springdale","store number":"2004C","zip":"45246","geo_score":1.0,"id":"agyi6x8ihlzf","address":"11409 Princeton Pike","geo_precision":"range","state":"OH"},"type":"Feature","geometry":{"type":"Point","coordinates":[-84.467135,39.28632]}},{"properties":{"name":"Michael Ouimet","city":"Newport","store number":"10001B","zip":"41071","geo_score":0.958,"id":"agyi6x3a1zzq","address":"86 B Carothers Rd","geo_precision":"range","state":"KY"},"type":"Feature","geometry":{"type":"Point","coordinates":[-84.483856,39.08385]}},{"properties":{"name":"Michael Ouimet","city":"Florence","store number":"10003A","zip":"41042","geo_score":0.619,"id":"agyi6x9oy1tx","address":"310 Mt. Zion Road","geo_precision":"street","state":"KY"},"type":"Feature","geometry":{"type":"Point","coordinates":[-84.623381,38.990938]}},{"properties":{"name":"Jeff Owens","city":"Wilmington","store number":"3015","zip":"28403","geo_score":1.0,"id":"agyi6x168twj","address":"1968 Eastwood Road","geo_precision":"range","state":"NC"},"type":"Feature","geometry":{"type":"Point","coordinates":[-77.820223,34.222094]}},{"properties":{"name":"Jeff Owens","city":"Leland","store number":"3129","zip":"28451","geo_score":0.454,"id":"agyi6xefwgcv","address":"2029 Olde Regent Way","geo_precision":"street","state":"NC"},"type":"Feature","geometry":{"type":"Point","coordinates":[-77.914536,34.166433]}},{"properties":{"name":"Jeff Padgett","city":"Altamonte Springs","store number":"13036","zip":"32714","geo_score":0.317,"id":"agyi6x4lgqio","address":"851 S. State Rd. 434","geo_precision":"street","state":"FL"},"type":"Feature","geometry":{"type":"Point","coordinates":[-81.279707,28.771144]}},{"properties":{"name":"Jeff Padgett","city":"Maitland","store number":"13057","zip":"32751","geo_score":0.604,"id":"agyi6x317ujv","address":"246 N. Orlando Avenue","geo_precision":"street","state":"FL"},"type":"Feature","geometry":{"type":"Point","coordinates":[-81.363495,28.625791]}},{"properties":{"name":"Jeff Padgett","city":"Altamonte Springs","store number":"13037","zip":"32701","geo_score":1.0,"id":"agyi6xdqw44p","address":"175 East Altamonte Drive","geo_precision":"range","state":"FL"},"type":"Feature","geometry":{"type":"Point","coordinates":[-81.385511,28.662027]}},{"properties":{"name":"Jeff Padgett","city":"Orlando","store number":"13053","zip":"32804","geo_score":1.0,"id":"agyi6x5e86cg","address":"2100 Edgewater Drive","geo_precision":"range","state":"FL"},"type":"Feature","geometry":{"type":"Point","coordinates":[-81.38944,28.571144]}},{"properties":{"name":"Jeff Padgett","city":"Lake Mary","store number":"13033","zip":"32746","geo_score":0.837,"id":"agyi6x5pfzam","address":"819 Rinehart Road","geo_precision":"street","state":"FL"},"type":"Feature","geometry":{"type":"Point","coordinates":[-81.347281,28.779287]}},{"properties":{"name":"Jeff Padgett","city":"Winter Park","store number":"13061","zip":"32789","geo_score":1.0,"id":"agyi6x7hnai4","address":"1150 South Orlando Ave.","geo_precision":"range","state":"FL"},"type":"Feature","geometry":{"type":"Point","coordinates":[-81.36503,28.587238]}},{"properties":{"name":"Raul Padilla","city":"Schererville","store number":"11012","zip":"46375","geo_score":0.619,"id":"agyi6x5pxfz4","address":"37 U.S. Highway 41","geo_precision":"street","state":"IN"},"type":"Feature","geometry":{"type":"Point","coordinates":[-87.471322,41.521636]}},{"properties":{"name":"Eric N Paletti","city":"Dallas","store number":"15017","zip":"75209","geo_score":0.857,"id":"agyi6x3ottcb","address":"5301 W. Lovers Lane","geo_precision":"zip","state":"TX"},"type":"Feature","geometry":{"type":"Point","coordinates":[-96.821668,32.93068]}},{"properties":{"name":"Clarissa Palomaria","city":"Brea","store number":"20031","zip":"92821","geo_score":1.0,"id":"agyi6x4bp3wq","address":"955 East Birch Street","geo_precision":"range","state":"CA"},"type":"Feature","geometry":{"type":"Point","coordinates":[-117.883395,33.917924]}},{"properties":{"name":"Mike Panarello","city":"Peters Township","store number":"8002A","zip":"15317","geo_score":0.941,"id":"agyi6x2ab0l6","address":"4123 Washington Road","geo_precision":"range","state":"PA"},"type":"Feature","geometry":{"type":"Point","coordinates":[-80.128539,40.269194]}},{"properties":{"name":"Amish Patel","city":"Chicago","store number":"27014","zip":"60606","geo_score":0.902,"id":"agyi6xc2ur65","address":"200 West Monroe Street","geo_precision":"range","state":"IL"},"type":"Feature","geometry":{"type":"Point","coordinates":[-87.63528,41.880641]}},{"properties":{"name":"Amish Patel","city":"Chicago","store number":"27025","zip":"60606","geo_score":1.0,"id":"agyi6x5rumni","address":"120 North Wells Street","geo_precision":"range","state":"IL"},"type":"Feature","geometry":{"type":"Point","coordinates":[-87.633895,41.884468]}},{"properties":{"name":"Brijesh R Patel","city":"Fairview Park","store number":"2041A","zip":"44126","geo_score":1.0,"id":"agyi6x0tc0b2","address":"21875 Lorain Road","geo_precision":"range","state":"OH"},"type":"Feature","geometry":{"type":"Point","coordinates":[-81.863959,41.441753]}},{"properties":{"name":"Dharmesh Patel","city":"Lebanon","store number":"4023A","zip":"37087","geo_score":1.0,"id":"agyi6x79ccrl","address":"1315 West Main St","geo_precision":"range","state":"TN"},"type":"Feature","geometry":{"type":"Point","coordinates":[-86.325122,36.214462]}},{"properties":{"name":"Jayesh M. Patel","city":"Raleigh","store number":"3001A","zip":"27604","geo_score":0.806,"id":"agyi6x9fxdo0","address":"4542 Capital Boulevard","geo_precision":"street","state":"NC"},"type":"Feature","geometry":{"type":"Point","coordinates":[-78.580946,35.837251]}},{"properties":{"name":"Sweeti Patel","city":"Dalton","store number":"5044","zip":"30720","geo_score":1.0,"id":"agyi6x0t55px","address":"1367 W Walnut Ave.","geo_precision":"range","state":"GA"},"type":"Feature","geometry":{"type":"Point","coordinates":[-84.992983,34.759658]}},{"properties":{"name":"Raj Patel-Manager","city":"Oswego","store number":"27027","zip":"60543","geo_score":1.0,"id":"agyi6x0om5di","address":"2428 Route 34","geo_precision":"range","state":"IL"},"type":"Feature","geometry":{"type":"Point","coordinates":[-88.306391,41.704952]}},{"properties":{"name":"Raj Patel-Manager","city":"Glen Ellyn","store number":"27033","zip":"60137","geo_score":0.602,"id":"agyi6x44npcm","address":"711 E. Roosevelt Road","geo_precision":"street","state":"IL"},"type":"Feature","geometry":{"type":"Point","coordinates":[-88.078992,41.859207]}},{"properties":{"name":"Raj Patel-Manager","city":"Romeoville","store number":"27034","zip":"60446","geo_score":0.614,"id":"agyi6x6w59n5","address":"412 S. Weber Road","geo_precision":"street","state":"IL"},"type":"Feature","geometry":{"type":"Point","coordinates":[-88.123904,41.627894]}},{"properties":{"name":"Raj Patel-Manager","city":"Bolingbrook","store number":"27023","zip":"60440","geo_score":1.0,"id":"agyi6x7reul3","address":"214 N Weber Rd","geo_precision":"range","state":"IL"},"type":"Feature","geometry":{"type":"Point","coordinates":[-88.124666,41.701398]}},{"properties":{"name":"John Patrick","city":"Bonney Lake","store number":"18007","zip":"98391","geo_score":0.548,"id":"agyi6xb37zvs","address":"21180 SR 410 East","geo_precision":"street","state":"WA"},"type":"Feature","geometry":{"type":"Point","coordinates":[-122.197728,47.183493]}},{"properties":{"name":"John Patrone","city":"Apex","store number":"3080","zip":"27523","geo_score":0.659,"id":"agyi6x6d6c36","address":"1761 Highway 55","geo_precision":"range","state":"NC"},"type":"Feature","geometry":{"type":"Point","coordinates":[-78.833189,35.675501]}},{"properties":{"name":"John Patrone","city":"Apex","store number":"3028","zip":"27502","geo_score":0.672,"id":"agyi6xcscviq","address":"922 Highway 64","geo_precision":"street","state":"NC"},"type":"Feature","geometry":{"type":"Point","coordinates":[-78.9231,35.743857]}},{"properties":{"name":"David Matthew Patterson","city":"State College","store number":"8007","zip":"16801","geo_score":1.0,"id":"agyi6x2sill6","address":"128 South Allen Street","geo_precision":"range","state":"PA"},"type":"Feature","geometry":{"type":"Point","coordinates":[-77.860447,40.79345]}},{"properties":{"name":"Christine Paul","city":"San Diego","store number":"20056","zip":"92111","geo_score":0.805,"id":"agyi6x6854d5","address":"7420 Clairemont Mesa Blvd.","geo_precision":"range","state":"CA"},"type":"Feature","geometry":{"type":"Point","coordinates":[-117.153523,32.832804]}},{"properties":{"name":"Elizabeth Peltekian","city":"Covington","store number":"18006A","zip":"98042","geo_score":0.805,"id":"agyi6xb992i4","address":"17309 SE 270th Place","geo_precision":"street","state":"WA"},"type":"Feature","geometry":{"type":"Point","coordinates":[-122.086881,47.359379]}},{"properties":{"name":"Gregory S. Pentz","city":"Gilbert","store number":"9011","zip":"85233","geo_score":0.805,"id":"agyi6x12ob7m","address":"891 E Baseline Rd","geo_precision":"range","state":"AZ"},"type":"Feature","geometry":{"type":"Point","coordinates":[-111.930687,33.378172]}},{"properties":{"name":"Gregory Pentz","city":"Mesa","store number":"9016","zip":"85204","geo_score":0.602,"id":"agyi6xbvuays","address":"1939 S. Val Vista Drive","geo_precision":"street","state":"AZ"},"type":"Feature","geometry":{"type":"Point","coordinates":[-111.753722,33.413088]}},{"properties":{"name":"Frank E. Pinckney","city":"West Columbia","store number":"7023","zip":"29169","geo_score":1.0,"id":"agyi6xaixwz5","address":"1720 Sunset Blvd.","geo_precision":"range","state":"SC"},"type":"Feature","geometry":{"type":"Point","coordinates":[-81.088567,33.998987]}},{"properties":{"name":"Lee Pines","city":"Fort Wayne","store number":"11013","zip":"46804","geo_score":0.598,"id":"agyi6x72h10l","address":"6408 W. Jefferson Blvd.","geo_precision":"street","state":"IN"},"type":"Feature","geometry":{"type":"Point","coordinates":[-85.176839,41.074094]}},{"properties":{"name":"Gregory G. Potter","city":"Shiloh","store number":"27024","zip":"62269","geo_score":0.749,"id":"agyi6xbpfjay","address":"3284 Green Mount Crossing Dr","geo_precision":"street","state":"IL"},"type":"Feature","geometry":{"type":"Point","coordinates":[-89.927944,38.572706]}},{"properties":{"name":"Brandon Powell","city":"Atlanta","store number":"5018B","zip":"30329","geo_score":0.945,"id":"agyi6xc9g6hp","address":"2470 Briarcliff Rd.","geo_precision":"range","state":"GA"},"type":"Feature","geometry":{"type":"Point","coordinates":[-84.331711,33.826949]}},{"properties":{"name":"Keith Powers","city":"Hendersonville","store number":"4015","zip":"37075","geo_score":1.0,"id":"agyi6x29p922","address":"247 West Main Street","geo_precision":"range","state":"TN"},"type":"Feature","geometry":{"type":"Point","coordinates":[-86.618248,36.305096]}},{"properties":{"name":"Bryan Price","city":"Melbourne","store number":"13040","zip":"32901","geo_score":0.699,"id":"agyi6xg8j56w","address":"1515 Palm Bay Road","geo_precision":"street","state":"FL"},"type":"Feature","geometry":{"type":"Point","coordinates":[-80.634294,28.080555]}},{"properties":{"name":"Bryan Price","city":"Melbourne","store number":"13045","zip":"32935","geo_score":0.585,"id":"agyi6x1k7quh","address":"1070 North Wickham Road","geo_precision":"zip","state":"FL"},"type":"Feature","geometry":{"type":"Point","coordinates":[-80.680583,28.210733]}},{"properties":{"name":"Bryan Price","city":"Melbourne","store number":"13052","zip":"32901","geo_score":1.0,"id":"agyi6xdw7u4m","address":"90 West Hibiscus Blvd.","geo_precision":"range","state":"FL"},"type":"Feature","geometry":{"type":"Point","coordinates":[-80.624093,28.085303]}},{"properties":{"name":"Joseph William Protokowicz","city":"Winston-Salem","store number":"3053B","zip":"27103","geo_score":1.0,"id":"agyi6x7c3tme","address":"2291 Cloverdale Ave","geo_precision":"range","state":"NC"},"type":"Feature","geometry":{"type":"Point","coordinates":[-80.277055,36.09003]}},{"properties":{"name":"Patrick Provost","city":"Hagerstown","store number":"28004","zip":"21740","geo_score":1.0,"id":"agyi6x8yuwpo","address":"18015 Garland Groh Blvd.","geo_precision":"range","state":"MD"},"type":"Feature","geometry":{"type":"Point","coordinates":[-77.745563,39.660355]}},{"properties":{"name":"Jay Punukollu","city":"Park Ridge","store number":"27041","zip":"60068","geo_score":0.863,"id":"agyi6xaef1rt","address":"147 S Northwest Hwy","geo_precision":"range","state":"IL"},"type":"Feature","geometry":{"type":"Point","coordinates":[-87.82631,42.009317]}},{"properties":{"name":"Jay Punukollu","city":"Schaumburg","store number":"27019A","zip":"60194","geo_score":0.857,"id":"agyi6x16355l","address":"2568 W. Schaumburg Rd.","geo_precision":"zip","state":"IL"},"type":"Feature","geometry":{"type":"Point","coordinates":[-88.116655,42.028926]}},{"properties":{"name":"Jay Punukollu","city":"Gurnee","store number":"27003A","zip":"60031","geo_score":1.0,"id":"agyi6xghx356","address":"7105 Grand Ave.","geo_precision":"range","state":"IL"},"type":"Feature","geometry":{"type":"Point","coordinates":[-87.981085,42.385893]}},{"properties":{"name":"Jay Punukollu","city":"Niles","store number":"27029A","zip":"60714","geo_score":1.0,"id":"agyi6x9n3ggd","address":"5691 West Touhy Ave","geo_precision":"range","state":"IL"},"type":"Feature","geometry":{"type":"Point","coordinates":[-87.769888,42.011876]}},{"properties":{"name":"Jay Punukollu","city":"Elk Grove Village","store number":"27030","zip":"60007","geo_score":1.0,"id":"agyi6xezvo7s","address":"178 Biesterfield Road","geo_precision":"range","state":"IL"},"type":"Feature","geometry":{"type":"Point","coordinates":[-88.007434,42.003616]}},{"properties":{"name":"Jay Punukollu","city":"Schaumburg","store number":"27006A","zip":"60173","geo_score":0.961,"id":"agyi6x4xp9jc","address":"601 Martingale Road","geo_precision":"range","state":"IL"},"type":"Feature","geometry":{"type":"Point","coordinates":[-88.035597,42.040517]}},{"properties":{"name":"Todd Quinzi","city":"Tampa","store number":"13007B","zip":"33613","geo_score":1.0,"id":"agyi6xfpj7p5","address":"14925 Bruce B Downs Blvd.","geo_precision":"range","state":"FL"},"type":"Feature","geometry":{"type":"Point","coordinates":[-82.413941,28.082169]}},{"properties":{"name":"Todd Quinzi","city":"Tampa","store number":"13062","zip":"33629","geo_score":0.598,"id":"agyi6xaeq9es","address":"1155 S. Dale Mabry Hwy","geo_precision":"street","state":"FL"},"type":"Feature","geometry":{"type":"Point","coordinates":[-82.505819,27.932928]}},{"properties":{"name":"Christopher Radcliff","city":"Concord","store number":"3066A","zip":"28025","geo_score":0.954,"id":"agyi6xgl4qhd","address":"300 Copperfield Blvd.","geo_precision":"range","state":"NC"},"type":"Feature","geometry":{"type":"Point","coordinates":[-80.596886,35.447713]}},{"properties":{"name":"Christopher Radcliff","city":"Denver","store number":"3122","zip":"28037","geo_score":0.787,"id":"agyi6xcqrvyy","address":"7260 Highway 73","geo_precision":"range","state":"NC"},"type":"Feature","geometry":{"type":"Point","coordinates":[-81.000986,35.448209]}},{"properties":{"name":"Christopher Radcliff","city":"Huntersville","store number":"3054","zip":"28070-2935","geo_score":0.561,"id":"agyi6xdg473o","address":"105 C South Statesville Rd.","geo_precision":"street","state":"NC"},"type":"Feature","geometry":{"type":"Point","coordinates":[-80.843308,35.430969]}},{"properties":{"name":"Jignesh Raval","city":"Okatie","store number":"7024A","zip":"29909","geo_score":0.47,"id":"agyi6xcaf2p1","address":"101-F Commerce Place West","geo_precision":"street","state":"SC"},"type":"Feature","geometry":{"type":"Point","coordinates":[-80.625421,32.403464]}},{"properties":{"name":"Casey Raxlin","city":"Indianapolis","store number":"11009B","zip":"46268","geo_score":0.902,"id":"agyi6x2k9y9w","address":"7125 Georgetown Rd.","geo_precision":"range","state":"IN"},"type":"Feature","geometry":{"type":"Point","coordinates":[-86.241529,39.89324]}},{"properties":{"name":"Shane Ray","city":"Murfreesboro","store number":"4034","zip":"37128","geo_score":1.0,"id":"agyi6x9jnh4b","address":"2705A Old Fort Parkway","geo_precision":"range","state":"TN"},"type":"Feature","geometry":{"type":"Point","coordinates":[-86.448473,35.844913]}},{"properties":{"name":"Troy Redmon","city":"Tulsa","store number":"23017","zip":"74133","geo_score":0.604,"id":"agyi6xa09xu5","address":"10912 S. Memorial","geo_precision":"street","state":"OK"},"type":"Feature","geometry":{"type":"Point","coordinates":[-95.886344,36.073319]}},{"properties":{"name":"Bradley Remy","city":"San Diego","store number":"20097","zip":"92122","geo_score":0.985,"id":"agyi6x8dfiep","address":"4353 La Jolla Village Drive","geo_precision":"range","state":"CA"},"type":"Feature","geometry":{"type":"Point","coordinates":[-117.210755,32.873351]}},{"properties":{"name":"Bradley S. Remy","city":"San Diego","store number":"20079","zip":"92103","geo_score":0.916,"id":"agyi6x1ekuan","address":"3975 5th Avenue","geo_precision":"range","state":"CA"},"type":"Feature","geometry":{"type":"Point","coordinates":[-117.160365,32.748728]}},{"properties":{"name":"Jason Rex","city":"Port St. Lucie","store number":"13031A","zip":"34984","geo_score":0.597,"id":"agyi6x0vprin","address":"262 SW Port St. Lucie Blvd.","geo_precision":"street","state":"FL"},"type":"Feature","geometry":{"type":"Point","coordinates":[-80.314679,27.165221]}},{"properties":{"name":"Dave Rich","city":"Shrewsbury","store number":"1021B","zip":"7702","geo_score":0.645,"id":"agyi6xg20gu2","address":"10 Shrewsbury Plaza","geo_precision":"street","state":"NJ"},"type":"Feature","geometry":{"type":"Point","coordinates":[-74.074385,40.333816]}},{"properties":{"name":"Douglas Allen Richards  Jr.","city":"Cookeville","store number":"4026","zip":"38501","geo_score":1.0,"id":"agyi6x1tn22t","address":"447 South Jefferson Ave.","geo_precision":"range","state":"TN"},"type":"Feature","geometry":{"type":"Point","coordinates":[-85.500589,36.153772]}},{"properties":{"name":"John B. Ricketts","city":"Fort Collins","store number":"22007","zip":"80528","geo_score":0.669,"id":"agyi6x48he1g","address":"4709 S Timberline Road","geo_precision":"street","state":"CO"},"type":"Feature","geometry":{"type":"Point","coordinates":[-105.039301,40.511243]}},{"properties":{"name":"Michael Riley","city":"Dallas","store number":"15020","zip":"75225","geo_score":1.0,"id":"agyi6x9qieo7","address":"8411 Preston Road","geo_precision":"range","state":"TX"},"type":"Feature","geometry":{"type":"Point","coordinates":[-96.80425,32.865376]}},{"properties":{"name":"Mike Riley","city":"Dallas","store number":"15022","zip":"75205","geo_score":0.585,"id":"agyi6x29td62","address":"3001 Knox Street","geo_precision":"zip","state":"TX"},"type":"Feature","geometry":{"type":"Point","coordinates":[-96.800279,32.850127]}},{"properties":{"name":"Brian Risch","city":"Woodbury","store number":"24004","zip":"55125","geo_score":1.0,"id":"agyi6x0hsmvm","address":"7455 Currell Boulevard","geo_precision":"range","state":"MN"},"type":"Feature","geometry":{"type":"Point","coordinates":[-92.954241,44.925645]}},{"properties":{"name":"Edward Rizzuti","city":"Branford","store number":"19001","zip":"6405","geo_score":1.0,"id":"agyi6x3ysdif","address":"845 West Main Street","geo_precision":"range","state":"CT"},"type":"Feature","geometry":{"type":"Point","coordinates":[-72.838968,41.27743]}},{"properties":{"name":"Dawn Robinson","city":"Camarillo","store number":"20010","zip":"93012","geo_score":1.0,"id":"agyi6xdylxki","address":"5800 Santa Rosa Road","geo_precision":"range","state":"CA"},"type":"Feature","geometry":{"type":"Point","coordinates":[-118.993288,34.223999]}},{"properties":{"name":"Dawn Robinson","city":"Moorpark","store number":"20027","zip":"93021","geo_score":0.597,"id":"agyi6x48yss0","address":"144 W. Los Angeles Ave.","geo_precision":"street","state":"CA"},"type":"Feature","geometry":{"type":"Point","coordinates":[-118.801156,34.281211]}},{"properties":{"name":"Dawn Robinson","city":"Goleta","store number":"20075","zip":"93117","geo_score":0.98,"id":"agyi6xd53ecv","address":"7034 Marketplace Dr.","geo_precision":"range","state":"CA"},"type":"Feature","geometry":{"type":"Point","coordinates":[-119.873305,34.4289]}},{"properties":{"name":"Steve Rosenfield","city":"Phoenix","store number":"9014","zip":"85042","geo_score":0.604,"id":"agyi6xcc1kxq","address":"2415 E. Baseline Road","geo_precision":"street","state":"AZ"},"type":"Feature","geometry":{"type":"Point","coordinates":[-112.073255,33.377756]}},{"properties":{"name":"Steve Rosenfield","city":"Laveen","store number":"9018","zip":"85339","geo_score":0.604,"id":"agyi6x8u7c8x","address":"5130 W. Baseline Rd","geo_precision":"street","state":"AZ"},"type":"Feature","geometry":{"type":"Point","coordinates":[-112.12113,33.377708]}},{"properties":{"name":"Steve Rosenfield","city":"Phoenix","store number":"9013","zip":"85003","geo_score":0.339,"id":"agyi6xe7n1ui","address":"1515 N. 7th Avenue","geo_precision":"street","state":"AZ"},"type":"Feature","geometry":{"type":"Point","coordinates":[-112.065122,33.450013]}},{"properties":{"name":"Steve Rosenfield","city":"Phoenix","store number":"9012","zip":"85012","geo_score":1.0,"id":"agyi6x80w66a","address":"18 East Camelback Road","geo_precision":"range","state":"AZ"},"type":"Feature","geometry":{"type":"Point","coordinates":[-112.072953,33.509352]}},{"properties":{"name":"Steve Rosenfield","city":"Chandler","store number":"9010","zip":"85248","geo_score":0.598,"id":"agyi6xgjt1x6","address":"1085 W. Queen Creek Road","geo_precision":"street","state":"AZ"},"type":"Feature","geometry":{"type":"Point","coordinates":[-111.846972,33.26205]}},{"properties":{"name":"William Joseph Ross","city":"Lake Wylie","store number":"7041","zip":"29710","geo_score":0.585,"id":"agyi6x8bkw1g","address":"604 Nautical Drive","geo_precision":"zip","state":"SC"},"type":"Feature","geometry":{"type":"Point","coordinates":[-81.165152,35.035952]}},{"properties":{"name":"William Joseph Ross","city":"Indian Land","store number":"7029","zip":"29707","geo_score":0.902,"id":"agyi6x0q3vcf","address":"8431 Charlotte Hwy.","geo_precision":"range","state":"SC"},"type":"Feature","geometry":{"type":"Point","coordinates":[-80.853065,34.955893]}},{"properties":{"name":"William Rover","city":"Cincinnati","store number":"2048","zip":"45249","geo_score":0.937,"id":"agyi6x9pmeus","address":"12133 Royal Point Dr.","geo_precision":"range","state":"OH"},"type":"Feature","geometry":{"type":"Point","coordinates":[-84.311233,39.291862]}},{"properties":{"name":"Gilbert Rubalcaba","city":"Corona","store number":"20123","zip":"92881","geo_score":1.0,"id":"agyi6x7hu050","address":"2150 California Avenue","geo_precision":"range","state":"CA"},"type":"Feature","geometry":{"type":"Point","coordinates":[-117.539033,33.849115]}},{"properties":{"name":"Gilbert Rubalcaba","city":"Eastvale","store number":"20084","zip":"91752","geo_score":0.902,"id":"agyi6x9fd95h","address":"12569 Limonite Ave","geo_precision":"range","state":"CA"},"type":"Feature","geometry":{"type":"Point","coordinates":[-117.550952,33.975308]}},{"properties":{"name":"Anthony Rubba","city":"Springfield","store number":"27036","zip":"62704","geo_score":0.614,"id":"agyi6x9loug5","address":"2318 W. Wabash Ave.","geo_precision":"street","state":"IL"},"type":"Feature","geometry":{"type":"Point","coordinates":[-89.668076,39.765229]}},{"properties":{"name":"Anthony Rubba","city":"Champaign","store number":"27038","zip":"61820","geo_score":0.614,"id":"agyi6x912x37","address":"505 E. Green Street","geo_precision":"street","state":"IL"},"type":"Feature","geometry":{"type":"Point","coordinates":[-88.243467,40.110178]}},{"properties":{"name":"Nancy Rummell","city":"Boone","store number":"3112A","zip":"28607","geo_score":0.648,"id":"agyi6x8m3f3t","address":"119 New Market Center","geo_precision":"street","state":"NC"},"type":"Feature","geometry":{"type":"Point","coordinates":[-81.627443,36.214132]}},{"properties":{"name":"Philippe Saad","city":"Myrtle Beach","store number":"7046","zip":"29577","geo_score":0.625,"id":"agyi6x0sby3q","address":"2602 N. Kings Hwy","geo_precision":"street","state":"SC"},"type":"Feature","geometry":{"type":"Point","coordinates":[-78.969683,33.67653]}},{"properties":{"name":"Philippe Saad","city":"Myrtle Beach","store number":"7047","zip":"29588","geo_score":0.423,"id":"agyi6x5pabve","address":"102-B Loyola Drive","geo_precision":"street","state":"SC"},"type":"Feature","geometry":{"type":"Point","coordinates":[-79.033427,33.63982]}},{"properties":{"name":"Philippe Saad","city":"North Myrtle Beach","store number":"7001A","zip":"29582","geo_score":0.732,"id":"agyi6x47le1n","address":"4031 Highway 17 South","geo_precision":"street","state":"SC"},"type":"Feature","geometry":{"type":"Point","coordinates":[-78.656821,33.847021]}},{"properties":{"name":"Philippe Saad","city":"Myrtle Beach","store number":"7030","zip":"29572","geo_score":0.625,"id":"agyi6x3lc0mp","address":"9713 N. King's Highway (Hwy 17)","geo_precision":"street","state":"SC"},"type":"Feature","geometry":{"type":"Point","coordinates":[-78.790067,33.764983]}},{"properties":{"name":"Bob Sagerstrom","city":"Niles","store number":"27011B","zip":"60714","geo_score":0.619,"id":"agyi6x8itvnm","address":"8484 W. Golf Rd","geo_precision":"street","state":"IL"},"type":"Feature","geometry":{"type":"Point","coordinates":[-87.828655,42.054807]}},{"properties":{"name":"Michael Salem","city":"Chardon","store number":"2046","zip":"44024","geo_score":1.0,"id":"agyi6xdf6t03","address":"209 Center Street","geo_precision":"range","state":"OH"},"type":"Feature","geometry":{"type":"Point","coordinates":[-81.209605,41.583275]}},{"properties":{"name":"Michael Salem","city":"Willoughby","store number":"2025","zip":"44094","geo_score":0.857,"id":"agyi6x0plr2s","address":"36295 Euclid Avenue (Route 20)","geo_precision":"street","state":"OH"},"type":"Feature","geometry":{"type":"Point","coordinates":[-81.406595,41.641726]}},{"properties":{"name":"Hadi (Tony) Saraj","city":"Atlanta","store number":"5023","zip":"30339","geo_score":0.709,"id":"agyi6x8odgrz","address":"2014 Powers Ferry Road","geo_precision":"street","state":"GA"},"type":"Feature","geometry":{"type":"Point","coordinates":[-84.464695,33.906745]}},{"properties":{"name":"Hadi (Tony) Saraj","city":"Atlanta","store number":"5041","zip":"30318","geo_score":0.931,"id":"agyi6xfbjeyg","address":"1000 Northside Drive NW","geo_precision":"range","state":"GA"},"type":"Feature","geometry":{"type":"Point","coordinates":[-84.407548,33.781991]}},{"properties":{"name":"J. Kevin Satterfield","city":"North Myrtle Beach","store number":"7044","zip":"29582","geo_score":0.732,"id":"agyi6x9h8coe","address":"515 Highway 17 N","geo_precision":"street","state":"SC"},"type":"Feature","geometry":{"type":"Point","coordinates":[-78.660242,33.844256]}},{"properties":{"name":"J. Kevin Satterfield","city":"Conway","store number":"7031","zip":"29526","geo_score":1.0,"id":"agyi6x24rqhm","address":"2676 Church Street","geo_precision":"range","state":"SC"},"type":"Feature","geometry":{"type":"Point","coordinates":[-79.086111,33.858287]}},{"properties":{"name":"Wade Scherl","city":"Pensacola","store number":"13004","zip":"32504","geo_score":1.0,"id":"agyi6x14cm5t","address":"1620 Airport Blvd","geo_precision":"range","state":"FL"},"type":"Feature","geometry":{"type":"Point","coordinates":[-87.208508,30.480594]}},{"properties":{"name":"Derek Schork","city":"Morganville","store number":"1034","zip":"7751","geo_score":0.878,"id":"agyi6x7xvesk","address":"450 Union Hill Road","geo_precision":"street","state":"NJ"},"type":"Feature","geometry":{"type":"Point","coordinates":[-74.30856,40.339123]}},{"properties":{"name":"Bill &amp; Kathleen Schulte","city":"University Park","store number":"13030","zip":"34201","geo_score":0.455,"id":"agyi6xe9i9vf","address":"8210 Tourist Center Drive","geo_precision":"street","state":"FL"},"type":"Feature","geometry":{"type":"Point","coordinates":[-82.533734,27.557762]}},{"properties":{"name":"William Schulte","city":"Sarasota","store number":"13019","zip":"34239","geo_score":0.607,"id":"agyi6x8su0rs","address":"3820 S. Tuttle Ave.","geo_precision":"street","state":"FL"},"type":"Feature","geometry":{"type":"Point","coordinates":[-82.51409,27.322753]}},{"properties":{"name":"Bryan Selden","city":"Coppell","store number":"15044","zip":"75019","geo_score":0.6,"id":"agyi6x0b5vd3","address":"143 S. Denton Tap Road","geo_precision":"street","state":"TX"},"type":"Feature","geometry":{"type":"Point","coordinates":[-96.993692,32.968458]}},{"properties":{"name":"Bryan Selden","city":"Shreveport","store number":"30001","zip":"71105","geo_score":1.0,"id":"agyi6x18soee","address":"7435 Youree Drive","geo_precision":"range","state":"LA"},"type":"Feature","geometry":{"type":"Point","coordinates":[-93.717386,32.442231]}},{"properties":{"name":"Bryan Selden","city":"Wichita Falls","store number":"15032","zip":"76308","geo_score":1.0,"id":"agyi6x277w57","address":"3801 Call Field Road","geo_precision":"range","state":"TX"},"type":"Feature","geometry":{"type":"Point","coordinates":[-98.539942,33.871235]}},{"properties":{"name":"Bryan Selden","city":"Fort Worth","store number":"15026","zip":"76116","geo_score":1.0,"id":"agyi6x8w70b7","address":"6318 Camp Bowie Boulevard","geo_precision":"range","state":"TX"},"type":"Feature","geometry":{"type":"Point","coordinates":[-97.419206,32.727261]}},{"properties":{"name":"Bryan Selden","city":"Longview","store number":"15036","zip":"75604","geo_score":1.0,"id":"agyi6x1q0kb2","address":"2199 Gilmer Road","geo_precision":"range","state":"TX"},"type":"Feature","geometry":{"type":"Point","coordinates":[-94.787236,32.52829]}},{"properties":{"name":"Bryan Selden","city":"Katy","store number":"15042","zip":"77494","geo_score":0.683,"id":"agyi6x9k310o","address":"6645 South Fry Road","geo_precision":"range","state":"TX"},"type":"Feature","geometry":{"type":"Point","coordinates":[-95.755057,29.717487]}},{"properties":{"name":"Bryan Selden","city":"Fort Worth","store number":"15033","zip":"76155","geo_score":1.0,"id":"agyi6xflps95","address":"14113 Trinity Blvd.","geo_precision":"range","state":"TX"},"type":"Feature","geometry":{"type":"Point","coordinates":[-97.061191,32.822236]}},{"properties":{"name":"Bryan Selden","city":"Houston","store number":"15008A","zip":"77056","geo_score":0.945,"id":"agyi6xf9xo6b","address":"5393-B Westheimer Rd","geo_precision":"range","state":"TX"},"type":"Feature","geometry":{"type":"Point","coordinates":[-95.467142,29.740297]}},{"properties":{"name":"Bryan Selden","city":"Killeen","store number":"15041","zip":"76543","geo_score":0.593,"id":"agyi6x9u8v99","address":"3007 E. Central Texas Expressway","geo_precision":"street","state":"TX"},"type":"Feature","geometry":{"type":"Point","coordinates":[-97.716102,31.088538]}},{"properties":{"name":"Bryan Selden","city":"Tyler","store number":"15004A","zip":"75703","geo_score":0.602,"id":"agyi6xbgf7la","address":"4754 S. Broadway","geo_precision":"street","state":"TX"},"type":"Feature","geometry":{"type":"Point","coordinates":[-95.30066,32.302897]}},{"properties":{"name":"Bryan Selden","city":"Tyler","store number":"15025","zip":"75701","geo_score":0.585,"id":"agyi6xekty0f","address":"1690 South Beckham Avenue","geo_precision":"zip","state":"TX"},"type":"Feature","geometry":{"type":"Point","coordinates":[-95.466068,32.414312]}},{"properties":{"name":"Bryan Selden","city":"Longview","store number":"15040","zip":"75604","geo_score":0.571,"id":"agyi6x64m8gr","address":"3312 N. Fourth Street","geo_precision":"street","state":"TX"},"type":"Feature","geometry":{"type":"Point","coordinates":[-94.795133,32.533386]}},{"properties":{"name":"Bryan Selden","city":"Mansfield","store number":"15050","zip":"76063","geo_score":0.61,"id":"agyi6x2m8kwv","address":"1301 E. Debbie Lane","geo_precision":"street","state":"TX"},"type":"Feature","geometry":{"type":"Point","coordinates":[-97.140465,32.594642]}},{"properties":{"name":"Adam Share","city":"Columbus","store number":"2044A","zip":"43214","geo_score":0.397,"id":"agyi6x5xdvkp","address":"4249 North High St.","geo_precision":"street","state":"OH"},"type":"Feature","geometry":{"type":"Point","coordinates":[-83.041606,40.1287]}},{"properties":{"name":"Wayne Shaw","city":"Bonita Springs","store number":"13028","zip":"34135","geo_score":1.0,"id":"agyi6x9i1fuq","address":"8951 Bonita Beach Road","geo_precision":"range","state":"FL"},"type":"Feature","geometry":{"type":"Point","coordinates":[-81.803661,26.330503]}},{"properties":{"name":"Wes Shepherd","city":"Greenville","store number":"3124","zip":"27834","geo_score":0.602,"id":"agyi6x9ftfvb","address":"1908 E. Firetower Road","geo_precision":"street","state":"NC"},"type":"Feature","geometry":{"type":"Point","coordinates":[-77.384588,35.551672]}},{"properties":{"name":"Raymond M. Shimmon","city":"Orland Park","store number":"27021","zip":"60462","geo_score":0.602,"id":"agyi6xcz5h4w","address":"15625 S. La Grange Road","geo_precision":"street","state":"IL"},"type":"Feature","geometry":{"type":"Point","coordinates":[-87.853966,41.649938]}},{"properties":{"name":"James Shipman","city":"South Elgin","store number":"27039","zip":"60177","geo_score":0.585,"id":"agyi6xe2httw","address":"469 Redington Drive","geo_precision":"zip","state":"IL"},"type":"Feature","geometry":{"type":"Point","coordinates":[-88.405895,42.007476]}},{"properties":{"name":"James Shipman","city":"Geneva","store number":"27008","zip":"60134","geo_score":0.607,"id":"agyi6xchp3dx","address":"1770 S. Randall Rd.","geo_precision":"street","state":"IL"},"type":"Feature","geometry":{"type":"Point","coordinates":[-88.340368,41.872172]}},{"properties":{"name":"James Shipman","city":"St. Charles","store number":"27020","zip":"60174","geo_score":0.97,"id":"agyi6x4i1le5","address":"2540 East Main St.","geo_precision":"range","state":"IL"},"type":"Feature","geometry":{"type":"Point","coordinates":[-88.282827,41.921247]}},{"properties":{"name":"Peter D. Shipman","city":"Pittsfield","store number":"31001","zip":"48197","geo_score":0.798,"id":"agyi6x410l4g","address":"3650 Carpenter Road","geo_precision":"range","state":"MI"},"type":"Feature","geometry":{"type":"Point","coordinates":[-83.680188,42.238458]}},{"properties":{"name":"John Paul Simmons","city":"South Pasadena","store number":"20083","zip":"91030","geo_score":1.0,"id":"agyi6xcnyyb8","address":"462 Fair Oaks Avenue","geo_precision":"range","state":"CA"},"type":"Feature","geometry":{"type":"Point","coordinates":[-118.150223,34.120291]}},{"properties":{"name":"John Paul Simmons","city":"La Canada","store number":"20044","zip":"91011","geo_score":0.946,"id":"agyi6xbjuf5c","address":"711 Foothill Blvd.","geo_precision":"range","state":"CA"},"type":"Feature","geometry":{"type":"Point","coordinates":[-118.194236,34.201702]}},{"properties":{"name":"John Paul Simmons","city":"Pasadena","store number":"20052","zip":"91101","geo_score":0.614,"id":"agyi6x31tdwo","address":"122 S. Lake Avenue","geo_precision":"street","state":"CA"},"type":"Feature","geometry":{"type":"Point","coordinates":[-118.132353,34.1459]}},{"properties":{"name":"Brenda Smith","city":"Durham","store number":"3100A","zip":"27704","geo_score":1.0,"id":"agyi6x81mn09","address":"3600 North Duke Street","geo_precision":"range","state":"NC"},"type":"Feature","geometry":{"type":"Point","coordinates":[-78.905729,36.050094]}},{"properties":{"name":"Don Smith","city":"Silverton","store number":"1018B","zip":"8753","geo_score":1.0,"id":"agyi6x2eesan","address":"1840 Hooper Avenue","geo_precision":"range","state":"NJ"},"type":"Feature","geometry":{"type":"Point","coordinates":[-74.146566,40.012646]}},{"properties":{"name":"William Nicholas Smith III","city":"Charlotte","store number":"3130","zip":"28203","geo_score":0.902,"id":"agyi6x1753lp","address":"1300 East Blvd.","geo_precision":"range","state":"NC"},"type":"Feature","geometry":{"type":"Point","coordinates":[-80.843701,35.201234]}},{"properties":{"name":"William Nicholas Smith  III","city":"Charlotte","store number":"3096","zip":"28202","geo_score":1.0,"id":"agyi6xgbzpf9","address":"128 South Tryon Street","geo_precision":"range","state":"NC"},"type":"Feature","geometry":{"type":"Point","coordinates":[-80.843993,35.226696]}},{"properties":{"name":"William Nicholas Smith  III","city":"Charlotte","store number":"3060","zip":"28277","geo_score":1.0,"id":"agyi6x763zuu","address":"7828 Rea Road","geo_precision":"range","state":"NC"},"type":"Feature","geometry":{"type":"Point","coordinates":[-80.814094,35.061714]}},{"properties":{"name":"Mike Spiegel","city":"Olathe","store number":"21004A","zip":"66062","geo_score":0.614,"id":"agyi6xc1b9zt","address":"15018 S.Black Bob Rd.","geo_precision":"street","state":"KS"},"type":"Feature","geometry":{"type":"Point","coordinates":[-94.802452,38.834382]}},{"properties":{"name":"Jeff Sponsler","city":"Atlanta","store number":"5011","zip":"30319","geo_score":0.982,"id":"agyi6xf731t4","address":"3895 Peachtree Road North East","geo_precision":"range","state":"GA"},"type":"Feature","geometry":{"type":"Point","coordinates":[-84.344743,33.857386]}},{"properties":{"name":"Jeff Sponsler","city":"Atlanta","store number":"5017A","zip":"30318","geo_score":1.0,"id":"agyi6xbb04fd","address":"2020 Howell Mill Road","geo_precision":"range","state":"GA"},"type":"Feature","geometry":{"type":"Point","coordinates":[-84.412703,33.810577]}},{"properties":{"name":"Jeff Sponsler","city":"Atlanta","store number":"5031A","zip":"30336","geo_score":0.664,"id":"agyi6x8bj0cd","address":"6035 Bakers Ferry Rd.","geo_precision":"street","state":"GA"},"type":"Feature","geometry":{"type":"Point","coordinates":[-84.545949,33.746403]}},{"properties":{"name":"Jeff Sponsler","city":"Lawrenceville","store number":"5027A","zip":"30043","geo_score":0.807,"id":"agyi6x29saam","address":"1820 North Brown Road","geo_precision":"street","state":"GA"},"type":"Feature","geometry":{"type":"Point","coordinates":[-84.079852,33.985942]}},{"properties":{"name":"Jeff Sponsler","city":"Dunwoody","store number":"5001","zip":"30338","geo_score":1.0,"id":"agyi6x9xijzk","address":"2458 Jett Ferry Road;","geo_precision":"range","state":"GA"},"type":"Feature","geometry":{"type":"Point","coordinates":[-84.302574,33.958687]}},{"properties":{"name":"Bob Steele","city":"Manahawkin","store number":"1003","zip":"8050","geo_score":0.807,"id":"agyi6xdf7x3n","address":"25 South Main Street","geo_precision":"street","state":"NJ"},"type":"Feature","geometry":{"type":"Point","coordinates":[-74.260255,39.694171]}},{"properties":{"name":"Bob Steele","city":"Little Egg Harbor","store number":"1027","zip":"8087","geo_score":0.633,"id":"agyi6xcoeupr","address":"418 Rt. 9 South","geo_precision":"range","state":"NJ"},"type":"Feature","geometry":{"type":"Point","coordinates":[-74.334437,39.606766]}},{"properties":{"name":"Dalton Stewart","city":"Irving","store number":"15005","zip":"75039","geo_score":0.78,"id":"agyi6x9yierc","address":"6550 North MacArthur Blvd","geo_precision":"range","state":"TX"},"type":"Feature","geometry":{"type":"Point","coordinates":[-96.9589,32.90012]}},{"properties":{"name":"Dalton Stewart","city":"Fort Worth","store number":"15023","zip":"76132","geo_score":1.0,"id":"agyi6x0nu7du","address":"4833 South Hulen St.","geo_precision":"range","state":"TX"},"type":"Feature","geometry":{"type":"Point","coordinates":[-97.396543,32.676521]}},{"properties":{"name":"Dalton Stewart","city":"Dallas","store number":"15018","zip":"75240","geo_score":0.683,"id":"agyi6x9hd74g","address":"14060 Dallas Parkway","geo_precision":"street","state":"TX"},"type":"Feature","geometry":{"type":"Point","coordinates":[-96.820951,32.929398]}},{"properties":{"name":"Dalton Stewart","city":"Dallas","store number":"15002","zip":"75206","geo_score":1.0,"id":"agyi6xcu3an6","address":"5521 Greenville Avenue","geo_precision":"range","state":"TX"},"type":"Feature","geometry":{"type":"Point","coordinates":[-96.769924,32.851295]}},{"properties":{"name":"Sean Sullivan","city":"Warwick","store number":"14002A","zip":"2886","geo_score":1.0,"id":"agyi6x93jm6t","address":"1350 Greenwich Avenue","geo_precision":"range","state":"RI"},"type":"Feature","geometry":{"type":"Point","coordinates":[-71.460077,41.699331]}},{"properties":{"name":"Sean Sullivan","city":"Raynham","store number":"16001B","zip":"2767","geo_score":0.707,"id":"agyi6x7b207o","address":"325 New State Highway Rt. 44","geo_precision":"range","state":"MA"},"type":"Feature","geometry":{"type":"Point","coordinates":[-71.082809,41.939468]}},{"properties":{"name":"Sean Sullivan","city":"North Providence","store number":"14001A","zip":"2904","geo_score":0.963,"id":"agyi6xegx8pg","address":"1401 Douglas Ave.","geo_precision":"range","state":"RI"},"type":"Feature","geometry":{"type":"Point","coordinates":[-71.454575,41.864357]}},{"properties":{"name":"Sean Sullivan","city":"Warwick","store number":"14003A","zip":"02919-3506","geo_score":0.585,"id":"agyi6x5fzdxw","address":"782 Warwick Avenue","geo_precision":"zip","state":"RI"},"type":"Feature","geometry":{"type":"Point","coordinates":[-71.493671,41.808156]}},{"properties":{"name":"Tim Surati","city":"Pittsburgh","store number":"8009","zip":"15237","geo_score":0.585,"id":"agyi6x3ye8ls","address":"7390 McKnight Road","geo_precision":"zip","state":"PA"},"type":"Feature","geometry":{"type":"Point","coordinates":[-80.003666,40.531735]}},{"properties":{"name":"Timir Surati","city":"Cranberry Township","store number":"8001A","zip":"16066","geo_score":0.829,"id":"agyi6x3iijuk","address":"20300 Route 19","geo_precision":"range","state":"PA"},"type":"Feature","geometry":{"type":"Point","coordinates":[-80.103452,40.691961]}},{"properties":{"name":"Lisa Sutter","city":"Calabasas","store number":"20042","zip":"91302","geo_score":1.0,"id":"agyi6x86i1qd","address":"26799 Agoura Rd.","geo_precision":"range","state":"CA"},"type":"Feature","geometry":{"type":"Point","coordinates":[-118.706872,34.139984]}},{"properties":{"name":"William Howard Swecker","city":"Columbus","store number":"5046","zip":"31904","geo_score":0.686,"id":"agyi6xbhcc7w","address":"1640 Rollins Way","geo_precision":"street","state":"GA"},"type":"Feature","geometry":{"type":"Point","coordinates":[-84.972065,32.535832]}},{"properties":{"name":"Greg Switaj","city":"Purcellville","store number":"6037","zip":"20132","geo_score":0.676,"id":"agyi6x925ii0","address":"150 B Purcellville Gateway Drive","geo_precision":"street","state":"VA"},"type":"Feature","geometry":{"type":"Point","coordinates":[-77.675681,39.221571]}},{"properties":{"name":"Greg Switaj","city":"Ashburn","store number":"6032","zip":"20147","geo_score":0.897,"id":"agyi6xge189i","address":"20070 Ashbrook Commons Plaza","geo_precision":"range","state":"VA"},"type":"Feature","geometry":{"type":"Point","coordinates":[-77.462415,39.058202]}},{"properties":{"name":"Greg Switaj","city":"Sterling","store number":"6026","zip":"20165","geo_score":0.824,"id":"agyi6x9gny1h","address":"21031 Tripleseven Road","geo_precision":"street","state":"VA"},"type":"Feature","geometry":{"type":"Point","coordinates":[-77.406255,39.034845]}},{"properties":{"name":"Greg Switaj","city":"Leesburg","store number":"6021","zip":"20176","geo_score":0.752,"id":"agyi6xbcts7h","address":"522 Fort Evans Rd.","geo_precision":"street","state":"VA"},"type":"Feature","geometry":{"type":"Point","coordinates":[-77.524572,39.10312]}},{"properties":{"name":"Errol Talley","city":"Norco","store number":"20057","zip":"92860","geo_score":1.0,"id":"agyi6xb025qz","address":"1411 Hamner Ave.","geo_precision":"range","state":"CA"},"type":"Feature","geometry":{"type":"Point","coordinates":[-117.561952,33.903614]}},{"properties":{"name":"Francesco Tarara","city":"Rockford","store number":"27026","zip":"61114","geo_score":0.329,"id":"agyi6x8vsk2s","address":"6284 E. State Street","geo_precision":"street","state":"IL"},"type":"Feature","geometry":{"type":"Point","coordinates":[-89.087554,42.267693]}},{"properties":{"name":"Francesco Tarara","city":"Machesney","store number":"27032","zip":"61115","geo_score":0.843,"id":"agyi6x34ph7h","address":"1513 W Lane Road","geo_precision":"range","state":"IL"},"type":"Feature","geometry":{"type":"Point","coordinates":[-89.031872,42.365528]}},{"properties":{"name":"Kurt Terry","city":"Lakewood","store number":"1028","zip":"8701","geo_score":0.854,"id":"agyi6x7c15ah","address":"1195 Route 70","geo_precision":"range","state":"NJ"},"type":"Feature","geometry":{"type":"Point","coordinates":[-74.179137,40.053134]}},{"properties":{"name":"Kyle Terry","city":"Howell","store number":"1010","zip":"7731","geo_score":0.679,"id":"agyi6xa1taue","address":"3950 Route 9 &amp; Aldrich Road","geo_precision":"street","state":"NJ"},"type":"Feature","geometry":{"type":"Point","coordinates":[-74.255907,40.203294]}},{"properties":{"name":"Deborah B. Thompson","city":"Louisville","store number":"10002","zip":"40223","geo_score":1.0,"id":"agyi6x2sh2r8","address":"10266 Shelbyville Road","geo_precision":"range","state":"KY"},"type":"Feature","geometry":{"type":"Point","coordinates":[-85.564977,38.245425]}},{"properties":{"name":"Deborah Thompson","city":"Louisville","store number":"10005","zip":"40241","geo_score":0.493,"id":"agyi6xd1j1io","address":"10521 Fischer Park Drive","geo_precision":"street","state":"KY"},"type":"Feature","geometry":{"type":"Point","coordinates":[-85.690877,38.174673]}},{"properties":{"name":"Kelly Tittle","city":"Westerville","store number":"2013A","zip":"43081","geo_score":1.0,"id":"agyi6x0aohis","address":"5957 Sunbury Road","geo_precision":"range","state":"OH"},"type":"Feature","geometry":{"type":"Point","coordinates":[-82.895731,40.083183]}},{"properties":{"name":"Teddy L Tolliver Jr","city":"Centerville","store number":"2040A","zip":"45459","geo_score":0.805,"id":"agyi6x09a5d3","address":"6002 Far Hills Avenue","geo_precision":"street","state":"OH"},"type":"Feature","geometry":{"type":"Point","coordinates":[-84.157767,39.641563]}},{"properties":{"name":"Teddy Tolliver","city":"Cincinnati","store number":"2009A","zip":"45238","geo_score":0.909,"id":"agyi6xd7r1sj","address":"5032 Glen Crossing Way","geo_precision":"range","state":"OH"},"type":"Feature","geometry":{"type":"Point","coordinates":[-84.609194,39.131187]}},{"properties":{"name":"Teddy Tolliver","city":"Beavercreek","store number":"2049","zip":"45431","geo_score":0.585,"id":"agyi6x1bq9pa","address":"3510 Pentagon Boulevard","geo_precision":"zip","state":"OH"},"type":"Feature","geometry":{"type":"Point","coordinates":[-84.10966,39.765892]}},{"properties":{"name":"John Townsend","city":"Concord","store number":"3128","zip":"28027","geo_score":0.497,"id":"agyi6xgecnkc","address":"6028 Bayfield Parkway","geo_precision":"street","state":"NC"},"type":"Feature","geometry":{"type":"Point","coordinates":[-80.485607,35.378664]}},{"properties":{"name":"Kristin Treacy","city":"Alexandria","store number":"6030","zip":"22306","geo_score":0.958,"id":"agyi6xe3ja9j","address":"7732 D Richmond Highway","geo_precision":"range","state":"VA"},"type":"Feature","geometry":{"type":"Point","coordinates":[-77.083128,38.748307]}},{"properties":{"name":"Kristin Treacy","city":"Stafford","store number":"6034","zip":"22556","geo_score":0.594,"id":"agyi6xew0bq4","address":"1495 Stafford Market Place","geo_precision":"street","state":"VA"},"type":"Feature","geometry":{"type":"Point","coordinates":[-77.41087,38.462761]}},{"properties":{"name":"Win Tun","city":"North Las Vegas","store number":"17007","zip":"89031","geo_score":0.805,"id":"agyi6xa4kggg","address":"5595 Simmons St.","geo_precision":"street","state":"NV"},"type":"Feature","geometry":{"type":"Point","coordinates":[-115.180105,36.23943]}},{"properties":{"name":"Anna Turovskaya","city":"Charlotte","store number":"3048A","zip":"28227","geo_score":0.597,"id":"agyi6x8w5au1","address":"7309-21 E. Independence Blvd.","geo_precision":"street","state":"NC"},"type":"Feature","geometry":{"type":"Point","coordinates":[-80.72252,35.145089]}},{"properties":{"name":"Thomas J. Upright","city":"Kingsport","store number":"4022A","zip":"37663","geo_score":1.0,"id":"agyi6x1kvm0u","address":"4260 Fort Henry Drive","geo_precision":"range","state":"TN"},"type":"Feature","geometry":{"type":"Point","coordinates":[-82.498469,36.481833]}},{"properties":{"name":"William C. Violante","city":"Palmdale","store number":"20028","zip":"93551","geo_score":0.633,"id":"agyi6xg3dcbf","address":"39604 10th St. West","geo_precision":"street","state":"CA"},"type":"Feature","geometry":{"type":"Point","coordinates":[-118.199702,34.617789]}},{"properties":{"name":"G. Robert Waldrop  IV","city":"Mechanicsville","store number":"6017","zip":"23111","geo_score":1.0,"id":"agyi6x2i6ztt","address":"7262 Mechanicsville Turnpike","geo_precision":"range","state":"VA"},"type":"Feature","geometry":{"type":"Point","coordinates":[-77.353725,37.610324]}},{"properties":{"name":"G. Robert Waldrop  IV","city":"Chesterfield","store number":"6020","zip":"23832","geo_score":0.585,"id":"agyi6x95h8w9","address":"7317 Hancock Village Drive","geo_precision":"zip","state":"VA"},"type":"Feature","geometry":{"type":"Point","coordinates":[-77.528876,37.430982]}},{"properties":{"name":"G. Robert Waldrop IV","city":"Richmond","store number":"6010A","zip":"23228","geo_score":0.878,"id":"agyi6x81ffa0","address":"8654 Staples Mill Road","geo_precision":"range","state":"VA"},"type":"Feature","geometry":{"type":"Point","coordinates":[-77.507343,37.631187]}},{"properties":{"name":"G. Robert Waldrop  IV","city":"Midlothian","store number":"6013","zip":"23112","geo_score":0.805,"id":"agyi6x88yenh","address":"4500 Commonwealth Centre Parkway","geo_precision":"street","state":"VA"},"type":"Feature","geometry":{"type":"Point","coordinates":[-77.632829,37.419506]}},{"properties":{"name":"G. Robert Waldrop  IV","city":"Chesterfield","store number":"6014","zip":"23832","geo_score":0.435,"id":"agyi6x7lrs5f","address":"6945 Commons Plaza","geo_precision":"street","state":"VA"},"type":"Feature","geometry":{"type":"Point","coordinates":[-77.291016,37.221468]}},{"properties":{"name":"G. Robert Waldrop  IV","city":"Midlothian","store number":"6012","zip":"23114","geo_score":0.67,"id":"agyi6xezph0q","address":"100 Heaths Way Road","geo_precision":"range","state":"VA"},"type":"Feature","geometry":{"type":"Point","coordinates":[-76.764994,37.341888]}},{"properties":{"name":"G. Robert Waldrop  IV","city":"Colonial Heights","store number":"6005","zip":"23834","geo_score":0.837,"id":"agyi6xfhp2ka","address":"2011 Boulevard","geo_precision":"range","state":"VA"},"type":"Feature","geometry":{"type":"Point","coordinates":[-77.411374,37.258942]}},{"properties":{"name":"G. Robert Waldrop IV","city":"Richmond","store number":"6008A","zip":"23220","geo_score":1.0,"id":"agyi6x5rheay","address":"927 West Broad Street","geo_precision":"range","state":"VA"},"type":"Feature","geometry":{"type":"Point","coordinates":[-77.450152,37.550326]}},{"properties":{"name":"G. Robert  Waldrop  IV","city":"Richmond","store number":"6001","zip":"23235","geo_score":1.0,"id":"agyi6x2s5hbj","address":"2709 Buford Road","geo_precision":"range","state":"VA"},"type":"Feature","geometry":{"type":"Point","coordinates":[-77.561452,37.535105]}},{"properties":{"name":"G. Robert Waldrop  IV","city":"Glen Allen","store number":"6002","zip":"23060","geo_score":1.0,"id":"agyi6xdnay2v","address":"11444 West Broad Street","geo_precision":"range","state":"VA"},"type":"Feature","geometry":{"type":"Point","coordinates":[-77.611159,37.651352]}},{"properties":{"name":"David Wampler","city":"Kingsport","store number":"4040","zip":"37660","geo_score":1.0,"id":"agyi6xg0byc2","address":"2637 East Stone Drive","geo_precision":"range","state":"TN"},"type":"Feature","geometry":{"type":"Point","coordinates":[-82.496614,36.548562]}},{"properties":{"name":"David Wampler","city":"Bristol","store number":"6009","zip":"24202","geo_score":1.0,"id":"agyi6x6dphvu","address":"102 Bonham Rd.","geo_precision":"range","state":"VA"},"type":"Feature","geometry":{"type":"Point","coordinates":[-82.130924,36.63188]}},{"properties":{"name":"David Wampler","city":"Bristol","store number":"4035","zip":"37620","geo_score":1.0,"id":"agyi6x56bvxa","address":"1430 Volunteer Parkway","geo_precision":"range","state":"TN"},"type":"Feature","geometry":{"type":"Point","coordinates":[-82.213123,36.558059]}},{"properties":{"name":"James Wardrop","city":"Franklin","store number":"4030A","zip":"37067","geo_score":1.0,"id":"agyi6xc7tnmd","address":"2000 Mallory Lane","geo_precision":"range","state":"TN"},"type":"Feature","geometry":{"type":"Point","coordinates":[-86.81783,35.952121]}},{"properties":{"name":"Jim Wardrop","city":"Franklin","store number":"4037","zip":"37067","geo_score":0.52,"id":"agyi6x7na3jg","address":"1175 Meridian Blvd.","geo_precision":"street","state":"TN"},"type":"Feature","geometry":{"type":"Point","coordinates":[-86.886803,35.964588]}},{"properties":{"name":"Scott E Warfel","city":"Warr Acres","store number":"23010","zip":"73122","geo_score":0.488,"id":"agyi6xbuij1v","address":"3800 N. MacArthur Blvd.","geo_precision":"street","state":"OK"},"type":"Feature","geometry":{"type":"Point","coordinates":[-97.618997,35.50051]}},{"properties":{"name":"Scott E. Warfel","city":"Oklahoma City","store number":"23001","zip":"73139","geo_score":0.916,"id":"agyi6xcn76tl","address":"7500 South Santa Fe","geo_precision":"range","state":"OK"},"type":"Feature","geometry":{"type":"Point","coordinates":[-97.512462,35.392037]}},{"properties":{"name":"Scott Warfel","city":"Oklahoma City","store number":"23002","zip":"73120","geo_score":0.604,"id":"agyi6x74wrtd","address":"2522  W. Memorial Rd.","geo_precision":"street","state":"OK"},"type":"Feature","geometry":{"type":"Point","coordinates":[-97.567168,35.60861]}},{"properties":{"name":"Scott Warfel","city":"Midwest City","store number":"23003","zip":"73110","geo_score":0.598,"id":"agyi6x2rqrqm","address":"1940 S. Air Depot Blvd.","geo_precision":"street","state":"OK"},"type":"Feature","geometry":{"type":"Point","coordinates":[-97.406255,35.463879]}},{"properties":{"name":"Phillip &amp; Regina Weachter","city":"Flower Mound","store number":"15015","zip":"75028","geo_score":1.0,"id":"agyi6x856iwy","address":"2701 Cross Timbers Road","geo_precision":"range","state":"TX"},"type":"Feature","geometry":{"type":"Point","coordinates":[-97.070456,33.035969]}},{"properties":{"name":"Phillip Weachter","city":"Denton","store number":"15024","zip":"76205","geo_score":0.916,"id":"agyi6x1ou5am","address":"1800 S Loop 288","geo_precision":"range","state":"TX"},"type":"Feature","geometry":{"type":"Point","coordinates":[-97.101202,33.190675]}},{"properties":{"name":"Mitchell Anthony Wegner","city":"Southlake","store number":"15011","zip":"76092","geo_score":1.0,"id":"agyi6xc2igh1","address":"410 West Southlake Blvd.","geo_precision":"range","state":"TX"},"type":"Feature","geometry":{"type":"Point","coordinates":[-97.155756,32.941138]}},{"properties":{"name":"Lloyd Weintraub","city":"West Hollywood","store number":"20041","zip":"90046","geo_score":0.916,"id":"agyi6x3g7aln","address":"7100 Santa Monica Blvd.","geo_precision":"range","state":"CA"},"type":"Feature","geometry":{"type":"Point","coordinates":[-118.345145,34.090699]}},{"properties":{"name":"Lloyd Weintraub","city":"Hollywood","store number":"20058","zip":"90028","geo_score":1.0,"id":"agyi6x3agxon","address":"1517 Vine St.","geo_precision":"range","state":"CA"},"type":"Feature","geometry":{"type":"Point","coordinates":[-118.326741,34.099498]}},{"properties":{"name":"Lloyd W Weintraub","city":"Northridge","store number":"20026","zip":"91324","geo_score":0.955,"id":"agyi6xdom9x5","address":"19350 C Nordhoff St.","geo_precision":"range","state":"CA"},"type":"Feature","geometry":{"type":"Point","coordinates":[-118.553891,34.235407]}},{"properties":{"name":"Joseph R Weir","city":"Encinitas","store number":"20065","zip":"92024","geo_score":0.753,"id":"agyi6xdlgtbq","address":"1070 N El Camino Real","geo_precision":"street","state":"CA"},"type":"Feature","geometry":{"type":"Point","coordinates":[-117.262216,33.067585]}},{"properties":{"name":"Mitch Wells","city":"Columbia","store number":"7003","zip":"29209","geo_score":0.675,"id":"agyi6x20vr6o","address":"4717 Devine Street","geo_precision":"street","state":"SC"},"type":"Feature","geometry":{"type":"Point","coordinates":[-80.961167,33.961318]}},{"properties":{"name":"Mitch Wells","city":"Lexington","store number":"7037","zip":"29072","geo_score":1.0,"id":"agyi6x1saglm","address":"5594 Sunset Blvd.","geo_precision":"range","state":"SC"},"type":"Feature","geometry":{"type":"Point","coordinates":[-81.226863,33.994121]}},{"properties":{"name":"Edward Leo Werner","city":"Gastonia","store number":"3057","zip":"28054","geo_score":0.808,"id":"agyi6x8vkgku","address":"3754 East Franklin Blvd.","geo_precision":"street","state":"NC"},"type":"Feature","geometry":{"type":"Point","coordinates":[-81.113886,35.257548]}},{"properties":{"name":"Pam &amp; Tom Westerlund","city":"Grove City","store number":"2047","zip":"43123","geo_score":0.585,"id":"agyi6x35y8xy","address":"4114 Buckeye Parkway","geo_precision":"zip","state":"OH"},"type":"Feature","geometry":{"type":"Point","coordinates":[-83.086853,39.897563]}},{"properties":{"name":"Pam &amp; Tom Westerlund","city":"Hilliard","store number":"2023A","zip":"43026","geo_score":1.0,"id":"agyi6x5o585j","address":"4664 Cemetery Road","geo_precision":"range","state":"OH"},"type":"Feature","geometry":{"type":"Point","coordinates":[-83.137085,40.032072]}},{"properties":{"name":"Pam &amp; Tom Westerlund","city":"Gahanna","store number":"2005A","zip":"43230","geo_score":1.0,"id":"agyi6x5zwesj","address":"332 South Hamilton Road","geo_precision":"range","state":"OH"},"type":"Feature","geometry":{"type":"Point","coordinates":[-82.867089,40.010916]}},{"properties":{"name":"Pam &amp; Tom Westerlund","city":"Gahanna","store number":"2006A","zip":"43230","geo_score":0.604,"id":"agyi6xec5d3h","address":"1340 N. Hamilton Rd.","geo_precision":"street","state":"OH"},"type":"Feature","geometry":{"type":"Point","coordinates":[-82.866973,40.013501]}},{"properties":{"name":"Pam &amp; Tom Westerlund","city":"Dublin","store number":"2017B","zip":"43017","geo_score":1.0,"id":"agyi6xdbwl2i","address":"6702 Perimeter Loop Road","geo_precision":"range","state":"OH"},"type":"Feature","geometry":{"type":"Point","coordinates":[-83.157604,40.101726]}},{"properties":{"name":"Joseph P. White","city":"Chantilly","store number":"6029","zip":"20151","geo_score":0.659,"id":"agyi6xa338yr","address":"5005 Westone Plaza Blvd.","geo_precision":"range","state":"VA"},"type":"Feature","geometry":{"type":"Point","coordinates":[-77.710504,38.660256]}},{"properties":{"name":"Joseph P. White","city":"Fairfax","store number":"6027","zip":"22030","geo_score":1.0,"id":"agyi6x2gdq3i","address":"11199 Lee Highway","geo_precision":"range","state":"VA"},"type":"Feature","geometry":{"type":"Point","coordinates":[-77.329639,38.852022]}},{"properties":{"name":"Todd White","city":"Monroe","store number":"5034","zip":"30655","geo_score":0.683,"id":"agyi6x4jjkkw","address":"2120 West Spring St.","geo_precision":"street","state":"GA"},"type":"Feature","geometry":{"type":"Point","coordinates":[-83.737235,33.791637]}},{"properties":{"name":"Shawn Willis","city":"Edmond","store number":"23011","zip":"73034","geo_score":0.927,"id":"agyi6x6zogev","address":"1149 East 2nd Street","geo_precision":"range","state":"OK"},"type":"Feature","geometry":{"type":"Point","coordinates":[-97.463659,35.652866]}},{"properties":{"name":"Eric Wilson","city":"Boca Raton","store number":"13017","zip":"33434","geo_score":1.0,"id":"agyi6x28xixz","address":"8903 Glades Road","geo_precision":"range","state":"FL"},"type":"Feature","geometry":{"type":"Point","coordinates":[-80.184875,26.367969]}},{"properties":{"name":"Joyce Wilson","city":"Ashland","store number":"6003","zip":"23005","geo_score":1.0,"id":"agyi6x65togi","address":"708 England Street","geo_precision":"range","state":"VA"},"type":"Feature","geometry":{"type":"Point","coordinates":[-77.46976,37.758541]}},{"properties":{"name":"Joyce Wilson","city":"Ashland","store number":"6006","zip":"23005","geo_score":0.692,"id":"agyi6x17grhg","address":"10180 Lakeridge Pkwy","geo_precision":"street","state":"VA"},"type":"Feature","geometry":{"type":"Point","coordinates":[-77.45589,37.682783]}},{"properties":{"name":"Lloyd Russell Windon","city":"Marietta","store number":"5033","zip":"30066","geo_score":1.0,"id":"agyi6xezo0s9","address":"2960 Shallowford Road","geo_precision":"range","state":"GA"},"type":"Feature","geometry":{"type":"Point","coordinates":[-84.466173,34.036605]}},{"properties":{"name":"Kim &amp; Jeff David Wolfangel","city":"Webster Groves","store number":"25001","zip":"63119","geo_score":1.0,"id":"agyi6x8lxkzf","address":"8567 Watson Rd.","geo_precision":"range","state":"MO"},"type":"Feature","geometry":{"type":"Point","coordinates":[-90.356074,38.565468]}},{"properties":{"name":"Thomas Wooten","city":"Wilson","store number":"3035A","zip":"27893","geo_score":0.757,"id":"agyi6xfno5gj","address":"2338 Forest Hills Road","geo_precision":"street","state":"NC"},"type":"Feature","geometry":{"type":"Point","coordinates":[-77.952129,35.719792]}},{"properties":{"name":"Thomas Wooten","city":"Tarboro","store number":"3110","zip":"27886","geo_score":0.955,"id":"agyi6x1pqwab","address":"150 River Oaks Drive","geo_precision":"range","state":"NC"},"type":"Feature","geometry":{"type":"Point","coordinates":[-77.546339,35.882564]}},{"properties":{"name":"Troy D. Wuertz","city":"Richardson","store number":"15035","zip":"75080","geo_score":0.619,"id":"agyi6xfgjvyb","address":"1920 N. Coit Rd.","geo_precision":"street","state":"TX"},"type":"Feature","geometry":{"type":"Point","coordinates":[-96.768988,32.950845]}},{"properties":{"name":"Jimmy (Jay) Yates","city":"Winterville","store number":"3064","zip":"28590","geo_score":1.0,"id":"agyi6x94bbt5","address":"4054 South Memorial Dr","geo_precision":"range","state":"NC"},"type":"Feature","geometry":{"type":"Point","coordinates":[-77.406082,35.553746]}},{"properties":{"name":"Jimmy (Jay) Yates","city":"Goldsboro","store number":"3058B","zip":"27534","geo_score":0.625,"id":"agyi6x6zclrz","address":"2503 E. Ash Street","geo_precision":"street","state":"NC"},"type":"Feature","geometry":{"type":"Point","coordinates":[-77.960016,35.375566]}},{"properties":{"name":"Jimmy (Jay) Yates","city":"Greenville","store number":"3106","zip":"27834","geo_score":1.0,"id":"agyi6x4iq405","address":"796A Moye Boulevard","geo_precision":"range","state":"NC"},"type":"Feature","geometry":{"type":"Point","coordinates":[-77.4009,35.605803]}},{"properties":{"name":"Jimmy (Jay) Yates","city":"Washington","store number":"3070","zip":"27889","geo_score":0.727,"id":"agyi6x0m2vc8","address":"420 Pamlico Plaza","geo_precision":"street","state":"NC"},"type":"Feature","geometry":{"type":"Point","coordinates":[-77.009596,35.53222]}},{"properties":{"name":"Jimmy (Jay) Yates","city":"New Bern","store number":"3115","zip":"28560","geo_score":0.671,"id":"agyi6x2eop9u","address":"2309 Highway 70 East","geo_precision":"street","state":"NC"},"type":"Feature","geometry":{"type":"Point","coordinates":[-77.072944,35.108187]}},{"properties":{"name":"Jimmy (Jay) Yates","city":"Greenville","store number":"3003","zip":"27858","geo_score":0.954,"id":"agyi6x1f4q5p","address":"310-D East Arlington Boulevard","geo_precision":"range","state":"NC"},"type":"Feature","geometry":{"type":"Point","coordinates":[-77.372041,35.586737]}},{"properties":{"name":"Jimmy (Jay) Yates","city":"Greenville","store number":"3004","zip":"27858","geo_score":0.892,"id":"agyi6x70dc9k","address":"1915 South East Greenville Blvd","geo_precision":"range","state":"NC"},"type":"Feature","geometry":{"type":"Point","coordinates":[-77.337991,35.596321]}},{"properties":{"name":"Stephen J. Youlios","city":"Saugus","store number":"20018","zip":"91350","geo_score":1.0,"id":"agyi6x1xlu14","address":"26510 Bouquet Canyon Rd.","geo_precision":"range","state":"CA"},"type":"Feature","geometry":{"type":"Point","coordinates":[-118.536938,34.427286]}},{"properties":{"name":"Stephen J. Youlios","city":"Stevenson Ranch","store number":"20045","zip":"91381","geo_score":1.0,"id":"agyi6x52dq8g","address":"25660 The Old Road","geo_precision":"range","state":"CA"},"type":"Feature","geometry":{"type":"Point","coordinates":[-118.572067,34.386217]}},{"properties":{"name":"Stephen J. Youlios","city":"Valencia","store number":"20005A","zip":"91354","geo_score":0.61,"id":"agyi6xbqanc5","address":"23872 Copper Hill Dr","geo_precision":"street","state":"CA"},"type":"Feature","geometry":{"type":"Point","coordinates":[-118.535189,34.46]}},{"properties":{"name":"Stephen Youlios","city":"Canyon Country","store number":"20016B","zip":"91351","geo_score":1.0,"id":"agyi6xge63bd","address":"18635 Soledad Canyon Road","geo_precision":"range","state":"CA"},"type":"Feature","geometry":{"type":"Point","coordinates":[-118.458657,34.416026]}},{"properties":{"name":"Austin Yount","city":"Raleigh","store number":"3131","zip":"27609","geo_score":1.0,"id":"agyi6xfy5g0q","address":"6176 Falls of Neuse Road","geo_precision":"range","state":"NC"},"type":"Feature","geometry":{"type":"Point","coordinates":[-78.620483,35.866098]}},{"properties":{"name":"Adam M. Zeigler","city":"Plano","store number":"15016","zip":"75024","geo_score":0.805,"id":"agyi6xace7ot","address":"8100 Dallas Pkwy","geo_precision":"street","state":"TX"},"type":"Feature","geometry":{"type":"Point","coordinates":[-96.823965,33.077573]}},{"properties":{"name":"Steve Zeigler","city":"Frisco","store number":"15037","zip":"75034","geo_score":0.878,"id":"agyi6x6d872c","address":"5110 Eldorado Parkway","geo_precision":"range","state":"TX"},"type":"Feature","geometry":{"type":"Point","coordinates":[-96.837903,33.175066]}},{"properties":{"name":"Steven J. Zeigler","city":"Plano","store number":"15013","zip":"75075","geo_score":0.607,"id":"agyi6xf8l3np","address":"1881 N. Central Expressway","geo_precision":"street","state":"TX"},"type":"Feature","geometry":{"type":"Point","coordinates":[-96.708441,33.009444]}},{"properties":{"name":"Brian Patrick Zelmer","city":"Arlington","store number":"18008","zip":"98223","geo_score":1.0,"id":"agyi6x0agtiu","address":"3704 172nd Street NE","geo_precision":"range","state":"WA"},"type":"Feature","geometry":{"type":"Point","coordinates":[-122.180272,48.152397]}},{"properties":{"name":"Paul M. Ziady","city":"Nashville","store number":"4027","zip":"37228","geo_score":0.493,"id":"agyi6xb8rlqr","address":"2050 Rosa Parks Blvd","geo_precision":"street","state":"TN"},"type":"Feature","geometry":{"type":"Point","coordinates":[-86.70821,36.188554]}},{"properties":{"name":"John Stephens","city":"Arlington Heights","store number":"27017A","zip":"60004","geo_score":1.0,"id":"agyi6x4qxz4g","address":"115 West Rand Road","geo_precision":"range","state":"IL"},"type":"Feature","geometry":{"type":"Point","coordinates":[-87.984232,42.115156]}},{"properties":{"name":"Rob Cancro","city":"Long Branch","store number":"1040","zip":"7740","geo_score":1.0,"id":"agyi6xbdrs0z","address":"444 Ocean Blvd North","geo_precision":"range","state":"NJ"},"type":"Feature","geometry":{"type":"Point","coordinates":[-73.979881,40.314389]}},{"properties":{"name":"Dharmash Patel","city":"Hermitage","store number":"4011C","zip":"37076","geo_score":0.287,"id":"agyi6x4soutx","address":"5506 Old Hickory Blvd.","geo_precision":"street","state":"TN"},"type":"Feature","geometry":{"type":"Point","coordinates":[-86.911182,35.323004]}},{"properties":{"name":"Larry Rover","city":"Cincinnati","store number":"2008D","zip":"45231","geo_score":1.0,"id":"agyi6x5mrf0i","address":"8481 Winton Rd.","geo_precision":"range","state":"OH"},"type":"Feature","geometry":{"type":"Point","coordinates":[-84.517416,39.223038]}},{"properties":{"name":"Ryan McLaughlin","city":"Port Orange","store number":"13041A","zip":"32127","geo_score":1.0,"id":"agyi6xgmh3et","address":"3843 South Nova Road","geo_precision":"range","state":"FL"},"type":"Feature","geometry":{"type":"Point","coordinates":[-81.004222,29.125919]}},{"properties":{"name":"Lance S. Liptak","city":"Boca Raton","store number":"13025A","zip":"33433","geo_score":1.0,"id":"agyi6x4txq4r","address":"7050 West Palmetto Park Road","geo_precision":"range","state":"FL"},"type":"Feature","geometry":{"type":"Point","coordinates":[-80.154422,26.350248]}},{"properties":{"name":"Arash Ainolhayat","city":"Fayetteville","store number":"3105A","zip":"28303","geo_score":1.0,"id":"agyi6x9ce1mv","address":"5815 Yadkin Road","geo_precision":"range","state":"NC"},"type":"Feature","geometry":{"type":"Point","coordinates":[-78.986146,35.093696]}}],"is_temporal":false,"author":{"url":"","metadata":"","contact_name":"","contact_address":"","source":"","contact_phone":""},"source":"","pagination":{"sort":null,"start":0,"total":649,"limit":1000000},"state":"complete","tags":"","published":"2014-08-16T14:29:07-04:00","id":391409}