{"type":"FeatureCollection","data_type":"Dataset","url_type":null,"permissions":[{"permissions":{"download":true,"view":true},"group_id":"everyone"}],"classification":null,"title":"Pacific West Region","count":14,"stream_id":391477,"contributor":{"url":"http://geocommons.com/users/51090","name":"ICheccio"},"data_attributes":null,"calculation_params":null,"icon_link":null,"link":"http://geocommons.com/overlays/391477.json","extent":[-157.895,21.3352,-104.854,39.922],"geometry_types":["point"],"unique_name":null,"name":"Pacific West Region","feature_count":14,"description":"","next_feature":null,"is_raster":false,"short_classification":"Y","stats":{},"features":[{"properties":{"city":"Visalia","organization name":"Able Industries","region":"Pacific West","geo_score":0.902,"street address":"8127 Avenue 304","zip code":"93291","id":"agylzzaotgq1","geo_precision":"range","state":"California"},"type":"Feature","geometry":{"type":"Point","coordinates":[-119.420466,36.341594]}},{"properties":{"city":"Bakersfield","organization name":"Bakersfield Arc","region":"Pacific West","geo_score":0.902,"street address":"2125 Brundage Ln","zip code":"93304","id":"agylzyx4nkqc","geo_precision":"range","state":"California"},"type":"Feature","geometry":{"type":"Point","coordinates":[-119.026795,35.353908]}},{"properties":{"city":"Denver","organization name":"Bayaud Industries","region":"Pacific West","geo_score":0.878,"street address":"333 W Bayaud Ave","zip code":"80223","id":"agylzywdwl0s","geo_precision":"range","state":"Colorado"},"type":"Feature","geometry":{"type":"Point","coordinates":[-104.992253,39.714881]}},{"properties":{"city":"Colorado Springs","organization name":"Discover Goodwill of Southern and Western Colorado","region":"Pacific West","geo_score":0.846,"street address":"1460 Garden of the Gods Rd W","zip code":"80907","id":"agylzz30tpqj","geo_precision":"range","state":"Colorado"},"type":"Feature","geometry":{"type":"Point","coordinates":[-104.854265,38.896695]}},{"properties":{"city":"Fresno","organization name":"Fresno Arc","region":"Pacific West","geo_score":0.694,"street address":"4567 N Marty Ave","zip code":"93722","id":"agylzz9bokvd","geo_precision":"street","state":"California"},"type":"Feature","geometry":{"type":"Point","coordinates":[-119.85806,36.786401]}},{"properties":{"city":"Phoenix","organization name":"Gompers Habilitation Center","region":"Pacific West","geo_score":0.832,"street address":"6601 North 27th Avenue","zip code":"85017","id":"agylzz0029lx","geo_precision":"range","state":"Arizona"},"type":"Feature","geometry":{"type":"Point","coordinates":[-112.116896,33.534019]}},{"properties":{"city":"Honolulu","organization name":"Goodwill Contract Services, Hawaii","region":"Pacific West","geo_score":0.892,"street address":"2610 Kilihau Street","zip code":"96819","id":"agylzz76dtne","geo_precision":"range","state":"Hawaii"},"type":"Feature","geometry":{"type":"Point","coordinates":[-157.894757,21.335229]}},{"properties":{"city":"Los Angeles","organization name":"Goodwill Industries of Southern California","region":"Pacific West","geo_score":0.86,"street address":"342 San Fernando Road","zip code":"90031","id":"agylzz3u9kmp","geo_precision":"range","state":"California"},"type":"Feature","geometry":{"type":"Point","coordinates":[-118.223238,34.077617]}},{"properties":{"city":"Santa Ana","organization name":"Goodwill of Orange County","region":"Pacific West","geo_score":0.902,"street address":"3232 S Fairview St","zip code":"92704","id":"agylzz4gm2ci","geo_precision":"range","state":"California"},"type":"Feature","geometry":{"type":"Point","coordinates":[-117.907905,33.703663]}},{"properties":{"city":"San Diego","organization name":"Goodwill of San Diego County","region":"Pacific West","geo_score":0.893,"street address":"3663 Rosecrans St","zip code":"92110","id":"agylzyx2uw9h","geo_precision":"range","state":"California"},"type":"Feature","geometry":{"type":"Point","coordinates":[-117.204293,32.751652]}},{"properties":{"city":"San Diego","organization name":"Job Options, Inc","region":"Pacific West","geo_score":0.407,"street address":"3465 Camino Del Rio S #300","zip code":"92108","id":"agylzz4iq4fb","geo_precision":"street","state":"California"},"type":"Feature","geometry":{"type":"Point","coordinates":[-117.154735,32.764251]}},{"properties":{"city":"Westminster","organization name":"North Metro Community Services, Inc","region":"Pacific West","geo_score":0.837,"street address":"1001 W 124th Ave","zip code":"80234","id":"agylzz349m74","geo_precision":"range","state":"Colorado"},"type":"Feature","geometry":{"type":"Point","coordinates":[-104.996827,39.922025]}},{"properties":{"city":"Tempe","organization name":"The Center for Habilitation","region":"Pacific West","geo_score":0.789,"street address":"215 W Lodge Dr","zip code":"AZ 85283","id":"agylzz6qs6yq","geo_precision":"range","state":"Arizona"},"type":"Feature","geometry":{"type":"Point","coordinates":[-111.941987,33.359052]}},{"properties":{"city":"Petaluma","organization name":"United Cerebral Palsy of the North Bay","region":"Pacific West","geo_score":0.892,"street address":"3835 Cypress Dr","zip code":"94954","id":"agylzzas6q5t","geo_precision":"range","state":"California"},"type":"Feature","geometry":{"type":"Point","coordinates":[-122.589958,38.228184]}}],"is_temporal":false,"author":{"url":"","metadata":"","contact_name":"","contact_address":"","source":"","contact_phone":""},"source":"","pagination":{"sort":null,"start":0,"total":14,"limit":1000000},"state":"complete","tags":"","published":"2014-08-16T14:36:59-04:00","id":391477}