{"type":"FeatureCollection","data_type":"Dataset","url_type":null,"permissions":[{"permissions":{"download":true,"view":true},"group_id":"everyone"}],"classification":null,"title":"BNP","count":69,"stream_id":391434,"contributor":{"url":"http://geocommons.com/users/80532","name":"landesb"},"data_attributes":null,"calculation_params":null,"icon_link":null,"link":"http://geocommons.com/overlays/391434.json","extent":[-75.5169,38.5514,-75.1576,39.2409],"geometry_types":["point"],"unique_name":null,"name":"BNP","feature_count":69,"description":"","next_feature":null,"is_raster":false,"short_classification":"Y","stats":{},"features":[{"properties":{"city":"Al Bateen","country":"United Arab Emirates","adress":"Al Bateen Area\nPlot n 144, W-11\nNew Al bateen Municipality\nStreet n 32\nPO Box n 2742","geo_score":0.0,"postal code":null,"id":"agyj33y9gygf","geo_precision":"unmatched"},"type":"Feature","geometry":null},{"properties":{"city":"Brussels","country":"Belgium","adress":"Boulevard Louis\nSchmidtlaan 2 B3\n1040 Brussels","geo_score":0.0,"postal code":null,"id":"agyj340zu8f7","geo_precision":"unmatched"},"type":"Feature","geometry":null},{"properties":{"city":"Prague","country":"Czech Republic","adress":"Pob?en 3\n186 00 Prague 8","geo_score":0.0,"postal code":null,"id":"agyj341vtutb","geo_precision":"unmatched"},"type":"Feature","geometry":null},{"properties":{"city":"Prague","country":"Czech Republic","adress":"V Celnici 1031/4\n110 00 Prague 1","geo_score":0.0,"postal code":null,"id":"agyj3409xq69","geo_precision":"unmatched"},"type":"Feature","geometry":null},{"properties":{"city":"Duba","country":"United Arab Emirates","adress":"Emaar Square\nBuilding No. 1, 7th Floor\nP.O. Box 7233 Duba","geo_score":0.0,"postal code":null,"id":"agyj33uxylrw","geo_precision":"unmatched"},"type":"Feature","geometry":null},{"properties":{"city":"Paris","country":"France","adress":"167, Quai de la Bataille de Stalingrad\n92867 Issy-Les-Moulineaux Cedex","geo_score":0.0,"postal code":null,"id":"agyj340skk5v","geo_precision":"unmatched"},"type":"Feature","geometry":null},{"properties":{"city":"Aix-en-Provence","country":"France","adress":"Parc du Golf - Bt. 33\n350, Avenue J R Guillibert de la Lauzire\nLes Milles\n13 290 Aix-en-Provence","geo_score":0.0,"postal code":null,"id":"agyj33o8btia","geo_precision":"unmatched"},"type":"Feature","geometry":null},{"properties":{"city":"Annecy","country":"France","adress":"PAE des Glaisins\n19, avenue du Pr-de-Challes\n74940 Annecy-le-Vieux","geo_score":0.0,"postal code":null,"id":"agyj341n7l8l","geo_precision":"unmatched"},"type":"Feature","geometry":null},{"properties":{"city":"Bagnolet","country":"France","adress":"Immeuble Les Mercuriales\n40, rue Jean Jaurs\n93176 Bagnolet Cedex","geo_score":0.0,"postal code":null,"id":"agyj3419rzkq","geo_precision":"unmatched"},"type":"Feature","geometry":null},{"properties":{"city":"Bordeaux","country":"France","adress":"Les Bureaux de la Cit\n23, Parvis des Chartrons\n33074 Bordeaux Cedex","geo_score":0.0,"postal code":null,"id":"agyj33r8qpkz","geo_precision":"unmatched"},"type":"Feature","geometry":null},{"properties":{"city":"Clermont-Ferrand","country":"France","adress":"Immeuble Le Kpler\n3, rue Kpler\n63100 Clermont-Ferrand","geo_score":0.0,"postal code":null,"id":"agyj340rfvta","geo_precision":"unmatched"},"type":"Feature","geometry":null},{"properties":{"city":"Dijon","country":"France","adress":"Immeuble Le Richelieu\n10, boulevard Carnot\n21000 Dijon","geo_score":0.0,"postal code":null,"id":"agyj341jd3fm","geo_precision":"unmatched"},"type":"Feature","geometry":null},{"properties":{"city":"Eragny","country":"France","adress":"Immeuble Le Tennessee\n8, alle Rosa Luxembourg\nBP 30272 Cergy-Pontoise Cedex","geo_score":0.0,"postal code":null,"id":"agyj33s6u47s","geo_precision":"unmatched"},"type":"Feature","geometry":null},{"properties":{"city":"Grenoble","country":"France","adress":"Immeuble Le Grenat\n3, avenue du Doyen Louis Weil\n38000 Grenoble","geo_score":0.0,"postal code":null,"id":"agyj33uig8m7","geo_precision":"unmatched"},"type":"Feature","geometry":null},{"properties":{"city":"Lille","country":"France","adress":"100, Tour de Lille\nBoulevard de Turin\n59777 Euralille","geo_score":0.0,"postal code":null,"id":"agyj33qvtjmj","geo_precision":"unmatched"},"type":"Feature","geometry":null},{"properties":{"city":"Lyon","country":"France","adress":"Tour Part-Dieu\n129, rue Servient\n69326 Lyon Cedex 3","geo_score":0.0,"postal code":null,"id":"agyj33sqpxd2","geo_precision":"unmatched"},"type":"Feature","geometry":null},{"properties":{"city":"Marseille","country":"France","adress":"44, boulevard de Dunkerque\nCS11527 - 13235 Marseille Cedex 2","geo_score":0.0,"postal code":null,"id":"agyj33x9pkjk","geo_precision":"unmatched"},"type":"Feature","geometry":null},{"properties":{"city":"Metz","country":"France","adress":"WTC - Technople de Metz\n2, rue Augustin Fresnel\n57082 Metz Cedex 3","geo_score":0.0,"postal code":null,"id":"agyj33u8ib7d","geo_precision":"unmatched"},"type":"Feature","geometry":null},{"properties":{"city":"Montpellier","country":"France","adress":"Immeuble Le Triangle\n26, alle Jules Milhau\nCS89501\n34265 Montpellier Cedex 02","geo_score":0.0,"postal code":null,"id":"agyj33vre2kt","geo_precision":"unmatched"},"type":"Feature","geometry":null},{"properties":{"city":"Nancy","country":"France","adress":"40 rue Victor\n54000 Nancy","geo_score":0.0,"postal code":null,"id":"agyj33nfaq6j","geo_precision":"unmatched"},"type":"Feature","geometry":null},{"properties":{"city":"Nantes","country":"France","adress":"Immeuble Axo\n14 Mail Pablo Picasso\nBP 61611\n44016 Nantes Cedex 01","geo_score":0.0,"postal code":null,"id":"agyj33x0m641","geo_precision":"unmatched"},"type":"Feature","geometry":null},{"properties":{"city":"Nice","country":"France","adress":"Immeuble Phoenix - Arnas\n455, promenade des Anglais\n06285 Nice Cedex 3","geo_score":0.0,"postal code":null,"id":"agyj33yt8sbo","geo_precision":"unmatched"},"type":"Feature","geometry":null},{"properties":{"city":"Orlans","country":"France","adress":"16, rue de la Rpublique\n45000 Orlans","geo_score":0.0,"postal code":null,"id":"agyj33ui3hjw","geo_precision":"unmatched"},"type":"Feature","geometry":null},{"properties":{"city":"Rennes","country":"France","adress":"Centre daffaires Atha\n11, rue Louis Kerautret-Botmel\n35000 Rennes","geo_score":0.0,"postal code":null,"id":"agyj33p0nk61","geo_precision":"unmatched"},"type":"Feature","geometry":null},{"properties":{"city":"Rouen","country":"France","adress":"Immeuble Le Bretagne\n57, avenue de Bretagne\n76108 Rouen Cedex 1","geo_score":0.0,"postal code":null,"id":"agyj33z2mlul","geo_precision":"unmatched"},"type":"Feature","geometry":null},{"properties":{"city":"Strasbourg","country":"France","adress":"Immeuble Europe\n20, place des Halles\n67000 Strasbourg","geo_score":0.0,"postal code":null,"id":"agyj33u0jurm","geo_precision":"unmatched"},"type":"Feature","geometry":null},{"properties":{"city":"Toulouse","country":"France","adress":"Immeuble Le Sully\n1, Place Occitane BP 80726\n31007 Toulouse Cedex 6","geo_score":0.0,"postal code":null,"id":"agyj341xd6fn","geo_precision":"unmatched"},"type":"Feature","geometry":null},{"properties":{"city":"Berlin","country":"Germany","adress":"Neues Kranzler Eck / Kurfrstendamm 22\n10719 Berlin","geo_score":0.0,"postal code":null,"id":"agyj33sbyv2e","geo_precision":"unmatched"},"type":"Feature","geometry":null},{"properties":{"city":"Cologne","country":"Germany","adress":"Ccilium / Ccilienkloster 10\n50676 Cologne","geo_score":0.0,"postal code":null,"id":"agyj33q2db0e","geo_precision":"unmatched"},"type":"Feature","geometry":null},{"properties":{"city":"Dsseldorf","country":"Germany","adress":"Fritz-Vomfelde-Strasse 34\n40547 Dsseldorf","geo_score":0.0,"postal code":null,"id":"agyj33q80xm6","geo_precision":"unmatched"},"type":"Feature","geometry":null},{"properties":{"city":"Dsseldorf","country":"Germany","adress":"Benrather Karree / Benrather Strae 18-20\n40213 Dsseldorf","geo_score":0.0,"postal code":null,"id":"agyj340kkcm6","geo_precision":"unmatched"},"type":"Feature","geometry":null},{"properties":{"city":"Essen","country":"Germany","adress":"Rttenscheider Strasse 144\n45131 Essen","geo_score":0.0,"postal code":null,"id":"agyj33z2r5um","geo_precision":"unmatched"},"type":"Feature","geometry":null},{"properties":{"city":"Frankfurt","country":"Germany","adress":"Goetheplatz 4\n60311 Frankfurt am Main","geo_score":0.714,"postal code":null,"id":"agyj33qbojbj","geo_precision":"city"},"type":"Feature","geometry":{"type":"Point","coordinates":[-75.157634,38.55144]}},{"properties":{"city":"Frankfurt","country":"Germany","adress":"Clemensstrae 10\n60487 Frankfurt am Main","geo_score":0.714,"postal code":null,"id":"agyj33n6sr3f","geo_precision":"city"},"type":"Feature","geometry":{"type":"Point","coordinates":[-75.157634,38.55144]}},{"properties":{"city":"Hamburg","country":"Germany","adress":"Schleusenbrcke 1 / Neuer Wall 25\n20354 Hamburg","geo_score":0.0,"postal code":null,"id":"agyj33sfwr6f","geo_precision":"unmatched"},"type":"Feature","geometry":null},{"properties":{"city":"Hannover","country":"Germany","adress":"Ihmepassage 4\n30449 Hannover","geo_score":0.0,"postal code":null,"id":"agyj33xilhnc","geo_precision":"unmatched"},"type":"Feature","geometry":null},{"properties":{"city":"Karlsruhe","country":"Germany","adress":"Douglasstrasse 24-26\n76133 Karlsruhe","geo_score":0.0,"postal code":null,"id":"agyj33quiggh","geo_precision":"unmatched"},"type":"Feature","geometry":null},{"properties":{"city":"Leipzig","country":"Germany","adress":"Messehaus am Markt / Markt 16\n04109 Leipzig","geo_score":0.714,"postal code":null,"id":"agyj33ri1lpr","geo_precision":"city"},"type":"Feature","geometry":{"type":"Point","coordinates":[-75.516868,39.240945]}},{"properties":{"city":"Leipzig","country":"Germany","adress":"Petersstrae 13\n04109 Leipzig","geo_score":0.714,"postal code":null,"id":"agyj33zswvwg","geo_precision":"city"},"type":"Feature","geometry":{"type":"Point","coordinates":[-75.516868,39.240945]}},{"properties":{"city":"Munich","country":"Germany","adress":"Maximilianstrasse 35\n80539 Munich","geo_score":0.0,"postal code":null,"id":"agyj33rqazue","geo_precision":"unmatched"},"type":"Feature","geometry":null},{"properties":{"city":"Hong Kong","country":"Hong Kong","adress":"63 /F Two international   nance\nCenter - 8 Finance Street","geo_score":0.0,"postal code":null,"id":"agyj33orxcn2","geo_precision":"unmatched"},"type":"Feature","geometry":null},{"properties":{"city":"Budapest","country":"Hungary","adress":"H - 1123 Budapest,\nAlkots u. 53.","geo_score":0.0,"postal code":null,"id":"agyj33rwjbml","geo_precision":"unmatched"},"type":"Feature","geometry":null},{"properties":{"city":"Budapest","country":"Hungary","adress":"1061 Budapest,\nAndrssy t 23. 2. em.","geo_score":0.0,"postal code":null,"id":"agyj33qsthp4","geo_precision":"unmatched"},"type":"Feature","geometry":null},{"properties":{"city":"Dublin","country":"Ireland","adress":"20 Merrion Road,\nBallsbridge, Dublin 4","geo_score":0.0,"postal code":null,"id":"agyj33uufluj","geo_precision":"unmatched"},"type":"Feature","geometry":null},{"properties":{"city":"Milan","country":"Italy","adress":"Via Carlo Bo, 11\n20143 Milano","geo_score":0.0,"postal code":null,"id":"agyj33pfkq41","geo_precision":"unmatched"},"type":"Feature","geometry":null},{"properties":{"city":"Rome","country":"Italy","adress":"Via di San Basilio - 45 \n00187 Roma","geo_score":0.0,"postal code":null,"id":"agyj33onf7qo","geo_precision":"unmatched"},"type":"Feature","geometry":null},{"properties":{"city":"St Helier","country":"United Kingdom","adress":"Dialogue House\n2-6 Anley Street\nSt Helier, Jersey JE4 8RD","geo_score":0.0,"postal code":null,"id":"agyj33z36t8k","geo_precision":"unmatched"},"type":"Feature","geometry":null},{"properties":{"city":"Luxembourg","country":"Luxembourg","adress":"Axento Building\n44 Avenue J.F. Kennedy\n1855 Luxembourg","geo_score":0.0,"postal code":null,"id":"agyj33q4ehuu","geo_precision":"unmatched"},"type":"Feature","geometry":null},{"properties":{"city":"Amsterdam","country":"Netherlands","adress":"J.J. Viottastraat 33\n1071 JP Amsterdam","geo_score":0.0,"postal code":null,"id":"agyj33xnmrg8","geo_precision":"unmatched"},"type":"Feature","geometry":null},{"properties":{"city":"Warsaw","country":"Poland","adress":"Al. Jana Paw?a II 25\n00-854 Warsaw","geo_score":0.0,"postal code":null,"id":"agyj33s3dnsi","geo_precision":"unmatched"},"type":"Feature","geometry":null},{"properties":{"city":"Gdynia","country":"Poland","adress":"Al. Zwyci?stwa 256\n81-525 Gdynia","geo_score":0.0,"postal code":null,"id":"agyj33w3rvni","geo_precision":"unmatched"},"type":"Feature","geometry":null},{"properties":{"city":"Bucharest","country":"Romania","adress":"Union International Center\n11 Ion Campineanu Street.\n6th floor, 1st district,\nBucharest","geo_score":0.0,"postal code":null,"id":"agyj33xha3be","geo_precision":"unmatched"},"type":"Feature","geometry":null},{"properties":{"city":"Singapore","country":"Singapore","adress":"10 Collyer Quay, #31-01\nOcean Financial Centre\nSingapore 049315","geo_score":0.0,"postal code":null,"id":"agyj33mrpdih","geo_precision":"unmatched"},"type":"Feature","geometry":null},{"properties":{"city":"Madrid","country":"Spain","adress":"C/ Maria de Molina, 54\n28006 Madrid","geo_score":0.0,"postal code":null,"id":"agyj33tfaas8","geo_precision":"unmatched"},"type":"Feature","geometry":null},{"properties":{"city":"Barcelona","country":"Spain","adress":"P de Gracia, 85, 3 pta.\n08008 Barcelona","geo_score":0.0,"postal code":null,"id":"agyj33m6q0vn","geo_precision":"unmatched"},"type":"Feature","geometry":null},{"properties":{"city":"Valencia","country":"Spain","adress":"Pza. America, 2 6 B\n46004 Valencia","geo_score":0.0,"postal code":null,"id":"agyj33mayx9e","geo_precision":"unmatched"},"type":"Feature","geometry":null},{"properties":{"city":"Sevilla","country":"Spain","adress":"Avda. Ramn Carande, 7\n41013 Sevilla","geo_score":0.0,"postal code":null,"id":"agyj33ugiup7","geo_precision":"unmatched"},"type":"Feature","geometry":null},{"properties":{"city":"Mlaga","country":"Spain","adress":"C/ Marqus de Larios, 4\nPl.3 Oficina 307\n29015 Mlaga","geo_score":0.0,"postal code":null,"id":"agyj341mhmen","geo_precision":"unmatched"},"type":"Feature","geometry":null},{"properties":{"city":"Las Palmas de Gran Canarias","country":"Spain","adress":"C/ Secretario Artiles, 37\n35007 Las Palmas de Gran Canarias","geo_score":0.0,"postal code":null,"id":"agyj33wr0xlm","geo_precision":"unmatched"},"type":"Feature","geometry":null},{"properties":{"city":"Zaragoza","country":"Spain","adress":"C/ 4 de Agosto, 14 Puerta Cinegia\n4 pl. Oficina C\n50004 Zaragoza","geo_score":0.0,"postal code":null,"id":"agyj33vwjz4z","geo_precision":"unmatched"},"type":"Feature","geometry":null},{"properties":{"city":"London","country":"United Kingdom","adress":"5 Aldermanbury Square\nLondon EC2V 8HR","geo_score":0.0,"postal code":"EC2V 8HR","id":"agyj33pjgdu9","geo_precision":"unmatched"},"type":"Feature","geometry":null},{"properties":{"city":"London","country":"United Kingdom","adress":"6 Floor Roxburghe House\n273 Regent street\nLondon Wig","geo_score":0.0,"postal code":"W1B 2HA","id":"agyj33q50qoo","geo_precision":"unmatched"},"type":"Feature","geometry":null},{"properties":{"city":"Bristol","country":"United Kingdom","adress":"One Redcliff Street\nBristol BS1 6NP","geo_score":0.0,"postal code":"BS1 6NP","id":"agyj33wrvnqh","geo_precision":"unmatched"},"type":"Feature","geometry":null},{"properties":{"city":"Birmingham","country":"United Kingdom","adress":"9 Colmore Row\nBirmingham B3 2BJ","geo_score":0.0,"postal code":"B3 2BJ","id":"agyj33occfn5","geo_precision":"unmatched"},"type":"Feature","geometry":null},{"properties":{"city":"Edinburgh","country":"United Kingdom","adress":"20 Charlotte Square\nEdinburgh EH2 4DF","geo_score":0.0,"postal code":"EH2 4DF","id":"agyj33liscm3","geo_precision":"unmatched"},"type":"Feature","geometry":null},{"properties":{"city":"Southampton","country":"United Kingdom","adress":"Alleyn House\n23/27 Carlton Crescent\nSouthampton SO15 2EU","geo_score":0.0,"postal code":"SO15 2EU","id":"agyj33t2nq5m","geo_precision":"unmatched"},"type":"Feature","geometry":null},{"properties":{"city":"Newcastle","country":"United Kingdom","adress":"One Trinity Gardens\nBroad Chare\nNewcastle Upon Tyne NE1 2HF","geo_score":0.0,"postal code":"NE1 2HF","id":"agyj340etmm5","geo_precision":"unmatched"},"type":"Feature","geometry":null},{"properties":{"city":"Leeds","country":"United Kingdom","adress":"Capitol House\nRussell Street\nLeeds LS1 5SP","geo_score":0.0,"postal code":"LS1 5SP","id":"agyj341k93nv","geo_precision":"unmatched"},"type":"Feature","geometry":null},{"properties":{"city":"Sheffield","country":"United Kingdom","adress":"1st Floor, Fountain Precinct\nBalm Green\nSheffield S1 2JA","geo_score":0.0,"postal code":"S1 2JA","id":"agyj33vwyqt4","geo_precision":"unmatched"},"type":"Feature","geometry":null}],"is_temporal":false,"author":{"url":"","metadata":"","contact_name":"","contact_address":"","source":"","contact_phone":""},"source":"","pagination":{"sort":null,"start":0,"total":69,"limit":1000000},"state":"complete","tags":"","published":"2014-08-16T14:34:02-04:00","id":391434}