{"type":"FeatureCollection","data_type":"Dataset","url_type":null,"permissions":[{"permissions":{"download":true,"view":true},"group_id":"everyone"}],"classification":null,"title":"South Central Region","count":11,"stream_id":391493,"contributor":{"url":"http://geocommons.com/users/51090","name":"ICheccio"},"data_attributes":null,"calculation_params":null,"icon_link":null,"link":"http://geocommons.com/overlays/391493.json","extent":[-106.307,27.7861,-90.0858,39.922],"geometry_types":["point"],"unique_name":null,"name":"South Central Region","feature_count":11,"description":"","next_feature":null,"is_raster":false,"short_classification":"Y","stats":{},"features":[{"properties":{"city":"Denver","status":"Closed - Not Qualified","organization name":"Bayaud Industries","region":"South Central","lead source":"SourceAmerica Website","modified":"9/3/2013 14:45","geo_score":0.878,"street address":"333 W Bayaud Ave","zip code":"80223","item type":"Item","id":"agynbknfw97q","path":"PartnerProgram/Lists/DOMA Partner Activity","geo_precision":"range","state":"Colorado"},"type":"Feature","geometry":{"type":"Point","coordinates":[-104.992253,39.714881]}},{"properties":{"city":"Colorado Springs","status":"Stage 1 - Qualifying","organization name":"Discover Goodwill of Southern and Western Colorado","region":"South Central","lead source":"SourceAmerica RFI","modified":"9/3/2013 14:45","geo_score":0.846,"street address":"1460 Garden of the Gods Rd W","zip code":"80907","item type":"Item","id":"agynbkt175y8","path":"PartnerProgram/Lists/DOMA Partner Activity","geo_precision":"range","state":"Colorado"},"type":"Feature","geometry":{"type":"Point","coordinates":[-104.854265,38.896695]}},{"properties":{"city":"San Antonio","status":"Stage 2 - Qualified","organization name":"Family Endeavors","region":"South Central","lead source":"SourceAmerica RFI","modified":"9/3/2013 13:01","geo_score":0.894,"street address":"535 Bandera Road","zip code":"78228","item type":"Item","id":"agynbkmcxsh3","path":"PartnerProgram/Lists/DOMA Partner Activity","geo_precision":"range","state":"Texas"},"type":"Feature","geometry":{"type":"Point","coordinates":[-98.548975,29.452568]}},{"properties":{"city":"Corpus Christi","status":"Stage 1 - Qualifying","organization name":"Goodwill Industries of South Texas","region":"South Central","lead source":"Webinar 7/25","modified":"9/3/2013 13:01","geo_score":0.462,"street address":"2961 S. Port Ave.","zip code":"78405","item type":"Item","id":"agynbkk0nsve","path":"PartnerProgram/Lists/DOMA Partner Activity","geo_precision":"street","state":"Texas"},"type":"Feature","geometry":{"type":"Point","coordinates":[-97.420513,27.786129]}},{"properties":{"city":"New Orleans","status":"Stage 1 - Qualifying","organization name":"Goodwill Industries of Southeastern Louisiana, Inc.","region":"South Central","lead source":"Webinar 7/25","modified":"9/3/2013 14:10","geo_score":0.845,"street address":"3400 Tulane Avenue, Suite 1000","zip code":"70119","item type":"Item","id":"agynbkj72755","path":"PartnerProgram/Lists/DOMA Partner Activity","geo_precision":"street","state":"Louisana"},"type":"Feature","geometry":{"type":"Point","coordinates":[-90.085835,29.959671]}},{"properties":{"city":"Austin","status":"Stage 1 - Qualifying","organization name":"Goodwill of Central Texas","region":"South Central","lead source":"Cold Call","modified":"9/3/2013 13:02","geo_score":0.889,"street address":"1015 Norwood Park Blvd","zip code":"78753","item type":"Item","id":"agynbkthvfua","path":"PartnerProgram/Lists/DOMA Partner Activity","geo_precision":"range","state":"Texas"},"type":"Feature","geometry":{"type":"Point","coordinates":[-97.696893,30.342118]}},{"properties":{"city":"Fort Worth","status":"Stage 3 - Submitted Assesment Proposal","organization name":"MHMR of Tarrant County","region":"South Central","lead source":"Norfolk Training 4/17","modified":"9/3/2013 13:02","geo_score":0.501,"street address":"3840 Hulen Street, North Tower","zip code":"76107","item type":"Item","id":"agynbkvc41ua","path":"PartnerProgram/Lists/DOMA Partner Activity","geo_precision":"street","state":"Texas"},"type":"Feature","geometry":{"type":"Point","coordinates":[-97.387847,32.728139]}},{"properties":{"city":"Westminster","status":"Stage 1 - Qualifying","organization name":"North Metro Community Services, Inc","region":"South Central","lead source":"Webinar 2/5","modified":"9/3/2013 14:45","geo_score":0.837,"street address":"1001 W 124th Ave","zip code":"80234","item type":"Item","id":"agynbkiyqoyq","path":"PartnerProgram/Lists/DOMA Partner Activity","geo_precision":"range","state":"Colorado"},"type":"Feature","geometry":{"type":"Point","coordinates":[-104.996827,39.922025]}},{"properties":{"city":"Jacksonville","status":"On Hold","organization name":"Pathfinder, Inc","region":"South Central","lead source":"Nashville Training 3/5","modified":"9/3/2013 13:02","geo_score":0.7,"street address":"2520 W Main St","zip code":"72076","item type":"Item","id":"agynbkn527y3","path":"PartnerProgram/Lists/DOMA Partner Activity","geo_precision":"street","state":"Arkansas"},"type":"Feature","geometry":{"type":"Point","coordinates":[-92.118924,34.867216]}},{"properties":{"city":"El Paso","status":"Closed - Not Qualified","organization name":"ReadyOne","region":"South Central","lead source":"Cold Call","modified":"9/3/2013 13:02","geo_score":0.817,"street address":"11460 Pellicano","zip code":"79936","item type":"Item","id":"agynbkkroj4h","path":"PartnerProgram/Lists/DOMA Partner Activity","geo_precision":"range","state":"Texas"},"type":"Feature","geometry":{"type":"Point","coordinates":[-106.306584,31.745504]}},{"properties":{"city":"Wichita Falls","status":"Stage 4 - Scheduled Assessment","organization name":"Work Services Corporation","region":"South Central","lead source":"Dallas Training 2/20","modified":"9/3/2013 13:03","geo_score":0.895,"street address":"3401 Armory Rd","zip code":"76302","item type":"Item","id":"agynbkjyzhrv","path":"PartnerProgram/Lists/DOMA Partner Activity","geo_precision":"range","state":"Texas"},"type":"Feature","geometry":{"type":"Point","coordinates":[-98.485565,33.878799]}}],"is_temporal":false,"author":{"url":"","metadata":"","contact_name":"","contact_address":"","source":"","contact_phone":""},"source":"","pagination":{"sort":null,"start":0,"total":11,"limit":1000000},"state":"complete","tags":"","published":"2014-08-16T14:37:24-04:00","id":391493}