{"type":"FeatureCollection","data_type":"Dataset","url_type":null,"permissions":[{"permissions":{"download":true,"view":true},"group_id":"everyone"}],"classification":null,"title":"Bass Pro Locations - Non New","count":57,"stream_id":391888,"contributor":{"url":"http://geocommons.com/users/74498","name":"mterranova"},"data_attributes":null,"calculation_params":null,"icon_link":null,"link":"http://geocommons.com/overlays/391888.json","extent":[-120.574,24.9149,-71.2494,42.9955],"geometry_types":["point"],"unique_name":null,"name":"Bass Pro Locations - Non New","feature_count":57,"description":"","next_feature":null,"is_raster":false,"short_classification":"Y","stats":{},"features":[{"properties":{"city":"Spanish Fort","zip":"36527","future":"N","geo_score":0.503,"store":"Spanish Fort (Mobile)","id":"agzhp1k29bp3","address":"20000 Bass Pro Drive","geo_precision":"street","state":"AL"},"type":"Feature","geometry":{"type":"Point","coordinates":[-88.154748,30.460048]}},{"properties":{"city":"Prattville","zip":"36066","future":"N","geo_score":0.362,"store":"Prattville ( Montgomery)","id":"agzhp1mqefuv","address":"2553 Rocky Mount Rd","geo_precision":"street","state":"AL"},"type":"Feature","geometry":{"type":"Point","coordinates":[-86.3015,31.568341]}},{"properties":{"city":"Leeds","zip":"35094","future":"N","geo_score":0.58,"store":"Leeds (Birmingham)","id":"agzhp1rdxztf","address":"5000 Bass Pro Blvd.","geo_precision":"street","state":"AL"},"type":"Feature","geometry":{"type":"Point","coordinates":[-86.557684,33.487511]}},{"properties":{"city":"Mesa","zip":"85201","future":"N","geo_score":0.726,"store":"Mesa (Phoenix)","id":"agzhp1valkfo","address":"1133 North Dobson","geo_precision":"street","state":"AZ"},"type":"Feature","geometry":{"type":"Point","coordinates":[-111.874286,33.428619]}},{"properties":{"city":"Rancho Cucamonga","zip":"91739","future":"N","geo_score":0.666,"store":"Rancho Cucamonga (Victoria Gardens)","id":"agzhp1ijc13j","address":"7777 Victoria Gardens Lane","geo_precision":"street","state":"CA"},"type":"Feature","geometry":{"type":"Point","coordinates":[-117.525811,34.128333]}},{"properties":{"city":"Manteca","zip":"95337","future":"N","geo_score":0.45,"store":"Manteca","id":"agzhp1sf980a","address":"1356 Bass Pro Drive","geo_precision":"street","state":"CA"},"type":"Feature","geometry":{"type":"Point","coordinates":[-120.573667,37.355633]}},{"properties":{"city":"Denver","zip":"80238","future":"N","geo_score":0.585,"store":"Denver","id":"agzhp1ok36aj","address":"7970 Northfield Blvd","geo_precision":"zip","state":"CO"},"type":"Feature","geometry":{"type":"Point","coordinates":[-104.408349,39.738752]}},{"properties":{"city":"Tallahassee","zip":"32317","future":"N","geo_score":0.585,"store":"Tallahassee","id":"agzhp1n3de7h","address":"4059 Lagniappe Way","geo_precision":"zip","state":"FL"},"type":"Feature","geometry":{"type":"Point","coordinates":[-84.346204,30.479347]}},{"properties":{"city":"Orlando","zip":"32819","future":"N","geo_score":1.0,"store":"Orlando","id":"agzhp1rzlnoq","address":"5156 International Dr.","geo_precision":"range","state":"FL"},"type":"Feature","geometry":{"type":"Point","coordinates":[-81.45032,28.468499]}},{"properties":{"city":"Miami","zip":"33172","future":"N","geo_score":0.747,"store":"Miami","id":"agzhp1lvoyuf","address":"11551 NW 12th St","geo_precision":"street","state":"FL"},"type":"Feature","geometry":{"type":"Point","coordinates":[-80.368642,25.784222]}},{"properties":{"city":"Islamorada","zip":"33036","future":"N","geo_score":1.0,"store":"Islamorada (World Wide Sportsman - Islam","id":"agzhp1vdudkp","address":"81576 Overseas Hwy.","geo_precision":"range","state":"FL"},"type":"Feature","geometry":{"type":"Point","coordinates":[-80.63901,24.914858]}},{"properties":{"city":"Ft. Meyers","zip":"33913","future":"N","geo_score":0.536,"store":"Ft. Myers","id":"agzhp1jvxshy","address":"10040 Gulf Center Drive","geo_precision":"street","state":"FL"},"type":"Feature","geometry":{"type":"Point","coordinates":[-81.658583,26.555923]}},{"properties":{"city":"Destin","zip":"32541","future":"N","geo_score":0.807,"store":"Destin (World Wide Sportsman - Destin)","id":"agzhp1huyh93","address":"4301 Legendary Drive","geo_precision":"street","state":"FL"},"type":"Feature","geometry":{"type":"Point","coordinates":[-86.415742,30.38927]}},{"properties":{"city":"Dania Beach","zip":"33004","future":"N","geo_score":1.0,"store":"Dania Beach (Ft. Lauderdale)","id":"agzhp1g9cjss","address":"200 Gulf Stream Way","geo_precision":"range","state":"FL"},"type":"Feature","geometry":{"type":"Point","coordinates":[-80.1678,26.054528]}},{"properties":{"city":"Savannah","zip":"34149","future":"N","geo_score":0.902,"store":"Savannah","id":"agzhp1pd4eyt","address":"14045 Abercorn St.","geo_precision":"range","state":"GA"},"type":"Feature","geometry":{"type":"Point","coordinates":[-81.169061,31.980932]}},{"properties":{"city":"Macon","zip":"31210","future":"N","geo_score":0.67,"store":"Macon","id":"agzhp1swsjyp","address":"5000 Bass Pro Blvd","geo_precision":"street","state":"GA"},"type":"Feature","geometry":{"type":"Point","coordinates":[-83.71946,32.936631]}},{"properties":{"city":"Lawrenceville","zip":"30043","future":"N","geo_score":0.805,"store":"Lawrenceville (Atlanta)","id":"agzhp1rq5iya","address":"5900 Sugarloaf Parkway","geo_precision":"street","state":"GA"},"type":"Feature","geometry":{"type":"Point","coordinates":[-84.06903,33.967327]}},{"properties":{"city":"Council Bluffs","zip":"51501","future":"N","geo_score":0.402,"store":"Council Bluffs (Omaha)","id":"agzhp1p5iw3i","address":"2901 Bass Pro Drive","geo_precision":"street","state":"IA"},"type":"Feature","geometry":{"type":"Point","coordinates":[-95.741661,41.730819]}},{"properties":{"city":"Altoona","zip":"50009","future":"N","geo_score":0.401,"store":"Altoona (Des Moines)","id":"agzhp1j6b6mu","address":"1000 Bass Pro Drive NW","geo_precision":"street","state":"IA"},"type":"Feature","geometry":{"type":"Point","coordinates":[-93.237954,41.280875]}},{"properties":{"city":"Gurnee","zip":"60031","future":"N","geo_score":0.61,"store":"Gurnee (Chicago)","id":"agzhp1jxy5h2","address":"6112 W. Grand Avenue","geo_precision":"street","state":"IL"},"type":"Feature","geometry":{"type":"Point","coordinates":[-87.991075,42.385886]}},{"properties":{"city":"East Peoria","zip":"61611","future":"N","geo_score":0.581,"store":"East Peoria","id":"agzhp1rojxij","address":"1000 Bass Pro Shops Drive","geo_precision":"street","state":"IL"},"type":"Feature","geometry":{"type":"Point","coordinates":[-89.576743,40.665897]}},{"properties":{"city":"Boilingbrook","zip":"60440","future":"N","geo_score":0.797,"store":"Bolingbrook (Chicago)","id":"agzhp1pzxvkl","address":"709 Janes Ave","geo_precision":"street","state":"IL"},"type":"Feature","geometry":{"type":"Point","coordinates":[-88.039317,41.708908]}},{"properties":{"city":"Portage","zip":"46368","future":"N","geo_score":0.807,"store":"Portage","id":"agzhp1nsq0x8","address":"6425 Daniel Burnham Dr.","geo_precision":"street","state":"IN"},"type":"Feature","geometry":{"type":"Point","coordinates":[-87.167836,41.607715]}},{"properties":{"city":"Clarksville","zip":"47129","future":"N","geo_score":0.571,"store":"Clarksville (Louisville, KY)","id":"agzhp1ht5z2s","address":"951 E. Lewis &amp; Clark Pkwy.","geo_precision":"street","state":"IN"},"type":"Feature","geometry":{"type":"Point","coordinates":[-85.76319,38.287009]}},{"properties":{"city":"Olathe","zip":"66061","future":"N","geo_score":0.592,"store":"Olathe (Kansas City)","id":"agzhp1q38f68","address":"12051 Bass Pro Dr.","geo_precision":"street","state":"KS"},"type":"Feature","geometry":{"type":"Point","coordinates":[-94.829308,38.869974]}},{"properties":{"city":"Denham Springs","zip":"70726","future":"N","geo_score":0.535,"store":"Denham Springs (Baton Rouge)","id":"agzhp1i1lvax","address":"175 Bass Pro Boulevard","geo_precision":"street","state":"LA"},"type":"Feature","geometry":{"type":"Point","coordinates":[-90.96719,30.43104]}},{"properties":{"city":"Bossier City","zip":"71111","future":"N","geo_score":0.424,"store":"Bossier City (Shreveport)","id":"agzhp1hvea6h","address":"100 Bass Pro Drive","geo_precision":"street","state":"LA"},"type":"Feature","geometry":{"type":"Point","coordinates":[-93.775939,32.486171]}},{"properties":{"city":"Foxborough","zip":"2035","future":"N","geo_score":0.703,"store":"Foxborough","id":"agzhp1naihyo","address":"One Bass Pro Drive","geo_precision":"street","state":"MA"},"type":"Feature","geometry":{"type":"Point","coordinates":[-71.249389,42.104749]}},{"properties":{"city":"Hanover","zip":"21076","future":"N","geo_score":0.472,"store":"Hanover (Baltimore)","id":"agzhp1gf6dgl","address":"7000 Arundel Mills Circle","geo_precision":"street","state":"MD"},"type":"Feature","geometry":{"type":"Point","coordinates":[-76.60444,39.198354]}},{"properties":{"city":"Auburn Hills","zip":"48326","future":"N","geo_score":0.854,"store":"Auburn Hills ( Detroit)","id":"agzhp1kt50qc","address":"4500 N Baldwin Rd","geo_precision":"street","state":"MI"},"type":"Feature","geometry":{"type":"Point","coordinates":[-83.306876,42.707105]}},{"properties":{"city":"St. Charles","zip":"63301","future":"N","geo_score":0.897,"store":"St. Charles ( St. Louis)","id":"agzhp1g4pzvd","address":"1365 South 5th Street","geo_precision":"range","state":"MO"},"type":"Feature","geometry":{"type":"Point","coordinates":[-90.493717,38.770154]}},{"properties":{"city":"Springfield","zip":"65807","future":"N","geo_score":0.602,"store":"Springfield","id":"agzhp1ncx6g1","address":"1935 S. Campbell","geo_precision":"street","state":"MO"},"type":"Feature","geometry":{"type":"Point","coordinates":[-93.294559,37.19592]}},{"properties":{"city":"Springfield","zip":"65807","future":"N","geo_score":0.602,"store":"Springfield (Catalog Outlet)","id":"agzhp1kim7k2","address":"2011 S. Campbell Avenue","geo_precision":"street","state":"MO"},"type":"Feature","geometry":{"type":"Point","coordinates":[-93.294559,37.19592]}},{"properties":{"city":"Independence","zip":"64055","future":"N","geo_score":0.381,"store":"Independence (Kansas City)","id":"agzhp1k67orl","address":"18001 Bass Pro Drive","geo_precision":"street","state":"MO"},"type":"Feature","geometry":{"type":"Point","coordinates":[-93.905131,39.020793]}},{"properties":{"city":"Columbia","zip":"65202","future":"N","geo_score":0.566,"store":"Columbia","id":"agzhp1itqnd7","address":"3101 Bass Pro Drive","geo_precision":"street","state":"MO"},"type":"Feature","geometry":{"type":"Point","coordinates":[-92.26708,38.975519]}},{"properties":{"city":"Branson","zip":"65616","future":"N","geo_score":0.504,"store":"Branson","id":"agzhp1g0g9jq","address":"1 Bass Pro Drive","geo_precision":"street","state":"MO"},"type":"Feature","geometry":{"type":"Point","coordinates":[-93.010427,37.138719]}},{"properties":{"city":"Pearl","zip":"39208","future":"N","geo_score":0.719,"store":"Pearl","id":"agzhp1pz2vlw","address":"100 Bass Pro Drive","geo_precision":"range","state":"MS"},"type":"Feature","geometry":{"type":"Point","coordinates":[-90.107393,32.196455]}},{"properties":{"city":"Concord","zip":"28027","future":"N","geo_score":1.0,"store":"Concord (Charlotte)","id":"agzhp1momzlo","address":"8181 Concord Mills Blvd.","geo_precision":"range","state":"NC"},"type":"Feature","geometry":{"type":"Point","coordinates":[-80.718616,35.371428]}},{"properties":{"city":"Las Vegas","zip":"89139","future":"N","geo_score":0.659,"store":"Las Vegas","id":"agzhp1hft38y","address":"8200 Dean Martin Drive","geo_precision":"street","state":"NV"},"type":"Feature","geometry":{"type":"Point","coordinates":[-115.183431,36.066493]}},{"properties":{"city":"Finger Lakes","zip":"13022","future":"N","geo_score":0.407,"store":"Finger Lakes ( Finger Lakes Area)","id":"agzhp1v1nzm1","address":"1579 Clark Street Road","geo_precision":"street","state":"NY"},"type":"Feature","geometry":{"type":"Point","coordinates":[-76.56268,42.995477]}},{"properties":{"city":"Rossford","zip":"43460","future":"N","geo_score":0.475,"store":"Rossford (Toledo)","id":"agzhp1gdfqjk","address":"10000 Bass Pro Blvd","geo_precision":"street","state":"OH"},"type":"Feature","geometry":{"type":"Point","coordinates":[-82.807816,41.532489]}},{"properties":{"city":"Cincinnati","zip":"45340","future":"N","geo_score":0.502,"store":"Cincinnati","id":"agzhp1sopwnm","address":"300 Cincinnati Mills Drive","geo_precision":"street","state":"OH"},"type":"Feature","geometry":{"type":"Point","coordinates":[-84.291632,39.62074]}},{"properties":{"city":"Tulsa","zip":"74012","future":"N","geo_score":0.461,"store":"Tulsa (Tulsa)","id":"agzhp1oybkd3","address":"101 Bass Pro Drive","geo_precision":"street","state":"OK"},"type":"Feature","geometry":{"type":"Point","coordinates":[-95.77112,36.077647]}},{"properties":{"city":"Oklahoma City","zip":"73104","future":"N","geo_score":0.397,"store":"Oklahoma City","id":"agzhp1q73agp","address":"200 Bass Pro Drive","geo_precision":"street","state":"OK"},"type":"Feature","geometry":{"type":"Point","coordinates":[-97.38609,35.460844]}},{"properties":{"city":"Harrisburg","zip":"17111","future":"N","geo_score":0.45,"store":"Harrisburg","id":"agzhp1uepk5w","address":"3501 Paxton Street","geo_precision":"street","state":"PA"},"type":"Feature","geometry":{"type":"Point","coordinates":[-76.751561,40.389407]}},{"properties":{"city":"Myrtle Beach","zip":"29572","future":"N","geo_score":1.0,"store":"Myrtle Beach","id":"agzhp1mut0kw","address":"10177 North Kings Hwy.","geo_precision":"range","state":"SC"},"type":"Feature","geometry":{"type":"Point","coordinates":[-78.764898,33.79064]}},{"properties":{"city":"Nashville","zip":"37214","future":"N","geo_score":0.438,"store":"Nashville","id":"agzhp1hm41xa","address":"323 Opry Mills Dr.","geo_precision":"street","state":"TN"},"type":"Feature","geometry":{"type":"Point","coordinates":[-86.889232,36.088654]}},{"properties":{"city":"Memphis","zip":"38134","future":"N","geo_score":1.0,"store":"Memphis","id":"agzhp1k2ti9f","address":"6140 Macon Rd","geo_precision":"range","state":"TN"},"type":"Feature","geometry":{"type":"Point","coordinates":[-89.856447,35.163101]}},{"properties":{"city":"Kodak","zip":"37764","future":"N","geo_score":0.457,"store":"Kodak (Sevierville)","id":"agzhp1frz5n1","address":"3629 Outdoor Sportsmans Place","geo_precision":"street","state":"TN"},"type":"Feature","geometry":{"type":"Point","coordinates":[-84.014986,36.222933]}},{"properties":{"city":"San Antonio","zip":"78257","future":"N","geo_score":0.585,"store":"San Antonio","id":"agzhp1syki8y","address":"17907 IH-10 West","geo_precision":"zip","state":"TX"},"type":"Feature","geometry":{"type":"Point","coordinates":[-98.461582,29.437532]}},{"properties":{"city":"Pearland","zip":"77047","future":"N","geo_score":0.585,"store":"Pearland (Houston)","id":"agzhp1ht52en","address":"1000 Basspro Drive","geo_precision":"zip","state":"TX"},"type":"Feature","geometry":{"type":"Point","coordinates":[-95.387721,29.614782]}},{"properties":{"city":"Katy","zip":"77494","future":"N","geo_score":0.617,"store":"Katy (Houston)","id":"agzhp1mievgh","address":"5000 Katy Mills Circle","geo_precision":"street","state":"TX"},"type":"Feature","geometry":{"type":"Point","coordinates":[-95.851969,29.734394]}},{"properties":{"city":"Harlingen","zip":"78552","future":"N","geo_score":0.867,"store":"Harlingen","id":"agzhp1pkduuk","address":"101 Bass Pro Drive","geo_precision":"range","state":"TX"},"type":"Feature","geometry":{"type":"Point","coordinates":[-97.780214,26.160335]}},{"properties":{"city":"Grapevine","zip":"76051","future":"N","geo_score":1.0,"store":"Grapevine (Dallas/Ft. Worth)","id":"agzhp1ixct8u","address":"2501 Bass Pro Drive","geo_precision":"range","state":"TX"},"type":"Feature","geometry":{"type":"Point","coordinates":[-97.036933,32.955132]}},{"properties":{"city":"Garland","zip":"75043","future":"N","geo_score":0.593,"store":"Garland","id":"agzhp1ffcca9","address":"5001 Bass Pro Drive","geo_precision":"street","state":"TX"},"type":"Feature","geometry":{"type":"Point","coordinates":[-96.561732,32.842551]}},{"properties":{"city":"Hampton","zip":"23666","future":"N","geo_score":1.0,"store":"Hampton","id":"agzhp1v8ib5h","address":"1972 Power Plant Parkway","geo_precision":"range","state":"VA"},"type":"Feature","geometry":{"type":"Point","coordinates":[-76.401182,37.038721]}},{"properties":{"city":"Ashland","zip":"23005","future":"N","geo_score":0.805,"store":"Ashland (Richmond)","id":"agzhp1p469p3","address":"11550 Lakeridge Parkway","geo_precision":"street","state":"VA"},"type":"Feature","geometry":{"type":"Point","coordinates":[-77.453786,37.702695]}}],"is_temporal":false,"author":{"url":"","metadata":"","contact_name":"","contact_address":"","source":"","contact_phone":""},"source":"","pagination":{"sort":null,"start":0,"total":57,"limit":1000000},"state":"complete","tags":"","published":"2014-08-16T15:04:21-04:00","id":391888}