{"type":"FeatureCollection","data_type":"Dataset","url_type":null,"permissions":[{"permissions":{"download":true,"view":true},"group_id":"everyone"}],"classification":null,"title":"Bass Pro Locations","count":79,"stream_id":391863,"contributor":{"url":"http://geocommons.com/users/74498","name":"mterranova"},"data_attributes":null,"calculation_params":null,"icon_link":null,"link":"http://geocommons.com/overlays/391863.json","extent":[-149.487,24.9149,-71.2494,61.2876],"geometry_types":["point"],"unique_name":null,"name":"Bass Pro Locations","feature_count":79,"description":"","next_feature":null,"is_raster":false,"short_classification":"Y","stats":{},"features":[{"properties":{"city":"Anchorage","zip":null,"future":"Y","geo_score":0.714,"store":"Anchorage (Future Store)","id":"agzf28ynp7xv","address":null,"geo_precision":"city","state":"AK"},"type":"Feature","geometry":{"type":"Point","coordinates":[-149.486981,61.287624]}},{"properties":{"city":"Little Rock","zip":null,"future":"Y","geo_score":0.714,"store":"Little Rock (Future Store)","id":"agzf28yk2ype","address":null,"geo_precision":"city","state":"AR"},"type":"Feature","geometry":{"type":"Point","coordinates":[-91.793741,33.464557]}},{"properties":{"city":"San Jose","zip":null,"future":"Y","geo_score":0.714,"store":"San Jose (Future Store)","id":"agzf28w2s5vi","address":null,"geo_precision":"city","state":"CA"},"type":"Feature","geometry":{"type":"Point","coordinates":[-121.705327,37.189396]}},{"properties":{"city":"Loveland","zip":null,"future":"Y","geo_score":0.714,"store":"Loveland (Future Store)","id":"agzf28ox1ium","address":null,"geo_precision":"city","state":"CO"},"type":"Feature","geometry":{"type":"Point","coordinates":[-105.464163,40.389706]}},{"properties":{"city":"Colorado Springs","zip":null,"future":"Y","geo_score":0.714,"store":"Colorado Springs (Future Store)","id":"agzf28lewm5i","address":null,"geo_precision":"city","state":"CO"},"type":"Feature","geometry":{"type":"Point","coordinates":[-104.857828,38.861469]}},{"properties":{"city":"Bridgeport","zip":null,"future":"Y","geo_score":0.714,"store":"Bridgeport (Future Store)","id":"agzf28rtutsj","address":null,"geo_precision":"city","state":"CT"},"type":"Feature","geometry":{"type":"Point","coordinates":[-73.363661,41.308873]}},{"properties":{"city":"Tampa","zip":null,"future":"Y","geo_score":0.714,"store":"Tampa (Future Store)","id":"agzf28ppob6s","address":null,"geo_precision":"city","state":"FL"},"type":"Feature","geometry":{"type":"Point","coordinates":[-82.582035,27.996097]}},{"properties":{"city":"St. Johns","zip":null,"future":"Y","geo_score":0.0,"store":"St. Johns County (Future Store)","id":"agzf28zkz0qx","address":null,"geo_precision":"unmatched","state":"FL"},"type":"Feature","geometry":null},{"properties":{"city":"Port St. Lucie","zip":null,"future":"Y","geo_score":0.714,"store":"Port St. Lucie (Future Store)","id":"agzf28u46qer","address":null,"geo_precision":"city","state":"FL"},"type":"Feature","geometry":{"type":"Point","coordinates":[-81.777051,30.725235]}},{"properties":{"city":"Palm Bay","zip":null,"future":"Y","geo_score":0.714,"store":"Palm Bay (Future Store)","id":"agzf290ndzaf","address":null,"geo_precision":"city","state":"FL"},"type":"Feature","geometry":{"type":"Point","coordinates":[-80.611642,27.96861]}},{"properties":{"city":"Daytona Beach","zip":null,"future":"Y","geo_score":0.714,"store":"Daytona Beach (Future Store)","id":"agzf28zr0ely","address":null,"geo_precision":"city","state":"FL"},"type":"Feature","geometry":{"type":"Point","coordinates":[-80.982832,29.176093]}},{"properties":{"city":"Emerson","zip":null,"future":"Y","geo_score":0.714,"store":"Emerson (Future Store)","id":"agzf28w7vh2w","address":null,"geo_precision":"city","state":"GA"},"type":"Feature","geometry":{"type":"Point","coordinates":[-82.397632,31.188828]}},{"properties":{"city":"Augusta","zip":null,"future":"Y","geo_score":0.714,"store":"Augusta (Future Store)","id":"agzf28rvvcvv","address":null,"geo_precision":"city","state":"GA"},"type":"Feature","geometry":{"type":"Point","coordinates":[-81.969184,33.456687]}},{"properties":{"city":"Cary","zip":null,"future":"Y","geo_score":0.714,"store":"Cary (Future Store)","id":"agzf28wpzjhm","address":null,"geo_precision":"city","state":"NC"},"type":"Feature","geometry":{"type":"Point","coordinates":[-79.220017,36.211527]}},{"properties":{"city":"Hooksett","zip":null,"future":"Y","geo_score":0.714,"store":"Hooksett (Future Store)","id":"agzf28pss8t6","address":null,"geo_precision":"city","state":"NH"},"type":"Feature","geometry":{"type":"Point","coordinates":[-71.443616,43.065097]}},{"properties":{"city":"Sayreville","zip":null,"future":"Y","geo_score":0.714,"store":"Sayreville (Future Store)","id":"agzf28n2jty7","address":null,"geo_precision":"city","state":"NJ"},"type":"Feature","geometry":{"type":"Point","coordinates":[-74.417344,40.430006]}},{"properties":{"city":"Atlantic City","zip":null,"future":"Y","geo_score":0.714,"store":"Atlantic City (Future Store)","id":"agzf28xq37n2","address":null,"geo_precision":"city","state":"NJ"},"type":"Feature","geometry":{"type":"Point","coordinates":[-74.05617,40.404762]}},{"properties":{"city":"Utica","zip":null,"future":"Y","geo_score":0.714,"store":"Utica (Future Store)","id":"agzf290rg7fv","address":null,"geo_precision":"city","state":"NY"},"type":"Feature","geometry":{"type":"Point","coordinates":[-75.233208,43.077369]}},{"properties":{"city":"Memphis","zip":null,"future":"Y","geo_score":0.714,"store":"Memphis Pyramid (Future Store)","id":"agzf28xg9bz4","address":null,"geo_precision":"city","state":"TN"},"type":"Feature","geometry":{"type":"Point","coordinates":[-89.990415,35.169255]}},{"properties":{"city":"Bristol","zip":null,"future":"Y","geo_score":0.714,"store":"Bristol (Future Store)","id":"agzf28o3l1q1","address":null,"geo_precision":"city","state":"TN"},"type":"Feature","geometry":{"type":"Point","coordinates":[-82.192545,36.531703]}},{"properties":{"city":"Round Rock","zip":null,"future":"Y","geo_score":0.714,"store":"Round Rock (Future Store)","id":"agzf28wleou9","address":null,"geo_precision":"city","state":"TX"},"type":"Feature","geometry":{"type":"Point","coordinates":[-97.635103,30.530497]}},{"properties":{"city":"Tacoma","zip":null,"future":"Y","geo_score":0.714,"store":"Tacoma (Future Store)","id":"agzf28n29chx","address":null,"geo_precision":"city","state":"WA"},"type":"Feature","geometry":{"type":"Point","coordinates":[-122.444335,47.253671]}},{"properties":{"city":"Spanish Fort","zip":"36527","future":"N","geo_score":0.503,"store":"Spanish Fort (Mobile)","id":"agzf28l95wdo","address":"20000 Bass Pro Drive","geo_precision":"street","state":"AL"},"type":"Feature","geometry":{"type":"Point","coordinates":[-88.154748,30.460048]}},{"properties":{"city":"Prattville","zip":"36066","future":"N","geo_score":0.362,"store":"Prattville ( Montgomery)","id":"agzf28wlmwtz","address":"2553 Rocky Mount Rd","geo_precision":"street","state":"AL"},"type":"Feature","geometry":{"type":"Point","coordinates":[-86.3015,31.568341]}},{"properties":{"city":"Leeds","zip":"35094","future":"N","geo_score":0.58,"store":"Leeds (Birmingham)","id":"agzf28mwn754","address":"5000 Bass Pro Blvd.","geo_precision":"street","state":"AL"},"type":"Feature","geometry":{"type":"Point","coordinates":[-86.557684,33.487511]}},{"properties":{"city":"Mesa","zip":"85201","future":"N","geo_score":0.726,"store":"Mesa (Phoenix)","id":"agzf28smi9g3","address":"1133 North Dobson","geo_precision":"street","state":"AZ"},"type":"Feature","geometry":{"type":"Point","coordinates":[-111.874286,33.428619]}},{"properties":{"city":"Rancho Cucamonga","zip":"91739","future":"N","geo_score":0.666,"store":"Rancho Cucamonga (Victoria Gardens)","id":"agzf28prn9c3","address":"7777 Victoria Gardens Lane","geo_precision":"street","state":"CA"},"type":"Feature","geometry":{"type":"Point","coordinates":[-117.525811,34.128333]}},{"properties":{"city":"Manteca","zip":"95337","future":"N","geo_score":0.45,"store":"Manteca","id":"agzf28mnfhu9","address":"1356 Bass Pro Drive","geo_precision":"street","state":"CA"},"type":"Feature","geometry":{"type":"Point","coordinates":[-120.573667,37.355633]}},{"properties":{"city":"Denver","zip":"80238","future":"N","geo_score":0.585,"store":"Denver","id":"agzf28mdskvx","address":"7970 Northfield Blvd","geo_precision":"zip","state":"CO"},"type":"Feature","geometry":{"type":"Point","coordinates":[-104.408349,39.738752]}},{"properties":{"city":"Tallahassee","zip":"32317","future":"N","geo_score":0.585,"store":"Tallahassee","id":"agzf28ongwrl","address":"4059 Lagniappe Way","geo_precision":"zip","state":"FL"},"type":"Feature","geometry":{"type":"Point","coordinates":[-84.346204,30.479347]}},{"properties":{"city":"Orlando","zip":"32819","future":"N","geo_score":1.0,"store":"Orlando","id":"agzf28uqsb1r","address":"5156 International Dr.","geo_precision":"range","state":"FL"},"type":"Feature","geometry":{"type":"Point","coordinates":[-81.45032,28.468499]}},{"properties":{"city":"Miami","zip":"33172","future":"N","geo_score":0.747,"store":"Miami","id":"agzf28xeylmc","address":"11551 NW 12th St","geo_precision":"street","state":"FL"},"type":"Feature","geometry":{"type":"Point","coordinates":[-80.368642,25.784222]}},{"properties":{"city":"Islamorada","zip":"33036","future":"N","geo_score":1.0,"store":"Islamorada (World Wide Sportsman - Islam","id":"agzf28l8h46k","address":"81576 Overseas Hwy.","geo_precision":"range","state":"FL"},"type":"Feature","geometry":{"type":"Point","coordinates":[-80.63901,24.914858]}},{"properties":{"city":"Ft. Meyers","zip":"33913","future":"N","geo_score":0.536,"store":"Ft. Myers","id":"agzf28q6mkl9","address":"10040 Gulf Center Drive","geo_precision":"street","state":"FL"},"type":"Feature","geometry":{"type":"Point","coordinates":[-81.658583,26.555923]}},{"properties":{"city":"Destin","zip":"32541","future":"N","geo_score":0.807,"store":"Destin (World Wide Sportsman - Destin)","id":"agzf28o44vre","address":"4301 Legendary Drive","geo_precision":"street","state":"FL"},"type":"Feature","geometry":{"type":"Point","coordinates":[-86.415742,30.38927]}},{"properties":{"city":"Dania Beach","zip":"33004","future":"N","geo_score":1.0,"store":"Dania Beach (Ft. Lauderdale)","id":"agzf28qgck97","address":"200 Gulf Stream Way","geo_precision":"range","state":"FL"},"type":"Feature","geometry":{"type":"Point","coordinates":[-80.1678,26.054528]}},{"properties":{"city":"Savannah","zip":"34149","future":"N","geo_score":0.902,"store":"Savannah","id":"agzf28rs0jux","address":"14045 Abercorn St.","geo_precision":"range","state":"GA"},"type":"Feature","geometry":{"type":"Point","coordinates":[-81.169061,31.980932]}},{"properties":{"city":"Macon","zip":"31210","future":"N","geo_score":0.67,"store":"Macon","id":"agzf28ole606","address":"5000 Bass Pro Blvd","geo_precision":"street","state":"GA"},"type":"Feature","geometry":{"type":"Point","coordinates":[-83.71946,32.936631]}},{"properties":{"city":"Lawrenceville","zip":"30043","future":"N","geo_score":0.805,"store":"Lawrenceville (Atlanta)","id":"agzf28nyuhxt","address":"5900 Sugarloaf Parkway","geo_precision":"street","state":"GA"},"type":"Feature","geometry":{"type":"Point","coordinates":[-84.06903,33.967327]}},{"properties":{"city":"Council Bluffs","zip":"51501","future":"N","geo_score":0.402,"store":"Council Bluffs (Omaha)","id":"agzf28udae20","address":"2901 Bass Pro Drive","geo_precision":"street","state":"IA"},"type":"Feature","geometry":{"type":"Point","coordinates":[-95.741661,41.730819]}},{"properties":{"city":"Altoona","zip":"50009","future":"N","geo_score":0.401,"store":"Altoona (Des Moines)","id":"agzf28uj7gh0","address":"1000 Bass Pro Drive NW","geo_precision":"street","state":"IA"},"type":"Feature","geometry":{"type":"Point","coordinates":[-93.237954,41.280875]}},{"properties":{"city":"Gurnee","zip":"60031","future":"N","geo_score":0.61,"store":"Gurnee (Chicago)","id":"agzf28yol6e4","address":"6112 W. Grand Avenue","geo_precision":"street","state":"IL"},"type":"Feature","geometry":{"type":"Point","coordinates":[-87.991075,42.385886]}},{"properties":{"city":"East Peoria","zip":"61611","future":"N","geo_score":0.581,"store":"East Peoria","id":"agzf28wiipjb","address":"1000 Bass Pro Shops Drive","geo_precision":"street","state":"IL"},"type":"Feature","geometry":{"type":"Point","coordinates":[-89.576743,40.665897]}},{"properties":{"city":"Boilingbrook","zip":"60440","future":"N","geo_score":0.797,"store":"Bolingbrook (Chicago)","id":"agzf28ukd8wo","address":"709 Janes Ave","geo_precision":"street","state":"IL"},"type":"Feature","geometry":{"type":"Point","coordinates":[-88.039317,41.708908]}},{"properties":{"city":"Portage","zip":"46368","future":"N","geo_score":0.807,"store":"Portage","id":"agzf28wdgwoe","address":"6425 Daniel Burnham Dr.","geo_precision":"street","state":"IN"},"type":"Feature","geometry":{"type":"Point","coordinates":[-87.167836,41.607715]}},{"properties":{"city":"Clarksville","zip":"47129","future":"N","geo_score":0.571,"store":"Clarksville (Louisville, KY)","id":"agzf28rjc59r","address":"951 E. Lewis &amp; Clark Pkwy.","geo_precision":"street","state":"IN"},"type":"Feature","geometry":{"type":"Point","coordinates":[-85.76319,38.287009]}},{"properties":{"city":"Olathe","zip":"66061","future":"N","geo_score":0.592,"store":"Olathe (Kansas City)","id":"agzf28rkrdta","address":"12051 Bass Pro Dr.","geo_precision":"street","state":"KS"},"type":"Feature","geometry":{"type":"Point","coordinates":[-94.829308,38.869974]}},{"properties":{"city":"Denham Springs","zip":"70726","future":"N","geo_score":0.535,"store":"Denham Springs (Baton Rouge)","id":"agzf28rg0zk8","address":"175 Bass Pro Boulevard","geo_precision":"street","state":"LA"},"type":"Feature","geometry":{"type":"Point","coordinates":[-90.96719,30.43104]}},{"properties":{"city":"Bossier City","zip":"71111","future":"N","geo_score":0.424,"store":"Bossier City (Shreveport)","id":"agzf28z9y6fo","address":"100 Bass Pro Drive","geo_precision":"street","state":"LA"},"type":"Feature","geometry":{"type":"Point","coordinates":[-93.775939,32.486171]}},{"properties":{"city":"Foxborough","zip":"2035","future":"N","geo_score":0.703,"store":"Foxborough","id":"agzf28xc3k4b","address":"One Bass Pro Drive","geo_precision":"street","state":"MA"},"type":"Feature","geometry":{"type":"Point","coordinates":[-71.249389,42.104749]}},{"properties":{"city":"Hanover","zip":"21076","future":"N","geo_score":0.472,"store":"Hanover (Baltimore)","id":"agzf28plbauw","address":"7000 Arundel Mills Circle","geo_precision":"street","state":"MD"},"type":"Feature","geometry":{"type":"Point","coordinates":[-76.60444,39.198354]}},{"properties":{"city":"Auburn Hills","zip":"48326","future":"N","geo_score":0.854,"store":"Auburn Hills ( Detroit)","id":"agzf28nga82q","address":"4500 N Baldwin Rd","geo_precision":"street","state":"MI"},"type":"Feature","geometry":{"type":"Point","coordinates":[-83.306876,42.707105]}},{"properties":{"city":"St. Charles","zip":"63301","future":"N","geo_score":0.897,"store":"St. Charles ( St. Louis)","id":"agzf28yee20y","address":"1365 South 5th Street","geo_precision":"range","state":"MO"},"type":"Feature","geometry":{"type":"Point","coordinates":[-90.493717,38.770154]}},{"properties":{"city":"Springfield","zip":"65807","future":"N","geo_score":0.602,"store":"Springfield","id":"agzf28n25md8","address":"1935 S. Campbell","geo_precision":"street","state":"MO"},"type":"Feature","geometry":{"type":"Point","coordinates":[-93.294559,37.19592]}},{"properties":{"city":"Springfield","zip":"65807","future":"N","geo_score":0.602,"store":"Springfield (Catalog Outlet)","id":"agzf28x8qcnd","address":"2011 S. Campbell Avenue","geo_precision":"street","state":"MO"},"type":"Feature","geometry":{"type":"Point","coordinates":[-93.294559,37.19592]}},{"properties":{"city":"Independence","zip":"64055","future":"N","geo_score":0.381,"store":"Independence (Kansas City)","id":"agzf28r3ftg6","address":"18001 Bass Pro Drive","geo_precision":"street","state":"MO"},"type":"Feature","geometry":{"type":"Point","coordinates":[-93.905131,39.020793]}},{"properties":{"city":"Columbia","zip":"65202","future":"N","geo_score":0.566,"store":"Columbia","id":"agzf28s54ypa","address":"3101 Bass Pro Drive","geo_precision":"street","state":"MO"},"type":"Feature","geometry":{"type":"Point","coordinates":[-92.26708,38.975519]}},{"properties":{"city":"Branson","zip":"65616","future":"N","geo_score":0.504,"store":"Branson","id":"agzf28r59fbr","address":"1 Bass Pro Drive","geo_precision":"street","state":"MO"},"type":"Feature","geometry":{"type":"Point","coordinates":[-93.010427,37.138719]}},{"properties":{"city":"Pearl","zip":"39208","future":"N","geo_score":0.719,"store":"Pearl","id":"agzf28php3io","address":"100 Bass Pro Drive","geo_precision":"range","state":"MS"},"type":"Feature","geometry":{"type":"Point","coordinates":[-90.107393,32.196455]}},{"properties":{"city":"Concord","zip":"28027","future":"N","geo_score":1.0,"store":"Concord (Charlotte)","id":"agzf28v0a362","address":"8181 Concord Mills Blvd.","geo_precision":"range","state":"NC"},"type":"Feature","geometry":{"type":"Point","coordinates":[-80.718616,35.371428]}},{"properties":{"city":"Las Vegas","zip":"89139","future":"N","geo_score":0.659,"store":"Las Vegas","id":"agzf28vosbcn","address":"8200 Dean Martin Drive","geo_precision":"street","state":"NV"},"type":"Feature","geometry":{"type":"Point","coordinates":[-115.183431,36.066493]}},{"properties":{"city":"Finger Lakes","zip":"13022","future":"N","geo_score":0.407,"store":"Finger Lakes ( Finger Lakes Area)","id":"agzf28nkuwt1","address":"1579 Clark Street Road","geo_precision":"street","state":"NY"},"type":"Feature","geometry":{"type":"Point","coordinates":[-76.56268,42.995477]}},{"properties":{"city":"Rossford","zip":"43460","future":"N","geo_score":0.475,"store":"Rossford (Toledo)","id":"agzf291316wx","address":"10000 Bass Pro Blvd","geo_precision":"street","state":"OH"},"type":"Feature","geometry":{"type":"Point","coordinates":[-82.807816,41.532489]}},{"properties":{"city":"Cincinnati","zip":"45340","future":"N","geo_score":0.502,"store":"Cincinnati","id":"agzf2908obi6","address":"300 Cincinnati Mills Drive","geo_precision":"street","state":"OH"},"type":"Feature","geometry":{"type":"Point","coordinates":[-84.291632,39.62074]}},{"properties":{"city":"Tulsa","zip":"74012","future":"N","geo_score":0.461,"store":"Tulsa (Tulsa)","id":"agzf28p1wjk8","address":"101 Bass Pro Drive","geo_precision":"street","state":"OK"},"type":"Feature","geometry":{"type":"Point","coordinates":[-95.77112,36.077647]}},{"properties":{"city":"Oklahoma City","zip":"73104","future":"N","geo_score":0.397,"store":"Oklahoma City","id":"agzf28o2g44q","address":"200 Bass Pro Drive","geo_precision":"street","state":"OK"},"type":"Feature","geometry":{"type":"Point","coordinates":[-97.38609,35.460844]}},{"properties":{"city":"Harrisburg","zip":"17111","future":"N","geo_score":0.45,"store":"Harrisburg","id":"agzf28rq1gv8","address":"3501 Paxton Street","geo_precision":"street","state":"PA"},"type":"Feature","geometry":{"type":"Point","coordinates":[-76.751561,40.389407]}},{"properties":{"city":"Myrtle Beach","zip":"29572","future":"N","geo_score":1.0,"store":"Myrtle Beach","id":"agzf28rpfdpi","address":"10177 North Kings Hwy.","geo_precision":"range","state":"SC"},"type":"Feature","geometry":{"type":"Point","coordinates":[-78.764898,33.79064]}},{"properties":{"city":"Nashville","zip":"37214","future":"N","geo_score":0.438,"store":"Nashville","id":"agzf28ldw8z1","address":"323 Opry Mills Dr.","geo_precision":"street","state":"TN"},"type":"Feature","geometry":{"type":"Point","coordinates":[-86.889232,36.088654]}},{"properties":{"city":"Memphis","zip":"38134","future":"N","geo_score":1.0,"store":"Memphis","id":"agzf28w7cir9","address":"6140 Macon Rd","geo_precision":"range","state":"TN"},"type":"Feature","geometry":{"type":"Point","coordinates":[-89.856447,35.163101]}},{"properties":{"city":"Kodak","zip":"37764","future":"N","geo_score":0.457,"store":"Kodak (Sevierville)","id":"agzf290ha54v","address":"3629 Outdoor Sportsmans Place","geo_precision":"street","state":"TN"},"type":"Feature","geometry":{"type":"Point","coordinates":[-84.014986,36.222933]}},{"properties":{"city":"San Antonio","zip":"78257","future":"N","geo_score":0.585,"store":"San Antonio","id":"agzf28o3fthd","address":"17907 IH-10 West","geo_precision":"zip","state":"TX"},"type":"Feature","geometry":{"type":"Point","coordinates":[-98.461582,29.437532]}},{"properties":{"city":"Pearland","zip":"77047","future":"N","geo_score":0.585,"store":"Pearland (Houston)","id":"agzf28v0jqeo","address":"1000 Basspro Drive","geo_precision":"zip","state":"TX"},"type":"Feature","geometry":{"type":"Point","coordinates":[-95.387721,29.614782]}},{"properties":{"city":"Katy","zip":"77494","future":"N","geo_score":0.617,"store":"Katy (Houston)","id":"agzf28wqmadm","address":"5000 Katy Mills Circle","geo_precision":"street","state":"TX"},"type":"Feature","geometry":{"type":"Point","coordinates":[-95.851969,29.734394]}},{"properties":{"city":"Harlingen","zip":"78552","future":"N","geo_score":0.867,"store":"Harlingen","id":"agzf28wbaxp0","address":"101 Bass Pro Drive","geo_precision":"range","state":"TX"},"type":"Feature","geometry":{"type":"Point","coordinates":[-97.780214,26.160335]}},{"properties":{"city":"Grapevine","zip":"76051","future":"N","geo_score":1.0,"store":"Grapevine (Dallas/Ft. Worth)","id":"agzf28q3da2c","address":"2501 Bass Pro Drive","geo_precision":"range","state":"TX"},"type":"Feature","geometry":{"type":"Point","coordinates":[-97.036933,32.955132]}},{"properties":{"city":"Garland","zip":"75043","future":"N","geo_score":0.593,"store":"Garland","id":"agzf291armjk","address":"5001 Bass Pro Drive","geo_precision":"street","state":"TX"},"type":"Feature","geometry":{"type":"Point","coordinates":[-96.561732,32.842551]}},{"properties":{"city":"Hampton","zip":"23666","future":"N","geo_score":1.0,"store":"Hampton","id":"agzf2904paw8","address":"1972 Power Plant Parkway","geo_precision":"range","state":"VA"},"type":"Feature","geometry":{"type":"Point","coordinates":[-76.401182,37.038721]}},{"properties":{"city":"Ashland","zip":"23005","future":"N","geo_score":0.805,"store":"Ashland (Richmond)","id":"agzf28q6lneo","address":"11550 Lakeridge Parkway","geo_precision":"street","state":"VA"},"type":"Feature","geometry":{"type":"Point","coordinates":[-77.453786,37.702695]}}],"is_temporal":false,"author":{"url":"","metadata":"","contact_name":"","contact_address":"","source":"","contact_phone":""},"source":"","pagination":{"sort":null,"start":0,"total":79,"limit":1000000},"state":"complete","tags":"","published":"2014-08-16T15:01:40-04:00","id":391863}