{"type":"FeatureCollection","data_type":"Dataset","url_type":null,"permissions":[{"permissions":{"download":true,"view":true},"group_id":"everyone"}],"classification":null,"title":"DuPage_County_Network_Partner_Pantries_Categorized_by_Direct_Connect_Participation","count":46,"stream_id":391857,"contributor":{"url":"http://geocommons.com/users/53425","name":"annanelsonNIFB"},"data_attributes":null,"calculation_params":null,"icon_link":null,"link":"http://geocommons.com/overlays/391857.json","extent":[-88.2715,41.6157,-87.8714,41.9783],"geometry_types":["point"],"unique_name":null,"name":"DuPage_County_Network_Partner_Pantries_Categorized_by_Direct_Connect_Participation","feature_count":46,"description":"","next_feature":null,"is_raster":false,"short_classification":"Y","stats":{"fip":{"max":43,"variance":0.0,"mean":43.0,"stdev":0.0,"min":43,"median":43},"# of dc partnerships":{"max":14,"variance":6.31932367149758,"mean":1.23913043478261,"stdev":2.51382649987973,"min":0,"median":0}},"features":[{"properties":{"name":"1st Assembly Of God","city":"West Chicago","fip":43,"geo_score":0.464,"zip code":"60185","# of dc partnerships":0,"id":"agze9ear4m2w","address":"450 E. Roosevelt Road","geo_precision":"street","state":"IL"},"type":"Feature","geometry":{"type":"Point","coordinates":[-88.271512,41.884634]}},{"properties":{"name":"Addison Township Pantry","city":"Addison","fip":43,"geo_score":0.607,"zip code":"60101","# of dc partnerships":0,"id":"agze9dzz8shz","address":"401 N. Addison Road","geo_precision":"street","state":"IL"},"type":"Feature","geometry":{"type":"Point","coordinates":[-87.988704,41.923612]}},{"properties":{"name":"Bartlett Baptist Church","city":"Bartlett","fip":43,"geo_score":0.607,"zip code":"60103","# of dc partnerships":0,"id":"agze9dz6a1yu","address":"1500 W. Stearns Road","geo_precision":"street","state":"IL"},"type":"Feature","geometry":{"type":"Point","coordinates":[-88.185065,41.973358]}},{"properties":{"name":"Calvary Church Pantry","city":"Naperville","fip":43,"geo_score":0.457,"zip code":"60544","# of dc partnerships":0,"id":"agze9e8gkgdr","address":"129 W. Benton (do not mail)","geo_precision":"street","state":"IL"},"type":"Feature","geometry":{"type":"Point","coordinates":[-88.200164,41.615653]}},{"properties":{"name":"Christian Worship Center","city":"Downers Grove","fip":43,"geo_score":0.916,"zip code":"60516","# of dc partnerships":0,"id":"agze9e88gcx3","address":"1330  63rd Street","geo_precision":"range","state":"IL"},"type":"Feature","geometry":{"type":"Point","coordinates":[-88.01609,41.772958]}},{"properties":{"name":"Church of Christ Food Pantry","city":"West Chicago","fip":43,"geo_score":0.476,"zip code":"60185","# of dc partnerships":0,"id":"agze9e24gfpj","address":"350 E. James Avenue","geo_precision":"street","state":"IL"},"type":"Feature","geometry":{"type":"Point","coordinates":[-88.147922,41.895508]}},{"properties":{"name":"Elmhurst Walk-In Ministry","city":"Elmhurst","fip":43,"geo_score":1.0,"zip code":"60126","# of dc partnerships":0,"id":"agze9e9ibkt9","address":"134 Arthur Street","geo_precision":"range","state":"IL"},"type":"Feature","geometry":{"type":"Point","coordinates":[-87.941232,41.895976]}},{"properties":{"name":"Hands of Hope Food Pantry","city":"Hanover Park","fip":43,"geo_score":1.0,"zip code":"60133","# of dc partnerships":0,"id":"agze9dycq8fi","address":"5700 Bartels Road","geo_precision":"range","state":"IL"},"type":"Feature","geometry":{"type":"Point","coordinates":[-88.129882,41.978272]}},{"properties":{"name":"Interfaith Food Pantry","city":"Carol  Stream","fip":43,"geo_score":0.596,"zip code":"60188","# of dc partnerships":0,"id":"agze9e4y6hmj","address":"345 S. President Street","geo_precision":"street","state":"IL"},"type":"Feature","geometry":{"type":"Point","coordinates":[-88.094003,41.900531]}},{"properties":{"name":"Itasca Food Pantry","city":"Itasca","fip":43,"geo_score":0.947,"zip code":"60143","# of dc partnerships":0,"id":"agze9ebdvr6l","address":"336 Center Street","geo_precision":"range","state":"IL"},"type":"Feature","geometry":{"type":"Point","coordinates":[-88.008179,41.973105]}},{"properties":{"name":"Lombard-Villa Park Pantry","city":"Lombard","fip":43,"geo_score":0.633,"zip code":"60148","# of dc partnerships":0,"id":"agze9e3ji53f","address":"155 S. Main Street","geo_precision":"street","state":"IL"},"type":"Feature","geometry":{"type":"Point","coordinates":[-88.014243,41.904747]}},{"properties":{"name":"Marian Park Food Pantry","city":"Wheaton","fip":43,"geo_score":0.459,"zip code":"60187","# of dc partnerships":0,"id":"agze9e5ek44o","address":"2126 W. Roosevelt Road","geo_precision":"street","state":"IL"},"type":"Feature","geometry":{"type":"Point","coordinates":[-88.13008,41.858371]}},{"properties":{"name":"Messiah Baptist - Addison","city":"Addison","fip":43,"geo_score":0.61,"zip code":"60101","# of dc partnerships":0,"id":"agze9e278n5e","address":"600 S. Villa Avenue","geo_precision":"street","state":"IL"},"type":"Feature","geometry":{"type":"Point","coordinates":[-87.975258,41.921094]}},{"properties":{"name":"Milton Township Pantry","city":"Wheaton","fip":43,"geo_score":0.633,"zip code":"60187","# of dc partnerships":0,"id":"agze9eaz2z42","address":"1492 N. Main Street","geo_precision":"street","state":"IL"},"type":"Feature","geometry":{"type":"Point","coordinates":[-88.106814,41.888918]}},{"properties":{"name":"Muslim Society, Inc.","city":"Glendale Heights","fip":43,"geo_score":1.0,"zip code":"60139","# of dc partnerships":0,"id":"agze9e6jlx63","address":"1785 Bloomingdale Road","geo_precision":"range","state":"IL"},"type":"Feature","geometry":{"type":"Point","coordinates":[-88.081291,41.923886]}},{"properties":{"name":"New Life Bilingual Food Pantry","city":"West Chicago","fip":43,"geo_score":0.633,"zip code":"60185","# of dc partnerships":0,"id":"agze9e9lnitd","address":"MAIL: P.O. Box 157 60186","geo_precision":"street","state":"IL"},"type":"Feature","geometry":{"type":"Point","coordinates":[-88.213633,41.88142]}},{"properties":{"name":"R.E.A.C.H. Ministries Inc.","city":"Lisle","fip":43,"geo_score":0.585,"zip code":"60532","# of dc partnerships":0,"id":"agze9eazhtc9","address":"4300 Yackley Avenue","geo_precision":"zip","state":"IL"},"type":"Feature","geometry":{"type":"Point","coordinates":[-88.037714,41.79818]}},{"properties":{"name":"Salvation Army Oakbrook","city":"Oakbrook Terrace","fip":43,"geo_score":0.927,"zip code":"60181","# of dc partnerships":0,"id":"agze9e906q6h","address":"1 South 415 Summit Avenue","geo_precision":"range","state":"IL"},"type":"Feature","geometry":{"type":"Point","coordinates":[-87.973727,41.887816]}},{"properties":{"name":"St. Joseph Pantry - Addison","city":"Addison","fip":43,"geo_score":0.462,"zip code":"60101","# of dc partnerships":0,"id":"agze9ec4pu8j","address":"330 E. Fullerton Avenue","geo_precision":"street","state":"IL"},"type":"Feature","geometry":{"type":"Point","coordinates":[-87.971758,41.920204]}},{"properties":{"name":"St. Joseph's - SVDP Downers Grove","city":"Downers Grove","fip":43,"geo_score":0.465,"zip code":"60515","# of dc partnerships":0,"id":"agze9e3r2omt","address":"4824 Highland Avenue","geo_precision":"street","state":"IL"},"type":"Feature","geometry":{"type":"Point","coordinates":[-88.201952,41.685805]}},{"properties":{"name":"St. Mary of Gostyn - SVDP","city":"Downers Grove","fip":43,"geo_score":1.0,"zip code":"60515","# of dc partnerships":0,"id":"agze9dxj96wv","address":"444 Wilson Street","geo_precision":"range","state":"IL"},"type":"Feature","geometry":{"type":"Point","coordinates":[-87.996761,41.799569]}},{"properties":{"name":"St. Pius - St. Vincent Depaul Food Pantry","city":"Lombard","fip":43,"geo_score":0.607,"zip code":"60148","# of dc partnerships":0,"id":"agze9e6pxi1u","address":"1025 E. Madison Street","geo_precision":"street","state":"IL"},"type":"Feature","geometry":{"type":"Point","coordinates":[-88.01639,41.874725]}},{"properties":{"name":"St. Thomas the Apostle","city":"Naperville","fip":43,"geo_score":1.0,"zip code":"60563","# of dc partnerships":0,"id":"agze9e8qvg0k","address":"1500 Brookdale Road","geo_precision":"range","state":"IL"},"type":"Feature","geometry":{"type":"Point","coordinates":[-88.190697,41.784276]}},{"properties":{"name":"Thriftique-Chicagoland Church","city":"Lisle","fip":43,"geo_score":1.0,"zip code":"60532","# of dc partnerships":0,"id":"agze9dxhxzlh","address":"4725 Main Street","geo_precision":"range","state":"IL"},"type":"Feature","geometry":{"type":"Point","coordinates":[-88.074647,41.800854]}},{"properties":{"name":"Village Baptist Church","city":"Aurora","fip":43,"geo_score":0.607,"zip code":"60504","# of dc partnerships":0,"id":"agze9e38ickg","address":"515 S. Frontenac Road","geo_precision":"street","state":"IL"},"type":"Feature","geometry":{"type":"Point","coordinates":[-88.230244,41.754511]}},{"properties":{"name":"Wayne Township Pantry","city":"West Chicago","fip":43,"geo_score":0.522,"zip code":"60185-5122","# of dc partnerships":0,"id":"agze9e8uqce4","address":"27 W 031 North Avenue","geo_precision":"street","state":"IL"},"type":"Feature","geometry":{"type":"Point","coordinates":[-87.871395,41.898368]}},{"properties":{"name":"Christ The King - St Vincent DePaul","city":"Lombard","fip":43,"geo_score":0.633,"zip code":"60148","# of dc partnerships":1,"id":"agze9eb3k5rr","address":"1501 S. Main Street","geo_precision":"street","state":"IL"},"type":"Feature","geometry":{"type":"Point","coordinates":[-88.014243,41.904747]}},{"properties":{"name":"Disciples Food Pantry","city":"Villa Park","fip":43,"geo_score":0.61,"zip code":"60181","# of dc partnerships":1,"id":"agze9e5h5nhn","address":"1336 S. Villa Avenue","geo_precision":"street","state":"IL"},"type":"Feature","geometry":{"type":"Point","coordinates":[-87.969157,41.887162]}},{"properties":{"name":"Fish of Downers Grove","city":"Downers Grove","fip":43,"geo_score":1.0,"zip code":"60515","# of dc partnerships":1,"id":"agze9e9ul7ro","address":"4340 Prince Street","geo_precision":"range","state":"IL"},"type":"Feature","geometry":{"type":"Point","coordinates":[-88.013587,41.807368]}},{"properties":{"name":"Glen Ellyn Food Pantry","city":"Glen Ellyn","fip":43,"geo_score":1.0,"zip code":"60137","# of dc partnerships":1,"id":"agze9dx1hr3s","address":"493 Forest Avenue","geo_precision":"range","state":"IL"},"type":"Feature","geometry":{"type":"Point","coordinates":[-88.064857,41.876976]}},{"properties":{"name":"Hand + Hand Food Pantry - Harvard Evang","city":"Villa Park","fip":43,"geo_score":0.571,"zip code":"60181","# of dc partnerships":1,"id":"agze9e2ngz2r","address":"206 W. St. Charles Road","geo_precision":"street","state":"IL"},"type":"Feature","geometry":{"type":"Point","coordinates":[-87.975129,41.889851]}},{"properties":{"name":"Neighborhood FP at Immanuel","city":"Warrenville","fip":43,"geo_score":0.681,"zip code":"60555","# of dc partnerships":1,"id":"agze9e1so05g","address":"29W260 Batavia Road","geo_precision":"street","state":"IL"},"type":"Feature","geometry":{"type":"Point","coordinates":[-88.205598,41.833166]}},{"properties":{"name":"Neighborhood FP at LCM","city":"Carol Stream","fip":43,"geo_score":0.633,"zip code":"60188","# of dc partnerships":1,"id":"agze9eap7ogg","address":"580 N. Kuhn Road","geo_precision":"street","state":"IL"},"type":"Feature","geometry":{"type":"Point","coordinates":[-88.140165,41.906532]}},{"properties":{"name":"Neighborhood FP at Resurrection","city":"Wayne","fip":43,"geo_score":0.69,"zip code":"60184","# of dc partnerships":1,"id":"agze9dyk2d3a","address":"30W350 Army Trail Road","geo_precision":"street","state":"IL"},"type":"Feature","geometry":{"type":"Point","coordinates":[-88.225912,41.948155]}},{"properties":{"name":"York Township Pantry","city":"Lombard","fip":43,"geo_score":0.619,"zip code":"60148","# of dc partnerships":1,"id":"agze9e62j774","address":"1502 S. Meyers Road","geo_precision":"street","state":"IL"},"type":"Feature","geometry":{"type":"Point","coordinates":[-87.992181,41.849814]}},{"properties":{"name":"Addison Community Switchboard","city":"Addison","fip":43,"geo_score":1.0,"zip code":"60101","# of dc partnerships":2,"id":"agze9dwtzngn","address":"193 W Michael Lane","geo_precision":"range","state":"IL"},"type":"Feature","geometry":{"type":"Point","coordinates":[-87.98963,41.937714]}},{"properties":{"name":"Elmhurst-Yorkfield Food Pantry","city":"Elmhurst","fip":43,"geo_score":0.643,"zip code":"60126","# of dc partnerships":2,"id":"agze9e3v92vw","address":"1083 York Road","geo_precision":"street","state":"IL"},"type":"Feature","geometry":{"type":"Point","coordinates":[-87.932918,41.868058]}},{"properties":{"name":"Lisle Township Pantry","city":"Lisle","fip":43,"geo_score":1.0,"zip code":"60532","# of dc partnerships":2,"id":"agze9e2rn961","address":"4711 Indiana Avenue","geo_precision":"range","state":"IL"},"type":"Feature","geometry":{"type":"Point","coordinates":[-88.096441,41.797814]}},{"properties":{"name":"Neighborhood FP at Crossroads","city":"West Chicago","fip":43,"geo_score":0.587,"zip code":"60185","# of dc partnerships":2,"id":"agze9dwr1r7t","address":"525 Neltnor","geo_precision":"street","state":"IL"},"type":"Feature","geometry":{"type":"Point","coordinates":[-88.194235,41.899035]}},{"properties":{"name":"St. Paul UCC - Bloomingdale","city":"Bloomingdale","fip":43,"geo_score":0.902,"zip code":"60108","# of dc partnerships":2,"id":"agze9e0k6z83","address":"118 First Street","geo_precision":"range","state":"IL"},"type":"Feature","geometry":{"type":"Point","coordinates":[-88.07993,41.956305]}},{"properties":{"name":"Bensenville-Wood Dale Pantry","city":"Bensenville","fip":43,"geo_score":1.0,"zip code":"60106","# of dc partnerships":3,"id":"agze9e32m36p","address":"192 S Center Street","geo_precision":"range","state":"IL"},"type":"Feature","geometry":{"type":"Point","coordinates":[-87.941133,41.955317]}},{"properties":{"name":"PRC-Southeast - Westmont","city":"Westmont","fip":43,"geo_score":0.585,"zip code":"60559","# of dc partnerships":4,"id":"agze9e4dya99","address":"649 Blackhawk Drive","geo_precision":"zip","state":"IL"},"type":"Feature","geometry":{"type":"Point","coordinates":[-87.970713,41.799876]}},{"properties":{"name":"West Suburban Community Pantry","city":"Woodridge","fip":43,"geo_score":1.0,"zip code":"60517","# of dc partnerships":4,"id":"agze9ebaywuy","address":"6809 Hobson Valley Dr","geo_precision":"range","state":"IL"},"type":"Feature","geometry":{"type":"Point","coordinates":[-88.067506,41.760501]}},{"properties":{"name":"HCS Family Services","city":"Hinsdale","fip":43,"geo_score":1.0,"zip code":"60521","# of dc partnerships":5,"id":"agze9dykkgb4","address":"19 E Chicago Avenue","geo_precision":"range","state":"IL"},"type":"Feature","geometry":{"type":"Point","coordinates":[-87.927541,41.803758]}},{"properties":{"name":"Loaves + Fishes Community Pantry","city":"Naperville","fip":43,"geo_score":0.4,"zip code":"60540","# of dc partnerships":8,"id":"agze9e8jz8o5","address":"1871 High Grove Lane","geo_precision":"street","state":"IL"},"type":"Feature","geometry":{"type":"Point","coordinates":[-88.196103,41.827352]}},{"properties":{"name":"People's Resource Center","city":"Wheaton","fip":43,"geo_score":0.805,"zip code":"60187","# of dc partnerships":14,"id":"agze9dy819b1","address":"201 S Naperville Road","geo_precision":"street","state":"IL"},"type":"Feature","geometry":{"type":"Point","coordinates":[-88.101939,41.85332]}}],"is_temporal":false,"author":{"url":"","metadata":null,"contact_name":null,"contact_address":null,"source":null,"contact_phone":null},"source":"","pagination":{"sort":null,"start":0,"total":46,"limit":1000000},"state":"complete","tags":"","published":"2014-08-16T15:01:28-04:00","id":391857}