{"type":"FeatureCollection","data_type":"Dataset","url_type":null,"permissions":[{"permissions":{"download":true,"view":true},"group_id":"everyone"}],"classification":null,"title":"Opps_on_Hold","count":294,"stream_id":394325,"contributor":{"url":"http://geocommons.com/users/82234","name":"ciamediacomcc"},"data_attributes":null,"calculation_params":null,"icon_link":null,"link":"http://geocommons.com/overlays/394325.json","extent":[-93.8094,36.1468,-85.0286,47.559],"geometry_types":["point"],"unique_name":null,"name":"Opps_on_Hold","feature_count":294,"description":"","next_feature":null,"is_raster":false,"short_classification":"Y","stats":{"mrc":{"max":1500.0,"mean":155.964221453287,"variance":29510.2707411452,"stdev":171.785537054623,"min":0.0,"median":119.9}},"features":[{"properties":{"city":"Olwein","stage":"Hold: Cost Analysis","reason for loss / hold":null,"geo_score":0.97,"street address":"1007 Industrial Park Drive","zip code":"50662","opportunity owner":"David S Letsch","account name":"Quality Plus Manufacturing","mrc":129.95,"id":"ah7093yh5ylx","geo_precision":"range","state":"IA"},"type":"Feature","geometry":{"type":"Point","coordinates":[-91.908934,42.663608]}},{"properties":{"city":"Waterloo","stage":"Hold: Cost Analysis","reason for loss / hold":null,"geo_score":1.0,"street address":"8217 Ansborough ave","zip code":"50701","opportunity owner":"David S Letsch","account name":"Sean Mc Nally","mrc":248.9,"id":"ah7093wquh8j","geo_precision":"range","state":"IA"},"type":"Feature","geometry":{"type":"Point","coordinates":[-92.37696,42.396171]}},{"properties":{"city":"WATERLOO","stage":"Hold: Cost Analysis","reason for loss / hold":null,"geo_score":1.0,"street address":"6925 Ansborough Ave","zip code":"50701","opportunity owner":"David S Letsch","account name":"Mark Becker Assocs","mrc":119.9,"id":"ah70940tzoz3","geo_precision":"range","state":"IA"},"type":"Feature","geometry":{"type":"Point","coordinates":[-92.376637,42.416553]}},{"properties":{"city":"Carbondale","stage":"Lost: Pre-Contract","reason for loss / hold":"PreSaleLoss: Too Costly to Build","geo_score":0.902,"street address":"14 Egret Lake Road","zip code":"62901","opportunity owner":"Brenda Wrolson","account name":"SI Wireless LLC","mrc":105.9,"id":"ah70942ebtkx","geo_precision":"range","state":"IL"},"type":"Feature","geometry":{"type":"Point","coordinates":[-89.271856,37.674652]}},{"properties":{"city":"Coulterville","stage":"Lost: Pre-Contract","reason for loss / hold":"PreSaleLoss: Too Costly to Build","geo_score":1.0,"street address":"101 W Grant St","zip code":"62237","opportunity owner":"Brenda Wrolson","account name":"Coulterville Schools","mrc":800.0,"id":"ah70943lxs12","geo_precision":"range","state":"IL"},"type":"Feature","geometry":{"type":"Point","coordinates":[-89.606854,38.186339]}},{"properties":{"city":"Demotte","stage":"Lost: Pre-Contract","reason for loss / hold":"PreSaleLoss: Too Costly to Build","geo_score":0.941,"street address":"611 15th Street SW","zip code":"46310","opportunity owner":"Brenda Wrolson","account name":"Covenent Christian High School","mrc":95.9,"id":"ah7093yu2nze","geo_precision":"range","state":"IN"},"type":"Feature","geometry":{"type":"Point","coordinates":[-87.20865,41.187977]}},{"properties":{"city":"Marion","stage":"Lost: Pre-Contract","reason for loss / hold":"PreSaleLoss: Too Costly to Build","geo_score":0.596,"street address":"3712 Rt 37 North","zip code":"62959","opportunity owner":"Brenda Wrolson","account name":"Southeastern Illinois Electric Coop","mrc":400.0,"id":"ah7093x9qarf","geo_precision":"street","state":"IL"},"type":"Feature","geometry":{"type":"Point","coordinates":[-88.962826,37.736449]}},{"properties":{"city":"Wanatah","stage":"Lost: Pre-Contract","reason for loss / hold":"PreSaleLoss: Too Costly to Build","geo_score":0.61,"street address":"11402 South County Line Road","zip code":"46390","opportunity owner":"Brenda Wrolson","account name":"Purdue University Extension Offices","mrc":129.95,"id":"ah7093umk4vi","geo_precision":"street","state":"IN"},"type":"Feature","geometry":{"type":"Point","coordinates":[-87.21973,41.391702]}},{"properties":{"city":"Marion","stage":"Lost: Pre-Contract","reason for loss / hold":"PreSaleLoss: Too Costly to Build","geo_score":1.0,"street address":"14259 Mustang Road","zip code":"62959","opportunity owner":"Brenda Wrolson","account name":"Electronics, Data and Telephone Solution","mrc":198.9,"id":"ah7093w8tty7","geo_precision":"range","state":"IL"},"type":"Feature","geometry":{"type":"Point","coordinates":[-88.894597,37.777788]}},{"properties":{"city":"Carbondale","stage":"Lost: Pre-Contract","reason for loss / hold":"PreSaleLoss: Too Costly to Build","geo_score":1.0,"street address":"290 East Miller Court","zip code":"62901","opportunity owner":"Brenda Wrolson","account name":"All Electric","mrc":300.0,"id":"ah7093zv2o57","geo_precision":"range","state":"IL"},"type":"Feature","geometry":{"type":"Point","coordinates":[-89.214509,37.757289]}},{"properties":{"city":"Cedar Rapids","stage":"Lost: Pre-Contract","reason for loss / hold":"PreSaleLoss: Too Costly to Build","geo_score":0.898,"street address":"3330 Southgate CT SW Ste 172","zip code":"52404","opportunity owner":"Jeffery Delong","account name":"BME","mrc":169.9,"id":"ah7093s6qwtg","geo_precision":"range","state":"IA"},"type":"Feature","geometry":{"type":"Point","coordinates":[-91.673473,41.944126]}},{"properties":{"city":"Cedar Rapids","stage":"Lost: Pre-Contract","reason for loss / hold":"PreSaleLoss: Too Costly to Build","geo_score":0.805,"street address":"9000 C Avenue NE","zip code":"52402","opportunity owner":"Jeffery Delong","account name":"Echo Hill Presbyterian Church","mrc":199.95,"id":"ah7093x2vtn5","geo_precision":"street","state":"IA"},"type":"Feature","geometry":{"type":"Point","coordinates":[-91.638547,42.053647]}},{"properties":{"city":"Iowa City","stage":"Lost (Pre-Install)","reason for loss / hold":"PreSaleLoss: Too Costly to Build","geo_score":0.805,"street address":"1861 Lower Muscatine Rd.","zip code":"52244","opportunity owner":"Jeffery Delong","account name":"Circle Computer Resources","mrc":69.95,"id":"ah70943v5oes","geo_precision":"range","state":"IA"},"type":"Feature","geometry":{"type":"Point","coordinates":[-91.508737,41.643809]}},{"properties":{"city":"West Des Moines","stage":"Lost: Pre-Contract","reason for loss / hold":"PreSaleLoss: Too Costly to Build","geo_score":0.571,"street address":"1320 74th Street (alt. 1320 Jordan Creek Parkway)","zip code":"50265","opportunity owner":"Jeffery Delong","account name":"Circle Computer Resources","mrc":69.95,"id":"ah70944pg6gh","geo_precision":"street","state":"IA"},"type":"Feature","geometry":{"type":"Point","coordinates":[-93.740859,41.562705]}},{"properties":{"city":"Ottumwa","stage":"Lost (Pre-Install)","reason for loss / hold":"PreSaleLoss: Too Costly to Build","geo_score":1.0,"street address":"550 Gateway Drive","zip code":"52501","opportunity owner":"Jennifer Handling","account name":"City of Ottumwa","mrc":188.7,"id":"ah70946r2w8a","geo_precision":"range","state":"IA"},"type":"Feature","geometry":{"type":"Point","coordinates":[-92.420089,41.020898]}},{"properties":{"city":"ottumwa","stage":"Lost: Pre-Contract","reason for loss / hold":"PreSaleLoss: Too Costly to Build","geo_score":0.902,"street address":"6229 highway 63","zip code":"52501","opportunity owner":"Jennifer Handling","account name":"John's used cars and auto body repair","mrc":169.9,"id":"ah7093w1y7hc","geo_precision":"range","state":"IA"},"type":"Feature","geometry":{"type":"Point","coordinates":[-92.404483,40.970882]}},{"properties":{"city":"Ottumwa","stage":"Lost (Pre-Install)","reason for loss / hold":"PreSaleLoss: Too Costly to Build","geo_score":0.814,"street address":"1078 Wildwood Dr","zip code":"52501","opportunity owner":"Jennifer Handling","account name":"Crane Construction","mrc":129.9,"id":"ah7094351go1","geo_precision":"street","state":"IA"},"type":"Feature","geometry":{"type":"Point","coordinates":[-92.448017,41.017013]}},{"properties":{"city":"Fairfield","stage":"Lost (Pre-Install)","reason for loss / hold":"PreSaleLoss: Too Costly to Build","geo_score":0.619,"street address":"South 23rd Street","zip code":"52556","opportunity owner":"Jennifer Handling","account name":"H&amp;R Block","mrc":119.95,"id":"ah7093qu3a37","geo_precision":"street","state":"IA"},"type":"Feature","geometry":{"type":"Point","coordinates":[-92.861339,40.719114]}},{"properties":{"city":"Centerville","stage":"Lost (Pre-Install)","reason for loss / hold":"PreSaleLoss: Too Costly to Build","geo_score":0.865,"street address":"717 N 18th St Ste 2","zip code":"52544","opportunity owner":"Jennifer Handling","account name":"Dean Tomlin Insurance","mrc":149.9,"id":"ah70946j7nkk","geo_precision":"range","state":"IA"},"type":"Feature","geometry":{"type":"Point","coordinates":[-92.867914,40.740673]}},{"properties":{"city":"Ottumwa","stage":"Lost: Pre-Contract","reason for loss / hold":"PreSaleLoss: Too Costly to Build","geo_score":0.709,"street address":"1132 N Quincy","zip code":"52501","opportunity owner":"Jennifer Handling","account name":"Kentucky Fried Chicken","mrc":129.85,"id":"ah7093zrr9v0","geo_precision":"street","state":"IA"},"type":"Feature","geometry":{"type":"Point","coordinates":[-92.438471,41.015522]}},{"properties":{"city":"Ottumwa","stage":"Lost (Pre-Install)","reason for loss / hold":"PreSaleLoss: Too Costly to Build","geo_score":0.642,"street address":"3043 Pawnee Dr","zip code":"52501","opportunity owner":"Jennifer Handling","account name":"Southern Iowa Mechanical","mrc":69.95,"id":"ah7093y0cydr","geo_precision":"street","state":"IA"},"type":"Feature","geometry":{"type":"Point","coordinates":[-92.427739,40.999389]}},{"properties":{"city":"Bloomfield","stage":"Hold: Cost Analysis","reason for loss / hold":null,"geo_score":1.0,"street address":"818 Karr Ave","zip code":"52537","opportunity owner":"Jennifer Handling","account name":"First Resources Corp.","mrc":69.95,"id":"ah7093yr13be","geo_precision":"range","state":"IA"},"type":"Feature","geometry":{"type":"Point","coordinates":[-92.428748,40.743981]}},{"properties":{"city":"Fairfield","stage":"Hold: Cost Analysis","reason for loss / hold":null,"geo_score":0.545,"street address":"605 S 23rd Street","zip code":"52556","opportunity owner":"Jennifer Handling","account name":"First Resources Corp.","mrc":69.95,"id":"ah7093qz3gkl","geo_precision":"street","state":"IA"},"type":"Feature","geometry":{"type":"Point","coordinates":[-92.861319,40.720065]}},{"properties":{"city":"Ottumwa","stage":"Hold: Cost Analysis","reason for loss / hold":null,"geo_score":0.808,"street address":"2942 Oak Meadow Dr","zip code":"52501","opportunity owner":"Jennifer Handling","account name":"First Resources Corp.","mrc":329.9,"id":"ah70944kkmn8","geo_precision":"street","state":"IA"},"type":"Feature","geometry":{"type":"Point","coordinates":[-92.404209,41.062956]}},{"properties":{"city":"East Dubuque","stage":"Hold: Cost Analysis","reason for loss / hold":null,"geo_score":0.837,"street address":"18525 US 20 West","zip code":"61025","opportunity owner":"Doris Vondran","account name":"Tracy Exports","mrc":59.95,"id":"ah70942ibvpb","geo_precision":"range","state":"IL"},"type":"Feature","geometry":{"type":"Point","coordinates":[-90.601262,42.470066]}},{"properties":{"city":"East Dubuque","stage":"Lost: Pre-Contract","reason for loss / hold":"PreSaleLoss: Too Costly to Build","geo_score":0.947,"street address":"18353 US Hwy 20 W","zip code":"61025","opportunity owner":"Doris Vondran","account name":"RT&amp;T","mrc":59.95,"id":"ah7093vapc2w","geo_precision":"range","state":"IL"},"type":"Feature","geometry":{"type":"Point","coordinates":[-90.599087,42.469347]}},{"properties":{"city":"Ottumwa","stage":"Lost (Pre-Install)","reason for loss / hold":"PreSaleLoss: Too Costly to Build","geo_score":0.821,"street address":"13011 120th Ave","zip code":"52501","opportunity owner":"Doris Vondran","account name":"Highland Place","mrc":75.9,"id":"ah7093ys10f0","geo_precision":"street","state":"IA"},"type":"Feature","geometry":{"type":"Point","coordinates":[-92.390934,41.073806]}},{"properties":{"city":"Dubuque","stage":"Lost (Pre-Install)","reason for loss / hold":"PreSaleLoss: Too Costly to Build","geo_score":1.0,"street address":"2500 Kerper Blvd.","zip code":"52001","opportunity owner":"Doris Vondran","account name":"Key City Plating","mrc":119.95,"id":"ah7093xiq4ur","geo_precision":"range","state":"IA"},"type":"Feature","geometry":{"type":"Point","coordinates":[-90.648113,42.528856]}},{"properties":{"city":"Galena","stage":"Lost (Pre-Install)","reason for loss / hold":"PreSaleLoss: Too Costly to Build","geo_score":1.0,"street address":"11420 W CHETLAIN LN","zip code":"61036","opportunity owner":"Doris Vondran","account name":"Tri state Christian school","mrc":89.95,"id":"ah7093v48ajk","geo_precision":"range","state":"IL"},"type":"Feature","geometry":{"type":"Point","coordinates":[-90.454555,42.431987]}},{"properties":{"city":"Peosta","stage":"Lost (Pre-Install)","reason for loss / hold":"PreSaleLoss: Too Costly to Build","geo_score":0.722,"street address":"9866 Kapp Ct","zip code":"52068","opportunity owner":"Doris Vondran","account name":"Ductsox","mrc":79.95,"id":"ah70940153eb","geo_precision":"street","state":"IA"},"type":"Feature","geometry":{"type":"Point","coordinates":[-90.866636,42.44552]}},{"properties":{"city":"Dubuque","stage":"Lost (Pre-Install)","reason for loss / hold":"PreSaleLoss: Too Costly to Build","geo_score":0.612,"street address":"1200 Associates Drive","zip code":"52001","opportunity owner":"Doris Vondran","account name":"Dubuque Teacher's Credit Union","mrc":69.95,"id":"ah7093wioxo1","geo_precision":"street","state":"IA"},"type":"Feature","geometry":{"type":"Point","coordinates":[-90.738393,42.493823]}},{"properties":{"city":"DUBUQUE","stage":"Hold: Cost Analysis","reason for loss / hold":"N/A","geo_score":1.0,"street address":"2380 GATEWAY DR","zip code":"52003","opportunity owner":"Doris Vondran","account name":"DAIRY QUEEN","mrc":71.0,"id":"ah7093tw0lxz","geo_precision":"range","state":"IA"},"type":"Feature","geometry":{"type":"Point","coordinates":[-90.672763,42.458537]}},{"properties":{"city":"Dubuque","stage":"Lost (Pre-Install)","reason for loss / hold":"PreSaleLoss: Too Costly to Build","geo_score":1.0,"street address":"4450 Dodge St","zip code":"52003","opportunity owner":"Doris Vondran","account name":"Word of Life Church Incorporated","mrc":69.95,"id":"ah7093vb6xf7","geo_precision":"range","state":"IA"},"type":"Feature","geometry":{"type":"Point","coordinates":[-90.740194,42.48808]}},{"properties":{"city":"Dubuque","stage":"Lost (Pre-Install)","reason for loss / hold":"PreSaleLoss: Too Costly to Build","geo_score":0.784,"street address":"2065 Holliday Dr.","zip code":"52002","opportunity owner":"Doris Vondran","account name":"Sedona Staffing Services Dubuque","mrc":69.95,"id":"ah7093uprh1n","geo_precision":"street","state":"IA"},"type":"Feature","geometry":{"type":"Point","coordinates":[-90.742674,42.512682]}},{"properties":{"city":"Dubuque","stage":"Lost (Pre-Install)","reason for loss / hold":"PreSaleLoss: Too Costly to Build","geo_score":1.0,"street address":"3223 University Ave.","zip code":"52001","opportunity owner":"Doris Vondran","account name":"Auto Dynamics Inc.","mrc":119.9,"id":"ah7093vvdfnl","geo_precision":"range","state":"IA"},"type":"Feature","geometry":{"type":"Point","coordinates":[-90.709223,42.492872]}},{"properties":{"city":"Dubuque","stage":"Hold: Cost Analysis","reason for loss / hold":null,"geo_score":0.857,"street address":"2001 St. Joseph Street","zip code":"52001","opportunity owner":"Doris Vondran","account name":"St. Joseph the Worker Catholic Church","mrc":59.95,"id":"ah70941everb","geo_precision":"zip","state":"IA"},"type":"Feature","geometry":{"type":"Point","coordinates":[-90.779573,42.481114]}},{"properties":{"city":"Dubuque","stage":"Hold: Cost Analysis","reason for loss / hold":null,"geo_score":1.0,"street address":"5095 Pennsylvania Ave","zip code":"52002","opportunity owner":"Doris Vondran","account name":"McClain Fence/Excavating","mrc":34.95,"id":"ah70945hxh40","geo_precision":"range","state":"IA"},"type":"Feature","geometry":{"type":"Point","coordinates":[-90.747938,42.500646]}},{"properties":{"city":"La Crescent","stage":"Lost (Pre-Install)","reason for loss / hold":"PreSaleLoss: Too Costly to Build","geo_score":0.5,"street address":"2510 Chicken Ridge Rd","zip code":"55947","opportunity owner":"Doris Vondran","account name":"Gundersen Health System","mrc":205.9,"id":"ah7093xvqgqb","geo_precision":"street","state":"MN"},"type":"Feature","geometry":{"type":"Point","coordinates":[-92.982639,44.280141]}},{"properties":{"city":"Ankeny","stage":"Lost (Pre-Install)","reason for loss / hold":"PreSaleLoss: Too Costly to Build","geo_score":0.916,"street address":"2005 SE Delaware Ave Ste B","zip code":"50021","opportunity owner":"Kirk VanDeBerg","account name":"Gamers","mrc":119.95,"id":"ah70945fywlf","geo_precision":"range","state":"IA"},"type":"Feature","geometry":{"type":"Point","coordinates":[-93.581136,41.708838]}},{"properties":{"city":"Spring Valley","stage":"Lost (Pre-Install)","reason for loss / hold":"PreSaleLoss: Too Costly to Build","geo_score":0.649,"street address":"1140 North Broadway","zip code":"55975","opportunity owner":"Kirk VanDeBerg","account name":"Matts Body Shop &amp; Tire Service","mrc":137.45,"id":"ah70940ftl08","geo_precision":"street","state":"MN"},"type":"Feature","geometry":{"type":"Point","coordinates":[-92.503551,43.510519]}},{"properties":{"city":"Chatfield","stage":"Lost (Pre-Install)","reason for loss / hold":"PreSaleLoss: Too Costly to Build","geo_score":1.0,"street address":"272 Main St N","zip code":"55923","opportunity owner":"Kirk VanDeBerg","account name":"Elcor Realty","mrc":119.95,"id":"ah7093sa8hc4","geo_precision":"range","state":"MN"},"type":"Feature","geometry":{"type":"Point","coordinates":[-92.192544,43.849828]}},{"properties":{"city":"Des Moines","stage":"Lost (Pre-Install)","reason for loss / hold":"PreSaleLoss: Too Costly to Build","geo_score":0.941,"street address":"3021 SE 14th St","zip code":"50320","opportunity owner":"Kirk VanDeBerg","account name":"Gamers","mrc":125.9,"id":"ah7093tvwv2a","geo_precision":"range","state":"IA"},"type":"Feature","geometry":{"type":"Point","coordinates":[-93.596719,41.557559]}},{"properties":{"city":"Mason City","stage":"Lost (Pre-Install)","reason for loss / hold":"PreSaleLoss: Too Costly to Build","geo_score":0.786,"street address":"950 N Illinoise Ave","zip code":"50401","opportunity owner":"Kirk VanDeBerg","account name":"Tugs Daycare and Preschool","mrc":89.95,"id":"ah7093yjxvin","geo_precision":"street","state":"IA"},"type":"Feature","geometry":{"type":"Point","coordinates":[-93.171149,43.151606]}},{"properties":{"city":"Adams","stage":"Lost (Pre-Install)","reason for loss / hold":"PreSaleLoss: Too Costly to Build","geo_score":0.813,"street address":"703 Main St","zip code":"55909","opportunity owner":"Kirk VanDeBerg","account name":"Adams Sewage Treatment","mrc":29.95,"id":"ah7093xsc9ra","geo_precision":"range","state":"MN"},"type":"Feature","geometry":{"type":"Point","coordinates":[-92.728472,43.56599]}},{"properties":{"city":"Mason City","stage":"Lost (Pre-Install)","reason for loss / hold":"PreSaleLoss: Too Costly to Build","geo_score":0.935,"street address":"2401 4th St SW","zip code":"50401","opportunity owner":"Kirk VanDeBerg","account name":"DRM DBA Arbys","mrc":69.95,"id":"ah7093v5qsr4","geo_precision":"range","state":"IA"},"type":"Feature","geometry":{"type":"Point","coordinates":[-93.236818,43.148363]}},{"properties":{"city":"Charles City","stage":"Lost (Pre-Install)","reason for loss / hold":"PreSaleLoss: Too Costly to Build","geo_score":0.878,"street address":"2143 Ridgeway Ave","zip code":"50616","opportunity owner":"Kirk VanDeBerg","account name":"Crystal Hinders","mrc":89.95,"id":"ah7093usswfx","geo_precision":"street","state":"IA"},"type":"Feature","geometry":{"type":"Point","coordinates":[-92.695763,43.046251]}},{"properties":{"city":"Charles City","stage":"Lost (Pre-Install)","reason for loss / hold":"PreSaleLoss: Too Costly to Build","geo_score":0.805,"street address":"100 Commercial St","zip code":"50616","opportunity owner":"Kirk VanDeBerg","account name":"Pro Cattle Inc","mrc":198.85,"id":"ah7093y7nxrm","geo_precision":"range","state":"IA"},"type":"Feature","geometry":{"type":"Point","coordinates":[-92.219175,42.466276]}},{"properties":{"city":"Spring Valley","stage":"Hold: Cost Analysis","reason for loss / hold":null,"geo_score":0.807,"street address":"900 E Farmer St","zip code":"55975","opportunity owner":"Kirk VanDeBerg","account name":"Spring Valley Street Shop","mrc":99.95,"id":"ah709442qe1l","geo_precision":"street","state":"MN"},"type":"Feature","geometry":{"type":"Point","coordinates":[-92.375588,43.692243]}},{"properties":{"city":"Mason City","stage":"Lost (Pre-Install)","reason for loss / hold":"PreSaleLoss: Too Costly to Build","geo_score":1.0,"street address":"687 S Taft Ave","zip code":"50401","opportunity owner":"Randy Rodriguez","account name":"Anytime Fitness","mrc":155.85,"id":"ah70945e8lbm","geo_precision":"range","state":"IA"},"type":"Feature","geometry":{"type":"Point","coordinates":[-93.240515,43.146321]}},{"properties":{"city":"Decorah","stage":"Lost (Pre-Install)","reason for loss / hold":"PreSaleLoss: Too Costly to Build","geo_score":0.878,"street address":"2507 172nd Ave","zip code":"52101","opportunity owner":"Randy Rodriguez","account name":"Decorah Heating &amp; Plumbing","mrc":119.95,"id":"ah709442yhsg","geo_precision":"range","state":"IA"},"type":"Feature","geometry":{"type":"Point","coordinates":[-91.739747,43.302171]}},{"properties":{"city":"West Union","stage":"Lost (Pre-Install)","reason for loss / hold":"PreSaleLoss: Too Costly to Build","geo_score":0.967,"street address":"105 Armor St.","zip code":"52175","opportunity owner":"Randy Rodriguez","account name":"Northern AG Service, Inc.","mrc":69.95,"id":"ah70943614dn","geo_precision":"range","state":"IA"},"type":"Feature","geometry":{"type":"Point","coordinates":[-91.808001,42.953442]}},{"properties":{"city":"Edgewood","stage":"Lost (Pre-Install)","reason for loss / hold":"PreSaleLoss: Too Costly to Build","geo_score":0.801,"street address":"601 S Washington St- Office","zip code":"52042","opportunity owner":"Randy Rodriguez","account name":"Kendrick Forest Products","mrc":69.95,"id":"ah7093v30hg2","geo_precision":"street","state":"IA"},"type":"Feature","geometry":{"type":"Point","coordinates":[-91.401152,42.639903]}},{"properties":{"city":"Edgewood","stage":"Lost (Pre-Install)","reason for loss / hold":"PreSaleLoss: Too Costly to Build","geo_score":0.761,"street address":"601 S Washington St- Cabinet Shop","zip code":"52042","opportunity owner":"Randy Rodriguez","account name":"Kendrick Forest Products","mrc":69.95,"id":"ah70940hynd1","geo_precision":"street","state":"IA"},"type":"Feature","geometry":{"type":"Point","coordinates":[-91.401152,42.639903]}},{"properties":{"city":"Waukon","stage":"Lost (Pre-Install)","reason for loss / hold":"PreSaleLoss: Too Costly to Build","geo_score":0.941,"street address":"519 8th Ave NW","zip code":"52172","opportunity owner":"Randy Rodriguez","account name":"Palmer Repair","mrc":69.9,"id":"ah709455pfuu","geo_precision":"range","state":"IA"},"type":"Feature","geometry":{"type":"Point","coordinates":[-91.484062,43.276661]}},{"properties":{"city":"burlington","stage":"Lost (Pre-Install)","reason for loss / hold":"PreSaleLoss: Too Costly to Build","geo_score":0.902,"street address":"3115 Agency","zip code":"52601","opportunity owner":"Donnie Dobbs","account name":"Advance Chiropractic Center","mrc":149.9,"id":"ah7093re229a","geo_precision":"range","state":"IA"},"type":"Feature","geometry":{"type":"Point","coordinates":[-91.142561,40.814846]}},{"properties":{"city":"burlington","stage":"Lost (Pre-Install)","reason for loss / hold":"PreSaleLoss: Too Costly to Build","geo_score":0.922,"street address":"410 north roosevelt","zip code":"52601","opportunity owner":"Donnie Dobbs","account name":"S&amp;H Auto","mrc":39.95,"id":"ah70944bl5s9","geo_precision":"range","state":"IA"},"type":"Feature","geometry":{"type":"Point","coordinates":[-91.14142,40.815885]}},{"properties":{"city":"burlington","stage":"Lost (Pre-Install)","reason for loss / hold":"PreSaleLoss: Too Costly to Build","geo_score":1.0,"street address":"3001 sylvania drive","zip code":"52601","opportunity owner":"Donnie Dobbs","account name":"three I credit Union","mrc":69.95,"id":"ah7093srvzb1","geo_precision":"range","state":"IA"},"type":"Feature","geometry":{"type":"Point","coordinates":[-91.146081,40.821681]}},{"properties":{"city":"Keokuk","stage":"Lost (Pre-Install)","reason for loss / hold":"PreSaleLoss: Too Costly to Build","geo_score":1.0,"street address":"3550 270th Ave","zip code":"52632","opportunity owner":"Donnie Dobbs","account name":"James Hoffman Law Office","mrc":69.95,"id":"ah70941yy5fq","geo_precision":"range","state":"IA"},"type":"Feature","geometry":{"type":"Point","coordinates":[-91.396868,40.443211]}},{"properties":{"city":"Keokuk","stage":"Lost (Pre-Install)","reason for loss / hold":"PreSaleLoss: Too Costly to Build","geo_score":1.0,"street address":"3341 245th Ave","zip code":"52632","opportunity owner":"Donnie Dobbs","account name":"D &amp; D Equipment","mrc":119.95,"id":"ah70941pi2fk","geo_precision":"range","state":"IA"},"type":"Feature","geometry":{"type":"Point","coordinates":[-91.444131,40.472639]}},{"properties":{"city":"fort madison","stage":"Lost (Pre-Install)","reason for loss / hold":"PreSaleLoss: Too Costly to Build","geo_score":0.5,"street address":"2758 187th","zip code":"52632","opportunity owner":"Donnie Dobbs","account name":"Schickedanz Construction","mrc":119.95,"id":"ah7093uiqfv2","geo_precision":"street","state":"IA"},"type":"Feature","geometry":{"type":"Point","coordinates":[-91.254324,40.684034]}},{"properties":{"city":"Mt.Pleasant","stage":"Lost (Pre-Install)","reason for loss / hold":"PreSaleLoss: Too Costly to Build","geo_score":0.914,"street address":"1200 East Washington","zip code":"52641","opportunity owner":"Donnie Dobbs","account name":"Mt.Pleasant Treatment center","mrc":286.0,"id":"ah7093r1rayg","geo_precision":"range","state":"IA"},"type":"Feature","geometry":{"type":"Point","coordinates":[-91.536628,40.963761]}},{"properties":{"city":"Burlington","stage":"Lost (Pre-Install)","reason for loss / hold":"PreSaleLoss: Too Costly to Build","geo_score":0.927,"street address":"6576 Highway 61 south","zip code":"52601","opportunity owner":"Donnie Dobbs","account name":"T &amp; D Repair","mrc":119.95,"id":"ah709441r3ph","geo_precision":"range","state":"IA"},"type":"Feature","geometry":{"type":"Point","coordinates":[-91.147252,40.779345]}},{"properties":{"city":"West point","stage":"Lost (Pre-Install)","reason for loss / hold":"PreSaleLoss: Too Costly to Build","geo_score":0.572,"street address":"804 avenue e","zip code":"52656","opportunity owner":"Donnie Dobbs","account name":"West Point City Shed","mrc":29.95,"id":"ah70945qnna6","geo_precision":"street","state":"IA"},"type":"Feature","geometry":{"type":"Point","coordinates":[-91.449704,40.718056]}},{"properties":{"city":"West point","stage":"Lost (Pre-Install)","reason for loss / hold":"PreSaleLoss: Too Costly to Build","geo_score":0.453,"street address":"2385 saint paul rd","zip code":"52656","opportunity owner":"Donnie Dobbs","account name":"West Point Ice Plant","mrc":29.95,"id":"ah7094331prh","geo_precision":"street","state":"IA"},"type":"Feature","geometry":{"type":"Point","coordinates":[-91.441003,40.574296]}},{"properties":{"city":"burlington","stage":"Lost (Pre-Install)","reason for loss / hold":"PreSaleLoss: Too Costly to Build","geo_score":1.0,"street address":"2501 summer street","zip code":"52601","opportunity owner":"Donnie Dobbs","account name":"Burlington Airport","mrc":299.95,"id":"ah70943m3gjq","geo_precision":"range","state":"IA"},"type":"Feature","geometry":{"type":"Point","coordinates":[-91.11695,40.78363]}},{"properties":{"city":"Burlington","stage":"Lost (Pre-Install)","reason for loss / hold":"PreSaleLoss: Too Costly to Build","geo_score":1.0,"street address":"3520 Division St","zip code":"52601","opportunity owner":"Donnie Dobbs","account name":"Circle A Transport","mrc":89.95,"id":"ah70945q5e9m","geo_precision":"range","state":"IA"},"type":"Feature","geometry":{"type":"Point","coordinates":[-91.14671,40.80684]}},{"properties":{"city":"Fort Madison","stage":"Lost (Pre-Install)","reason for loss / hold":"PreSaleLoss: Too Costly to Build","geo_score":0.817,"street address":"2094 303 Ave","zip code":"52627","opportunity owner":"Donnie Dobbs","account name":"Matts greenhouse","mrc":95.9,"id":"ah70940urm8c","geo_precision":"range","state":"IA"},"type":"Feature","geometry":{"type":"Point","coordinates":[-91.334671,40.625244]}},{"properties":{"city":"Fort Madison","stage":"Lost (Pre-Install)","reason for loss / hold":"PreSaleLoss: Too Costly to Build","geo_score":0.709,"street address":"902 4th street","zip code":"52627","opportunity owner":"Donnie Dobbs","account name":"The Dock","mrc":325.85,"id":"ah7093rz2pii","geo_precision":"street","state":"IA"},"type":"Feature","geometry":{"type":"Point","coordinates":[-91.304338,40.629837]}},{"properties":{"city":"knoxville","stage":"Lost (Pre-Install)","reason for loss / hold":"PreSaleLoss: Too Costly to Build","geo_score":0.902,"street address":"1106 South Lincoln","zip code":"50138","opportunity owner":"Donnie Dobbs","account name":"Subway 8","mrc":99.9,"id":"ah709435ccmd","geo_precision":"range","state":"IA"},"type":"Feature","geometry":{"type":"Point","coordinates":[-93.109574,41.327648]}},{"properties":{"city":"Bloomfield","stage":"Lost (Pre-Install)","reason for loss / hold":"PreSaleLoss: Too Costly to Build","geo_score":0.514,"street address":"206 1/2 north washington street","zip code":"52537","opportunity owner":"Donnie Dobbs","account name":"Subway 9","mrc":99.9,"id":"ah7094169jlt","geo_precision":"street","state":"IA"},"type":"Feature","geometry":{"type":"Point","coordinates":[-92.413642,40.752697]}},{"properties":{"city":"Centerville","stage":"Lost (Pre-Install)","reason for loss / hold":"PreSaleLoss: Too Costly to Build","geo_score":0.935,"street address":"1015 north 18th street","zip code":"52544","opportunity owner":"Donnie Dobbs","account name":"Subway 5","mrc":99.9,"id":"ah7093vn0ueb","geo_precision":"range","state":"IA"},"type":"Feature","geometry":{"type":"Point","coordinates":[-92.86797,40.742621]}},{"properties":{"city":"West Burlington","stage":"Lost (Pre-Install)","reason for loss / hold":"PreSaleLoss: Too Costly to Build","geo_score":0.779,"street address":"116 west agency street","zip code":"52655","opportunity owner":"Donnie Dobbs","account name":"Subway 4","mrc":99.9,"id":"ah70940eoyxs","geo_precision":"street","state":"IA"},"type":"Feature","geometry":{"type":"Point","coordinates":[-91.14684,40.814567]}},{"properties":{"city":"West Burlington","stage":"Lost (Pre-Install)","reason for loss / hold":"PreSaleLoss: Too Costly to Build","geo_score":0.92,"street address":"324 west agency","zip code":"52655","opportunity owner":"Donnie Dobbs","account name":"Wal-mart Vision Center","mrc":139.95,"id":"ah7093w2p48y","geo_precision":"range","state":"IA"},"type":"Feature","geometry":{"type":"Point","coordinates":[-91.159177,40.813047]}},{"properties":{"city":"Keokuk","stage":"Lost (Pre-Install)","reason for loss / hold":"PreSaleLoss: Too Costly to Build","geo_score":0.875,"street address":"4042 main","zip code":"52632","opportunity owner":"Donnie Dobbs","account name":"Pepsicola","mrc":69.0,"id":"ah709469umj9","geo_precision":"range","state":"IA"},"type":"Feature","geometry":{"type":"Point","coordinates":[-91.415184,40.42892]}},{"properties":{"city":"Fort Madison","stage":"Lost (Pre-Install)","reason for loss / hold":"PreSaleLoss: Too Costly to Build","geo_score":0.585,"street address":"2336 259th Ave","zip code":"52627","opportunity owner":"Donnie Dobbs","account name":"Barb Accounting","mrc":119.9,"id":"ah70940lw9em","geo_precision":"zip","state":"IA"},"type":"Feature","geometry":{"type":"Point","coordinates":[-91.434473,40.596949]}},{"properties":{"city":"Fort Madison","stage":"Lost (Pre-Install)","reason for loss / hold":"PreSaleLoss: Too Costly to Build","geo_score":0.5,"street address":"2597 233rd","zip code":"52627","opportunity owner":"Donnie Dobbs","account name":"R&amp;J Quality Decaling","mrc":89.95,"id":"ah70945er8w9","geo_precision":"street","state":"IA"},"type":"Feature","geometry":{"type":"Point","coordinates":[-91.679739,40.972752]}},{"properties":{"city":"West Burlington","stage":"Lost (Pre-Install)","reason for loss / hold":"PreSaleLoss: Too Costly to Build","geo_score":0.92,"street address":"203 west agency","zip code":"52655","opportunity owner":"Donnie Dobbs","account name":"Heartland Foot care 2","mrc":119.9,"id":"ah7093tq9sdd","geo_precision":"range","state":"IA"},"type":"Feature","geometry":{"type":"Point","coordinates":[-91.158027,40.813098]}},{"properties":{"city":"Keokuk","stage":"Lost (Pre-Install)","reason for loss / hold":"PreSaleLoss: Too Costly to Build","geo_score":0.875,"street address":"4054 main","zip code":"52632","opportunity owner":"Donnie Dobbs","account name":"Hertiage Mall Inc","mrc":89.95,"id":"ah7093sb17yg","geo_precision":"range","state":"IA"},"type":"Feature","geometry":{"type":"Point","coordinates":[-91.415065,40.428638]}},{"properties":{"city":"West Burlington","stage":"Lost (Pre-Install)","reason for loss / hold":"PreSaleLoss: Too Costly to Build","geo_score":0.92,"street address":"924 broadway","zip code":"52655","opportunity owner":"Donnie Dobbs","account name":"Ritters Inc","mrc":163.34,"id":"ah7093qinpye","geo_precision":"range","state":"IA"},"type":"Feature","geometry":{"type":"Point","coordinates":[-91.156733,40.813899]}},{"properties":{"city":"Fort Madison","stage":"Lost (Pre-Install)","reason for loss / hold":"PreSaleLoss: Too Costly to Build","geo_score":1.0,"street address":"4723 Avenue J","zip code":"52627","opportunity owner":"Donnie Dobbs","account name":"Charles Holmes DDS","mrc":119.9,"id":"ah7093sp49yj","geo_precision":"range","state":"IA"},"type":"Feature","geometry":{"type":"Point","coordinates":[-91.371949,40.628526]}},{"properties":{"city":"Mount Pleasant","stage":"Hold: Cost Analysis","reason for loss / hold":null,"geo_score":0.958,"street address":"102 Saunders Ave","zip code":"52641","opportunity owner":"Donnie Dobbs","account name":"Lomont Molding","mrc":105.94,"id":"ah70944un0aw","geo_precision":"range","state":"IA"},"type":"Feature","geometry":{"type":"Point","coordinates":[-91.574751,40.967249]}},{"properties":{"city":"Keokuk","stage":"Hold: Cost Analysis","reason for loss / hold":null,"geo_score":1.0,"street address":"3111 Main St","zip code":"52632","opportunity owner":"Donnie Dobbs","account name":"Hy-Vee Food Store","mrc":79.95,"id":"ah70944b2cy7","geo_precision":"range","state":"IA"},"type":"Feature","geometry":{"type":"Point","coordinates":[-91.403711,40.41542]}},{"properties":{"city":"IOWA CITY","stage":"Lost (Pre-Install)","reason for loss / hold":"PreSaleLoss: Too Costly to Build","geo_score":0.979,"street address":"4366 NAPOLEAN ST SE","zip code":"52240","opportunity owner":"Jeff Welch","account name":"Joseph J Henderson and Son Inc","mrc":209.9,"id":"ah7093t57n1q","geo_precision":"range","state":"IA"},"type":"Feature","geometry":{"type":"Point","coordinates":[-91.509423,41.59863]}},{"properties":{"city":"Iowa City","stage":"Lost: Pre-Contract","reason for loss / hold":"PreSaleLoss: Too Costly to Build","geo_score":1.0,"street address":"2732 Northgate Dr","zip code":"52245","opportunity owner":"Jeff Welch","account name":"Clinic of Electrology","mrc":89.95,"id":"ah7093vdum24","geo_precision":"range","state":"IA"},"type":"Feature","geometry":{"type":"Point","coordinates":[-91.491763,41.688231]}},{"properties":{"city":"Riverside","stage":"Lost (Pre-Install)","reason for loss / hold":"PreSaleLoss: Too Costly to Build","geo_score":0.805,"street address":"1195 Vine St","zip code":"52327","opportunity owner":"Jeff Welch","account name":"Riverside City of","mrc":29.95,"id":"ah70940bdh8r","geo_precision":"street","state":"IA"},"type":"Feature","geometry":{"type":"Point","coordinates":[-91.579729,41.484186]}},{"properties":{"city":"Riverside","stage":"Lost (Pre-Install)","reason for loss / hold":"PreSaleLoss: Too Costly to Build","geo_score":0.854,"street address":"3126 Hwy 22","zip code":"52327","opportunity owner":"Jeff Welch","account name":"Riverside City of","mrc":89.9,"id":"ah7093rvk12v","geo_precision":"range","state":"IA"},"type":"Feature","geometry":{"type":"Point","coordinates":[-91.541472,41.490263]}},{"properties":{"city":"Riverside","stage":"Lost (Pre-Install)","reason for loss / hold":"PreSaleLoss: Too Costly to Build","geo_score":0.805,"street address":"1197 Vine St","zip code":"52327","opportunity owner":"Jeff Welch","account name":"Riverside City of","mrc":29.95,"id":"ah70942nvnxs","geo_precision":"street","state":"IA"},"type":"Feature","geometry":{"type":"Point","coordinates":[-91.579729,41.484186]}},{"properties":{"city":"Riverside","stage":"Lost (Pre-Install)","reason for loss / hold":"PreSaleLoss: Too Costly to Build","geo_score":0.585,"street address":"1180 Enterprise Dr","zip code":"52327","opportunity owner":"Jeff Welch","account name":"Riverside City of","mrc":29.95,"id":"ah7093u5blo2","geo_precision":"zip","state":"IA"},"type":"Feature","geometry":{"type":"Point","coordinates":[-91.580364,41.39539]}},{"properties":{"city":"Cedar Rapids","stage":"Lost (Pre-Install)","reason for loss / hold":"PreSaleLoss: Too Costly to Build","geo_score":1.0,"street address":"222 Glenbrook Dr SE","zip code":"52403","opportunity owner":"Jeff Welch","account name":"Emil's Hideaway","mrc":119.99,"id":"ah70946s95zq","geo_precision":"range","state":"IA"},"type":"Feature","geometry":{"type":"Point","coordinates":[-91.627984,42.017838]}},{"properties":{"city":"Iowa City","stage":"Hold: Cost Analysis","reason for loss / hold":"N/A","geo_score":0.817,"street address":"601 Highway 6 W","zip code":"52246","opportunity owner":"Jeff Welch","account name":"Affiliated Western","mrc":99.95,"id":"ah7093u8yaam","geo_precision":"range","state":"IA"},"type":"Feature","geometry":{"type":"Point","coordinates":[-91.540176,41.650351]}},{"properties":{"city":"West Branch","stage":"Hold: Cost Analysis","reason for loss / hold":null,"geo_score":0.78,"street address":"711 S Downey St.","zip code":"52358","opportunity owner":"Jeff Welch","account name":"Cesa Tequila #3","mrc":119.95,"id":"ah7093z572ql","geo_precision":"street","state":"IA"},"type":"Feature","geometry":{"type":"Point","coordinates":[-91.346527,41.677703]}},{"properties":{"city":"IOWA CITY","stage":"Hold: Cost Analysis","reason for loss / hold":"N/A","geo_score":0.902,"street address":"1801 S RIVERSIDE DR BLDG D","zip code":"52246","opportunity owner":"Jeff Welch","account name":"CARE AMBULANCE","mrc":129.9,"id":"ah70940h2bt7","geo_precision":"range","state":"IA"},"type":"Feature","geometry":{"type":"Point","coordinates":[-91.538666,41.635408]}},{"properties":{"city":"WASHINGTON","stage":"Lost (Pre-Install)","reason for loss / hold":"PreSaleLoss: Too Costly to Build","geo_score":0.585,"street address":"2176 LEXINGTON BLVD","zip code":"52353","opportunity owner":"Barb McDonald","account name":"HACAP","mrc":284.24,"id":"ah70942knsew","geo_precision":"zip","state":"IA"},"type":"Feature","geometry":{"type":"Point","coordinates":[-91.751808,41.31663]}},{"properties":{"city":"Pella","stage":"Lost (Pre-Install)","reason for loss / hold":"PreSaleLoss: Too Costly to Build","geo_score":0.551,"street address":"725 CountrySide Lane","zip code":"50219","opportunity owner":"Barb McDonald","account name":"Dutch Master Co.","mrc":89.95,"id":"ah7093ycdes5","geo_precision":"street","state":"IA"},"type":"Feature","geometry":{"type":"Point","coordinates":[-93.738523,41.56963]}},{"properties":{"city":"Cedar Rapids","stage":"Lost (Pre-Install)","reason for loss / hold":"PreSaleLoss: Too Costly to Build","geo_score":1.0,"street address":"4850 Armar Dr SE","zip code":"52403","opportunity owner":"Barb McDonald","account name":"ARA Gallery &amp; Interiors","mrc":125.9,"id":"ah70941nbkvy","geo_precision":"range","state":"IA"},"type":"Feature","geometry":{"type":"Point","coordinates":[-91.615632,42.025985]}},{"properties":{"city":"CEDAR RAPIDS","stage":"Lost (Pre-Install)","reason for loss / hold":"PreSaleLoss: Too Costly to Build","geo_score":0.902,"street address":"4700 TAMA ST SE","zip code":"52403","opportunity owner":"Barb McDonald","account name":"INFINITY CONTACT","mrc":69.95,"id":"ah7093sairyd","geo_precision":"street","state":"IA"},"type":"Feature","geometry":{"type":"Point","coordinates":[-91.618768,42.020572]}},{"properties":{"city":"FAIRFAX","stage":"Lost (Pre-Install)","reason for loss / hold":"PreSaleLoss: Too Costly to Build","geo_score":0.688,"street address":"325 80TH ST COURT","zip code":"52228","opportunity owner":"Barb McDonald","account name":"JESTER APPAREL","mrc":89.95,"id":"ah70944qgd1f","geo_precision":"street","state":"IA"},"type":"Feature","geometry":{"type":"Point","coordinates":[-91.774668,41.940446]}},{"properties":{"city":"Cedar Rapids","stage":"Lost (Pre-Install)","reason for loss / hold":"PreSaleLoss: Too Costly to Build","geo_score":0.871,"street address":"1221 PARK PLACE, SUITE C","zip code":"52402","opportunity owner":"Barb McDonald","account name":"Iowa Mortgage Solutions Inc","mrc":0.0,"id":"ah709451twuo","geo_precision":"street","state":"IA"},"type":"Feature","geometry":{"type":"Point","coordinates":[-91.654479,42.030217]}},{"properties":{"city":"Cedar Rapids","stage":"Lost (Pre-Install)","reason for loss / hold":"PreSaleLoss: Too Costly to Build","geo_score":0.947,"street address":"642 66th ave sw","zip code":"52404","opportunity owner":"Barb McDonald","account name":"Doors INC","mrc":59.95,"id":"ah7093vaslyt","geo_precision":"range","state":"IA"},"type":"Feature","geometry":{"type":"Point","coordinates":[-91.676647,41.914523]}},{"properties":{"city":"CEDAR RAPIDS","stage":"Lost (Pre-Install)","reason for loss / hold":"PreSaleLoss: Too Costly to Build","geo_score":0.947,"street address":"805 66TH AVE SW","zip code":"52404","opportunity owner":"Barb McDonald","account name":"CUSTOM HOSE &amp; SUPPLIES, INC.","mrc":409.8,"id":"ah709431fl58","geo_precision":"range","state":"IA"},"type":"Feature","geometry":{"type":"Point","coordinates":[-91.681254,41.914207]}},{"properties":{"city":"MARION","stage":"Lost: Pre-Contract","reason for loss / hold":"PreSaleLoss: Too Costly to Build","geo_score":0.916,"street address":"4601 8TH AVE","zip code":"52302","opportunity owner":"Barb McDonald","account name":"CR TIRE, INC.","mrc":75.9,"id":"ah709413a7t3","geo_precision":"range","state":"IA"},"type":"Feature","geometry":{"type":"Point","coordinates":[-91.559689,42.0339]}},{"properties":{"city":"HIAWATHA","stage":"Lost (Pre-Install)","reason for loss / hold":"PreSaleLoss: Too Costly to Build","geo_score":1.0,"street address":"955 KACENA RD","zip code":"52233","opportunity owner":"Barb McDonald","account name":"CONTROL INSTALLATIONS OF IOWA","mrc":75.9,"id":"ah7093vz52xg","geo_precision":"range","state":"IA"},"type":"Feature","geometry":{"type":"Point","coordinates":[-91.684128,42.054147]}},{"properties":{"city":"Dyersville","stage":"Lost (Pre-Install)","reason for loss / hold":"PreSaleLoss: Too Costly to Build","geo_score":0.878,"street address":"30584 Olde Hawkeye Rd.","zip code":"52040","opportunity owner":"Richard Hoyer","account name":"Victory Ford","mrc":69.95,"id":"ah7093uhxfox","geo_precision":"range","state":"IA"},"type":"Feature","geometry":{"type":"Point","coordinates":[-91.093984,42.472851]}},{"properties":{"city":"Dyersville","stage":"Lost (Pre-Install)","reason for loss / hold":"PreSaleLoss: Too Costly to Build","geo_score":0.708,"street address":"1213 12th Ave","zip code":"52040","opportunity owner":"Richard Hoyer","account name":"Happy Joes Pizza","mrc":129.95,"id":"ah70943ta8ee","geo_precision":"street","state":"IA"},"type":"Feature","geometry":{"type":"Point","coordinates":[-91.094558,42.493971]}},{"properties":{"city":"Dubuque","stage":"Lost (Pre-Install)","reason for loss / hold":"PreSaleLoss: Too Costly to Build","geo_score":0.619,"street address":"350 S. Locust","zip code":"52001","opportunity owner":"Richard Hoyer","account name":"Classic Car Wash","mrc":69.95,"id":"ah7093suhckm","geo_precision":"street","state":"IA"},"type":"Feature","geometry":{"type":"Point","coordinates":[-90.664904,42.493698]}},{"properties":{"city":"Dyersville","stage":"Lost (Pre-Install)","reason for loss / hold":"PreSaleLoss: Too Costly to Build","geo_score":0.65,"street address":"1211 12th Ave SE Ste 102","zip code":"52040","opportunity owner":"Richard Hoyer","account name":"Williams Chiropractic","mrc":119.95,"id":"ah7093rzjh1s","geo_precision":"street","state":"IA"},"type":"Feature","geometry":{"type":"Point","coordinates":[-91.094558,42.493971]}},{"properties":{"city":"Dubuque","stage":"Lost (Pre-Install)","reason for loss / hold":"PreSaleLoss: Too Costly to Build","geo_score":0.585,"street address":"10426 Stonewood Dr","zip code":"52003","opportunity owner":"Richard Hoyer","account name":"Commercial Flooring Co","mrc":157.4,"id":"ah709461fhpb","geo_precision":"zip","state":"IA"},"type":"Feature","geometry":{"type":"Point","coordinates":[-90.716921,42.436426]}},{"properties":{"city":"Dubuque","stage":"Lost (Pre-Install)","reason for loss / hold":"PreSaleLoss: Too Costly to Build","geo_score":0.347,"street address":"9165 E. Tamarack Dr. Suite 1","zip code":"52003","opportunity owner":"Richard Hoyer","account name":"Urbain Insurance Group, Inc","mrc":193.3,"id":"ah7093teytqq","geo_precision":"street","state":"IA"},"type":"Feature","geometry":{"type":"Point","coordinates":[-90.898093,42.233751]}},{"properties":{"city":"Edgewood","stage":"Lost (Pre-Install)","reason for loss / hold":"PreSaleLoss: Too Costly to Build","geo_score":0.785,"street address":"601 S Washington St- Saw Mill","zip code":"52042","opportunity owner":"Richard Hoyer","account name":"Kendrick Forest Products","mrc":69.95,"id":"ah7093xu2gyj","geo_precision":"street","state":"IA"},"type":"Feature","geometry":{"type":"Point","coordinates":[-91.401152,42.639903]}},{"properties":{"city":"Dubuque","stage":"Lost (Pre-Install)","reason for loss / hold":"PreSaleLoss: Too Costly to Build","geo_score":0.585,"street address":"9173 E Tamarack Dr.","zip code":"52003","opportunity owner":"Richard Hoyer","account name":"Martin Equipment","mrc":306.9,"id":"ah7093zsl9uq","geo_precision":"zip","state":"IA"},"type":"Feature","geometry":{"type":"Point","coordinates":[-90.716921,42.436426]}},{"properties":{"city":"Dubuque","stage":"Lost (Pre-Install)","reason for loss / hold":"PreSaleLoss: Too Costly to Build","geo_score":0.857,"street address":"9165 E. Tamarack Dr","zip code":"52003","opportunity owner":"Richard Hoyer","account name":"Ambraco, Inc","mrc":299.95,"id":"ah7093wqzg3n","geo_precision":"zip","state":"IA"},"type":"Feature","geometry":{"type":"Point","coordinates":[-90.716921,42.436426]}},{"properties":{"city":"Galena","stage":"Lost (Pre-Install)","reason for loss / hold":"PreSaleLoss: Too Costly to Build","geo_score":0.875,"street address":"11375 Industrial Dr","zip code":"61036","opportunity owner":"Richard Hoyer","account name":"Bard Material","mrc":65.9,"id":"ah7093sxcu8o","geo_precision":"range","state":"IL"},"type":"Feature","geometry":{"type":"Point","coordinates":[-90.452981,42.436325]}},{"properties":{"city":"Dubuque","stage":"Lost (Pre-Install)","reason for loss / hold":"PreSaleLoss: Too Costly to Build","geo_score":0.571,"street address":"2055 Holiday Dr., Ste 420","zip code":"52002","opportunity owner":"Richard Hoyer","account name":"Dubuque Family Chiropractic","mrc":149.9,"id":"ah7093t43v4y","geo_precision":"street","state":"IA"},"type":"Feature","geometry":{"type":"Point","coordinates":[-90.742722,42.51528]}},{"properties":{"city":"Dubuque","stage":"Lost (Pre-Install)","reason for loss / hold":"PreSaleLoss: Too Costly to Build","geo_score":0.857,"street address":"9079 E. Tamarack Dr","zip code":"52003","opportunity owner":"Richard Hoyer","account name":"USA Furniture &amp; Bedding","mrc":119.95,"id":"ah7093ywydpq","geo_precision":"zip","state":"IA"},"type":"Feature","geometry":{"type":"Point","coordinates":[-90.716921,42.436426]}},{"properties":{"city":"Dubuque","stage":"Lost (Pre-Install)","reason for loss / hold":"PreSaleLoss: Too Costly to Build","geo_score":0.585,"street address":"10362 Stonewood Dr","zip code":"52003","opportunity owner":"Richard Hoyer","account name":"Western Co-op Transport","mrc":273.3,"id":"ah7094198re2","geo_precision":"zip","state":"IA"},"type":"Feature","geometry":{"type":"Point","coordinates":[-90.716921,42.436426]}},{"properties":{"city":"Dubuque","stage":"Lost (Pre-Install)","reason for loss / hold":"PreSaleLoss: Too Costly to Build","geo_score":1.0,"street address":"2095 Kerper Blvd","zip code":"52001","opportunity owner":"Richard Hoyer","account name":"Cat Tracker Bait Company","mrc":47.45,"id":"ah7093rycb6a","geo_precision":"range","state":"IA"},"type":"Feature","geometry":{"type":"Point","coordinates":[-90.656044,42.518005]}},{"properties":{"city":"Galena","stage":"Hold: Cost Analysis","reason for loss / hold":null,"geo_score":0.585,"street address":"11380 Dandar St","zip code":"61036","opportunity owner":"Richard Hoyer","account name":"Atten Babler Commodities","mrc":129.95,"id":"ah7093vgdty4","geo_precision":"zip","state":"IL"},"type":"Feature","geometry":{"type":"Point","coordinates":[-90.312588,42.382277]}},{"properties":{"city":"Dyersville","stage":"Hold: Cost Analysis","reason for loss / hold":null,"geo_score":1.0,"street address":"2020 Beltline Rd","zip code":"52040","opportunity owner":"Richard Hoyer","account name":"Double L Group Ltd","mrc":69.95,"id":"ah70942iip6u","geo_precision":"range","state":"IA"},"type":"Feature","geometry":{"type":"Point","coordinates":[-91.11048,42.48314]}},{"properties":{"city":"Dubuque","stage":"Lost (Pre-Install)","reason for loss / hold":"PreSaleLoss: Too Costly to Build","geo_score":1.0,"street address":"14681 Derby Grange Rd","zip code":"52002","opportunity owner":"Richard Hoyer","account name":"Becker &amp; Becker Stone Company","mrc":179.8,"id":"ah7093vyijgq","geo_precision":"range","state":"IA"},"type":"Feature","geometry":{"type":"Point","coordinates":[-90.780037,42.529343]}},{"properties":{"city":"Galena","stage":"Hold: Cost Analysis","reason for loss / hold":null,"geo_score":0.585,"street address":"11380 Dandar St","zip code":"61036","opportunity owner":"Richard Hoyer","account name":"Guy's Towing &amp; Service Inc","mrc":198.85,"id":"ah7093u68p9r","geo_precision":"zip","state":"IL"},"type":"Feature","geometry":{"type":"Point","coordinates":[-90.312588,42.382277]}},{"properties":{"city":"Oak Grove","stage":"Lost (Pre-Install)","reason for loss / hold":"PreSaleLoss: Too Costly to Build","geo_score":0.585,"street address":"244 Segler Dr","zip code":"42262","opportunity owner":"Tim Hopwood","account name":"Herald Embroidery","mrc":109.9,"id":"ah7093xnfcn0","geo_precision":"zip","state":"KY"},"type":"Feature","geometry":{"type":"Point","coordinates":[-87.415009,36.64838]}},{"properties":{"city":"Marion","stage":"Lost (Pre-Install)","reason for loss / hold":"PreSaleLoss: Too Costly to Build","geo_score":0.947,"street address":"2287 US HWY 60 East","zip code":"42064","opportunity owner":"Tim Hopwood","account name":"Ron's Sport Shop","mrc":119.95,"id":"ah709447a83a","geo_precision":"range","state":"KY"},"type":"Feature","geometry":{"type":"Point","coordinates":[-88.114045,37.327646]}},{"properties":{"city":"Marion","stage":"Lost (Pre-Install)","reason for loss / hold":"PreSaleLoss: Too Costly to Build","geo_score":0.61,"street address":"200 Industrial Dr","zip code":"42064","opportunity owner":"Tim Hopwood","account name":"Crittenden Co. Development Association","mrc":119.95,"id":"ah70946s2u6x","geo_precision":"street","state":"KY"},"type":"Feature","geometry":{"type":"Point","coordinates":[-88.678107,37.09534]}},{"properties":{"city":"CARUTHERSVILLE","stage":"Lost (Pre-Install)","reason for loss / hold":"PreSaleLoss: Too Costly to Build","geo_score":1.0,"street address":"15 state hwy y","zip code":"63830","opportunity owner":"Tim Hopwood","account name":"Tipton Farms INC","mrc":69.95,"id":"ah709406egge","geo_precision":"range","state":"MO"},"type":"Feature","geometry":{"type":"Point","coordinates":[-89.663486,36.146832]}},{"properties":{"city":"Guthrie","stage":"Lost (Pre-Install)","reason for loss / hold":"PreSaleLoss: Too Costly to Build","geo_score":0.805,"street address":"9517 Guthrie Road","zip code":"42234","opportunity owner":"Tim Hopwood","account name":"Country Pantry","mrc":69.9,"id":"ah709402fpxm","geo_precision":"street","state":"KY"},"type":"Feature","geometry":{"type":"Point","coordinates":[-87.201077,36.689938]}},{"properties":{"city":"Princeton","stage":"Hold: Cost Analysis","reason for loss / hold":"N/A","geo_score":0.902,"street address":"618 Cadiz St","zip code":"42445","opportunity owner":"Tim Hopwood","account name":"Princeton Water &amp; Waste Water","mrc":89.95,"id":"ah70945subqr","geo_precision":"street","state":"KY"},"type":"Feature","geometry":{"type":"Point","coordinates":[-87.882016,37.097062]}},{"properties":{"city":"Caruthersville","stage":"Hold: Cost Analysis","reason for loss / hold":null,"geo_score":0.488,"street address":"57 Stevens Avenue","zip code":"63830","opportunity owner":"Tim Hopwood","account name":"MFA","mrc":69.95,"id":"ah7093ucbwd1","geo_precision":"street","state":"MO"},"type":"Feature","geometry":{"type":"Point","coordinates":[-89.973965,36.564489]}},{"properties":{"city":"Hopkinsville","stage":"Lost (Pre-Install)","reason for loss / hold":"PreSaleLoss: Too Costly to Build","geo_score":1.0,"street address":"110 WINONA COURT","zip code":"42240","opportunity owner":"Tim Hopwood","account name":"Rager &amp; Sons Inc.","mrc":65.94,"id":"ah7093tknex2","geo_precision":"range","state":"KY"},"type":"Feature","geometry":{"type":"Point","coordinates":[-87.526045,36.848091]}},{"properties":{"city":"Marion","stage":"Hold: Cost Analysis","reason for loss / hold":null,"geo_score":0.805,"street address":"115 Morningside Drive","zip code":"42064","opportunity owner":"Tim Hopwood","account name":"Askew Industrial","mrc":129.95,"id":"ah7093y4tm4w","geo_precision":"range","state":"KY"},"type":"Feature","geometry":{"type":"Point","coordinates":[-88.358022,36.862796]}},{"properties":{"city":"Caruthersville","stage":"Hold: Cost Analysis","reason for loss / hold":null,"geo_score":0.817,"street address":"1235 w 3rd","zip code":"63830","opportunity owner":"Tim Hopwood","account name":"H &amp; R Block","mrc":141.89,"id":"ah70941ulsyq","geo_precision":"range","state":"MO"},"type":"Feature","geometry":{"type":"Point","coordinates":[-89.668821,36.200872]}},{"properties":{"city":"Princeton","stage":"Lost (Pre-Install)","reason for loss / hold":"PreSaleLoss: Too Costly to Build","geo_score":1.0,"street address":"978 Bradford Lane","zip code":"42445","opportunity owner":"Tim Hopwood","account name":"Princeton Wastewater Plant","mrc":89.95,"id":"ah70946sjiey","geo_precision":"range","state":"KY"},"type":"Feature","geometry":{"type":"Point","coordinates":[-87.884358,37.064828]}},{"properties":{"city":"Iola","stage":"Lost: Pre-Contract","reason for loss / hold":"PreSaleLoss: Too Costly to Build","geo_score":1.0,"street address":"450 Division St","zip code":"54945","opportunity owner":"Greg Petersen","account name":"Iola-Scandinavia School District","mrc":1500.0,"id":"ah70942a089k","geo_precision":"range","state":"WI"},"type":"Feature","geometry":{"type":"Point","coordinates":[-89.124838,44.504006]}},{"properties":{"city":"Cedar Rapids","stage":"Lost (Pre-Install)","reason for loss / hold":"PreSaleLoss: Too Costly to Build","geo_score":0.941,"street address":"788 8th Ave SE","zip code":"52401","opportunity owner":"Brian Safley","account name":"Cedar Rapids Ob-Gyn Specialists","mrc":41.0,"id":"ah7093xzip8x","geo_precision":"range","state":"IA"},"type":"Feature","geometry":{"type":"Point","coordinates":[-91.65679,41.976153]}},{"properties":{"city":"Cedar Rapids","stage":"Lost (Pre-Install)","reason for loss / hold":"PreSaleLoss: Too Costly to Build","geo_score":0.805,"street address":"4150 C St SW","zip code":"52406","opportunity owner":"Brian Safley","account name":"Metal Design Systems","mrc":249.95,"id":"ah70943gpcnw","geo_precision":"range","state":"IA"},"type":"Feature","geometry":{"type":"Point","coordinates":[-91.637826,41.942733]}},{"properties":{"city":"Cedar Rapids","stage":"Lost (Pre-Install)","reason for loss / hold":"PreSaleLoss: Too Costly to Build","geo_score":1.0,"street address":"5400 F Ave NW","zip code":"52405","opportunity owner":"Brian Safley","account name":"Crawford Quarry Company","mrc":249.95,"id":"ah7093y4b47t","geo_precision":"range","state":"IA"},"type":"Feature","geometry":{"type":"Point","coordinates":[-91.738754,41.985953]}},{"properties":{"city":"Cedar Rapids","stage":"Lost (Pre-Install)","reason for loss / hold":"PreSaleLoss: Too Costly to Build","geo_score":1.0,"street address":"5707 F Avenue NW","zip code":"52405","opportunity owner":"Brian Safley","account name":"Crawford Quarry Company","mrc":249.95,"id":"ah709443za2r","geo_precision":"range","state":"IA"},"type":"Feature","geometry":{"type":"Point","coordinates":[-91.744761,41.988274]}},{"properties":{"city":"Cedar Rapids","stage":"Lost (Pre-Install)","reason for loss / hold":"PreSaleLoss: Too Costly to Build","geo_score":0.947,"street address":"2519 16th Ave SW","zip code":"52404","opportunity owner":"Brian Safley","account name":"Miranda's Auto Sales &amp; Repair","mrc":89.95,"id":"ah7093z0p9gp","geo_precision":"range","state":"IA"},"type":"Feature","geometry":{"type":"Point","coordinates":[-91.704894,41.962756]}},{"properties":{"city":"Cedar Rapids","stage":"Lost (Pre-Install)","reason for loss / hold":"PreSaleLoss: Too Costly to Build","geo_score":0.529,"street address":"3645 Stone Creek Circle SW","zip code":"52404","opportunity owner":"Brian Safley","account name":"The Station","mrc":119.95,"id":"ah709439ievn","geo_precision":"street","state":"IA"},"type":"Feature","geometry":{"type":"Point","coordinates":[-91.761084,41.971923]}},{"properties":{"city":"Marion","stage":"Lost (Pre-Install)","reason for loss / hold":"PreSaleLoss: Too Costly to Build","geo_score":0.372,"street address":"5475 Dyer Ave ste 121","zip code":"52302","opportunity owner":"Brian Safley","account name":"Take The Cake Cupcakes","mrc":59.95,"id":"ah7093yumva9","geo_precision":"street","state":"IA"},"type":"Feature","geometry":{"type":"Point","coordinates":[-90.879823,42.075068]}},{"properties":{"city":"Cedar Rapids","stage":"Lost: Pre-Contract","reason for loss / hold":"PreSaleLoss: Too Costly to Build","geo_score":0.941,"street address":"4444 1st Ave NE","zip code":"52402","opportunity owner":"Brian Safley","account name":"Lindale Mall","mrc":0.0,"id":"ah70946ux6kb","geo_precision":"range","state":"IA"},"type":"Feature","geometry":{"type":"Point","coordinates":[-91.627068,42.023096]}},{"properties":{"city":"Cedar Rapids","stage":"Lost (Pre-Install)","reason for loss / hold":"PreSaleLoss: Too Costly to Build","geo_score":1.0,"street address":"4500 Ellis Rd NW","zip code":"52405","opportunity owner":"Brian Safley","account name":"Serenity Health Spa","mrc":89.95,"id":"ah7093s5szz7","geo_precision":"range","state":"IA"},"type":"Feature","geometry":{"type":"Point","coordinates":[-91.730758,41.996407]}},{"properties":{"city":"Marion","stage":"Lost (Pre-Install)","reason for loss / hold":"PreSaleLoss: Too Costly to Build","geo_score":0.805,"street address":"8585 C Ave","zip code":"52302","opportunity owner":"Brian Safley","account name":"Believers in Grace","mrc":69.95,"id":"ah70945f1i64","geo_precision":"street","state":"IA"},"type":"Feature","geometry":{"type":"Point","coordinates":[-91.594948,42.025011]}},{"properties":{"city":"Marion","stage":"Lost (Pre-Install)","reason for loss / hold":"PreSaleLoss: Too Costly to Build","geo_score":0.805,"street address":"8600 C Ave","zip code":"52302","opportunity owner":"Brian Safley","account name":"Believers in Grace","mrc":69.95,"id":"ah7093tnr4dx","geo_precision":"street","state":"IA"},"type":"Feature","geometry":{"type":"Point","coordinates":[-91.594948,42.025011]}},{"properties":{"city":"Cedar Rapids","stage":"Lost (Pre-Install)","reason for loss / hold":"PreSaleLoss: Too Costly to Build","geo_score":1.0,"street address":"1256 Sunberg Ln","zip code":"52403","opportunity owner":"Brian Safley","account name":"DJC of Eastern Iowa Inc","mrc":199.95,"id":"ah7093vbjrxs","geo_precision":"range","state":"IA"},"type":"Feature","geometry":{"type":"Point","coordinates":[-91.544513,41.952328]}},{"properties":{"city":"Cedar Rapids","stage":"Lost (Pre-Install)","reason for loss / hold":"PreSaleLoss: Too Costly to Build","geo_score":0.854,"street address":"3245 Williams Pkwy SW Suite 2","zip code":"52404","opportunity owner":"Brian Safley","account name":"Hollywood Tan","mrc":89.95,"id":"ah7093xjnc4h","geo_precision":"range","state":"IA"},"type":"Feature","geometry":{"type":"Point","coordinates":[-91.715819,41.958315]}},{"properties":{"city":"Cedar Rapids","stage":"Lost (Pre-Install)","reason for loss / hold":"PreSaleLoss: Too Costly to Build","geo_score":1.0,"street address":"2020 Werner Ave NE","zip code":"52402","opportunity owner":"Brian Safley","account name":"Klein Auto Service","mrc":119.9,"id":"ah7093xlf431","geo_precision":"range","state":"IA"},"type":"Feature","geometry":{"type":"Point","coordinates":[-91.668161,42.026578]}},{"properties":{"city":"Cedar Rapids","stage":"Lost: Pre-Contract","reason for loss / hold":"PreSaleLoss: Too Costly to Build","geo_score":0.935,"street address":"6105 6th St SW","zip code":"52404","opportunity owner":"Brian Safley","account name":"Abrasive Jet Technology","mrc":99.95,"id":"ah7093uusap4","geo_precision":"range","state":"IA"},"type":"Feature","geometry":{"type":"Point","coordinates":[-91.676348,41.921487]}},{"properties":{"city":"Cedar Rapids","stage":"Hold: Cost Analysis","reason for loss / hold":null,"geo_score":0.854,"street address":"3245 Williams Pkwy SW Suite 2","zip code":"52404","opportunity owner":"Brian Safley","account name":"Hollywood Tan","mrc":89.95,"id":"ah70942a7fvl","geo_precision":"range","state":"IA"},"type":"Feature","geometry":{"type":"Point","coordinates":[-91.715819,41.958315]}},{"properties":{"city":"Vinton","stage":"Hold: Cost Analysis","reason for loss / hold":null,"geo_score":1.0,"street address":"1701 W D St","zip code":"52349","opportunity owner":"Brian Safley","account name":"Performance Systems","mrc":299.95,"id":"ah7093w36gqn","geo_precision":"range","state":"IA"},"type":"Feature","geometry":{"type":"Point","coordinates":[-92.041329,42.173979]}},{"properties":{"city":"Vinton","stage":"Hold: Cost Analysis","reason for loss / hold":null,"geo_score":1.0,"street address":"1700 W D St","zip code":"52349","opportunity owner":"Brian Safley","account name":"Coots Materials Company, Inc","mrc":179.8,"id":"ah7093zb2qj2","geo_precision":"range","state":"IA"},"type":"Feature","geometry":{"type":"Point","coordinates":[-92.042131,42.173836]}},{"properties":{"city":"Cedar Rapids","stage":"Lost: Pre-Contract","reason for loss / hold":"PreSaleLoss: Too Costly to Build","geo_score":0.811,"street address":"4444 1st Ave NE Ste 408C","zip code":"52402","opportunity owner":"Brian Safley","account name":"Gamerzland","mrc":184.85,"id":"ah70941hj1sh","geo_precision":"range","state":"IA"},"type":"Feature","geometry":{"type":"Point","coordinates":[-91.627068,42.023096]}},{"properties":{"city":"Cedar Rapids","stage":"Lost (Pre-Install)","reason for loss / hold":"PreSaleLoss: Too Costly to Build","geo_score":0.403,"street address":"44441st Ave NE STE 138","zip code":"52402","opportunity owner":"Brian Safley","account name":"Brent's Computer Services","mrc":135.9,"id":"ah7093wojznz","geo_precision":"street","state":"IA"},"type":"Feature","geometry":{"type":"Point","coordinates":[-91.757365,41.971613]}},{"properties":{"city":"Vinton","stage":"Hold: Cost Analysis","reason for loss / hold":null,"geo_score":0.638,"street address":"1705 w E St","zip code":"52349","opportunity owner":"Brian Safley","account name":"IDEAL Industries, Inc","mrc":260.65,"id":"ah7093tlstvt","geo_precision":"street","state":"IA"},"type":"Feature","geometry":{"type":"Point","coordinates":[-92.030671,42.166641]}},{"properties":{"city":"Cedar Rapids","stage":"Hold: Cost Analysis","reason for loss / hold":null,"geo_score":0.649,"street address":"150 50th Ave. Dr. SW","zip code":"52404","opportunity owner":"Brian Safley","account name":"BLAHINK CONSTRUCTION COMPANY","mrc":69.95,"id":"ah70944ihrwo","geo_precision":"street","state":"IA"},"type":"Feature","geometry":{"type":"Point","coordinates":[-91.660744,41.9296]}},{"properties":{"city":"Vinton","stage":"Lost: Pre-Contract","reason for loss / hold":"PreSaleLoss: Too Costly to Build","geo_score":0.902,"street address":"5775 22nd Ave Dr","zip code":"52349","opportunity owner":"Brian Safley","account name":"Zeb Reardon","mrc":205.9,"id":"ah7093tybzgf","geo_precision":"range","state":"IA"},"type":"Feature","geometry":{"type":"Point","coordinates":[-92.043993,42.181896]}},{"properties":{"city":"Columbus Junction","stage":"Lost (Pre-Install)","reason for loss / hold":"PreSaleLoss: Too Costly to Build","geo_score":0.35,"street address":"208 East Access Road","zip code":"52738","opportunity owner":"Terri Neally","account name":"Maynyrds Cycle LLC","mrc":89.95,"id":"ah7093xtrqrv","geo_precision":"street","state":"IA"},"type":"Feature","geometry":{"type":"Point","coordinates":[-90.494405,41.700117]}},{"properties":{"city":"Columbus Junction","stage":"Lost (Pre-Install)","reason for loss / hold":"PreSaleLoss: Too Costly to Build","geo_score":0.854,"street address":"24487 hwy 92","zip code":"52738","opportunity owner":"Terri Neally","account name":"Wiele Motor Co.","mrc":149.9,"id":"ah7093vqll3c","geo_precision":"range","state":"IA"},"type":"Feature","geometry":{"type":"Point","coordinates":[-91.397244,41.280661]}},{"properties":{"city":"Keokuk","stage":"Lost (Pre-Install)","reason for loss / hold":"PreSaleLoss: Too Costly to Build","geo_score":1.0,"street address":"3566 HWY 218","zip code":"52632","opportunity owner":"Terri Neally","account name":"Wayland Transportation","mrc":229.9,"id":"ah7093wb0lec","geo_precision":"range","state":"IA"},"type":"Feature","geometry":{"type":"Point","coordinates":[-91.411133,40.424035]}},{"properties":{"city":"Burlington","stage":"Lost (Pre-Install)","reason for loss / hold":"PreSaleLoss: Too Costly to Build","geo_score":0.619,"street address":"300 N. Main Street Suite 217","zip code":"52601","opportunity owner":"Terri Neally","account name":"Des Moines County Postal Credit Union","mrc":101.85,"id":"ah7093vlcpkg","geo_precision":"street","state":"IA"},"type":"Feature","geometry":{"type":"Point","coordinates":[-91.102443,40.807024]}},{"properties":{"city":"Burlington","stage":"Lost (Pre-Install)","reason for loss / hold":"PreSaleLoss: Too Costly to Build","geo_score":0.6,"street address":"2120 S. Roosevelt Ave","zip code":"52601","opportunity owner":"Terri Neally","account name":"Church Of Christ","mrc":119.95,"id":"ah709451izcm","geo_precision":"street","state":"IA"},"type":"Feature","geometry":{"type":"Point","coordinates":[-91.141578,40.807666]}},{"properties":{"city":"Iowa City","stage":"Lost (Pre-Install)","reason for loss / hold":"PreSaleLoss: Too Costly to Build","geo_score":0.512,"street address":"4195 Alyssa Court #4","zip code":"52240","opportunity owner":"Larry Audlehelm","account name":"Bader Auto Detailing","mrc":95.9,"id":"ah70944yxecj","geo_precision":"street","state":"IA"},"type":"Feature","geometry":{"type":"Point","coordinates":[-91.571351,41.62833]}},{"properties":{"city":"Carbondale","stage":"Lost (Pre-Install)","reason for loss / hold":"PreSaleLoss: Too Costly to Build","geo_score":0.732,"street address":"1400 West Main St. Suite 19","zip code":"62901","opportunity owner":"Chris Lacy","account name":"Prime Lending","mrc":89.9,"id":"ah7093u5aps1","geo_precision":"street","state":"IL"},"type":"Feature","geometry":{"type":"Point","coordinates":[-89.161885,37.772681]}},{"properties":{"city":"Carbondale","stage":"Lost (Pre-Install)","reason for loss / hold":"PreSaleLoss: Too Costly to Build","geo_score":1.0,"street address":"210 W Industrial Park Rd","zip code":"62901","opportunity owner":"Chris Lacy","account name":"Carbondale Brick and Block","mrc":149.9,"id":"ah709431hnyf","geo_precision":"range","state":"IL"},"type":"Feature","geometry":{"type":"Point","coordinates":[-89.223607,37.747451]}},{"properties":{"city":"Carbondale","stage":"Lost (Pre-Install)","reason for loss / hold":"PreSaleLoss: Too Costly to Build","geo_score":0.902,"street address":"701 Industrial Park Rd Ste D","zip code":"62901","opportunity owner":"Chris Lacy","account name":"Korando Electric","mrc":109.9,"id":"ah7093xyaio3","geo_precision":"range","state":"IL"},"type":"Feature","geometry":{"type":"Point","coordinates":[-89.223678,37.747375]}},{"properties":{"city":"Carbondale","stage":"Lost (Pre-Install)","reason for loss / hold":"PreSaleLoss: Too Costly to Build","geo_score":1.0,"street address":"800 W Industrial Park Rd.","zip code":"62901","opportunity owner":"Chris Lacy","account name":"Com-Pac International","mrc":304.95,"id":"ah70940iko5s","geo_precision":"range","state":"IL"},"type":"Feature","geometry":{"type":"Point","coordinates":[-89.224169,37.74744]}},{"properties":{"city":"Carbondale","stage":"Lost (Pre-Install)","reason for loss / hold":"PreSaleLoss: Too Costly to Build","geo_score":1.0,"street address":"1254 E Main St","zip code":"62901","opportunity owner":"Chris Lacy","account name":"Sports clips","mrc":109.9,"id":"ah70940pebta","geo_precision":"range","state":"IL"},"type":"Feature","geometry":{"type":"Point","coordinates":[-89.193536,37.730649]}},{"properties":{"city":"Smithton","stage":"Lost (Pre-Install)","reason for loss / hold":"PreSaleLoss: Too Costly to Build","geo_score":0.805,"street address":"4761 State Route 159","zip code":"62285","opportunity owner":"Chris Lacy","account name":"Elite Tractor &amp; Lift Truck, Inc.","mrc":179.85,"id":"ah7093u2p7ss","geo_precision":"street","state":"IL"},"type":"Feature","geometry":{"type":"Point","coordinates":[-89.990308,38.379692]}},{"properties":{"city":"Marion","stage":"Lost (Pre-Install)","reason for loss / hold":"PreSaleLoss: Too Costly to Build","geo_score":0.805,"street address":"1100 Pentecost Rd","zip code":"62959","opportunity owner":"Chris Lacy","account name":"Country Acres Assisted Living","mrc":309.95,"id":"ah7093qfhg8d","geo_precision":"street","state":"IL"},"type":"Feature","geometry":{"type":"Point","coordinates":[-88.941409,37.81863]}},{"properties":{"city":"Murphysboro","stage":"Lost (Pre-Install)","reason for loss / hold":"PreSaleLoss: Too Costly to Build","geo_score":1.0,"street address":"48 Murdale Gardens","zip code":"62966","opportunity owner":"Chris Lacy","account name":"R&amp;M Auto Repair","mrc":119.95,"id":"ah709405dyqv","geo_precision":"range","state":"IL"},"type":"Feature","geometry":{"type":"Point","coordinates":[-89.280977,37.762431]}},{"properties":{"city":"Murphysboro","stage":"Lost (Pre-Install)","reason for loss / hold":"PreSaleLoss: Too Costly to Build","geo_score":1.0,"street address":"489 Health Department Rd","zip code":"62966","opportunity owner":"Chris Lacy","account name":"EMC Construction Group","mrc":115.85,"id":"ah7093tud8gv","geo_precision":"range","state":"IL"},"type":"Feature","geometry":{"type":"Point","coordinates":[-89.273103,37.76059]}},{"properties":{"city":"Carbondale","stage":"Lost (Pre-Install)","reason for loss / hold":"PreSaleLoss: Too Costly to Build","geo_score":1.0,"street address":"5515 Old US Highway 51","zip code":"62903","opportunity owner":"Chris Lacy","account name":"Ambassador Vacation Rentals","mrc":74.9,"id":"ah7093z8169b","geo_precision":"range","state":"IL"},"type":"Feature","geometry":{"type":"Point","coordinates":[-89.237592,37.668994]}},{"properties":{"city":"Carbondale","stage":"Lost (Pre-Install)","reason for loss / hold":"PreSaleLoss: Too Costly to Build","geo_score":0.761,"street address":"180 Miller Ct","zip code":"62901","opportunity owner":"Chris Lacy","account name":"Remedy Express","mrc":249.9,"id":"ah7093utiqo0","geo_precision":"street","state":"IL"},"type":"Feature","geometry":{"type":"Point","coordinates":[-89.21726,37.757173]}},{"properties":{"city":"Centerville","stage":"Lost (Pre-Install)","reason for loss / hold":"PreSaleLoss: Too Costly to Build","geo_score":0.857,"street address":"19890 St. Josephs Drive","zip code":"52544","opportunity owner":"Tony Kinkade","account name":"Appanoose Community Care Services","mrc":69.95,"id":"ah70943nwrw2","geo_precision":"zip","state":"IA"},"type":"Feature","geometry":{"type":"Point","coordinates":[-92.867699,40.696126]}},{"properties":{"city":"Sigourney","stage":"Lost (Pre-Install)","reason for loss / hold":"PreSaleLoss: Too Costly to Build","geo_score":0.807,"street address":"900 N Shuffleton St.","zip code":"52591","opportunity owner":"Tony Kinkade","account name":"M &amp; M Enterprizes","mrc":199.95,"id":"ah7093xc019e","geo_precision":"street","state":"IA"},"type":"Feature","geometry":{"type":"Point","coordinates":[-92.202683,41.337793]}},{"properties":{"city":"albia","stage":"Lost (Pre-Install)","reason for loss / hold":"PreSaleLoss: Too Costly to Build","geo_score":0.721,"street address":"2053 Highway 5 South","zip code":"52531","opportunity owner":"Tony Kinkade","account name":"Kness Mfg. Co., Inc.","mrc":247.25,"id":"ah709416dnu6","geo_precision":"street","state":"IA"},"type":"Feature","geometry":{"type":"Point","coordinates":[-92.807197,41.020973]}},{"properties":{"city":"Ottumwa","stage":"Lost (Pre-Install)","reason for loss / hold":"PreSaleLoss: Too Costly to Build","geo_score":0.585,"street address":"1215 Theatre Dr","zip code":"52501","opportunity owner":"Tony Kinkade","account name":"Velocity","mrc":109.95,"id":"ah709465evvz","geo_precision":"zip","state":"IA"},"type":"Feature","geometry":{"type":"Point","coordinates":[-92.369907,41.058626]}},{"properties":{"city":"Centerville","stage":"Lost (Pre-Install)","reason for loss / hold":"PreSaleLoss: Too Costly to Build","geo_score":0.497,"street address":"19876 St. Joseph's Drive","zip code":"52501","opportunity owner":"Tony Kinkade","account name":"Mercy Medical Clinic","mrc":89.95,"id":"ah7093rjclrj","geo_precision":"street","state":"IA"},"type":"Feature","geometry":{"type":"Point","coordinates":[-92.410806,41.064513]}},{"properties":{"city":"OTTUMWA","stage":"Hold: Cost Analysis","reason for loss / hold":null,"geo_score":0.806,"street address":"1132 n quincy ave","zip code":"52501","opportunity owner":"Tony Kinkade","account name":"KENTUCKY FRIED CHICKEN","mrc":119.9,"id":"ah7093yuqosz","geo_precision":"street","state":"IA"},"type":"Feature","geometry":{"type":"Point","coordinates":[-92.438471,41.015522]}},{"properties":{"city":"Carbondale","stage":"Lost (Pre-Install)","reason for loss / hold":"PreSaleLoss: Too Costly to Build","geo_score":1.0,"street address":"2145 Sweets Dr","zip code":"62902","opportunity owner":"Gary Stegall","account name":"Southern Illinois Motor Sports","mrc":255.85,"id":"ah70945cha2n","geo_precision":"range","state":"IL"},"type":"Feature","geometry":{"type":"Point","coordinates":[-89.166871,37.741349]}},{"properties":{"city":"Marion","stage":"Lost (Pre-Install)","reason for loss / hold":"PreSaleLoss: Too Costly to Build","geo_score":1.0,"street address":"1201 E Main St","zip code":"62959","opportunity owner":"Gary Stegall","account name":"American Roofing","mrc":119.95,"id":"ah7093us1d1s","geo_precision":"range","state":"IL"},"type":"Feature","geometry":{"type":"Point","coordinates":[-88.915979,37.730763]}},{"properties":{"city":"Marion","stage":"Lost (Pre-Install)","reason for loss / hold":"PreSaleLoss: Too Costly to Build","geo_score":1.0,"street address":"3209 W Deyoung St","zip code":"62959","opportunity owner":"Gary Stegall","account name":"Marion Mitsubishi/Subaru","mrc":219.9,"id":"ah70940htpwk","geo_precision":"range","state":"IL"},"type":"Feature","geometry":{"type":"Point","coordinates":[-89.002664,37.744907]}},{"properties":{"city":"Marion","stage":"Lost (Pre-Install)","reason for loss / hold":"PreSaleLoss: Too Costly to Build","geo_score":0.585,"street address":"3300","zip code":"62959","opportunity owner":"Gary Stegall","account name":"Marion Toyota","mrc":219.9,"id":"ah7093rlvoxz","geo_precision":"zip","state":"IL"},"type":"Feature","geometry":{"type":"Point","coordinates":[-88.803953,37.763938]}},{"properties":{"city":"Marion","stage":"Lost (Pre-Install)","reason for loss / hold":"PreSaleLoss: Too Costly to Build","geo_score":0.958,"street address":"3905 W Ernestine Dr","zip code":"62959","opportunity owner":"Gary Stegall","account name":"Occupational Performance &amp; Rehab","mrc":265.8,"id":"ah7093rsyh3d","geo_precision":"range","state":"IL"},"type":"Feature","geometry":{"type":"Point","coordinates":[-88.996455,37.745947]}},{"properties":{"city":"Marion","stage":"Lost (Pre-Install)","reason for loss / hold":"PreSaleLoss: Too Costly to Build","geo_score":0.61,"street address":"5001 Meadowland Parkway","zip code":"62959","opportunity owner":"Gary Stegall","account name":"HCSC","mrc":129.95,"id":"ah7093r8mygg","geo_precision":"street","state":"IL"},"type":"Feature","geometry":{"type":"Point","coordinates":[-89.02141,37.742435]}},{"properties":{"city":"Red Bud","stage":"Lost (Pre-Install)","reason for loss / hold":"PreSaleLoss: Too Costly to Build","geo_score":1.0,"street address":"10257 State Route 3","zip code":"62278","opportunity owner":"Gary Stegall","account name":"Human Services Cneter","mrc":69.95,"id":"ah7093zsi76f","geo_precision":"range","state":"IL"},"type":"Feature","geometry":{"type":"Point","coordinates":[-89.993983,38.188686]}},{"properties":{"city":"Energy","stage":"Lost (Pre-Install)","reason for loss / hold":"PreSaleLoss: Too Costly to Build","geo_score":0.545,"street address":"610 Corbin Dr","zip code":"62933","opportunity owner":"Gary Stegall","account name":"Black &amp; White Imaging","mrc":159.95,"id":"ah70941zabup","geo_precision":"street","state":"IL"},"type":"Feature","geometry":{"type":"Point","coordinates":[-89.110115,37.614059]}},{"properties":{"city":"Herrin","stage":"Hold: Cost Analysis","reason for loss / hold":null,"geo_score":0.973,"street address":"3201 So Park Avenue","zip code":"62948","opportunity owner":"Gary Stegall","account name":"Sterling Mattress Factory- 3201","mrc":157.35,"id":"ah7093xkr9z9","geo_precision":"range","state":"IL"},"type":"Feature","geometry":{"type":"Point","coordinates":[-89.025147,37.756826]}},{"properties":{"city":"Carterville","stage":"Hold: Cost Analysis","reason for loss / hold":null,"geo_score":0.806,"street address":"1401 Donna Drive","zip code":"62918","opportunity owner":"Gary Stegall","account name":"AAA Safe Storage","mrc":119.95,"id":"ah7093zx7nyr","geo_precision":"street","state":"IL"},"type":"Feature","geometry":{"type":"Point","coordinates":[-89.055764,37.744377]}},{"properties":{"city":"Carterville","stage":"Hold: Cost Analysis","reason for loss / hold":null,"geo_score":0.806,"street address":"1417 Donna Drive","zip code":"62918","opportunity owner":"Gary Stegall","account name":"Heartland Kubota","mrc":119.9,"id":"ah7093xn0yva","geo_precision":"street","state":"IL"},"type":"Feature","geometry":{"type":"Point","coordinates":[-89.055764,37.744377]}},{"properties":{"city":"Cedar Rapids","stage":"Lost (Pre-Install)","reason for loss / hold":"PreSaleLoss: Too Costly to Build","geo_score":0.947,"street address":"4342 16th Ave SW","zip code":"52404","opportunity owner":"Bruce Bergen","account name":"Aladdin Restaurant","mrc":119.95,"id":"ah70941watt2","geo_precision":"range","state":"IA"},"type":"Feature","geometry":{"type":"Point","coordinates":[-91.730247,41.963841]}},{"properties":{"city":"Cedar Rapids","stage":"Lost (Pre-Install)","reason for loss / hold":"PreSaleLoss: Too Costly to Build","geo_score":1.0,"street address":"5200 Northland Ave NE","zip code":"52402","opportunity owner":"Bruce Bergen","account name":"First Baptist Church - Church of The Brethren","mrc":119.95,"id":"ah7093v0gm23","geo_precision":"range","state":"IA"},"type":"Feature","geometry":{"type":"Point","coordinates":[-91.631767,42.029364]}},{"properties":{"city":"CEDAR RAPIDS","stage":"Lost (Pre-Install)","reason for loss / hold":"PreSaleLoss: Too Costly to Build","geo_score":0.877,"street address":"1950 DODGE RD NE STE 109","zip code":"52402","opportunity owner":"Bruce Bergen","account name":"Premier Connect Securitas Cedar Rapids","mrc":40.9,"id":"ah709411l8a2","geo_precision":"range","state":"IA"},"type":"Feature","geometry":{"type":"Point","coordinates":[-91.665549,42.027713]}},{"properties":{"city":"CEDAR RAPIDS","stage":"Lost (Pre-Install)","reason for loss / hold":"PreSaleLoss: Too Costly to Build","geo_score":0.947,"street address":"4515 20TH AVE SW","zip code":"52404","opportunity owner":"Bruce Bergen","account name":"J. LLOYD INTERNATIONAL, INC.","mrc":225.7,"id":"ah7093v8aqnx","geo_precision":"range","state":"IA"},"type":"Feature","geometry":{"type":"Point","coordinates":[-91.727869,41.960129]}},{"properties":{"city":"Marion","stage":"Hold: Cost Analysis","reason for loss / hold":null,"geo_score":0.916,"street address":"4601 8th Avenue","zip code":"52302","opportunity owner":"Bruce Bergen","account name":"Cedar Rapids Tire","mrc":305.9,"id":"ah7093uryaar","geo_precision":"range","state":"IA"},"type":"Feature","geometry":{"type":"Point","coordinates":[-91.559689,42.0339]}},{"properties":{"city":"Hiawatha","stage":"Hold: Cost Analysis","reason for loss / hold":null,"geo_score":0.862,"street address":"1450 Boyson Rd Suite B4","zip code":"52233","opportunity owner":"Bruce Bergen","account name":"Boyson Chiropractic PC","mrc":125.89,"id":"ah7093v00m5b","geo_precision":"range","state":"IA"},"type":"Feature","geometry":{"type":"Point","coordinates":[-91.691912,42.044307]}},{"properties":{"city":"Cedar Rapids","stage":"Lost (Pre-Install)","reason for loss / hold":"PreSaleLoss: Too Costly to Build","geo_score":0.935,"street address":"200 1st St SE","zip code":"52401","opportunity owner":"Bruce Bergen","account name":"Mr Beans Cedar Rapids","mrc":149.85,"id":"ah7093tmj1x9","geo_precision":"range","state":"IA"},"type":"Feature","geometry":{"type":"Point","coordinates":[-91.66807,41.97635]}},{"properties":{"city":"Cedar Rapids","stage":"Lost (Pre-Install)","reason for loss / hold":"PreSaleLoss: Too Costly to Build","geo_score":0.914,"street address":"221 2nd Ave SE, Suite 300","zip code":"52401","opportunity owner":"Bruce Bergen","account name":"University of Iowa Cedar Rapids","mrc":384.8,"id":"ah7093tsbcic","geo_precision":"street","state":"IA"},"type":"Feature","geometry":{"type":"Point","coordinates":[-91.66975,41.97676]}},{"properties":{"city":"Tipton","stage":"Hold: Cost Analysis","reason for loss / hold":null,"geo_score":1.0,"street address":"36 Spruce St","zip code":"52772","opportunity owner":"Bruce Bergen","account name":"Century Custom Painting","mrc":125.85,"id":"ah7093yebmvw","geo_precision":"range","state":"IA"},"type":"Feature","geometry":{"type":"Point","coordinates":[-91.132552,41.76543]}},{"properties":{"city":"Tipton","stage":"Hold: Cost Analysis","reason for loss / hold":null,"geo_score":0.805,"street address":"1405 Sycamore St","zip code":"52772","opportunity owner":"Bruce Bergen","account name":"Tipton Structural Fabrication","mrc":204.8,"id":"ah7093ykp5gs","geo_precision":"street","state":"IA"},"type":"Feature","geometry":{"type":"Point","coordinates":[-91.131187,41.77515]}},{"properties":{"city":"Cedar Rapids","stage":"Hold: Cost Analysis","reason for loss / hold":null,"geo_score":0.867,"street address":"6420 7th Ave Ct SW","zip code":"52404","opportunity owner":"Bruce Bergen","account name":"TSF Structures Inc Shop","mrc":174.85,"id":"ah70942q1vrq","geo_precision":"range","state":"IA"},"type":"Feature","geometry":{"type":"Point","coordinates":[-91.677835,41.918273]}},{"properties":{"city":"Morgantown","stage":"Lost (Pre-Install)","reason for loss / hold":"PreSaleLoss: Too Costly to Build","geo_score":0.619,"street address":"1116 S. Main St","zip code":"42261","opportunity owner":"Niko McClure","account name":"All Ease Chiropractic, LLC","mrc":69.95,"id":"ah7093vpbsga","geo_precision":"street","state":"KY"},"type":"Feature","geometry":{"type":"Point","coordinates":[-86.683032,37.226082]}},{"properties":{"city":"Marion","stage":"Lost (Pre-Install)","reason for loss / hold":"PreSaleLoss: Too Costly to Build","geo_score":0.6,"street address":"3303 W. Commercial Rd","zip code":"62959","opportunity owner":"Niko McClure","account name":"Roofer's Mart","mrc":260.65,"id":"ah70940qay64","geo_precision":"street","state":"IL"},"type":"Feature","geometry":{"type":"Point","coordinates":[-88.986201,37.739805]}},{"properties":{"city":"Marion","stage":"Lost (Pre-Install)","reason for loss / hold":"PreSaleLoss: Too Costly to Build","geo_score":1.0,"street address":"3310 Water Tower Rd","zip code":"62959","opportunity owner":"Niko McClure","account name":"Local 318, International Union Of Operating Engineers","mrc":228.8,"id":"ah7094269fkz","geo_precision":"range","state":"IL"},"type":"Feature","geometry":{"type":"Point","coordinates":[-88.987627,37.740963]}},{"properties":{"city":"Marion","stage":"Lost (Pre-Install)","reason for loss / hold":"PreSaleLoss: Too Costly to Build","geo_score":1.0,"street address":"707 Skyline Drive","zip code":"62959","opportunity owner":"Niko McClure","account name":"Kids Academy Preschool","mrc":168.9,"id":"ah7093yb9isg","geo_precision":"range","state":"IL"},"type":"Feature","geometry":{"type":"Point","coordinates":[-88.984618,37.738741]}},{"properties":{"city":"Marion","stage":"Lost (Pre-Install)","reason for loss / hold":"PreSaleLoss: Too Costly to Build","geo_score":0.513,"street address":"3303 1/2 W Commercial Road","zip code":"62959","opportunity owner":"Niko McClure","account name":"Target Marketing","mrc":328.55,"id":"ah70942hkw0i","geo_precision":"street","state":"IL"},"type":"Feature","geometry":{"type":"Point","coordinates":[-88.982787,37.739867]}},{"properties":{"city":"Benton","stage":"Lost (Pre-Install)","reason for loss / hold":"PreSaleLoss: Too Costly to Build","geo_score":0.286,"street address":"27960 County Rd. W","zip code":"53803","opportunity owner":"Jennifer Kaber","account name":"Jeremy's Automotive","mrc":59.95,"id":"ah70943jgwwh","geo_precision":"street","state":"WI"},"type":"Feature","geometry":{"type":"Point","coordinates":[-90.663339,42.984455]}},{"properties":{"city":"Fennimore","stage":"Lost (Pre-Install)","reason for loss / hold":"PreSaleLoss: Too Costly to Build","geo_score":0.585,"street address":"1550 Lafollette St","zip code":"53809","opportunity owner":"Jennifer Kaber","account name":"Energy Management Consultants","mrc":129.95,"id":"ah7093twlmke","geo_precision":"zip","state":"WI"},"type":"Feature","geometry":{"type":"Point","coordinates":[-90.54707,42.97499]}},{"properties":{"city":"Decorah","stage":"Lost (Pre-Install)","reason for loss / hold":"PreSaleLoss: Too Costly to Build","geo_score":0.61,"street address":"1301 Kerr Drive","zip code":"52101","opportunity owner":"Jennifer Kaber","account name":"Infastech Decorah LLC","mrc":69.95,"id":"ah7093tmk46n","geo_precision":"street","state":"IA"},"type":"Feature","geometry":{"type":"Point","coordinates":[-91.795503,43.308783]}},{"properties":{"city":"Cresco","stage":"Lost: Pre-Contract","reason for loss / hold":"PreSaleLoss: Too Costly to Build","geo_score":0.916,"street address":"21668 80th St","zip code":"52136","opportunity owner":"Jennifer Kaber","account name":"Howard Residential Care Facility","mrc":458.95,"id":"ah7093txlnnw","geo_precision":"range","state":"IA"},"type":"Feature","geometry":{"type":"Point","coordinates":[-92.155055,43.400023]}},{"properties":{"city":"Mauston","stage":"Lost (Pre-Install)","reason for loss / hold":"PreSaleLoss: Too Costly to Build","geo_score":0.607,"street address":"w5285 E Highway 82","zip code":"53948","opportunity owner":"Jennifer Kaber","account name":"Wise Owl Auctions of Mauston","mrc":69.95,"id":"ah7093ssk4k5","geo_precision":"street","state":"WI"},"type":"Feature","geometry":{"type":"Point","coordinates":[-90.071075,43.796997]}},{"properties":{"city":"Prairie du Chien","stage":"Lost (Pre-Install)","reason for loss / hold":"PreSaleLoss: Too Costly to Build","geo_score":0.548,"street address":"Hwy 18/35 S.","zip code":"53821","opportunity owner":"Jennifer Kaber","account name":"Prairie Cinema","mrc":169.85,"id":"ah7093znuhte","geo_precision":"street","state":"WI"},"type":"Feature","geometry":{"type":"Point","coordinates":[-91.146435,43.050284]}},{"properties":{"city":"Muscoda","stage":"Hold: Cost Analysis","reason for loss / hold":null,"geo_score":1.0,"street address":"1160 Industrial Drive","zip code":"53573","opportunity owner":"Jennifer Kaber","account name":"Meister Cheese","mrc":107.35,"id":"ah709437hzue","geo_precision":"range","state":"WI"},"type":"Feature","geometry":{"type":"Point","coordinates":[-90.425543,43.185429]}},{"properties":{"city":"Muscoda","stage":"Hold: Cost Analysis","reason for loss / hold":null,"geo_score":0.604,"street address":"960 E. Nebraska St.","zip code":"53573","opportunity owner":"Jennifer Kaber","account name":"Muscoda Protein Products","mrc":329.85,"id":"ah7093qi3cvl","geo_precision":"street","state":"WI"},"type":"Feature","geometry":{"type":"Point","coordinates":[-90.418121,43.185272]}},{"properties":{"city":"Prairie du Chien","stage":"Hold: Cost Analysis","reason for loss / hold":null,"geo_score":1.0,"street address":"520 Mooney St.","zip code":"53821","opportunity owner":"Jennifer Kaber","account name":"Computer Support Plus","mrc":144.9,"id":"ah7093sd6w3j","geo_precision":"range","state":"WI"},"type":"Feature","geometry":{"type":"Point","coordinates":[-91.142017,43.042845]}},{"properties":{"city":"Boscobel","stage":"Lost (Pre-Install)","reason for loss / hold":"PreSaleLoss: Too Costly to Build","geo_score":1.0,"street address":"6250 Borden Rd","zip code":"53805","opportunity owner":"Jennifer Kaber","account name":"ADM Grain Company","mrc":75.9,"id":"ah70943xgux7","geo_precision":"range","state":"WI"},"type":"Feature","geometry":{"type":"Point","coordinates":[-90.729014,43.12571]}},{"properties":{"city":"WAVERLY","stage":"Lost (Pre-Install)","reason for loss / hold":"PreSaleLoss: Too Costly to Build","geo_score":0.902,"street address":"1511 HORTON RD","zip code":"50677","opportunity owner":"Nicole Schuety","account name":"Tiedt Drainage, Inc","mrc":69.9,"id":"ah7094513dcq","geo_precision":"street","state":"IA"},"type":"Feature","geometry":{"type":"Point","coordinates":[-92.466187,42.743991]}},{"properties":{"city":"Waverly","stage":"Lost (Pre-Install)","reason for loss / hold":"PreSaleLoss: Too Costly to Build","geo_score":1.0,"street address":"1509 Horton Rd","zip code":"50677","opportunity owner":"Nicole Schuety","account name":"B.T. Ventures","mrc":89.95,"id":"ah7093zstu29","geo_precision":"range","state":"IA"},"type":"Feature","geometry":{"type":"Point","coordinates":[-92.466028,42.744178]}},{"properties":{"city":"Waverly","stage":"Lost (Pre-Install)","reason for loss / hold":"PreSaleLoss: Too Costly to Build","geo_score":0.947,"street address":"110 29th Ave Sw","zip code":"50677","opportunity owner":"Nicole Schuety","account name":"KWAY Radio","mrc":258.75,"id":"ah709405xcaa","geo_precision":"range","state":"IA"},"type":"Feature","geometry":{"type":"Point","coordinates":[-92.471548,42.700426]}},{"properties":{"city":"Cedar Rapids","stage":"Lost (Pre-Install)","reason for loss / hold":"PreSaleLoss: Too Costly to Build","geo_score":0.707,"street address":"411 1st Ave SE #210","zip code":"52404","opportunity owner":"Nicole Schuety","account name":"Koestner McGivern &amp; Associates","mrc":99.95,"id":"ah70941kj6go","geo_precision":"range","state":"IA"},"type":"Feature","geometry":{"type":"Point","coordinates":[-91.672011,41.97472]}},{"properties":{"city":"Cedar Falls","stage":"Lost (Pre-Install)","reason for loss / hold":"PreSaleLoss: Too Costly to Build","geo_score":0.513,"street address":"6301 University Ave Suite#1210","zip code":"50613","opportunity owner":"Nicole Schuety","account name":"Honey Garden Family Restaurant","mrc":39.95,"id":"ah70942y4o7o","geo_precision":"street","state":"IA"},"type":"Feature","geometry":{"type":"Point","coordinates":[-92.465829,42.508913]}},{"properties":{"city":"West DesMoines (WDM)","stage":"Lost (Pre-Install)","reason for loss / hold":"PreSaleLoss: Too Costly to Build","geo_score":0.897,"street address":"7655 Office Plaza Dr-","zip code":"50266","opportunity owner":"Nicole Schuety","account name":"Velocity G6","mrc":149.85,"id":"ah7093tabo3k","geo_precision":"range","state":"IA"},"type":"Feature","geometry":{"type":"Point","coordinates":[-93.809354,41.586576]}},{"properties":{"city":"WATERLOO","stage":"Lost (Pre-Install)","reason for loss / hold":"PreSaleLoss: Too Costly to Build","geo_score":0.898,"street address":"2060 CROSSROADS BLVD STE 187","zip code":"50702","opportunity owner":"Nicole Schuety","account name":"Air Force Recruiting Service","mrc":79.95,"id":"ah70943mophy","geo_precision":"range","state":"IA"},"type":"Feature","geometry":{"type":"Point","coordinates":[-92.319676,42.464013]}},{"properties":{"city":"Harrisburg","stage":"Lost (Pre-Install)","reason for loss / hold":"PreSaleLoss: Too Costly to Build","geo_score":1.0,"street address":"960 S Commercial St","zip code":"62946","opportunity owner":"John Hoskins","account name":"Eubanks &amp; Daugherty LLC","mrc":105.9,"id":"ah7093sf14dg","geo_precision":"range","state":"IL"},"type":"Feature","geometry":{"type":"Point","coordinates":[-88.536555,37.72771]}},{"properties":{"city":"Harrisburg","stage":"Lost (Pre-Install)","reason for loss / hold":"PreSaleLoss: Too Costly to Build","geo_score":0.649,"street address":"608 Rollie Moore Dr","zip code":"62946","opportunity owner":"John Hoskins","account name":"VA Medical Center","mrc":41.0,"id":"ah7093s85m3z","geo_precision":"range","state":"IL"},"type":"Feature","geometry":{"type":"Point","coordinates":[-88.415902,37.801476]}},{"properties":{"city":"Carterville","stage":"Hold: Cost Analysis","reason for loss / hold":null,"geo_score":1.0,"street address":"1808 Clark St.","zip code":"62918","opportunity owner":"John Hoskins","account name":"Habiger &amp; Associates","mrc":274.7,"id":"ah70941u2n3y","geo_precision":"range","state":"IL"},"type":"Feature","geometry":{"type":"Point","coordinates":[-89.044989,37.74402]}},{"properties":{"city":"Cedar Rapids","stage":"Lost (Pre-Install)","reason for loss / hold":"PreSaleLoss: Too Costly to Build","geo_score":0.619,"street address":"6400 7th St. Ct. SW","zip code":"52404","opportunity owner":"Andy Chihak","account name":"Iowa Fleet Service, LLC","mrc":149.9,"id":"ah7093yw9a6j","geo_precision":"street","state":"IA"},"type":"Feature","geometry":{"type":"Point","coordinates":[-91.680743,41.973862]}},{"properties":{"city":"Cedar Rapids","stage":"Hold: Cost Analysis","reason for loss / hold":"N/A","geo_score":0.512,"street address":"3720 Queen Court SW Ste. 6","zip code":"52404","opportunity owner":"Andy Chihak","account name":"KT Financial, Inc.","mrc":119.9,"id":"ah70941se3sy","geo_precision":"street","state":"IA"},"type":"Feature","geometry":{"type":"Point","coordinates":[-91.714366,41.942057]}},{"properties":{"city":"Cedar Rapids","stage":"Lost (Pre-Install)","reason for loss / hold":"PreSaleLoss: Too Costly to Build","geo_score":0.947,"street address":"2939 16th Ave SW","zip code":"52404","opportunity owner":"Andy Chihak","account name":"Cassill Motors","mrc":169.95,"id":"ah70940ic1p3","geo_precision":"range","state":"IA"},"type":"Feature","geometry":{"type":"Point","coordinates":[-91.711895,41.963231]}},{"properties":{"city":"Cedar Rapids","stage":"Lost (Pre-Install)","reason for loss / hold":"PreSaleLoss: Too Costly to Build","geo_score":0.973,"street address":"5555 16te Ave SW","zip code":"52404","opportunity owner":"Andy Chihak","account name":"CEI Equipment Corp","mrc":149.9,"id":"ah7093yzttzp","geo_precision":"range","state":"IA"},"type":"Feature","geometry":{"type":"Point","coordinates":[-91.740394,41.963896]}},{"properties":{"city":"Cedar Rapids","stage":"Hold: Cost Analysis","reason for loss / hold":"N/A","geo_score":1.0,"street address":"159 Collins Road NE","zip code":"52402","opportunity owner":"Andy Chihak","account name":"Circle Computer Resources","mrc":139.95,"id":"ah7093t5ol46","geo_precision":"range","state":"IA"},"type":"Feature","geometry":{"type":"Point","coordinates":[-91.627423,42.027697]}},{"properties":{"city":"Hiawatha","stage":"Lost (Pre-Install)","reason for loss / hold":"PreSaleLoss: Too Costly to Build","geo_score":0.805,"street address":"1259 Stamy Rd","zip code":"52233","opportunity owner":"Andy Chihak","account name":"Transcore","mrc":89.95,"id":"ah7093tqaxnf","geo_precision":"street","state":"IA"},"type":"Feature","geometry":{"type":"Point","coordinates":[-91.68502,42.05874]}},{"properties":{"city":"Cedar Rapids","stage":"Hold: Cost Analysis","reason for loss / hold":null,"geo_score":0.74,"street address":"6510 4th St SW","zip code":"52404","opportunity owner":"Andy Chihak","account name":"Netom Enterprises","mrc":149.85,"id":"ah7093uragkh","geo_precision":"street","state":"IA"},"type":"Feature","geometry":{"type":"Point","coordinates":[-91.674065,41.925577]}},{"properties":{"city":"CARBONDALE","stage":"Lost (Pre-Install)","reason for loss / hold":"PreSaleLoss: Too Costly to Build","geo_score":1.0,"street address":"1461 S COUNTY LINE RD","zip code":"62902","opportunity owner":"Carol Snuffer","account name":"Carbondale Church of God","mrc":69.95,"id":"ah7093qlts3j","geo_precision":"range","state":"IL"},"type":"Feature","geometry":{"type":"Point","coordinates":[-89.152069,37.740677]}},{"properties":{"city":"Carbondale","stage":"Lost (Pre-Install)","reason for loss / hold":"PreSaleLoss: Too Costly to Build","geo_score":1.0,"street address":"751 wood rd","zip code":"62901","opportunity owner":"Carol Snuffer","account name":"Neuro-restorative","mrc":89.95,"id":"ah7093yfrm4l","geo_precision":"range","state":"IL"},"type":"Feature","geometry":{"type":"Point","coordinates":[-89.266971,37.738457]}},{"properties":{"city":"Decorah","stage":"Lost (Pre-Install)","reason for loss / hold":"PreSaleLoss: Too Costly to Build","geo_score":0.45,"street address":"1718 Moellers Dr.","zip code":"52101","opportunity owner":"Luke Anstoeter","account name":"Headington Repair LLC.","mrc":89.95,"id":"ah709451si1v","geo_precision":"street","state":"IA"},"type":"Feature","geometry":{"type":"Point","coordinates":[-91.625976,42.957779]}},{"properties":{"city":"Biwabik","stage":"Lost (Pre-Install)","reason for loss / hold":"PreSaleLoss: Too Costly to Build","geo_score":0.806,"street address":"5893 Giants Ridge Rd","zip code":"55708","opportunity owner":"Luke Anstoeter","account name":"Giants Ridge","mrc":89.95,"id":"ah7093ytcsgw","geo_precision":"street","state":"MN"},"type":"Feature","geometry":{"type":"Point","coordinates":[-92.296511,47.559024]}},{"properties":{"city":"Ottumwa","stage":"Lost: Pre-Contract","reason for loss / hold":"PreSaleLoss: Too Costly to Build","geo_score":0.585,"street address":"15229 Truman Street","zip code":"52501","opportunity owner":"Matthew Lofgren","account name":"Ottumwa Job Corps Center","mrc":688.45,"id":"ah7093qrw9hy","geo_precision":"zip","state":"IA"},"type":"Feature","geometry":{"type":"Point","coordinates":[-92.369907,41.058626]}},{"properties":{"city":"Williamsburg","stage":"Lost (Pre-Install)","reason for loss / hold":"PreSaleLoss: Too Costly to Build","geo_score":1.0,"street address":"2148 PP Avenue","zip code":"52361","opportunity owner":"Matthew Lofgren","account name":"KINZE MANUFACTURING","mrc":69.95,"id":"ah70940ln5an","geo_precision":"range","state":"IA"},"type":"Feature","geometry":{"type":"Point","coordinates":[-92.007348,41.696229]}},{"properties":{"city":"Donnellson","stage":"Lost: Pre-Contract","reason for loss / hold":"PreSaleLoss: Too Costly to Build","geo_score":0.912,"street address":"2642 Highway 218","zip code":"52625","opportunity owner":"Matthew Lofgren","account name":"Central Lee Community School District","mrc":945.0,"id":"ah70941egsvs","geo_precision":"range","state":"IA"},"type":"Feature","geometry":{"type":"Point","coordinates":[-91.520524,40.576569]}},{"properties":{"city":"Winfield","stage":"Lost: Pre-Contract","reason for loss / hold":"PreSaleLoss: Too Costly to Build","geo_score":1.0,"street address":"208 South Olive Street","zip code":"52659","opportunity owner":"Matthew Lofgren","account name":"Winfield Mt Union School District","mrc":1080.0,"id":"ah709434ajj3","geo_precision":"range","state":"IA"},"type":"Feature","geometry":{"type":"Point","coordinates":[-91.439369,41.127512]}},{"properties":{"city":"Douds","stage":"Lost: Pre-Contract","reason for loss / hold":"PreSaleLoss: Too Costly to Build","geo_score":0.729,"street address":"14574 Jefferson Street","zip code":"52565","opportunity owner":"Matthew Lofgren","account name":"Van Buren Community Schools","mrc":1350.0,"id":"ah7093xka9fl","geo_precision":"street","state":"IA"},"type":"Feature","geometry":{"type":"Point","coordinates":[-91.957678,40.726604]}},{"properties":{"city":"Walcott","stage":"Lost: Pre-Contract","reason for loss / hold":"PreSaleLoss: Too Costly to Build","geo_score":0.805,"street address":"2940 Plainview Rd","zip code":"52773","opportunity owner":"Terry Carpenter","account name":"Walcott CB Sales","mrc":69.95,"id":"ah7093rbmpcm","geo_precision":"street","state":"IA"},"type":"Feature","geometry":{"type":"Point","coordinates":[-90.783127,41.603843]}},{"properties":{"city":"Cedar Rapids","stage":"Lost (Pre-Install)","reason for loss / hold":"PreSaleLoss: Too Costly to Build","geo_score":0.512,"street address":"1950 Dodge Rd Ste. 109","zip code":"52402","opportunity owner":"Terry Carpenter","account name":"Hawkeye Hotels","mrc":119.95,"id":"ah709448oee1","geo_precision":"street","state":"IA"},"type":"Feature","geometry":{"type":"Point","coordinates":[-91.667738,42.026436]}},{"properties":{"city":"Cedar Rapids","stage":"Lost: Pre-Contract","reason for loss / hold":"PreSaleLoss: Too Costly to Build","geo_score":0.824,"street address":"425 2nd St SE Ste 900","zip code":"52401","opportunity owner":"Terry Carpenter","account name":"Arenson Law Office","mrc":500.0,"id":"ah7093uk1qfw","geo_precision":"range","state":"IA"},"type":"Feature","geometry":{"type":"Point","coordinates":[-91.666524,41.976667]}},{"properties":{"city":"East Moline","stage":"Lost: Pre-Contract","reason for loss / hold":"PreSaleLoss: Too Costly to Build","geo_score":0.722,"street address":"3529 5th Ave","zip code":"61244","opportunity owner":"Terry Carpenter","account name":"World Class Industries","mrc":249.95,"id":"ah7093tn92m6","geo_precision":"street","state":"IL"},"type":"Feature","geometry":{"type":"Point","coordinates":[-90.556958,41.507723]}},{"properties":{"city":"HIAWATHA","stage":"Lost (Pre-Install)","reason for loss / hold":"PreSaleLoss: Too Costly to Build","geo_score":0.883,"street address":"1450 BOYSON RD STE B6","zip code":"52233","opportunity owner":"Terry Carpenter","account name":"Two Rivers Insurance Services","mrc":105.9,"id":"ah70946j52u1","geo_precision":"range","state":"IA"},"type":"Feature","geometry":{"type":"Point","coordinates":[-91.691912,42.044307]}},{"properties":{"city":"Cedar rapids","stage":"Lost (Pre-Install)","reason for loss / hold":"PreSaleLoss: Too Costly to Build","geo_score":0.625,"street address":"5005 Blairs Forrest Ln #B","zip code":"52402","opportunity owner":"Terry Carpenter","account name":"Atlas Copco","mrc":69.95,"id":"ah70941u6i9e","geo_precision":"street","state":"IA"},"type":"Feature","geometry":{"type":"Point","coordinates":[-91.654004,41.989855]}},{"properties":{"city":"Hiawatha","stage":"Lost (Pre-Install)","reason for loss / hold":"PreSaleLoss: Too Costly to Build","geo_score":1.0,"street address":"104 Emmons St","zip code":"52233","opportunity owner":"Terry Carpenter","account name":"Shaw Electrical Contractor Ltd","mrc":89.95,"id":"ah7093ypih3q","geo_precision":"range","state":"IA"},"type":"Feature","geometry":{"type":"Point","coordinates":[-91.676186,42.03882]}},{"properties":{"city":"Kalona","stage":"Lost: Pre-Contract","reason for loss / hold":"PreSaleLoss: Too Costly to Build","geo_score":0.807,"street address":"1409 E Ave","zip code":"52247","opportunity owner":"Terry Carpenter","account name":"Farmers Supply Sales Inc","mrc":69.95,"id":"ah7093vcdtyw","geo_precision":"street","state":"IA"},"type":"Feature","geometry":{"type":"Point","coordinates":[-91.691809,41.48648]}},{"properties":{"city":"Muscatine","stage":"Lost: Pre-Contract","reason for loss / hold":"PreSaleLoss: Too Costly to Build","geo_score":0.854,"street address":"2458 Highway 22","zip code":"52761","opportunity owner":"Terry Carpenter","account name":"Van Meter Industrial","mrc":1200.0,"id":"ah7093qi2qak","geo_precision":"range","state":"IA"},"type":"Feature","geometry":{"type":"Point","coordinates":[-91.017265,41.439698]}},{"properties":{"city":"Hiawatha","stage":"Lost: Pre-Contract","reason for loss / hold":"PreSaleLoss: Too Costly to Build","geo_score":0.837,"street address":"1711 Hawkeye Drive","zip code":"52233","opportunity owner":"Terry Carpenter","account name":"HAWKEYE ELECTRIC","mrc":89.95,"id":"ah7093rqwc5c","geo_precision":"street","state":"IA"},"type":"Feature","geometry":{"type":"Point","coordinates":[-91.677577,42.058729]}},{"properties":{"city":"Blue Grass","stage":"Lost: Pre-Contract","reason for loss / hold":"PreSaleLoss: Too Costly to Build","geo_score":1.0,"street address":"104 E Mayne St","zip code":"52726","opportunity owner":"Terry Carpenter","account name":"Blue Grass Savings Bank","mrc":299.95,"id":"ah7093znklvx","geo_precision":"range","state":"IA"},"type":"Feature","geometry":{"type":"Point","coordinates":[-90.765689,41.509203]}},{"properties":{"city":"Oak Grove","stage":"Lost (Pre-Install)","reason for loss / hold":"PreSaleLoss: Too Costly to Build","geo_score":1.0,"street address":"240 Thompsonville LN","zip code":"42262","opportunity owner":"Donnie Crass","account name":"Christian County Health Department","mrc":39.0,"id":"ah7093vso3vo","geo_precision":"range","state":"KY"},"type":"Feature","geometry":{"type":"Point","coordinates":[-87.44127,36.665371]}},{"properties":{"city":"Cadiz","stage":"Lost: Pre-Contract","reason for loss / hold":"PreSaleLoss: Too Costly to Build","geo_score":0.585,"street address":"183 Arrowhead Club Dr","zip code":"42211","opportunity owner":"Donnie Crass","account name":"Arrowhead Golf Club of Cadiz","mrc":111.45,"id":"ah70940o6ny5","geo_precision":"street","state":"KY"},"type":"Feature","geometry":{"type":"Point","coordinates":[-87.965819,36.845548]}},{"properties":{"city":"Dover","stage":"Lost (Pre-Install)","reason for loss / hold":"PreSaleLoss: Too Costly to Build","geo_score":0.585,"street address":"981 US. Hwy. 79","zip code":"37058","opportunity owner":"Donnie Crass","account name":"Precious Scraps","mrc":89.95,"id":"ah70944g4ihg","geo_precision":"zip","state":"TN"},"type":"Feature","geometry":{"type":"Point","coordinates":[-87.868913,36.557551]}},{"properties":{"city":"ELKTON","stage":"Lost (Pre-Install)","reason for loss / hold":"PreSaleLoss: Too Costly to Build","geo_score":0.427,"street address":"2290 W JEFF DAVIS HWY","zip code":"42220","opportunity owner":"Donnie Crass","account name":"Belanger Converter Recycling","mrc":119.9,"id":"ah7093ulvc7k","geo_precision":"street","state":"KY"},"type":"Feature","geometry":{"type":"Point","coordinates":[-87.479113,37.106888]}},{"properties":{"city":"Gilbertsville","stage":"Hold: Cost Analysis","reason for loss / hold":null,"geo_score":0.585,"street address":"113 Administrative Dr.","zip code":"42044","opportunity owner":"Donnie Crass","account name":"Kentucky Dam Village","mrc":27.99,"id":"ah7093zlfem9","geo_precision":"zip","state":"KY"},"type":"Feature","geometry":{"type":"Point","coordinates":[-88.266684,36.965547]}},{"properties":{"city":"Albany","stage":"Lost (Pre-Install)","reason for loss / hold":"PreSaleLoss: Too Costly to Build","geo_score":0.74,"street address":"3727 old Burkesville Rd","zip code":"42602","opportunity owner":"Phyllis Buster","account name":"Albany Service Center","mrc":89.95,"id":"ah7093w20ylu","geo_precision":"street","state":"KY"},"type":"Feature","geometry":{"type":"Point","coordinates":[-85.142505,36.697537]}},{"properties":{"city":"Albany","stage":"Lost (Pre-Install)","reason for loss / hold":"PreSaleLoss: Too Costly to Build","geo_score":0.614,"street address":"5775 S, Hwy 127","zip code":"42602","opportunity owner":"Phyllis Buster","account name":"Hunley Express Mart","mrc":89.95,"id":"ah70943b51a1","geo_precision":"street","state":"KY"},"type":"Feature","geometry":{"type":"Point","coordinates":[-85.117105,36.67821]}},{"properties":{"city":"Burkesville","stage":"Lost (Pre-Install)","reason for loss / hold":"PreSaleLoss: Too Costly to Build","geo_score":0.495,"street address":"173 Living Word Dr","zip code":"42717","opportunity owner":"Phyllis Buster","account name":"Living Word Ministries","mrc":119.95,"id":"ah70945bjheo","geo_precision":"range","state":"KY"},"type":"Feature","geometry":{"type":"Point","coordinates":[-86.050868,37.444363]}},{"properties":{"city":"ALBANY","stage":"Lost (Pre-Install)","reason for loss / hold":"PreSaleLoss: Too Costly to Build","geo_score":0.585,"street address":"539 CONCORD RD","zip code":"42602","opportunity owner":"Phyllis Buster","account name":"BIG ORANGE GATE","mrc":47.45,"id":"ah70946rkvis","geo_precision":"zip","state":"KY"},"type":"Feature","geometry":{"type":"Point","coordinates":[-85.076065,36.752845]}},{"properties":{"city":"ALBANY","stage":"Lost (Pre-Install)","reason for loss / hold":"PreSaleLoss: Too Costly to Build","geo_score":0.501,"street address":"981 76 FALLS RD","zip code":"42602","opportunity owner":"Phyllis Buster","account name":"BURCH DRILLING","mrc":119.9,"id":"ah7093sjv3qj","geo_precision":"street","state":"KY"},"type":"Feature","geometry":{"type":"Point","coordinates":[-85.069392,37.04591]}},{"properties":{"city":"ALBANY","stage":"Lost (Pre-Install)","reason for loss / hold":"PreSaleLoss: Too Costly to Build","geo_score":0.476,"street address":"163 WAYNE DICKEN RD","zip code":"42602","opportunity owner":"Phyllis Buster","account name":"COOK'S FIREPLACE","mrc":119.9,"id":"ah709452cfo7","geo_precision":"street","state":"KY"},"type":"Feature","geometry":{"type":"Point","coordinates":[-85.028587,37.031469]}},{"properties":{"city":"BURKESVILLE","stage":"Lost (Pre-Install)","reason for loss / hold":"PreSaleLoss: Too Costly to Build","geo_score":0.5,"street address":"STAGE COACH RD","zip code":"42717","opportunity owner":"Phyllis Buster","account name":"WKYR","mrc":39.95,"id":"ah7093sovskw","geo_precision":"street","state":"KY"},"type":"Feature","geometry":{"type":"Point","coordinates":[-85.3891,37.521175]}},{"properties":{"city":"Albany","stage":"Hold: Cost Analysis","reason for loss / hold":null,"geo_score":0.585,"street address":"524 Nazarene St","zip code":"42602","opportunity owner":"Phyllis Buster","account name":"Albany United Church of the Nazarene","mrc":95.94,"id":"ah70942940ki","geo_precision":"zip","state":"KY"},"type":"Feature","geometry":{"type":"Point","coordinates":[-85.076065,36.752845]}},{"properties":{"city":"Dubuque","stage":"Lost (Pre-Install)","reason for loss / hold":"PreSaleLoss: Too Costly to Build","geo_score":0.922,"street address":"17921 John Deere Rd S","zip code":"52001","opportunity owner":"Brian McGarry","account name":"Hoyne Power Equipment","mrc":119.9,"id":"ah70942tmx1f","geo_precision":"range","state":"IA"},"type":"Feature","geometry":{"type":"Point","coordinates":[-90.69307,42.558526]}},{"properties":{"city":"Sugar Grove","stage":"Lost (Pre-Install)","reason for loss / hold":"PreSaleLoss: Too Costly to Build","geo_score":0.883,"street address":"549 Heartland Drive Suite A","zip code":"60554","opportunity owner":"Brian McGarry","account name":"Harris Golf Cars","mrc":204.8,"id":"ah70943fripz","geo_precision":"range","state":"IL"},"type":"Feature","geometry":{"type":"Point","coordinates":[-88.460214,41.77972]}},{"properties":{"city":"Coralville","stage":"Lost (Pre-Install)","reason for loss / hold":"PreSaleLoss: Too Costly to Build","geo_score":0.902,"street address":"310 2nd Street","zip code":"52241","opportunity owner":"Gloria Walsh","account name":"EarthView Environmental Inc","mrc":69.9,"id":"ah7093tciqt9","geo_precision":"range","state":"IA"},"type":"Feature","geometry":{"type":"Point","coordinates":[-91.569336,41.669958]}},{"properties":{"city":"Kalona","stage":"Lost (Pre-Install)","reason for loss / hold":"PreSaleLoss: Too Costly to Build","geo_score":0.561,"street address":"1325 Hwy. 1 South","zip code":"52247","opportunity owner":"Gloria Walsh","account name":"The Appliance Barn, Inc","mrc":224.8,"id":"ah7093r590d3","geo_precision":"street","state":"IA"},"type":"Feature","geometry":{"type":"Point","coordinates":[-91.714379,41.486508]}},{"properties":{"city":"Kalona","stage":"Lost (Pre-Install)","reason for loss / hold":"PreSaleLoss: Too Costly to Build","geo_score":0.722,"street address":"102 South G Ave","zip code":"52247","opportunity owner":"Gloria Walsh","account name":"CS Autobody","mrc":149.85,"id":"ah7093tlbm39","geo_precision":"street","state":"IA"},"type":"Feature","geometry":{"type":"Point","coordinates":[-91.708616,41.487792]}},{"properties":{"city":"Iowa City","stage":"Hold: Cost Analysis","reason for loss / hold":"N/A","geo_score":1.0,"street address":"140 Stevens Drive","zip code":"52240","opportunity owner":"Gloria Walsh","account name":"Promo Logo","mrc":119.95,"id":"ah7093tsqc4i","geo_precision":"range","state":"IA"},"type":"Feature","geometry":{"type":"Point","coordinates":[-91.534211,41.642979]}},{"properties":{"city":"Iowa City","stage":"Lost (Pre-Install)","reason for loss / hold":"PreSaleLoss: Too Costly to Build","geo_score":0.657,"street address":"2339 Heinz Rd. STE A","zip code":"52240","opportunity owner":"Gloria Walsh","account name":"STS Transportation Service","mrc":314.8,"id":"ah7093t33mb5","geo_precision":"street","state":"IA"},"type":"Feature","geometry":{"type":"Point","coordinates":[-91.521661,41.616848]}},{"properties":{"city":"Iowa City","stage":"Lost (Pre-Install)","reason for loss / hold":"PreSaleLoss: Too Costly to Build","geo_score":0.449,"street address":"2630 Independence Rd","zip code":"52240","opportunity owner":"Gloria Walsh","account name":"STS Transportation Service","mrc":165.9,"id":"ah7093z0nixa","geo_precision":"street","state":"IA"},"type":"Feature","geometry":{"type":"Point","coordinates":[-91.680123,42.041292]}},{"properties":{"city":"Iowa City","stage":"Lost (Pre-Install)","reason for loss / hold":"PreSaleLoss: Too Costly to Build","geo_score":1.0,"street address":"2500 Heinz Rd","zip code":"52240","opportunity owner":"Gloria Walsh","account name":"STS Transportation Service","mrc":165.9,"id":"ah70944j3fee","geo_precision":"range","state":"IA"},"type":"Feature","geometry":{"type":"Point","coordinates":[-91.48696,41.636881]}},{"properties":{"city":"Iowa City","stage":"Lost (Pre-Install)","reason for loss / hold":"PreSaleLoss: Too Costly to Build","geo_score":0.787,"street address":"485 Hwy 1 West","zip code":"52246","opportunity owner":"Gloria Walsh","account name":"IDX LLC","mrc":149.9,"id":"ah7094577z56","geo_precision":"range","state":"IA"},"type":"Feature","geometry":{"type":"Point","coordinates":[-91.542882,41.64737]}},{"properties":{"city":"IOWA CITY","stage":"Hold: Cost Analysis","reason for loss / hold":"N/A","geo_score":0.449,"street address":"2670 INDEPENDENCE RD","zip code":"52240","opportunity owner":"Gloria Walsh","account name":"QUALITY ASSOCIATES","mrc":255.9,"id":"ah7093rh6mv3","geo_precision":"street","state":"IA"},"type":"Feature","geometry":{"type":"Point","coordinates":[-91.680123,42.041292]}},{"properties":{"city":"Mason City","stage":"Lost (Pre-Install)","reason for loss / hold":"PreSaleLoss: Too Costly to Build","geo_score":0.604,"street address":"100 s. federal ave Suite 304","zip code":"50401","opportunity owner":"Marty Shaw","account name":"Natural Nail","mrc":39.95,"id":"ah7093v1p8lr","geo_precision":"street","state":"IA"},"type":"Feature","geometry":{"type":"Point","coordinates":[-93.20105,43.147966]}},{"properties":{"city":"CHARLES CITY","stage":"Lost (Pre-Install)","reason for loss / hold":"PreSaleLoss: Too Costly to Build","geo_score":0.807,"street address":"715 KELLY ST","zip code":"50616","opportunity owner":"Marty Shaw","account name":"Stitches","mrc":99.95,"id":"ah7093uexw5i","geo_precision":"street","state":"IA"},"type":"Feature","geometry":{"type":"Point","coordinates":[-92.679149,43.068631]}},{"properties":{"city":"Garner","stage":"Lost (Pre-Install)","reason for loss / hold":"PreSaleLoss: Too Costly to Build","geo_score":0.642,"street address":"390 Highway 18 E","zip code":"50438","opportunity owner":"Marty Shaw","account name":"Garner Lumber &amp; Supply Co","mrc":149.85,"id":"ah7093ublze5","geo_precision":"street","state":"IA"},"type":"Feature","geometry":{"type":"Point","coordinates":[-93.714902,43.104707]}},{"properties":{"city":"Monticello","stage":"Hold: Cost Analysis","reason for loss / hold":null,"geo_score":0.935,"street address":"225 W 11th St","zip code":"52310","opportunity owner":"Scott Geitzenauer","account name":"Medplast Engineered Products","mrc":129.95,"id":"ah7093vb5wln","geo_precision":"range","state":"IA"},"type":"Feature","geometry":{"type":"Point","coordinates":[-91.194611,42.252485]}},{"properties":{"city":"Lisbon","stage":"Hold: Cost Analysis","reason for loss / hold":null,"geo_score":0.935,"street address":"418 E Hwy 30","zip code":"52253","opportunity owner":"Scott Geitzenauer","account name":"4 L MFG &amp; Machine","mrc":119.9,"id":"ah709445uabd","geo_precision":"range","state":"IA"},"type":"Feature","geometry":{"type":"Point","coordinates":[-91.391712,41.917862]}},{"properties":{"city":"Monticello","stage":"Hold: Cost Analysis","reason for loss / hold":null,"geo_score":0.585,"street address":"101 Lindner Court","zip code":"52310","opportunity owner":"Scott Geitzenauer","account name":"M Town Tire &amp; Auto","mrc":119.9,"id":"ah7093ylvnyg","geo_precision":"zip","state":"IA"},"type":"Feature","geometry":{"type":"Point","coordinates":[-91.158852,42.139945]}},{"properties":{"city":"Evansdale","stage":"Hold: Cost Analysis","reason for loss / hold":null,"geo_score":0.805,"street address":"888 Doris Dr","zip code":"50707","opportunity owner":"Randall Wallace","account name":"Millbridge Cabinets","mrc":119.9,"id":"ah7093yrru3u","geo_precision":"street","state":"IA"},"type":"Feature","geometry":{"type":"Point","coordinates":[-92.25065,42.459896]}},{"properties":{"city":"Cedar Falls","stage":"Lost (Pre-Install)","reason for loss / hold":"PreSaleLoss: Too Costly to Build","geo_score":0.667,"street address":"4507 Algonquin Dr. Ste C","zip code":"50613","opportunity owner":"Randall Wallace","account name":"Saul Fitness","mrc":119.9,"id":"ah7093t5keqz","geo_precision":"street","state":"IA"},"type":"Feature","geometry":{"type":"Point","coordinates":[-92.905149,42.773776]}},{"properties":{"city":"Parkersburg","stage":"Hold: Cost Analysis","reason for loss / hold":null,"geo_score":0.732,"street address":"1304 Hwy 57","zip code":"50665","opportunity owner":"Randall Wallace","account name":"Parkersburg Tire &amp; Alignment","mrc":89.95,"id":"ah70940tvgwi","geo_precision":"street","state":"IA"},"type":"Feature","geometry":{"type":"Point","coordinates":[-92.776236,42.570361]}},{"properties":{"city":"Waterloo","stage":"Lost: Pre-Contract","reason for loss / hold":"PreSaleLoss: Too Costly to Build","geo_score":1.0,"street address":"4920 Dubuque Rd","zip code":"50703","opportunity owner":"Randall Wallace","account name":"Town &amp; Country Home Improvement","mrc":69.95,"id":"ah7093xtzyy2","geo_precision":"range","state":"IA"},"type":"Feature","geometry":{"type":"Point","coordinates":[-92.243652,42.46678]}},{"properties":{"city":"Hazleton","stage":"Lost: Pre-Contract","reason for loss / hold":"PreSaleLoss: Too Costly to Build","geo_score":1.0,"street address":"1333 Fontana Blvd","zip code":"50641","opportunity owner":"Randall Wallace","account name":"Jaspers RV","mrc":119.9,"id":"ah709449seyy","geo_precision":"range","state":"IA"},"type":"Feature","geometry":{"type":"Point","coordinates":[-91.903693,42.592741]}},{"properties":{"city":"Waterloo","stage":"Lost: Pre-Contract","reason for loss / hold":"PreSaleLoss: Too Costly to Build","geo_score":0.512,"street address":"720 1/2 N Elk Run Road","zip code":"50701","opportunity owner":"Randall Wallace","account name":"Whiz's CB Shop","mrc":69.95,"id":"ah7093ql0rlk","geo_precision":"street","state":"IA"},"type":"Feature","geometry":{"type":"Point","coordinates":[-92.387369,42.492978]}},{"properties":{"city":"Mechanicsville","stage":"Lost: Pre-Contract","reason for loss / hold":"PreSaleLoss: Too Costly to Build","geo_score":0.61,"street address":"200 S. Cherry St.","zip code":"52306","opportunity owner":"Greg Jochims","account name":"Bridge Community Bank","mrc":0.0,"id":"ah7093v1atq6","geo_precision":"street","state":"IA"},"type":"Feature","geometry":{"type":"Point","coordinates":[-91.253931,41.903256]}},{"properties":{"city":null,"stage":null,"reason for loss / hold":null,"geo_score":0.0,"street address":null,"zip code":null,"opportunity owner":"WIMO-Held and Lost Opportunities","account name":null,"mrc":null,"id":"ah7093yy4atx","geo_precision":"","state":null},"type":"Feature","geometry":null},{"properties":{"city":null,"stage":null,"reason for loss / hold":null,"geo_score":0.0,"street address":null,"zip code":null,"opportunity owner":"Copyright (c) 2000-2013 salesforce.com, inc. All rights reserved.","account name":null,"mrc":null,"id":"ah7093w8uhew","geo_precision":"","state":null},"type":"Feature","geometry":null},{"properties":{"city":null,"stage":null,"reason for loss / hold":null,"geo_score":0.0,"street address":null,"zip code":null,"opportunity owner":"Confidential Information - Do Not Distribute","account name":null,"mrc":null,"id":"ah7093wz11g4","geo_precision":"","state":null},"type":"Feature","geometry":null},{"properties":{"city":null,"stage":null,"reason for loss / hold":null,"geo_score":0.0,"street address":null,"zip code":null,"opportunity owner":"Generated By: Amy Simpson 9/13/2013 9:39 AM","account name":null,"mrc":null,"id":"ah7093rv0nyq","geo_precision":"","state":null},"type":"Feature","geometry":null},{"properties":{"city":null,"stage":null,"reason for loss / hold":null,"geo_score":0.0,"street address":null,"zip code":null,"opportunity owner":"Mediacom Communications","account name":null,"mrc":null,"id":"ah70941sd65v","geo_precision":"","state":null},"type":"Feature","geometry":null}],"is_temporal":false,"author":{"url":"","metadata":null,"contact_name":null,"contact_address":null,"source":null,"contact_phone":null},"source":"","pagination":{"sort":null,"start":0,"total":294,"limit":1000000},"state":"complete","tags":"","published":"2014-08-16T17:51:17-04:00","id":394325}