{"type":"FeatureCollection","data_type":"Dataset","url_type":null,"permissions":[{"permissions":{"download":true,"view":true},"group_id":"everyone"}],"classification":null,"title":"City of Louisville Buildings","count":144,"stream_id":3943,"contributor":{"url":"http://geocommons.com/users/812","name":"metromapper"},"data_attributes":null,"calculation_params":null,"icon_link":null,"link":"http://geocommons.com/overlays/3943.json","extent":[-86.1665,37.6109,-85.152,38.5387],"geometry_types":["point"],"unique_name":null,"name":"City of Louisville Buildings","feature_count":144,"description":"City of Louisville Buildings","next_feature":null,"is_raster":false,"short_classification":"Y","stats":{"zip":{"max":47172,"mean":41408.7013888889,"variance":5552342.36475331,"stdev":2356.34088466701,"min":40006,"median":40203},"lat":{"max":38.53871606,"mean":38.1550001416667,"variance":0.0551504689330599,"stdev":0.234841369722329,"min":37.61093669,"median":38.24177033},"long":{"max":-85.15200332,"mean":-85.6961957893055,"variance":0.0476190787508714,"stdev":0.21821796156795,"min":-86.16651421,"median":-85.75940638}},"features":[{"properties":{"name":"Borden Town Hall","city":"Borden","zip":47106,"id":"a676k0kxmrxo","address":"111 W Main St","lat":38.53871606,"state":"IN","long":-85.77157081},"type":"Feature","geometry":{"type":"Point","coordinates":[-85.77157081,38.53871606]}},{"properties":{"name":"Brandenburg-City Hall","city":"Brandenburg","zip":40108,"id":"a676k04xt79i","address":"737 High St","lat":38.4432639,"state":"KY","long":-85.6598078},"type":"Feature","geometry":{"type":"Point","coordinates":[-85.6598078,38.4432639]}},{"properties":{"name":"Brandenburg-Water Works","city":"Brandenburg","zip":40108,"id":"a676k0hy1o12","address":"737 High St","lat":38.4432639,"state":"KY","long":-85.6598078},"type":"Feature","geometry":{"type":"Point","coordinates":[-85.6598078,38.4432639]}},{"properties":{"name":"Bullitt County 911 Center","city":"Shepherdsville","zip":40165,"id":"a676k06l5mcb","address":"911 N Walnut St","lat":38.0407345,"state":"KY","long":-85.55812186},"type":"Feature","geometry":{"type":"Point","coordinates":[-85.55812186,38.0407345]}},{"properties":{"name":"Bullitt County Board of Education","city":"Shepherdsville","zip":40165,"id":"a676k0ijh3gy","address":"1040 Hwy 44 E","lat":37.99366096,"state":"KY","long":-85.70452414},"type":"Feature","geometry":{"type":"Point","coordinates":[-85.70452414,37.99366096]}},{"properties":{"name":"Bullitt County Government &amp; Courthouse","city":"Shephersdville","zip":40165,"id":"a676k0dl6678","address":"300 S Buckman St","lat":37.98817438,"state":"KY","long":-85.71674411},"type":"Feature","geometry":{"type":"Point","coordinates":[-85.71674411,37.98817438]}},{"properties":{"name":"Cabinet for Family &amp; Children","city":"Shepherdsville","zip":40165,"id":"a676k0efhxbt","address":"445 Hwy. 44 E","lat":37.99030448,"state":"KY","long":-85.71144974},"type":"Feature","geometry":{"type":"Point","coordinates":[-85.71144974,37.99030448]}},{"properties":{"name":"Child Support Department","city":"Louisville","zip":40203,"id":"a676k0anwzeg","address":"315 Muhammad Ali Blvd","lat":38.25123819,"state":"KY","long":-85.7564816},"type":"Feature","geometry":{"type":"Point","coordinates":[-85.7564816,38.25123819]}},{"properties":{"name":"City of Charlestown","city":"Charlestown","zip":47111,"id":"a676k0l0m2os","address":"701 Main","lat":38.4444805,"state":"IN","long":-85.66036605},"type":"Feature","geometry":{"type":"Point","coordinates":[-85.66036605,38.4444805]}},{"properties":{"name":"City of Goshen","city":"Goshen","zip":40026,"id":"a676k09ogza3","address":"1106 Meadowridge Tr","lat":38.41004865,"state":"KY","long":-85.59100884},"type":"Feature","geometry":{"type":"Point","coordinates":[-85.59100884,38.41004865]}},{"properties":{"name":"City of LaGrange","city":"LaGrange","zip":40031,"id":"a676k09o2hut","address":"410 W. Jefferson St","lat":38.40652192,"state":"KY","long":-85.38565246},"type":"Feature","geometry":{"type":"Point","coordinates":[-85.38565246,38.40652192]}},{"properties":{"name":"City of Mt. Washington","city":"Mt. Washington","zip":40047,"id":"a676k0cczi70","address":"275 Snapp St","lat":38.05003806,"state":"KY","long":-85.54430603},"type":"Feature","geometry":{"type":"Point","coordinates":[-85.54430603,38.05003806]}},{"properties":{"name":"City of New Albany","city":"New Albany","zip":47150,"id":"a676k0id4dzc","address":"311 Hall Sq.","lat":38.28432404,"state":"IN","long":-85.82614238},"type":"Feature","geometry":{"type":"Point","coordinates":[-85.82614238,38.28432404]}},{"properties":{"name":"City of Prospect","city":"Prospect","zip":40059,"id":"a676k0dgazwl","address":"9200 US Hwy 42","lat":38.34078689,"state":"KY","long":-85.61814066},"type":"Feature","geometry":{"type":"Point","coordinates":[-85.61814066,38.34078689]}},{"properties":{"name":"City of Shelbyville","city":"Shelbyville","zip":40065,"id":"a676k0j2n3v0","address":"315 Washington St","lat":38.21166239,"state":"KY","long":-85.21315021},"type":"Feature","geometry":{"type":"Point","coordinates":[-85.21315021,38.21166239]}},{"properties":{"name":"City of Simpsonville","city":"Simpsonville","zip":40067,"id":"a676k0dbwhhg","address":"104 Old Veechdale Rd","lat":38.21939043,"state":"KY","long":-85.35284703},"type":"Feature","geometry":{"type":"Point","coordinates":[-85.35284703,38.21939043]}},{"properties":{"name":"City of Taylorsville","city":"Taylorsville","zip":40071,"id":"a676k05gyt99","address":"404 Railroad St","lat":38.03233198,"state":"KY","long":-85.34131709},"type":"Feature","geometry":{"type":"Point","coordinates":[-85.34131709,38.03233198]}},{"properties":{"name":"City-County Building","city":"Jeffersonville","zip":47130,"id":"a676k0cpdh6v","address":"501 East Court Ave","lat":38.27681392,"state":"IN","long":-85.73724972},"type":"Feature","geometry":{"type":"Point","coordinates":[-85.73724972,38.27681392]}},{"properties":{"name":"Clarksville-Police Dept","city":"Clarksville","zip":47129,"id":"a676k0cf9v3x","address":"1970 Broadway St","lat":38.33183382,"state":"IN","long":-85.78349912},"type":"Feature","geometry":{"type":"Point","coordinates":[-85.78349912,38.33183382]}},{"properties":{"name":"Commonwealth Attorney &amp; Crime Commission","city":"Louisville","zip":40202,"id":"a676k0lbaxls","address":"514 W. Liberty St","lat":38.25317584,"state":"KY","long":-85.76023579},"type":"Feature","geometry":{"type":"Point","coordinates":[-85.76023579,38.25317584]}},{"properties":{"name":"Community Action Agency","city":"Louisville","zip":40211,"id":"a676k0k7tuyc","address":"3308 Chauncey","lat":38.231022,"state":"KY","long":-85.81097348},"type":"Feature","geometry":{"type":"Point","coordinates":[-85.81097348,38.231022]}},{"properties":{"name":"Community Action Agency-Newburg","city":"Louisville","zip":40218,"id":"a676k0l18lbv","address":"4810 Exeter Ave","lat":38.18060769,"state":"KY","long":-85.67052377},"type":"Feature","geometry":{"type":"Point","coordinates":[-85.67052377,38.18060769]}},{"properties":{"name":"Community Center-Beechmont","city":"Louisville","zip":40203,"id":"a676k0krt2l3","address":"205 W. Wellington Ave","lat":38.18423786,"state":"KY","long":-85.76461431},"type":"Feature","geometry":{"type":"Point","coordinates":[-85.76461431,38.18423786]}},{"properties":{"name":"Community Center-Better Homes","city":"Louisville","zip":40208,"id":"a676k084gcl3","address":"535 W. Kentucky St","lat":38.2400509,"state":"KY","long":-85.76253075},"type":"Feature","geometry":{"type":"Point","coordinates":[-85.76253075,38.2400509]}},{"properties":{"name":"Community Center-California","city":"Louisville","zip":40210,"id":"a676k0ewarzp","address":"1600 W. St. Catherine","lat":38.23956016,"state":"KY","long":-85.78108854},"type":"Feature","geometry":{"type":"Point","coordinates":[-85.78108854,38.23956016]}},{"properties":{"name":"Community Center-Douglas Loop","city":"Louisville","zip":40205,"id":"a676k0ct0x29","address":"2305 Douglass Blvd","lat":38.23013435,"state":"KY","long":-85.68591146},"type":"Feature","geometry":{"type":"Point","coordinates":[-85.68591146,38.23013435]}},{"properties":{"name":"Community Center-Dumeyer","city":"Louisville","zip":40215,"id":"a676k0h646kx","address":"1644 Squires Dr","lat":38.18455734,"state":"KY","long":-85.78789381},"type":"Feature","geometry":{"type":"Point","coordinates":[-85.78789381,38.18455734]}},{"properties":{"name":"Community Center-East Louisville","city":"Louisville","zip":40202,"id":"a676k0kkculd","address":"622 E. Jefferson St","lat":38.25186474,"state":"KY","long":-85.7413861},"type":"Feature","geometry":{"type":"Point","coordinates":[-85.7413861,38.25186474]}},{"properties":{"name":"Community Center-Flaget","city":"Louisville","zip":40212,"id":"a676k0j23y7v","address":"4425 Greenwood Ave","lat":38.24490837,"state":"KY","long":-85.82703017},"type":"Feature","geometry":{"type":"Point","coordinates":[-85.82703017,38.24490837]}},{"properties":{"name":"Community Center-Metro Arts Center","city":"Louisville","zip":40216,"id":"a676k061d3z7","address":"8360 Dixie Hwy","lat":38.130823,"state":"KY","long":-85.84795919},"type":"Feature","geometry":{"type":"Point","coordinates":[-85.84795919,38.130823]}},{"properties":{"name":"Community Center-Park Hill","city":"Louisville","zip":40210,"id":"a676k0d4ngru","address":"1703 S. 13th St","lat":38.22466866,"state":"KY","long":-85.77689906},"type":"Feature","geometry":{"type":"Point","coordinates":[-85.77689906,38.22466866]}},{"properties":{"name":"Community Center-Portland","city":"Louisville","zip":40212,"id":"a676k0edzvlu","address":"640 N. 27th St","lat":38.27358027,"state":"KY","long":-85.79120158},"type":"Feature","geometry":{"type":"Point","coordinates":[-85.79120158,38.27358027]}},{"properties":{"name":"Community Center-Shawnee","city":"Louisville","zip":40212,"id":"a676k0iszrtq","address":"607 S. 37th St","lat":38.25404889,"state":"KY","long":-85.8130894},"type":"Feature","geometry":{"type":"Point","coordinates":[-85.8130894,38.25404889]}},{"properties":{"name":"Community Center-Sun Valley","city":"Louisville","zip":40272,"id":"a676k0i0ikdh","address":"6505 Bethany Ln","lat":38.10213248,"state":"KY","long":-85.88645903},"type":"Feature","geometry":{"type":"Point","coordinates":[-85.88645903,38.10213248]}},{"properties":{"name":"Community Center-Sylvania","city":"Louisville","zip":40258,"id":"a676k0ed2f2k","address":"6650 Sylvania Rd","lat":38.15873022,"state":"KY","long":-85.87421236},"type":"Feature","geometry":{"type":"Point","coordinates":[-85.87421236,38.15873022]}},{"properties":{"name":"Convention &amp; Visitors Bureau","city":"Louisville","zip":40202,"id":"a676k0gmawh3","address":"400 W. Main St","lat":38.25706532,"state":"KY","long":-85.75710994},"type":"Feature","geometry":{"type":"Point","coordinates":[-85.75710994,38.25706532]}},{"properties":{"name":"Corydon Town Hall","city":"Corydon","zip":47112,"id":"a676k08wnwug","address":"113 Oak NW","lat":37.9366425,"state":"IN","long":-85.99114553},"type":"Feature","geometry":{"type":"Point","coordinates":[-85.99114553,37.9366425]}},{"properties":{"name":"Elizabethtown-City Hall","city":"Elizabethtown","zip":42701,"id":"a676k075eu94","address":"200 W Dixie Av","lat":37.69644866,"state":"KY","long":-85.86394908},"type":"Feature","geometry":{"type":"Point","coordinates":[-85.86394908,37.69644866]}},{"properties":{"name":"Elizabethtown-City Springs Water Plant","city":"Elizabethtown","zip":42701,"id":"a676k0fsdnyv","address":"403 Nicholas St","lat":37.69175366,"state":"KY","long":-85.851383},"type":"Feature","geometry":{"type":"Point","coordinates":[-85.851383,37.69175366]}},{"properties":{"name":"Elizabethtown-Fire Dept. #1","city":"Elizabethtown","zip":42701,"id":"a676k0iaoqms","address":"915 N Dixie","lat":37.84748591,"state":"KY","long":-85.94560831},"type":"Feature","geometry":{"type":"Point","coordinates":[-85.94560831,37.84748591]}},{"properties":{"name":"Elizabethtown-Fire Dept.#2","city":"Elizabethtown","zip":42701,"id":"a676k0fym42v","address":"621 E Dixie","lat":37.6891093,"state":"KY","long":-85.85431861},"type":"Feature","geometry":{"type":"Point","coordinates":[-85.85431861,37.6891093]}},{"properties":{"name":"Elizabethtown-Golf Course","city":"Elizabethtown","zip":42701,"id":"a676k0bu8t6m","address":"801 N Miles St","lat":37.70773249,"state":"KY","long":-85.85474679},"type":"Feature","geometry":{"type":"Point","coordinates":[-85.85474679,37.70773249]}},{"properties":{"name":"Elizabethtown-Parks Administration","city":"Elizabethtown","zip":42701,"id":"a676k0d2xy85","address":"404 S Mulberry","lat":37.6897381,"state":"KY","long":-85.86516914},"type":"Feature","geometry":{"type":"Point","coordinates":[-85.86516914,37.6897381]}},{"properties":{"name":"Elizabethtown-Parks&amp;Recreation Dept.","city":"Elizabethtown","zip":42701,"id":"a676k07xnyjc","address":"404 S Mulberry","lat":37.6897381,"state":"KY","long":-85.86516914},"type":"Feature","geometry":{"type":"Point","coordinates":[-85.86516914,37.6897381]}},{"properties":{"name":"Elizabethtown-Police Dept.","city":"Elizabethtown","zip":42701,"id":"a676k06pod15","address":"318 S Mulberry","lat":37.69068739,"state":"KY","long":-85.86337548},"type":"Feature","geometry":{"type":"Point","coordinates":[-85.86337548,37.69068739]}},{"properties":{"name":"Elizabethtown-Public Works Dept.","city":"Elizabethtown","zip":42701,"id":"a676k0csu0gq","address":"403 Nicholas St","lat":37.6917353,"state":"KY","long":-85.85139784},"type":"Feature","geometry":{"type":"Point","coordinates":[-85.85139784,37.6917353]}},{"properties":{"name":"Elizabethtown-Waste Water Treatment Plant","city":"Elizabethtown","zip":42701,"id":"a676k07whcas","address":"285 Gaither Station Rd","lat":37.6780641,"state":"KY","long":-85.8835483},"type":"Feature","geometry":{"type":"Point","coordinates":[-85.8835483,37.6780641]}},{"properties":{"name":"Eminence Police Dept","city":"Eminence","zip":40019,"id":"a676k0giuzz8","address":"100 West Broadway","lat":38.36992,"state":"KY","long":-85.18035355},"type":"Feature","geometry":{"type":"Point","coordinates":[-85.18035355,38.36992]}},{"properties":{"name":"Farm Service Agency &amp; Natural Resource Conserv.","city":"Mt. Washington","zip":40047,"id":"a676k0fkwp73","address":"1200 N. Bardstown Rd","lat":38.05473322,"state":"KY","long":-85.54866707},"type":"Feature","geometry":{"type":"Point","coordinates":[-85.54866707,38.05473322]}},{"properties":{"name":"Federal Government Building","city":"Louisville","zip":40202,"id":"a676k0dbf6wn","address":"600 Dr. M. L. King Jr","lat":38.24821137,"state":"KY","long":-85.76267399},"type":"Feature","geometry":{"type":"Point","coordinates":[-85.76267399,38.24821137]}},{"properties":{"name":"Floyd County-Child Protection Services","city":"New Albany","zip":47150,"id":"a676k08vcnpo","address":"824 University Woods Dr","lat":38.32896453,"state":"IN","long":-85.81533465},"type":"Feature","geometry":{"type":"Point","coordinates":[-85.81533465,38.32896453]}},{"properties":{"name":"Floyd County-Health Dept","city":"New Albany","zip":47150,"id":"a676k0d6zpln","address":"1917 Bono Rd","lat":38.30345224,"state":"IN","long":-85.83261039},"type":"Feature","geometry":{"type":"Point","coordinates":[-85.83261039,38.30345224]}},{"properties":{"name":"Freeman Lake","city":"Elizabethtown","zip":42701,"id":"a676k0f5o3s5","address":"140 Freeman Lake Rd","lat":37.7184762,"state":"KY","long":-85.87755529},"type":"Feature","geometry":{"type":"Point","coordinates":[-85.87755529,37.7184762]}},{"properties":{"name":"Freeman Lake Water Plant","city":"Elizabethtown","zip":42701,"id":"a676k0jzi0to","address":"1101 N Dixie Hwy","lat":37.71508993,"state":"KY","long":-85.87794707},"type":"Feature","geometry":{"type":"Point","coordinates":[-85.87794707,37.71508993]}},{"properties":{"name":"Hardin County Diaster &amp; Emergency Service","city":"Elizabethtown","zip":42701,"id":"a676k0keceze","address":"211 S Mulberry St","lat":37.69199485,"state":"KY","long":-85.86135368},"type":"Feature","geometry":{"type":"Point","coordinates":[-85.86135368,37.69199485]}},{"properties":{"name":"Hardin County Dog Warden &amp; Pound","city":"Elizabethtown","zip":42701,"id":"a676k0kr2nj9","address":"116 Nicholas St","lat":37.68987373,"state":"KY","long":-85.85425924},"type":"Feature","geometry":{"type":"Point","coordinates":[-85.85425924,37.68987373]}},{"properties":{"name":"Hardin County Health Services","city":"Elizabethtown","zip":42701,"id":"a676k0jmht9a","address":"580 Westport Rd","lat":37.70666257,"state":"KY","long":-85.88440993},"type":"Feature","geometry":{"type":"Point","coordinates":[-85.88440993,37.70666257]}},{"properties":{"name":"Hardin County Landfill","city":"Elizabethtown","zip":42701,"id":"a676k0hhp0e4","address":"3870 Springfield Rd","lat":37.69257742,"state":"KY","long":-85.78145182},"type":"Feature","geometry":{"type":"Point","coordinates":[-85.78145182,37.69257742]}},{"properties":{"name":"Hardin County Public Library","city":"Elizabethtown","zip":42701,"id":"a676k0i4bgv0","address":"217 S Mulberry St","lat":37.69190588,"state":"KY","long":-85.86145169},"type":"Feature","geometry":{"type":"Point","coordinates":[-85.86145169,37.69190588]}},{"properties":{"name":"Hardin County Road Dept.","city":"Elizabethtown","zip":42701,"id":"a676k0e1rgmi","address":"501 Bacon Creek Rd","lat":37.61093669,"state":"KY","long":-85.94052918},"type":"Feature","geometry":{"type":"Point","coordinates":[-85.94052918,37.61093669]}},{"properties":{"name":"Hardin County Waste Water Treatment Plant","city":"Elizabethtown","zip":42701,"id":"a676k0g9bqkj","address":"Springfield Rd","lat":37.69262588,"state":"KY","long":-85.78156258},"type":"Feature","geometry":{"type":"Point","coordinates":[-85.78156258,37.69262588]}},{"properties":{"name":"Harrison County Offices","city":"Corydon","zip":47112,"id":"a676k0gfsfhi","address":"300 N Capital","lat":38.21250043,"state":"IN","long":-86.12646599},"type":"Feature","geometry":{"type":"Point","coordinates":[-86.12646599,38.21250043]}},{"properties":{"name":"Henry County","city":"New Castle","zip":40050,"id":"a676k0fxmmkt","address":"30 N Main St","lat":38.44797862,"state":"KY","long":-85.65442823},"type":"Feature","geometry":{"type":"Point","coordinates":[-85.65442823,38.44797862]}},{"properties":{"name":"Henry County Animal Clinic","city":"New Castle","zip":40050,"id":"a676k0dwn6vb","address":"1418 Eminence Rd","lat":38.23749018,"state":"KY","long":-85.20157845},"type":"Feature","geometry":{"type":"Point","coordinates":[-85.20157845,38.23749018]}},{"properties":{"name":"Henry County Health Dept","city":"New Castle","zip":40050,"id":"a676k06fvfgi","address":"30 N Main St","lat":38.44797862,"state":"KY","long":-85.65442823},"type":"Feature","geometry":{"type":"Point","coordinates":[-85.65442823,38.44797862]}},{"properties":{"name":"Henry County Sheriff","city":"New Castle","zip":40050,"id":"a676k0i2clfh","address":"30 N Main St","lat":38.44797862,"state":"KY","long":-85.65442823},"type":"Feature","geometry":{"type":"Point","coordinates":[-85.65442823,38.44797862]}},{"properties":{"name":"Housing &amp; Urban Development","city":"Louisville","zip":40203,"id":"a676k0bwbw3d","address":"745 W. Main St","lat":38.25773348,"state":"KY","long":-85.76297231},"type":"Feature","geometry":{"type":"Point","coordinates":[-85.76297231,38.25773348]}},{"properties":{"name":"Housing Authority of Shelbyville","city":"Shelbyville","zip":40065,"id":"a676k0jhsgv9","address":"41 Cardinal Dr","lat":38.15873372,"state":"KY","long":-85.19280128},"type":"Feature","geometry":{"type":"Point","coordinates":[-85.19280128,38.15873372]}},{"properties":{"name":"Human Relations Comm./Community Serv","city":"Louisville","zip":40202,"id":"a676k0j29uwd","address":"200 S. 7th St","lat":38.24868157,"state":"KY","long":-85.7585593},"type":"Feature","geometry":{"type":"Point","coordinates":[-85.7585593,38.24868157]}},{"properties":{"name":"Indiana Army Ammunition Plant","city":"Charlestown","zip":47111,"id":"a676k0ecei2f","address":"11450 Hwy 62","lat":38.38243256,"state":"IN","long":-85.68616126},"type":"Feature","geometry":{"type":"Point","coordinates":[-85.68616126,38.38243256]}},{"properties":{"name":"Jefferson County Public Schools","city":"Louisville","zip":40218,"id":"a676k0flffs5","address":"3332 Newburg Rd","lat":38.19950774,"state":"KY","long":-85.68499092},"type":"Feature","geometry":{"type":"Point","coordinates":[-85.68499092,38.19950774]}},{"properties":{"name":"Jeffersonville-Fire Station Headquaters","city":"Jeffersonville","zip":47130,"id":"a676k0cakewk","address":"735 Wall","lat":38.276475,"state":"IN","long":-85.74254901},"type":"Feature","geometry":{"type":"Point","coordinates":[-85.74254901,38.276475]}},{"properties":{"name":"KY Dept Hwys &amp; Transportation Property","city":"Shelbyville","zip":40065,"id":"a676k0bxfvz4","address":"555 Old Seven Mile Pike","lat":38.15876003,"state":"KY","long":-85.16375625},"type":"Feature","geometry":{"type":"Point","coordinates":[-85.16375625,38.15876003]}},{"properties":{"name":"L &amp; N Building","city":"Louisville","zip":40203,"id":"a676k0e8cffa","address":"908 W. Broadway","lat":38.24669462,"state":"KY","long":-85.76734951},"type":"Feature","geometry":{"type":"Point","coordinates":[-85.76734951,38.24669462]}},{"properties":{"name":"LaGrange Police Department","city":"LaGrange","zip":40031,"id":"a676k09ilugt","address":"410 W Jefferson St","lat":38.40652192,"state":"KY","long":-85.38565246},"type":"Feature","geometry":{"type":"Point","coordinates":[-85.38565246,38.40652192]}},{"properties":{"name":"LaGrange Utilities Commission","city":"LaGrange","zip":40031,"id":"a676k05vbuon","address":"412 W. Jefferson St","lat":38.40649441,"state":"KY","long":-85.38568399},"type":"Feature","geometry":{"type":"Point","coordinates":[-85.38568399,38.40649441]}},{"properties":{"name":"LaGrange Volunteer Fire Department","city":"LaGrange","zip":40031,"id":"a676k0haby7c","address":"121 W. Main St","lat":38.40716274,"state":"KY","long":-85.37968191},"type":"Feature","geometry":{"type":"Point","coordinates":[-85.37968191,38.40716274]}},{"properties":{"name":"Lincoln Trail District Health Dept.","city":"Elizabethtown","zip":42701,"id":"a676k0bd57jc","address":"1222 Woodland Dr","lat":37.71517733,"state":"KY","long":-85.88183763},"type":"Feature","geometry":{"type":"Point","coordinates":[-85.88183763,37.71517733]}},{"properties":{"name":"Lincoln Trail OB Care Clinic","city":"Elizabethtown","zip":42701,"id":"a676k06uuq1k","address":"1013 Wooland Dr","lat":37.71149098,"state":"KY","long":-85.87901563},"type":"Feature","geometry":{"type":"Point","coordinates":[-85.87901563,37.71149098]}},{"properties":{"name":"Louisville Gardens","city":"Louisville","zip":40202,"id":"a676k0dws638","address":"525 W. Muhammed Ali Blvd","lat":38.25178197,"state":"KY","long":-85.76032865},"type":"Feature","geometry":{"type":"Point","coordinates":[-85.76032865,38.25178197]}},{"properties":{"name":"Louisville Metro Air Pollution Control","city":"Louisville","zip":40204,"id":"a676k0bm5yep","address":"850 Barret Avenue","lat":38.24029013,"state":"KY","long":-85.73210713},"type":"Feature","geometry":{"type":"Point","coordinates":[-85.73210713,38.24029013]}},{"properties":{"name":"Louisville Metro Annex-City Hall","city":"Louisville","zip":40202,"id":"a676k0gk54j0","address":"609 W. Jefferson St","lat":38.25464626,"state":"KY","long":-85.76074108},"type":"Feature","geometry":{"type":"Point","coordinates":[-85.76074108,38.25464626]}},{"properties":{"name":"Louisville Metro Archives","city":"Louisville","zip":40202,"id":"a676k0c0ejgk","address":"970 S. 4th St","lat":38.23938112,"state":"KY","long":-85.75989876},"type":"Feature","geometry":{"type":"Point","coordinates":[-85.75989876,38.23938112]}},{"properties":{"name":"Louisville Metro Camelot Government","city":"Louisville","zip":40222,"id":"a676k081mog8","address":"1314 Lyndon Ln","lat":38.26857023,"state":"KY","long":-85.61337794},"type":"Feature","geometry":{"type":"Point","coordinates":[-85.61337794,38.26857023]}},{"properties":{"name":"Louisville Metro Central Government","city":"Louisville","zip":40213,"id":"a676k0b2t1lf","address":"7201 Outer Loop","lat":38.13806772,"state":"KY","long":-85.62964845},"type":"Feature","geometry":{"type":"Point","coordinates":[-85.62964845,38.13806772]}},{"properties":{"name":"Louisville Metro Corrections","city":"Louisville","zip":40206,"id":"a676k0dmppdz","address":"400 S 6th St","lat":38.25322832,"state":"KY","long":-85.76106767},"type":"Feature","geometry":{"type":"Point","coordinates":[-85.76106767,38.25322832]}},{"properties":{"name":"Louisville Metro Courthouse Annex","city":"Louisville","zip":40202,"id":"a676k0h9asvz","address":"517 Court Place","lat":38.25489456,"state":"KY","long":-85.75930633},"type":"Feature","geometry":{"type":"Point","coordinates":[-85.75930633,38.25489456]}},{"properties":{"name":"Louisville Metro Dept. of Solid Waste","city":"Louisville","zip":40204,"id":"a676k0hsubio","address":"600 Meriwether Ave","lat":38.22648556,"state":"KY","long":-85.74567828},"type":"Feature","geometry":{"type":"Point","coordinates":[-85.74567828,38.22648556]}},{"properties":{"name":"Louisville Metro Dixie Government Center","city":"Louisville","zip":40218,"id":"a676k0gvypof","address":"4919 Dixie Hwy","lat":38.16857508,"state":"KY","long":-85.82488125},"type":"Feature","geometry":{"type":"Point","coordinates":[-85.82488125,38.16857508]}},{"properties":{"name":"Louisville Metro Downtown Government","city":"Louisville","zip":40202,"id":"a676k0bo5y9a","address":"531 Court Place","lat":38.25493749,"state":"KY","long":-85.75987185},"type":"Feature","geometry":{"type":"Point","coordinates":[-85.75987185,38.25493749]}},{"properties":{"name":"Louisville Metro East Government Center","city":"Louisville","zip":40243,"id":"a676k0bzcenn","address":"200 Juneau Dr","lat":38.24786915,"state":"KY","long":-85.52631634},"type":"Feature","geometry":{"type":"Point","coordinates":[-85.52631634,38.24786915]}},{"properties":{"name":"Louisville Metro Government Offices","city":"Louisville","zip":40203,"id":"a676k0fx07m6","address":"400 S. 1st St.","lat":38.25232718,"state":"KY","long":-85.7525263},"type":"Feature","geometry":{"type":"Point","coordinates":[-85.7525263,38.25232718]}},{"properties":{"name":"Louisville Metro Hall","city":"Louisville","zip":40202,"id":"a676k07dybc6","address":"527 W. Jefferson St","lat":38.25457443,"state":"KY","long":-85.75940813},"type":"Feature","geometry":{"type":"Point","coordinates":[-85.75940813,38.25457443]}},{"properties":{"name":"Louisville Metro Hall of Justice","city":"Louisville","zip":40206,"id":"a676k07270hw","address":"600 W Jefferson St","lat":38.25397066,"state":"KY","long":-85.76095976},"type":"Feature","geometry":{"type":"Point","coordinates":[-85.76095976,38.25397066]}},{"properties":{"name":"Louisville Metro Health Dept","city":"Louisville","zip":40202,"id":"a676k0htee3k","address":"400 E. Gray St","lat":38.24605214,"state":"KY","long":-85.74651169},"type":"Feature","geometry":{"type":"Point","coordinates":[-85.74651169,38.24605214]}},{"properties":{"name":"Louisville Metro Housing Authority","city":"Louisville","zip":40203,"id":"a676k0990slg","address":"420 S. 8th St","lat":38.25261397,"state":"KY","long":-85.76483339},"type":"Feature","geometry":{"type":"Point","coordinates":[-85.76483339,38.25261397]}},{"properties":{"name":"Louisville Metro Judicial Center","city":"Louisville","zip":40206,"id":"a676k0jvzw7j","address":"700 W Jefferson St","lat":38.25408021,"state":"KY","long":-85.7624205},"type":"Feature","geometry":{"type":"Point","coordinates":[-85.7624205,38.25408021]}},{"properties":{"name":"Louisville Metro Office","city":"Louisville","zip":40202,"id":"a676k0g7uoat","address":"600 Cedar St","lat":38.25226627,"state":"KY","long":-85.76113906},"type":"Feature","geometry":{"type":"Point","coordinates":[-85.76113906,38.25226627]}},{"properties":{"name":"Louisville Metro Police Department","city":"Louisville","zip":40204,"id":"a676k0dazndf","address":"768 Barret Ave","lat":38.24177033,"state":"KY","long":-85.73320258},"type":"Feature","geometry":{"type":"Point","coordinates":[-85.73320258,38.24177033]}},{"properties":{"name":"Louisville Metro Police Division","city":"Louisville","zip":40202,"id":"a676k0jph80k","address":"225 S. 7th St","lat":38.25472024,"state":"KY","long":-85.76173612},"type":"Feature","geometry":{"type":"Point","coordinates":[-85.76173612,38.25472024]}},{"properties":{"name":"Louisville Metro Police Resource Center","city":"Louisville","zip":40118,"id":"a676k0e4ygvm","address":"709 Fairdale Road","lat":38.10931369,"state":"KY","long":-85.75747993},"type":"Feature","geometry":{"type":"Point","coordinates":[-85.75747993,38.10931369]}},{"properties":{"name":"Louisville Metro Urban Government Center","city":"Louisville","zip":40204,"id":"a676k0a0w1gt","address":"810 Barret Ave","lat":38.24177294,"state":"KY","long":-85.73299735},"type":"Feature","geometry":{"type":"Point","coordinates":[-85.73299735,38.24177294]}},{"properties":{"name":"Louisville Metro West Government Center","city":"Louisville","zip":40211,"id":"a676k0iv26by","address":"2600 W. Broadway","lat":38.24899092,"state":"KY","long":-85.79518334},"type":"Feature","geometry":{"type":"Point","coordinates":[-85.79518334,38.24899092]}},{"properties":{"name":"Louisville Metro-City Hall","city":"Louisville","zip":40202,"id":"a676k0asqon4","address":"601 W. Jefferson St","lat":38.25462544,"state":"KY","long":-85.76049908},"type":"Feature","geometry":{"type":"Point","coordinates":[-85.76049908,38.25462544]}},{"properties":{"name":"Louisville MetroYouth Center","city":"Louisville","zip":40202,"id":"a676k06cz85j","address":"720 W. Jefferson St","lat":38.25421068,"state":"KY","long":-85.76315578},"type":"Feature","geometry":{"type":"Point","coordinates":[-85.76315578,38.25421068]}},{"properties":{"name":"Louisville Science Center","city":"Louisville","zip":40202,"id":"a676k0d3jn0n","address":"727 W. Main St","lat":38.25764798,"state":"KY","long":-85.76257667},"type":"Feature","geometry":{"type":"Point","coordinates":[-85.76257667,38.25764798]}},{"properties":{"name":"Louisville Water Company","city":"Louisville","zip":40202,"id":"a676k0dymg6v","address":"550 S. 3rd St","lat":38.24915307,"state":"KY","long":-85.75652323},"type":"Feature","geometry":{"type":"Point","coordinates":[-85.75652323,38.24915307]}},{"properties":{"name":"Louisville Zoo","city":"Louisville","zip":40205,"id":"a676k081dite","address":"1100 Trevillian Way","lat":38.20508753,"state":"KY","long":-85.70925139},"type":"Feature","geometry":{"type":"Point","coordinates":[-85.70925139,38.20508753]}},{"properties":{"name":"Louisville/Jefferson County Metro Sewer District","city":"Louisville","zip":40203,"id":"a676k0fp4eb2","address":"700 W. Liberty St","lat":38.25327277,"state":"KY","long":-85.76280613},"type":"Feature","geometry":{"type":"Point","coordinates":[-85.76280613,38.25327277]}},{"properties":{"name":"Meade County","city":"Brandenburg","zip":40108,"id":"a676k07trspi","address":"516 Fairway Dr","lat":37.96085923,"state":"KY","long":-86.10558376},"type":"Feature","geometry":{"type":"Point","coordinates":[-86.10558376,37.96085923]}},{"properties":{"name":"Meade County Board of Education","city":"Brandenburg","zip":40108,"id":"a676k07kpfsb","address":"1155 Old Ekron Rd","lat":37.98531853,"state":"KY","long":-86.16651421},"type":"Feature","geometry":{"type":"Point","coordinates":[-86.16651421,37.98531853]}},{"properties":{"name":"Meade County Chamber of Commerce","city":"Brandenburg","zip":40108,"id":"a676k09om4lv","address":"735 High","lat":38.44327619,"state":"KY","long":-85.65978739},"type":"Feature","geometry":{"type":"Point","coordinates":[-85.65978739,38.44327619]}},{"properties":{"name":"Meade County Fire Dept. #1","city":"Brandenburg","zip":40108,"id":"a676k0k2o5wa","address":"516 Fairway Dr","lat":37.96085923,"state":"KY","long":-86.10558376},"type":"Feature","geometry":{"type":"Point","coordinates":[-86.10558376,37.96085923]}},{"properties":{"name":"Meade County-Health Dept","city":"Brandenburg","zip":40108,"id":"a676k08dk68l","address":"520 Fairway Dr","lat":37.96090832,"state":"KY","long":-86.10558988},"type":"Feature","geometry":{"type":"Point","coordinates":[-86.10558988,37.96090832]}},{"properties":{"name":"Metro Development Center","city":"Louisville","zip":40202,"id":"a676k0bkldhd","address":"444 S. 5th St.","lat":38.25204673,"state":"KY","long":-85.75940638},"type":"Feature","geometry":{"type":"Point","coordinates":[-85.75940638,38.25204673]}},{"properties":{"name":"MetroSafe","city":"Louisville","zip":40202,"id":"a676k0hbhy4n","address":"410 S. 5th St.","lat":38.25276619,"state":"KY","long":-85.75913527},"type":"Feature","geometry":{"type":"Point","coordinates":[-85.75913527,38.25276619]}},{"properties":{"name":"New Albany-Fire Dept Headquarters","city":"New Albany","zip":47150,"id":"a676k07jsm60","address":"3037 Grant Line Rd","lat":38.32301155,"state":"IN","long":-85.81955845},"type":"Feature","geometry":{"type":"Point","coordinates":[-85.81955845,38.32301155]}},{"properties":{"name":"New Castle Fire Dept","city":"New Castle","zip":40050,"id":"a676k091as55","address":"220 N Property Rd","lat":38.43154429,"state":"KY","long":-85.168184},"type":"Feature","geometry":{"type":"Point","coordinates":[-85.168184,38.43154429]}},{"properties":{"name":"New Castle Police Dept","city":"New Castle","zip":40050,"id":"a676k08ylg1v","address":"37 East Cross St","lat":37.65212385,"state":"KY","long":-85.9152944},"type":"Feature","geometry":{"type":"Point","coordinates":[-85.9152944,37.65212385]}},{"properties":{"name":"Oldham County Board of Education","city":"LaGrange","zip":40031,"id":"a676k0gibloc","address":"1350 N Hwy 393","lat":38.39612019,"state":"KY","long":-85.4429845},"type":"Feature","geometry":{"type":"Point","coordinates":[-85.4429845,38.39612019]}},{"properties":{"name":"Oldham County Courthouse","city":"LaGrange","zip":40031,"id":"a676k0d0o9q7","address":"100 W. Main St","lat":38.40745994,"state":"KY","long":-85.37926228},"type":"Feature","geometry":{"type":"Point","coordinates":[-85.37926228,38.40745994]}},{"properties":{"name":"Oldham County Fiscal Court","city":"LaGrange","zip":40031,"id":"a676k0b28w1z","address":"100 W. Jefferson St","lat":38.40837803,"state":"KY","long":-85.37949199},"type":"Feature","geometry":{"type":"Point","coordinates":[-85.37949199,38.40837803]}},{"properties":{"name":"Oldham County Health-Medical &amp; Environmental","city":"LaGrange","zip":40031,"id":"a676k0e1s54f","address":"700 W Jefferson St","lat":38.40322221,"state":"KY","long":-85.39080858},"type":"Feature","geometry":{"type":"Point","coordinates":[-85.39080858,38.40322221]}},{"properties":{"name":"Oldham County Police Department","city":"LaGrange","zip":40031,"id":"a676k0hi8kkd","address":"1855 N Hwy 393","lat":38.40886517,"state":"KY","long":-85.4577097},"type":"Feature","geometry":{"type":"Point","coordinates":[-85.4577097,38.40886517]}},{"properties":{"name":"Pritchard Community Center","city":"Elizabethtown","zip":42701,"id":"a676k0lfy0fw","address":"404 S Mulberry","lat":37.6897381,"state":"KY","long":-85.86516914},"type":"Feature","geometry":{"type":"Point","coordinates":[-85.86516914,37.6897381]}},{"properties":{"name":"Salt River Electrical Coop Corp/Bullitt Cnty","city":"Shephersdville","zip":40165,"id":"a676k08zhv00","address":"6260 HWY 44 E","lat":38.02508086,"state":"KY","long":-85.61908292},"type":"Feature","geometry":{"type":"Point","coordinates":[-85.61908292,38.02508086]}},{"properties":{"name":"Sellersburg-Police Dept","city":"Sellersburg","zip":47172,"id":"a676k0e63exm","address":"123 S Indiana Ave","lat":38.39547848,"state":"IN","long":-85.75809982},"type":"Feature","geometry":{"type":"Point","coordinates":[-85.75809982,38.39547848]}},{"properties":{"name":"Sellersburg-Water &amp; Sewer Dept","city":"Sellersburg","zip":47172,"id":"a676k07hlb3a","address":"316 E Utica","lat":38.39745096,"state":"IN","long":-85.75294466},"type":"Feature","geometry":{"type":"Point","coordinates":[-85.75294466,38.39745096]}},{"properties":{"name":"Shelby County Board of Education","city":"Shelbyville","zip":40065,"id":"a676k0eew8tq","address":"403 Washington St","lat":38.21174682,"state":"KY","long":-85.21445133},"type":"Feature","geometry":{"type":"Point","coordinates":[-85.21445133,38.21174682]}},{"properties":{"name":"Shelby County Department of Health &amp; Environment","city":"Shelbyville","zip":40065,"id":"a676k0bbyz6g","address":"419  Washington St","lat":38.21176222,"state":"KY","long":-85.21467973},"type":"Feature","geometry":{"type":"Point","coordinates":[-85.21467973,38.21176222]}},{"properties":{"name":"Shelbyville Municipal Water &amp; Sewers","city":"Shelbyville","zip":40065,"id":"a676k0ap33th","address":"1059 Washington St","lat":38.21243786,"state":"KY","long":-85.22472719},"type":"Feature","geometry":{"type":"Point","coordinates":[-85.22472719,38.21243786]}},{"properties":{"name":"Shelbyville Police &amp; Fire Department","city":"Shelbyville","zip":40065,"id":"a676k0f5hza3","address":"1040 W. Main St","lat":38.21165124,"state":"KY","long":-85.22480061},"type":"Feature","geometry":{"type":"Point","coordinates":[-85.22480061,38.21165124]}},{"properties":{"name":"Southwest Office- DES","city":"Louisville","zip":40216,"id":"a676k0jcdqtv","address":"3934 Dixie Hwy","lat":38.19410389,"state":"KY","long":-85.80760455},"type":"Feature","geometry":{"type":"Point","coordinates":[-85.80760455,38.19410389]}},{"properties":{"name":"Spencer County Conservation District","city":"Taylorsville","zip":40071,"id":"a676k0k8dmg5","address":"410 Railroad St","lat":38.03231488,"state":"KY","long":-85.34132125},"type":"Feature","geometry":{"type":"Point","coordinates":[-85.34132125,38.03231488]}},{"properties":{"name":"Spencer County Health Dept.","city":"Taylorsville","zip":40071,"id":"a676k0ae2qtg","address":"18 E Main St","lat":38.44801817,"state":"KY","long":-85.65436111},"type":"Feature","geometry":{"type":"Point","coordinates":[-85.65436111,38.44801817]}},{"properties":{"name":"Spencer County Public Schools","city":"Taylorsville","zip":40071,"id":"a676k0d0fmkx","address":"207 W Main St","lat":38.03071781,"state":"KY","long":-85.34808589},"type":"Feature","geometry":{"type":"Point","coordinates":[-85.34808589,38.03071781]}},{"properties":{"name":"Spencer County Rural Health Clinic","city":"Taylorsville","zip":40071,"id":"a676k0h6l2l9","address":"52 Reasor Av","lat":38.03457752,"state":"KY","long":-85.34371217},"type":"Feature","geometry":{"type":"Point","coordinates":[-85.34371217,38.03457752]}},{"properties":{"name":"Town Hall","city":"Sellersburg","zip":47172,"id":"a676k0fxzd25","address":"316 E Utica","lat":38.3974449,"state":"IN","long":-85.75294797},"type":"Feature","geometry":{"type":"Point","coordinates":[-85.75294797,38.3974449]}},{"properties":{"name":"Town of Clarksville","city":"Clarksville","zip":47129,"id":"a676k06jkekx","address":"2000 Broadway St","lat":38.33200414,"state":"IN","long":-85.78442966},"type":"Feature","geometry":{"type":"Point","coordinates":[-85.78442966,38.33200414]}},{"properties":{"name":"Town of Greenvile","city":"Greenville","zip":47124,"id":"a676k0kyhw4v","address":"9706 Clark","lat":38.37572192,"state":"IN","long":-85.9932543},"type":"Feature","geometry":{"type":"Point","coordinates":[-85.9932543,38.37572192]}},{"properties":{"name":"Trimlbe County Health Dept","city":"Bedford","zip":40006,"id":"a676k0kmzfya","address":"138 Miller Ln","lat":37.8023305,"state":"KY","long":-85.9222515},"type":"Feature","geometry":{"type":"Point","coordinates":[-85.9222515,37.8023305]}},{"properties":{"name":"U.S. Rural Economic &amp; Comm Dev.","city":"Shelbyville","zip":40065,"id":"a676k0l6jdph","address":"1900 Midland Tr","lat":38.21226391,"state":"KY","long":-85.25082591},"type":"Feature","geometry":{"type":"Point","coordinates":[-85.25082591,38.21226391]}},{"properties":{"name":"US Dept. of Commerce-Bureau of the Census","city":"Jeffersonville","zip":47130,"id":"a676k06m0npj","address":"1201 E 10th St","lat":38.28649269,"state":"IN","long":-85.73249379},"type":"Feature","geometry":{"type":"Point","coordinates":[-85.73249379,38.28649269]}},{"properties":{"name":"Whitney M  Young Job Corps Center","city":"Simpsonville","zip":40067,"id":"a676k05dh7v4","address":"8460 Shelbyville Rd","lat":38.20363619,"state":"KY","long":-85.15200332},"type":"Feature","geometry":{"type":"Point","coordinates":[-85.15200332,38.20363619]}}],"is_temporal":false,"author":{"url":"","metadata":"","contact_name":"","contact_address":"","source":"City of Louisville","contact_phone":""},"source":"","pagination":{"sort":null,"start":0,"total":144,"limit":1000000},"state":"complete","tags":"city,louisville","published":"2008-08-13T12:00:00Z","id":3943}