{"type":"FeatureCollection","data_type":"Dataset","url_type":null,"permissions":[{"permissions":{"download":true,"view":true},"group_id":"everyone"}],"classification":null,"title":"Techs","count":259,"stream_id":394406,"contributor":{"url":"http://geocommons.com/users/69395","name":"missedjobs"},"data_attributes":null,"calculation_params":null,"icon_link":null,"link":"http://geocommons.com/overlays/394406.json","extent":[-168.022,24.8598,-70.962,47.7756],"geometry_types":["point"],"unique_name":null,"name":"Techs","feature_count":259,"description":"","next_feature":null,"is_raster":false,"short_classification":"Y","stats":{},"features":[{"properties":{"zipcode":"44303","geo_score":0.714,"id":"ah7679zdpgbt","geo_precision":"zip"},"type":"Feature","geometry":{"type":"Point","coordinates":[-81.535089,41.104355]}},{"properties":{"zipcode":"33165","geo_score":0.714,"id":"ah7679zrq0xk","geo_precision":"zip"},"type":"Feature","geometry":{"type":"Point","coordinates":[-80.372831,25.729268]}},{"properties":{"zipcode":"55443","geo_score":0.714,"id":"ah7679wc8ogs","geo_precision":"zip"},"type":"Feature","geometry":{"type":"Point","coordinates":[-93.356341,45.094132]}},{"properties":{"zipcode":"60457","geo_score":0.714,"id":"ah767a2z3sm3","geo_precision":"zip"},"type":"Feature","geometry":{"type":"Point","coordinates":[-87.68732,41.811929]}},{"properties":{"zipcode":"66044","geo_score":0.714,"id":"ah767a4j5z1e","geo_precision":"zip"},"type":"Feature","geometry":{"type":"Point","coordinates":[-95.390531,38.91167]}},{"properties":{"zipcode":"33126","geo_score":0.714,"id":"ah767a1o9pue","geo_precision":"zip"},"type":"Feature","geometry":{"type":"Point","coordinates":[-80.294302,25.786724]}},{"properties":{"zipcode":"02169","geo_score":0.714,"id":"ah7679qq1rtn","geo_precision":"zip"},"type":"Feature","geometry":{"type":"Point","coordinates":[-70.961992,42.262322]}},{"properties":{"zipcode":"50021","geo_score":0.714,"id":"ah7679xcnn17","geo_precision":"zip"},"type":"Feature","geometry":{"type":"Point","coordinates":[-93.601467,41.756321]}},{"properties":{"zipcode":"43204","geo_score":0.714,"id":"ah7679rxnust","geo_precision":"zip"},"type":"Feature","geometry":{"type":"Point","coordinates":[-83.086576,39.994508]}},{"properties":{"zipcode":"78238","geo_score":0.714,"id":"ah7679qss3r2","geo_precision":"zip"},"type":"Feature","geometry":{"type":"Point","coordinates":[-98.618632,29.495231]}},{"properties":{"zipcode":"37013","geo_score":0.714,"id":"ah7679so4gf8","geo_precision":"zip"},"type":"Feature","geometry":{"type":"Point","coordinates":[-86.645598,36.036032]}},{"properties":{"zipcode":"11553","geo_score":0.714,"id":"ah7679ysawaw","geo_precision":"zip"},"type":"Feature","geometry":{"type":"Point","coordinates":[-73.591421,40.705868]}},{"properties":{"zipcode":"43076","geo_score":0.714,"id":"ah7679yf7szr","geo_precision":"zip"},"type":"Feature","geometry":{"type":"Point","coordinates":[-82.475156,39.915898]}},{"properties":{"zipcode":"76137","geo_score":0.714,"id":"ah767a02snhy","geo_precision":"zip"},"type":"Feature","geometry":{"type":"Point","coordinates":[-97.288144,32.853199]}},{"properties":{"zipcode":"64108","geo_score":0.714,"id":"ah7679wenp2o","geo_precision":"zip"},"type":"Feature","geometry":{"type":"Point","coordinates":[-94.584133,39.083804]}},{"properties":{"zipcode":"71111","geo_score":0.714,"id":"ah7679sv9cy4","geo_precision":"zip"},"type":"Feature","geometry":{"type":"Point","coordinates":[-93.586698,32.516708]}},{"properties":{"zipcode":"61802","geo_score":0.714,"id":"ah7679zmytas","geo_precision":"zip"},"type":"Feature","geometry":{"type":"Point","coordinates":[-88.169093,40.074573]}},{"properties":{"zipcode":"30238","geo_score":0.714,"id":"ah7679x1mnj2","geo_precision":"zip"},"type":"Feature","geometry":{"type":"Point","coordinates":[-84.379724,33.494387]}},{"properties":{"zipcode":"77034","geo_score":0.714,"id":"ah767a5nbj9w","geo_precision":"zip"},"type":"Feature","geometry":{"type":"Point","coordinates":[-95.197354,29.61903]}},{"properties":{"zipcode":"32707","geo_score":0.714,"id":"ah7679xpbxdn","geo_precision":"zip"},"type":"Feature","geometry":{"type":"Point","coordinates":[-81.313989,28.661468]}},{"properties":{"zipcode":"43952","geo_score":0.714,"id":"ah7679qgn909","geo_precision":"zip"},"type":"Feature","geometry":{"type":"Point","coordinates":[-80.692022,40.383679]}},{"properties":{"zipcode":"52404","geo_score":0.714,"id":"ah767a43ghhm","geo_precision":"zip"},"type":"Feature","geometry":{"type":"Point","coordinates":[-91.704467,41.919542]}},{"properties":{"zipcode":"35802","geo_score":0.714,"id":"ah767a1dmc1r","geo_precision":"zip"},"type":"Feature","geometry":{"type":"Point","coordinates":[-86.536935,34.656758]}},{"properties":{"zipcode":"39206","geo_score":0.714,"id":"ah767a2gu1b4","geo_precision":"zip"},"type":"Feature","geometry":{"type":"Point","coordinates":[-90.248978,32.402921]}},{"properties":{"zipcode":"32210","geo_score":0.714,"id":"ah7679xr703i","geo_precision":"zip"},"type":"Feature","geometry":{"type":"Point","coordinates":[-81.770099,30.245795]}},{"properties":{"zipcode":"66048","geo_score":0.714,"id":"ah767a4l5por","geo_precision":"zip"},"type":"Feature","geometry":{"type":"Point","coordinates":[-94.971076,39.398887]}},{"properties":{"zipcode":"83854","geo_score":0.714,"id":"ah7679ti37lo","geo_precision":"zip"},"type":"Feature","geometry":{"type":"Point","coordinates":[-117.027979,47.772956]}},{"properties":{"zipcode":"59102","geo_score":0.714,"id":"ah7679usowq7","geo_precision":"zip"},"type":"Feature","geometry":{"type":"Point","coordinates":[-108.588144,45.790379]}},{"properties":{"zipcode":"90631","geo_score":0.714,"id":"ah7679t5tqs9","geo_precision":"zip"},"type":"Feature","geometry":{"type":"Point","coordinates":[-117.950619,33.960846]}},{"properties":{"zipcode":"33313","geo_score":0.714,"id":"ah7679smlwbg","geo_precision":"zip"},"type":"Feature","geometry":{"type":"Point","coordinates":[-80.208381,26.166474]}},{"properties":{"zipcode":"19808","geo_score":0.714,"id":"ah767a03pvkd","geo_precision":"zip"},"type":"Feature","geometry":{"type":"Point","coordinates":[-75.630206,39.743168]}},{"properties":{"zipcode":"28273","geo_score":0.714,"id":"ah767a4ycecx","geo_precision":"zip"},"type":"Feature","geometry":{"type":"Point","coordinates":[-80.933793,35.128678]}},{"properties":{"zipcode":"49508","geo_score":0.714,"id":"ah7679qru9mu","geo_precision":"zip"},"type":"Feature","geometry":{"type":"Point","coordinates":[-85.683361,42.826418]}},{"properties":{"zipcode":"33409","geo_score":0.714,"id":"ah7679rbtsy4","geo_precision":"zip"},"type":"Feature","geometry":{"type":"Point","coordinates":[-80.430269,26.645895]}},{"properties":{"zipcode":"13215","geo_score":0.714,"id":"ah7679unzmuh","geo_precision":"zip"},"type":"Feature","geometry":{"type":"Point","coordinates":[-76.249372,42.9659]}},{"properties":{"zipcode":"31206","geo_score":0.714,"id":"ah7679tpax6o","geo_precision":"zip"},"type":"Feature","geometry":{"type":"Point","coordinates":[-83.653239,32.724309]}},{"properties":{"zipcode":"83709","geo_score":0.714,"id":"ah7679s5qnlm","geo_precision":"zip"},"type":"Feature","geometry":{"type":"Point","coordinates":[-116.276002,43.558127]}},{"properties":{"zipcode":"76002","geo_score":0.714,"id":"ah767a61i69b","geo_precision":"zip"},"type":"Feature","geometry":{"type":"Point","coordinates":[-97.291484,32.771419]}},{"properties":{"zipcode":"44095","geo_score":0.714,"id":"ah767a2a9af2","geo_precision":"zip"},"type":"Feature","geometry":{"type":"Point","coordinates":[-81.454281,41.659491]}},{"properties":{"zipcode":"74112","geo_score":0.714,"id":"ah767a4pghk3","geo_precision":"zip"},"type":"Feature","geometry":{"type":"Point","coordinates":[-95.90447,36.146741]}},{"properties":{"zipcode":"91307","geo_score":0.714,"id":"ah7679yoey9g","geo_precision":"zip"},"type":"Feature","geometry":{"type":"Point","coordinates":[-118.298662,33.786594]}},{"properties":{"zipcode":"98155","geo_score":0.714,"id":"ah7679rqdl5e","geo_precision":"zip"},"type":"Feature","geometry":{"type":"Point","coordinates":[-122.28096,47.756764]}},{"properties":{"zipcode":"02446","geo_score":0.714,"id":"ah7679yc2rq3","geo_precision":"zip"},"type":"Feature","geometry":{"type":"Point","coordinates":[-71.123046,42.343097]}},{"properties":{"zipcode":"33461","geo_score":0.714,"id":"ah767a4ycfgj","geo_precision":"zip"},"type":"Feature","geometry":{"type":"Point","coordinates":[-80.096154,26.635901]}},{"properties":{"zipcode":"34221","geo_score":0.714,"id":"ah767a0b4hvu","geo_precision":"zip"},"type":"Feature","geometry":{"type":"Point","coordinates":[-82.552597,27.578925]}},{"properties":{"zipcode":"80516","geo_score":0.714,"id":"ah7679rf1qsz","geo_precision":"zip"},"type":"Feature","geometry":{"type":"Point","coordinates":[-104.923481,40.062204]}},{"properties":{"zipcode":"28303","geo_score":0.714,"id":"ah7679wtc7w6","geo_precision":"zip"},"type":"Feature","geometry":{"type":"Point","coordinates":[-78.955583,35.095163]}},{"properties":{"zipcode":"31406","geo_score":0.714,"id":"ah7679s62syj","geo_precision":"zip"},"type":"Feature","geometry":{"type":"Point","coordinates":[-81.132333,31.976601]}},{"properties":{"zipcode":"33764","geo_score":0.714,"id":"ah7679zoihk5","geo_precision":"zip"},"type":"Feature","geometry":{"type":"Point","coordinates":[-82.734299,27.916038]}},{"properties":{"zipcode":"85085","geo_score":0.714,"id":"ah7679rs2roc","geo_precision":"zip"},"type":"Feature","geometry":{"type":"Point","coordinates":[-112.18717,33.276539]}},{"properties":{"zipcode":"28262","geo_score":0.714,"id":"ah7679ybajkt","geo_precision":"zip"},"type":"Feature","geometry":{"type":"Point","coordinates":[-80.747559,35.318311]}},{"properties":{"zipcode":"08068","geo_score":0.714,"id":"ah767a2s1syt","geo_precision":"zip"},"type":"Feature","geometry":{"type":"Point","coordinates":[-74.716549,39.968724]}},{"properties":{"zipcode":"20744","geo_score":0.714,"id":"ah767a5kap8b","geo_precision":"zip"},"type":"Feature","geometry":{"type":"Point","coordinates":[-77.009698,38.724004]}},{"properties":{"zipcode":"13090","geo_score":0.714,"id":"ah7679tbro14","geo_precision":"zip"},"type":"Feature","geometry":{"type":"Point","coordinates":[-76.223459,43.152767]}},{"properties":{"zipcode":"97202","geo_score":0.714,"id":"ah767a2eukve","geo_precision":"zip"},"type":"Feature","geometry":{"type":"Point","coordinates":[-122.637331,45.48169]}},{"properties":{"zipcode":"14216","geo_score":0.714,"id":"ah767a4g6j31","geo_precision":"zip"},"type":"Feature","geometry":{"type":"Point","coordinates":[-78.860407,42.946407]}},{"properties":{"zipcode":"76710","geo_score":0.714,"id":"ah767a0xttwx","geo_precision":"zip"},"type":"Feature","geometry":{"type":"Point","coordinates":[-97.186682,31.51156]}},{"properties":{"zipcode":"33542","geo_score":0.714,"id":"ah7679sqtbg0","geo_precision":"zip"},"type":"Feature","geometry":{"type":"Point","coordinates":[-82.176294,28.236744]}},{"properties":{"zipcode":"27360","geo_score":0.714,"id":"ah7679vrefhr","geo_precision":"zip"},"type":"Feature","geometry":{"type":"Point","coordinates":[-80.124764,35.854539]}},{"properties":{"zipcode":"34471","geo_score":0.714,"id":"ah767a0k71sm","geo_precision":"zip"},"type":"Feature","geometry":{"type":"Point","coordinates":[-81.942516,29.160525]}},{"properties":{"zipcode":"32712","geo_score":0.714,"id":"ah7679qz8v7n","geo_precision":"zip"},"type":"Feature","geometry":{"type":"Point","coordinates":[-81.537602,28.731322]}},{"properties":{"zipcode":"44430","geo_score":0.714,"id":"ah7679vvn0rc","geo_precision":"zip"},"type":"Feature","geometry":{"type":"Point","coordinates":[-80.886138,41.24112]}},{"properties":{"zipcode":"94805","geo_score":0.714,"id":"ah767a4rhtuk","geo_precision":"zip"},"type":"Feature","geometry":{"type":"Point","coordinates":[-122.30093,37.929123]}},{"properties":{"zipcode":"47150","geo_score":0.714,"id":"ah7679x1914n","geo_precision":"zip"},"type":"Feature","geometry":{"type":"Point","coordinates":[-85.837911,38.293355]}},{"properties":{"zipcode":"68137","geo_score":0.714,"id":"ah7679syvifp","geo_precision":"zip"},"type":"Feature","geometry":{"type":"Point","coordinates":[-96.114696,41.207498]}},{"properties":{"zipcode":"85212","geo_score":0.714,"id":"ah7679u6og62","geo_precision":"zip"},"type":"Feature","geometry":{"type":"Point","coordinates":[-111.635307,33.342476]}},{"properties":{"zipcode":"45207","geo_score":0.714,"id":"ah767a4hnsnw","geo_precision":"zip"},"type":"Feature","geometry":{"type":"Point","coordinates":[-84.468842,39.14311]}},{"properties":{"zipcode":"30622","geo_score":0.714,"id":"ah767a373ju1","geo_precision":"zip"},"type":"Feature","geometry":{"type":"Point","coordinates":[-83.518452,33.901988]}},{"properties":{"zipcode":"95661","geo_score":0.714,"id":"ah7679zgmeh4","geo_precision":"zip"},"type":"Feature","geometry":{"type":"Point","coordinates":[-121.25603,38.74073]}},{"properties":{"zipcode":"46228","geo_score":0.714,"id":"ah7679sq641m","geo_precision":"zip"},"type":"Feature","geometry":{"type":"Point","coordinates":[-86.195081,39.846191]}},{"properties":{"zipcode":"98023","geo_score":0.714,"id":"ah7679z08wel","geo_precision":"zip"},"type":"Feature","geometry":{"type":"Point","coordinates":[-122.240337,47.775627]}},{"properties":{"zipcode":"83709","geo_score":0.714,"id":"ah767a2r8u6a","geo_precision":"zip"},"type":"Feature","geometry":{"type":"Point","coordinates":[-116.276002,43.558127]}},{"properties":{"zipcode":"21040","geo_score":0.714,"id":"ah767a1stnps","geo_precision":"zip"},"type":"Feature","geometry":{"type":"Point","coordinates":[-76.308013,39.448164]}},{"properties":{"zipcode":"53189","geo_score":0.714,"id":"ah7679x81zvk","geo_precision":"zip"},"type":"Feature","geometry":{"type":"Point","coordinates":[-88.296321,42.95163]}},{"properties":{"zipcode":"33411","geo_score":0.714,"id":"ah767a6ce1b3","geo_precision":"zip"},"type":"Feature","geometry":{"type":"Point","coordinates":[-80.230602,26.708398]}},{"properties":{"zipcode":"07026","geo_score":0.714,"id":"ah7679tulmux","geo_precision":"zip"},"type":"Feature","geometry":{"type":"Point","coordinates":[-74.110336,40.884648]}},{"properties":{"zipcode":"37013","geo_score":0.714,"id":"ah767a60p6as","geo_precision":"zip"},"type":"Feature","geometry":{"type":"Point","coordinates":[-86.645598,36.036032]}},{"properties":{"zipcode":"94533","geo_score":0.714,"id":"ah7679uovldk","geo_precision":"zip"},"type":"Feature","geometry":{"type":"Point","coordinates":[-122.020276,38.278428]}},{"properties":{"zipcode":"96814","geo_score":0.714,"id":"ah767a4tektj","geo_precision":"zip"},"type":"Feature","geometry":{"type":"Point","coordinates":[-168.021815,24.859832]}},{"properties":{"zipcode":"92626","geo_score":0.714,"id":"ah767a3xv007","geo_precision":"zip"},"type":"Feature","geometry":{"type":"Point","coordinates":[-117.778398,33.6829]}},{"properties":{"zipcode":"37931","geo_score":0.714,"id":"ah7679yse311","geo_precision":"zip"},"type":"Feature","geometry":{"type":"Point","coordinates":[-84.125653,35.976167]}},{"properties":{"zipcode":"37130","geo_score":0.714,"id":"ah7679xtk7uj","geo_precision":"zip"},"type":"Feature","geometry":{"type":"Point","coordinates":[-86.521382,35.90312]}},{"properties":{"zipcode":"40206","geo_score":0.714,"id":"ah7679wfyndn","geo_precision":"zip"},"type":"Feature","geometry":{"type":"Point","coordinates":[-85.703411,38.25032]}},{"properties":{"zipcode":"90814","geo_score":0.714,"id":"ah7679svtsx6","geo_precision":"zip"},"type":"Feature","geometry":{"type":"Point","coordinates":[-118.142654,33.771301]}},{"properties":{"zipcode":"35216","geo_score":0.714,"id":"ah767a33eiac","geo_precision":"zip"},"type":"Feature","geometry":{"type":"Point","coordinates":[-86.798045,33.394276]}},{"properties":{"zipcode":"98502","geo_score":0.714,"id":"ah7679rftc9p","geo_precision":"zip"},"type":"Feature","geometry":{"type":"Point","coordinates":[-123.055153,47.104269]}},{"properties":{"zipcode":"95407","geo_score":0.714,"id":"ah7679xtrujp","geo_precision":"zip"},"type":"Feature","geometry":{"type":"Point","coordinates":[-122.741849,38.389113]}},{"properties":{"zipcode":"70128","geo_score":0.714,"id":"ah767a42uwd3","geo_precision":"zip"},"type":"Feature","geometry":{"type":"Point","coordinates":[-89.958519,30.048653]}},{"properties":{"zipcode":"40502","geo_score":0.714,"id":"ah767a1b6a3y","geo_precision":"zip"},"type":"Feature","geometry":{"type":"Point","coordinates":[-84.437714,37.872579]}},{"properties":{"zipcode":"06082","geo_score":0.714,"id":"ah7679wtd2xh","geo_precision":"zip"},"type":"Feature","geometry":{"type":"Point","coordinates":[-72.571477,41.962597]}},{"properties":{"zipcode":"77530","geo_score":0.714,"id":"ah7679qv4xfd","geo_precision":"zip"},"type":"Feature","geometry":{"type":"Point","coordinates":[-95.434241,29.83399]}},{"properties":{"zipcode":"27292","geo_score":0.714,"id":"ah7679w5qjnx","geo_precision":"zip"},"type":"Feature","geometry":{"type":"Point","coordinates":[-80.108657,35.755692]}},{"properties":{"zipcode":"06770","geo_score":0.714,"id":"ah7679r37n0y","geo_precision":"zip"},"type":"Feature","geometry":{"type":"Point","coordinates":[-73.033163,41.469819]}},{"properties":{"zipcode":"77346","geo_score":0.714,"id":"ah7679wtqlv8","geo_precision":"zip"},"type":"Feature","geometry":{"type":"Point","coordinates":[-95.176598,29.998831]}},{"properties":{"zipcode":"37660","geo_score":0.714,"id":"ah767a1mz1ee","geo_precision":"zip"},"type":"Feature","geometry":{"type":"Point","coordinates":[-82.53404,36.572879]}},{"properties":{"zipcode":"67037","geo_score":0.714,"id":"ah7679sn64tf","geo_precision":"zip"},"type":"Feature","geometry":{"type":"Point","coordinates":[-97.228475,37.566129]}},{"properties":{"zipcode":"79938","geo_score":0.714,"id":"ah7679w2hapj","geo_precision":"zip"},"type":"Feature","geometry":{"type":"Point","coordinates":[-106.3044,31.849828]}},{"properties":{"zipcode":"77096","geo_score":0.714,"id":"ah7679ssljyz","geo_precision":"zip"},"type":"Feature","geometry":{"type":"Point","coordinates":[-95.434241,29.83399]}},{"properties":{"zipcode":"94121","geo_score":0.714,"id":"ah767a4ljjy2","geo_precision":"zip"},"type":"Feature","geometry":{"type":"Point","coordinates":[-122.491682,37.777129]}},{"properties":{"zipcode":"93611","geo_score":0.714,"id":"ah7679sijru6","geo_precision":"zip"},"type":"Feature","geometry":{"type":"Point","coordinates":[-119.592146,36.832583]}},{"properties":{"zipcode":"95356","geo_score":0.714,"id":"ah7679x06yvz","geo_precision":"zip"},"type":"Feature","geometry":{"type":"Point","coordinates":[-121.035846,37.722878]}},{"properties":{"zipcode":"34109","geo_score":0.714,"id":"ah767a2vz0za","geo_precision":"zip"},"type":"Feature","geometry":{"type":"Point","coordinates":[-81.764364,26.253416]}},{"properties":{"zipcode":"77657","geo_score":0.714,"id":"ah767a2kyq91","geo_precision":"zip"},"type":"Feature","geometry":{"type":"Point","coordinates":[-94.219122,30.281836]}},{"properties":{"zipcode":"60643","geo_score":0.714,"id":"ah7679vx8px9","geo_precision":"zip"},"type":"Feature","geometry":{"type":"Point","coordinates":[-87.660604,41.662812]}},{"properties":{"zipcode":"67211","geo_score":0.714,"id":"ah7679uzebjl","geo_precision":"zip"},"type":"Feature","geometry":{"type":"Point","coordinates":[-97.312573,37.661]}},{"properties":{"zipcode":"02859","geo_score":0.714,"id":"ah7679rlsa70","geo_precision":"zip"},"type":"Feature","geometry":{"type":"Point","coordinates":[-71.723316,41.96415]}},{"properties":{"zipcode":"90069","geo_score":0.714,"id":"ah7679xee6kx","geo_precision":"zip"},"type":"Feature","geometry":{"type":"Point","coordinates":[-118.298662,33.786594]}},{"properties":{"zipcode":"32218","geo_score":0.714,"id":"ah767a3991ux","geo_precision":"zip"},"type":"Feature","geometry":{"type":"Point","coordinates":[-81.698988,30.440794]}},{"properties":{"zipcode":"98117","geo_score":0.714,"id":"ah767a0t28io","geo_precision":"zip"},"type":"Feature","geometry":{"type":"Point","coordinates":[-121.803388,47.432251]}},{"properties":{"zipcode":"10314","geo_score":0.714,"id":"ah767a6a3ih6","geo_precision":"zip"},"type":"Feature","geometry":{"type":"Point","coordinates":[-74.122365,40.61316]}},{"properties":{"zipcode":"73160","geo_score":0.714,"id":"ah767a179rj2","geo_precision":"zip"},"type":"Feature","geometry":{"type":"Point","coordinates":[-97.486703,35.339508]}},{"properties":{"zipcode":"93308","geo_score":0.714,"id":"ah767a266cxi","geo_precision":"zip"},"type":"Feature","geometry":{"type":"Point","coordinates":[-118.892932,35.567657]}},{"properties":{"zipcode":"48722","geo_score":0.714,"id":"ah7679z9mkee","geo_precision":"zip"},"type":"Feature","geometry":{"type":"Point","coordinates":[-83.832323,43.343016]}},{"properties":{"zipcode":"79705","geo_score":0.714,"id":"ah767a2ca02k","geo_precision":"zip"},"type":"Feature","geometry":{"type":"Point","coordinates":[-101.895688,32.027625]}},{"properties":{"zipcode":"87121","geo_score":0.714,"id":"ah7679svpkaf","geo_precision":"zip"},"type":"Feature","geometry":{"type":"Point","coordinates":[-106.805535,35.059663]}},{"properties":{"zipcode":"02908","geo_score":0.714,"id":"ah7679qmwogn","geo_precision":"zip"},"type":"Feature","geometry":{"type":"Point","coordinates":[-71.4399,41.837399]}},{"properties":{"zipcode":"23502","geo_score":0.714,"id":"ah767a6q9q36","geo_precision":"zip"},"type":"Feature","geometry":{"type":"Point","coordinates":[-76.212909,36.887433]}},{"properties":{"zipcode":"87109","geo_score":0.714,"id":"ah7679z50c4x","geo_precision":"zip"},"type":"Feature","geometry":{"type":"Point","coordinates":[-106.58678,35.127194]}},{"properties":{"zipcode":"28601","geo_score":0.714,"id":"ah7679u4tzc1","geo_precision":"zip"},"type":"Feature","geometry":{"type":"Point","coordinates":[-81.323697,35.778188]}},{"properties":{"zipcode":"28590","geo_score":0.714,"id":"ah7679wilvrj","geo_precision":"zip"},"type":"Feature","geometry":{"type":"Point","coordinates":[-77.35413,35.491552]}},{"properties":{"zipcode":"33967","geo_score":0.714,"id":"ah767a0qe4va","geo_precision":"zip"},"type":"Feature","geometry":{"type":"Point","coordinates":[-82.045366,26.929784]}},{"properties":{"zipcode":"35005","geo_score":0.714,"id":"ah7679sd2o7w","geo_precision":"zip"},"type":"Feature","geometry":{"type":"Point","coordinates":[-87.003329,33.593162]}},{"properties":{"zipcode":"49423","geo_score":0.714,"id":"ah767a39gfrq","geo_precision":"zip"},"type":"Feature","geometry":{"type":"Point","coordinates":[-86.125875,42.796968]}},{"properties":{"zipcode":"63044","geo_score":0.714,"id":"ah7679tse9ks","geo_precision":"zip"},"type":"Feature","geometry":{"type":"Point","coordinates":[-90.411542,38.7514]}},{"properties":{"zipcode":"90018","geo_score":0.714,"id":"ah767a3wi3t3","geo_precision":"zip"},"type":"Feature","geometry":{"type":"Point","coordinates":[-118.298662,33.786594]}},{"properties":{"zipcode":"95965","geo_score":0.714,"id":"ah7679qo99pu","geo_precision":"zip"},"type":"Feature","geometry":{"type":"Point","coordinates":[-121.58212,39.578352]}},{"properties":{"zipcode":"85048","geo_score":0.714,"id":"ah767a366rv3","geo_precision":"zip"},"type":"Feature","geometry":{"type":"Point","coordinates":[-112.066901,33.316039]}},{"properties":{"zipcode":"80915","geo_score":0.714,"id":"ah7679sc0xzc","geo_precision":"zip"},"type":"Feature","geometry":{"type":"Point","coordinates":[-104.751515,38.874436]}},{"properties":{"zipcode":"98409","geo_score":0.714,"id":"ah7679qzhw3m","geo_precision":"zip"},"type":"Feature","geometry":{"type":"Point","coordinates":[-122.321095,47.205777]}},{"properties":{"zipcode":"15208","geo_score":0.714,"id":"ah7679s2ofod","geo_precision":"zip"},"type":"Feature","geometry":{"type":"Point","coordinates":[-79.907829,40.451458]}},{"properties":{"zipcode":"92503","geo_score":0.714,"id":"ah767a083qmn","geo_precision":"zip"},"type":"Feature","geometry":{"type":"Point","coordinates":[-116.055617,33.752886]}},{"properties":{"zipcode":"48843","geo_score":0.714,"id":"ah7679tvr3ie","geo_precision":"zip"},"type":"Feature","geometry":{"type":"Point","coordinates":[-83.861613,42.526978]}},{"properties":{"zipcode":"53590","geo_score":0.714,"id":"ah7679s4nlb4","geo_precision":"zip"},"type":"Feature","geometry":{"type":"Point","coordinates":[-89.212336,43.266658]}},{"properties":{"zipcode":"27513","geo_score":0.714,"id":"ah7679za5kmf","geo_precision":"zip"},"type":"Feature","geometry":{"type":"Point","coordinates":[-78.816564,35.801341]}},{"properties":{"zipcode":"19116","geo_score":0.714,"id":"ah7679xa9cb4","geo_precision":"zip"},"type":"Feature","geometry":{"type":"Point","coordinates":[-75.014892,40.123443]}},{"properties":{"zipcode":"85704","geo_score":0.714,"id":"ah7679rl63l4","geo_precision":"zip"},"type":"Feature","geometry":{"type":"Point","coordinates":[-111.025654,32.35313]}},{"properties":{"zipcode":"32757","geo_score":0.714,"id":"ah767a4br5kl","geo_precision":"zip"},"type":"Feature","geometry":{"type":"Point","coordinates":[-81.34566,27.317754]}},{"properties":{"zipcode":"32211","geo_score":0.714,"id":"ah767a4dinxw","geo_precision":"zip"},"type":"Feature","geometry":{"type":"Point","coordinates":[-81.578981,30.318018]}},{"properties":{"zipcode":"60189","geo_score":0.714,"id":"ah767a06fkg4","geo_precision":"zip"},"type":"Feature","geometry":{"type":"Point","coordinates":[-88.088716,41.839679]}},{"properties":{"zipcode":"12189","geo_score":0.714,"id":"ah7679vpl8hd","geo_precision":"zip"},"type":"Feature","geometry":{"type":"Point","coordinates":[-73.720318,42.736277]}},{"properties":{"zipcode":"23453","geo_score":0.714,"id":"ah767a4rpuzt","geo_precision":"zip"},"type":"Feature","geometry":{"type":"Point","coordinates":[-76.076408,36.786299]}},{"properties":{"zipcode":"33015","geo_score":0.714,"id":"ah7679qiphya","geo_precision":"zip"},"type":"Feature","geometry":{"type":"Point","coordinates":[-80.317681,25.941296]}},{"properties":{"zipcode":"89183","geo_score":0.714,"id":"ah7679sr0osi","geo_precision":"zip"},"type":"Feature","geometry":{"type":"Point","coordinates":[-115.137223,36.174971]}},{"properties":{"zipcode":"75252","geo_score":0.714,"id":"ah767a1lye2p","geo_precision":"zip"},"type":"Feature","geometry":{"type":"Point","coordinates":[-96.768049,32.986259]}},{"properties":{"zipcode":"32937","geo_score":0.714,"id":"ah767a5ef8o9","geo_precision":"zip"},"type":"Feature","geometry":{"type":"Point","coordinates":[-80.595607,28.198623]}},{"properties":{"zipcode":"45224","geo_score":0.714,"id":"ah7679zteb5h","geo_precision":"zip"},"type":"Feature","geometry":{"type":"Point","coordinates":[-84.524666,39.203669]}},{"properties":{"zipcode":"75228","geo_score":0.714,"id":"ah767a4z6y6r","geo_precision":"zip"},"type":"Feature","geometry":{"type":"Point","coordinates":[-96.682075,32.832277]}},{"properties":{"zipcode":"84094","geo_score":0.714,"id":"ah7679qv6gbe","geo_precision":"zip"},"type":"Feature","geometry":{"type":"Point","coordinates":[-111.858617,40.569893]}},{"properties":{"zipcode":"38058","geo_score":0.714,"id":"ah7679zv3di2","geo_precision":"zip"},"type":"Feature","geometry":{"type":"Point","coordinates":[-89.542576,35.585913]}},{"properties":{"zipcode":"92026","geo_score":0.714,"id":"ah767a35o25f","geo_precision":"zip"},"type":"Feature","geometry":{"type":"Point","coordinates":[-116.846046,33.016928]}},{"properties":{"zipcode":"08232","geo_score":0.714,"id":"ah7679th22c5","geo_precision":"zip"},"type":"Feature","geometry":{"type":"Point","coordinates":[-74.640714,39.450394]}},{"properties":{"zipcode":"33771","geo_score":0.714,"id":"ah7679r7fa88","geo_precision":"zip"},"type":"Feature","geometry":{"type":"Point","coordinates":[-82.756823,27.908479]}},{"properties":{"zipcode":"72210","geo_score":0.714,"id":"ah767a49dqgt","geo_precision":"zip"},"type":"Feature","geometry":{"type":"Point","coordinates":[-92.478032,34.723533]}},{"properties":{"zipcode":"08081","geo_score":0.714,"id":"ah767a6d3gbu","geo_precision":"zip"},"type":"Feature","geometry":{"type":"Point","coordinates":[-74.942666,39.693171]}},{"properties":{"zipcode":"63119","geo_score":0.714,"id":"ah767a3k0dnc","geo_precision":"zip"},"type":"Feature","geometry":{"type":"Point","coordinates":[-90.348116,38.589302]}},{"properties":{"zipcode":"84405","geo_score":0.714,"id":"ah7679yd0zmx","geo_precision":"zip"},"type":"Feature","geometry":{"type":"Point","coordinates":[-111.976608,41.172722]}},{"properties":{"zipcode":"43551","geo_score":0.714,"id":"ah767a4z0mkf","geo_precision":"zip"},"type":"Feature","geometry":{"type":"Point","coordinates":[-83.577701,41.535057]}},{"properties":{"zipcode":"07106","geo_score":0.714,"id":"ah7679s11kcp","geo_precision":"zip"},"type":"Feature","geometry":{"type":"Point","coordinates":[-74.23114,40.74245]}},{"properties":{"zipcode":"19146","geo_score":0.714,"id":"ah767a3pu0v8","geo_precision":"zip"},"type":"Feature","geometry":{"type":"Point","coordinates":[-75.175822,39.945112]}},{"properties":{"zipcode":"93442","geo_score":0.714,"id":"ah767a18wb4p","geo_precision":"zip"},"type":"Feature","geometry":{"type":"Point","coordinates":[-120.793742,35.402295]}},{"properties":{"zipcode":"63141","geo_score":0.714,"id":"ah7679s28ynr","geo_precision":"zip"},"type":"Feature","geometry":{"type":"Point","coordinates":[-90.422618,38.660886]}},{"properties":{"zipcode":"32210","geo_score":0.714,"id":"ah7679wmjy7v","geo_precision":"zip"},"type":"Feature","geometry":{"type":"Point","coordinates":[-81.770099,30.245795]}},{"properties":{"zipcode":"45342","geo_score":0.714,"id":"ah7679vawm57","geo_precision":"zip"},"type":"Feature","geometry":{"type":"Point","coordinates":[-84.27464,39.641658]}},{"properties":{"zipcode":"27534","geo_score":0.714,"id":"ah7679zs3ja2","geo_precision":"zip"},"type":"Feature","geometry":{"type":"Point","coordinates":[-78.03207,35.385571]}},{"properties":{"zipcode":"23831","geo_score":0.714,"id":"ah7679qnpbps","geo_precision":"zip"},"type":"Feature","geometry":{"type":"Point","coordinates":[-77.311923,37.318482]}},{"properties":{"zipcode":"21045","geo_score":0.714,"id":"ah767a320wj7","geo_precision":"zip"},"type":"Feature","geometry":{"type":"Point","coordinates":[-76.843863,39.218718]}},{"properties":{"zipcode":"32757","geo_score":0.714,"id":"ah7679v2mxs4","geo_precision":"zip"},"type":"Feature","geometry":{"type":"Point","coordinates":[-81.34566,27.317754]}},{"properties":{"zipcode":"95658","geo_score":0.714,"id":"ah7679yscdkz","geo_precision":"zip"},"type":"Feature","geometry":{"type":"Point","coordinates":[-120.971166,39.038217]}},{"properties":{"zipcode":"95624","geo_score":0.714,"id":"ah7679tn318e","geo_precision":"zip"},"type":"Feature","geometry":{"type":"Point","coordinates":[-121.463842,38.331579]}},{"properties":{"zipcode":"23322","geo_score":0.714,"id":"ah7679vxdtu2","geo_precision":"zip"},"type":"Feature","geometry":{"type":"Point","coordinates":[-76.197436,36.60654]}},{"properties":{"zipcode":"11204","geo_score":0.714,"id":"ah767a2nbyay","geo_precision":"zip"},"type":"Feature","geometry":{"type":"Point","coordinates":[-73.978472,40.63316]}},{"properties":{"zipcode":"80918","geo_score":0.714,"id":"ah767a3u1ovs","geo_precision":"zip"},"type":"Feature","geometry":{"type":"Point","coordinates":[-104.807998,38.90319]}},{"properties":{"zipcode":"27107","geo_score":0.714,"id":"ah767a6q9qh6","geo_precision":"zip"},"type":"Feature","geometry":{"type":"Point","coordinates":[-80.203937,36.069582]}},{"properties":{"zipcode":"30213","geo_score":0.714,"id":"ah7679yvqj4d","geo_precision":"zip"},"type":"Feature","geometry":{"type":"Point","coordinates":[-84.545485,33.534835]}},{"properties":{"zipcode":"75013","geo_score":0.714,"id":"ah767a64298n","geo_precision":"zip"},"type":"Feature","geometry":{"type":"Point","coordinates":[-96.677328,33.118645]}},{"properties":{"zipcode":"55305","geo_score":0.714,"id":"ah767a3oos56","geo_precision":"zip"},"type":"Feature","geometry":{"type":"Point","coordinates":[-93.43723,44.952763]}},{"properties":{"zipcode":"30033","geo_score":0.714,"id":"ah767a14u3sr","geo_precision":"zip"},"type":"Feature","geometry":{"type":"Point","coordinates":[-84.292979,33.825104]}},{"properties":{"zipcode":"95035","geo_score":0.714,"id":"ah7679smhrmz","geo_precision":"zip"},"type":"Feature","geometry":{"type":"Point","coordinates":[-121.861989,37.436454]}},{"properties":{"zipcode":"46825","geo_score":0.714,"id":"ah7679sue3xm","geo_precision":"zip"},"type":"Feature","geometry":{"type":"Point","coordinates":[-85.104001,41.138003]}},{"properties":{"zipcode":"23601","geo_score":0.714,"id":"ah7679whej5h","geo_precision":"zip"},"type":"Feature","geometry":{"type":"Point","coordinates":[-76.463471,37.058296]}},{"properties":{"zipcode":"35218","geo_score":0.714,"id":"ah7679ss136f","geo_precision":"zip"},"type":"Feature","geometry":{"type":"Point","coordinates":[-86.886103,33.509551]}},{"properties":{"zipcode":"36116","geo_score":0.714,"id":"ah7679sf4upk","geo_precision":"zip"},"type":"Feature","geometry":{"type":"Point","coordinates":[-86.228765,32.285501]}},{"properties":{"zipcode":"61607","geo_score":0.714,"id":"ah767a6bro0z","geo_precision":"zip"},"type":"Feature","geometry":{"type":"Point","coordinates":[-87.968352,41.132143]}},{"properties":{"zipcode":"49112","geo_score":0.714,"id":"ah7679qpjaih","geo_precision":"zip"},"type":"Feature","geometry":{"type":"Point","coordinates":[-85.974724,41.766438]}},{"properties":{"zipcode":"73099","geo_score":0.714,"id":"ah7679tayb7w","geo_precision":"zip"},"type":"Feature","geometry":{"type":"Point","coordinates":[-97.804768,35.580052]}},{"properties":{"zipcode":"33928","geo_score":0.714,"id":"ah767a0uoi2d","geo_precision":"zip"},"type":"Feature","geometry":{"type":"Point","coordinates":[-81.705902,26.472274]}},{"properties":{"zipcode":"41017","geo_score":0.714,"id":"ah7679v4hqam","geo_precision":"zip"},"type":"Feature","geometry":{"type":"Point","coordinates":[-84.593,39.063393]}},{"properties":{"zipcode":"48228","geo_score":0.714,"id":"ah7679qi4ms1","geo_precision":"zip"},"type":"Feature","geometry":{"type":"Point","coordinates":[-83.217127,42.335937]}},{"properties":{"zipcode":"14226","geo_score":0.714,"id":"ah7679v1idfa","geo_precision":"zip"},"type":"Feature","geometry":{"type":"Point","coordinates":[-78.783922,42.963669]}},{"properties":{"zipcode":"73044","geo_score":0.714,"id":"ah767a1ivfxb","geo_precision":"zip"},"type":"Feature","geometry":{"type":"Point","coordinates":[-97.456312,35.877129]}},{"properties":{"zipcode":"32822","geo_score":0.714,"id":"ah7679sofsn5","geo_precision":"zip"},"type":"Feature","geometry":{"type":"Point","coordinates":[-81.29024,28.494385]}},{"properties":{"zipcode":"32210","geo_score":0.714,"id":"ah7679xnwhpr","geo_precision":"zip"},"type":"Feature","geometry":{"type":"Point","coordinates":[-81.770099,30.245795]}},{"properties":{"zipcode":"89434","geo_score":0.714,"id":"ah767a57hyil","geo_precision":"zip"},"type":"Feature","geometry":{"type":"Point","coordinates":[-119.716747,39.591728]}},{"properties":{"zipcode":"95210","geo_score":0.714,"id":"ah767a0pyk61","geo_precision":"zip"},"type":"Feature","geometry":{"type":"Point","coordinates":[-121.291628,38.025472]}},{"properties":{"zipcode":"30815","geo_score":0.714,"id":"ah767a6luuxe","geo_precision":"zip"},"type":"Feature","geometry":{"type":"Point","coordinates":[-82.058032,33.32229]}},{"properties":{"zipcode":"38119","geo_score":0.714,"id":"ah767a52g6tm","geo_precision":"zip"},"type":"Feature","geometry":{"type":"Point","coordinates":[-89.907866,35.148701]}},{"properties":{"zipcode":"36526","geo_score":0.714,"id":"ah7679tyau0g","geo_precision":"zip"},"type":"Feature","geometry":{"type":"Point","coordinates":[-87.912216,30.643247]}},{"properties":{"zipcode":"32526","geo_score":0.714,"id":"ah767a0101tv","geo_precision":"zip"},"type":"Feature","geometry":{"type":"Point","coordinates":[-87.401645,30.534362]}},{"properties":{"zipcode":"34286","geo_score":0.714,"id":"ah7679sr55bg","geo_precision":"zip"},"type":"Feature","geometry":{"type":"Point","coordinates":[-82.175602,27.074755]}},{"properties":{"zipcode":"84074","geo_score":0.714,"id":"ah7679s61g1l","geo_precision":"zip"},"type":"Feature","geometry":{"type":"Point","coordinates":[-112.263002,40.680777]}},{"properties":{"zipcode":"76002","geo_score":0.714,"id":"ah767a0zu47y","geo_precision":"zip"},"type":"Feature","geometry":{"type":"Point","coordinates":[-97.291484,32.771419]}},{"properties":{"zipcode":"11762","geo_score":0.714,"id":"ah7679ue5hst","geo_precision":"zip"},"type":"Feature","geometry":{"type":"Point","coordinates":[-73.601772,40.754757]}},{"properties":{"zipcode":"64109","geo_score":0.714,"id":"ah767a4nw4qh","geo_precision":"zip"},"type":"Feature","geometry":{"type":"Point","coordinates":[-94.575933,39.066654]}},{"properties":{"zipcode":"21738","geo_score":0.714,"id":"ah767a1j18y5","geo_precision":"zip"},"type":"Feature","geometry":{"type":"Point","coordinates":[-77.025362,39.281504]}},{"properties":{"zipcode":"50707","geo_score":0.714,"id":"ah7679ugu483","geo_precision":"zip"},"type":"Feature","geometry":{"type":"Point","coordinates":[-92.256572,42.466932]}},{"properties":{"zipcode":"44139","geo_score":0.714,"id":"ah7679xxt3qh","geo_precision":"zip"},"type":"Feature","geometry":{"type":"Point","coordinates":[-81.46956,41.361721]}},{"properties":{"zipcode":"46167","geo_score":0.714,"id":"ah767a163f56","geo_precision":"zip"},"type":"Feature","geometry":{"type":"Point","coordinates":[-86.505277,39.834489]}},{"properties":{"zipcode":"44121","geo_score":0.714,"id":"ah7679r69m1j","geo_precision":"zip"},"type":"Feature","geometry":{"type":"Point","coordinates":[-81.518455,41.523108]}},{"properties":{"zipcode":"75252","geo_score":0.714,"id":"ah7679tivs4t","geo_precision":"zip"},"type":"Feature","geometry":{"type":"Point","coordinates":[-96.768049,32.986259]}},{"properties":{"zipcode":"37066","geo_score":0.714,"id":"ah7679ym0qg1","geo_precision":"zip"},"type":"Feature","geometry":{"type":"Point","coordinates":[-86.466104,36.480322]}},{"properties":{"zipcode":"32904","geo_score":0.714,"id":"ah7679w39p11","geo_precision":"zip"},"type":"Feature","geometry":{"type":"Point","coordinates":[-80.739647,28.051946]}},{"properties":{"zipcode":"70001","geo_score":0.714,"id":"ah7679shypby","geo_precision":"zip"},"type":"Feature","geometry":{"type":"Point","coordinates":[-90.161821,29.984643]}},{"properties":{"zipcode":"65803","geo_score":0.714,"id":"ah7679xagkc6","geo_precision":"zip"},"type":"Feature","geometry":{"type":"Point","coordinates":[-93.247965,37.26588]}},{"properties":{"zipcode":"49058","geo_score":0.714,"id":"ah7679z3ptij","geo_precision":"zip"},"type":"Feature","geometry":{"type":"Point","coordinates":[-85.346397,42.580591]}},{"properties":{"zipcode":"70560","geo_score":0.714,"id":"ah7679znr721","geo_precision":"zip"},"type":"Feature","geometry":{"type":"Point","coordinates":[-91.975677,29.972705]}},{"properties":{"zipcode":"85338","geo_score":0.714,"id":"ah7679ysk2bz","geo_precision":"zip"},"type":"Feature","geometry":{"type":"Point","coordinates":[-112.18717,33.276539]}},{"properties":{"zipcode":"63129","geo_score":0.714,"id":"ah7679zpquxn","geo_precision":"zip"},"type":"Feature","geometry":{"type":"Point","coordinates":[-90.348728,38.485609]}},{"properties":{"zipcode":"33971","geo_score":0.714,"id":"ah767a10jj0a","geo_precision":"zip"},"type":"Feature","geometry":{"type":"Point","coordinates":[-81.670757,26.589408]}},{"properties":{"zipcode":"29615","geo_score":0.714,"id":"ah767a6snf8n","geo_precision":"zip"},"type":"Feature","geometry":{"type":"Point","coordinates":[-82.358999,34.938893]}},{"properties":{"zipcode":"28451","geo_score":0.714,"id":"ah7679rou8ai","geo_precision":"zip"},"type":"Feature","geometry":{"type":"Point","coordinates":[-77.965822,34.230726]}},{"properties":{"zipcode":"85710","geo_score":0.714,"id":"ah7679zhjetp","geo_precision":"zip"},"type":"Feature","geometry":{"type":"Point","coordinates":[-111.917905,32.076184]}},{"properties":{"zipcode":"94134","geo_score":0.714,"id":"ah7679u4673k","geo_precision":"zip"},"type":"Feature","geometry":{"type":"Point","coordinates":[-122.410832,37.72168]}},{"properties":{"zipcode":"27613","geo_score":0.714,"id":"ah7679uem936","geo_precision":"zip"},"type":"Feature","geometry":{"type":"Point","coordinates":[-78.705465,35.86952]}},{"properties":{"zipcode":"44512","geo_score":0.714,"id":"ah7679swe1tw","geo_precision":"zip"},"type":"Feature","geometry":{"type":"Point","coordinates":[-80.662853,41.024226]}},{"properties":{"zipcode":"78758","geo_score":0.714,"id":"ah767a1b6t1f","geo_precision":"zip"},"type":"Feature","geometry":{"type":"Point","coordinates":[-97.708233,30.383637]}},{"properties":{"zipcode":"32534","geo_score":0.714,"id":"ah7679tocxdw","geo_precision":"zip"},"type":"Feature","geometry":{"type":"Point","coordinates":[-87.292335,30.534235]}},{"properties":{"zipcode":"21060","geo_score":0.714,"id":"ah7679r3ldht","geo_precision":"zip"},"type":"Feature","geometry":{"type":"Point","coordinates":[-76.579836,39.170158]}},{"properties":{"zipcode":"94501","geo_score":0.714,"id":"ah7679uzhn0y","geo_precision":"zip"},"type":"Feature","geometry":{"type":"Point","coordinates":[-122.264779,37.770563]}},{"properties":{"zipcode":"29410","geo_score":0.714,"id":"ah767a2ji0ht","geo_precision":"zip"},"type":"Feature","geometry":{"type":"Point","coordinates":[-80.022032,32.918507]}},{"properties":{"zipcode":"90660","geo_score":0.714,"id":"ah767a35bg43","geo_precision":"zip"},"type":"Feature","geometry":{"type":"Point","coordinates":[-118.612032,34.377498]}},{"properties":{"zipcode":"21217","geo_score":0.714,"id":"ah7679sbm4ng","geo_precision":"zip"},"type":"Feature","geometry":{"type":"Point","coordinates":[-76.63749,39.308606]}},{"properties":{"zipcode":"36117","geo_score":0.714,"id":"ah7679urv5sf","geo_precision":"zip"},"type":"Feature","geometry":{"type":"Point","coordinates":[-86.116486,32.370048]}},{"properties":{"zipcode":"39530","geo_score":0.714,"id":"ah767a5tqnpj","geo_precision":"zip"},"type":"Feature","geometry":{"type":"Point","coordinates":[-88.978634,30.432454]}},{"properties":{"zipcode":"32259","geo_score":0.714,"id":"ah767a2qjhru","geo_precision":"zip"},"type":"Feature","geometry":{"type":"Point","coordinates":[-81.582558,30.076654]}},{"properties":{"zipcode":"37343","geo_score":0.714,"id":"ah767a108q0t","geo_precision":"zip"},"type":"Feature","geometry":{"type":"Point","coordinates":[-85.238291,35.147571]}},{"properties":{"zipcode":"95404","geo_score":0.714,"id":"ah767a23f6by","geo_precision":"zip"},"type":"Feature","geometry":{"type":"Point","coordinates":[-122.656296,38.452642]}},{"properties":{"zipcode":"19144","geo_score":0.714,"id":"ah767a5fr73h","geo_precision":"zip"},"type":"Feature","geometry":{"type":"Point","coordinates":[-75.179871,40.033111]}},{"properties":{"zipcode":"29577","geo_score":0.714,"id":"ah7679z6lhel","geo_precision":"zip"},"type":"Feature","geometry":{"type":"Point","coordinates":[-78.925863,33.736561]}},{"properties":{"zipcode":"80203","geo_score":0.714,"id":"ah7679xho5px","geo_precision":"zip"},"type":"Feature","geometry":{"type":"Point","coordinates":[-104.970331,39.729205]}},{"properties":{"zipcode":"29036","geo_score":0.714,"id":"ah7679vxqk0u","geo_precision":"zip"},"type":"Feature","geometry":{"type":"Point","coordinates":[-81.334355,34.135909]}},{"properties":{"zipcode":"97304","geo_score":0.714,"id":"ah767a0bkmt1","geo_precision":"zip"},"type":"Feature","geometry":{"type":"Point","coordinates":[-123.077598,44.972064]}},{"properties":{"zipcode":"32310","geo_score":0.714,"id":"ah767a0t05yq","geo_precision":"zip"},"type":"Feature","geometry":{"type":"Point","coordinates":[-84.460793,30.364812]}},{"properties":{"zipcode":"47714","geo_score":0.714,"id":"ah767a45k93a","geo_precision":"zip"},"type":"Feature","geometry":{"type":"Point","coordinates":[-87.519682,37.959092]}},{"properties":{"zipcode":"33408","geo_score":0.714,"id":"ah767a6gfp8r","geo_precision":"zip"},"type":"Feature","geometry":{"type":"Point","coordinates":[-80.053374,26.879782]}},{"properties":{"zipcode":"11236","geo_score":0.714,"id":"ah7679t7bo0t","geo_precision":"zip"},"type":"Feature","geometry":{"type":"Point","coordinates":[-73.900692,40.643715]}},{"properties":{"zipcode":"77077","geo_score":0.714,"id":"ah767a4gqbdp","geo_precision":"zip"},"type":"Feature","geometry":{"type":"Point","coordinates":[-95.434241,29.83399]}},{"properties":{"zipcode":"95823","geo_score":0.714,"id":"ah767a0jmk67","geo_precision":"zip"},"type":"Feature","geometry":{"type":"Point","coordinates":[-121.442071,38.481354]}},{"properties":{"zipcode":"97055","geo_score":0.714,"id":"ah767a44wb13","geo_precision":"zip"},"type":"Feature","geometry":{"type":"Point","coordinates":[-122.155084,45.367064]}},{"properties":{"zipcode":"78213","geo_score":0.714,"id":"ah767a1tdzb1","geo_precision":"zip"},"type":"Feature","geometry":{"type":"Point","coordinates":[-98.461582,29.437532]}},{"properties":{"zipcode":"43026","geo_score":0.714,"id":"ah767a44biji","geo_precision":"zip"},"type":"Feature","geometry":{"type":"Point","coordinates":[-83.182135,40.002285]}},{"properties":{"zipcode":"91977","geo_score":0.714,"id":"ah7679sjkeu8","geo_precision":"zip"},"type":"Feature","geometry":{"type":"Point","coordinates":[-117.000109,32.718352]}},{"properties":{"zipcode":"93003","geo_score":0.714,"id":"ah7679tt9z23","geo_precision":"zip"},"type":"Feature","geometry":{"type":"Point","coordinates":[-119.221299,34.230353]}},{"properties":{"zipcode":"61102","geo_score":0.714,"id":"ah7679utr9oe","geo_precision":"zip"},"type":"Feature","geometry":{"type":"Point","coordinates":[-89.155825,42.22974]}},{"properties":{"zipcode":"06470","geo_score":0.714,"id":"ah767a45mntk","geo_precision":"zip"},"type":"Feature","geometry":{"type":"Point","coordinates":[-73.35623,41.379262]}},{"properties":{"zipcode":"07208","geo_score":0.714,"id":"ah767a0kib6u","geo_precision":"zip"},"type":"Feature","geometry":{"type":"Point","coordinates":[-74.229289,40.677102]}},{"properties":{"zipcode":"30542","geo_score":0.714,"id":"ah7679r594qa","geo_precision":"zip"},"type":"Feature","geometry":{"type":"Point","coordinates":[-83.891451,34.282818]}},{"properties":{"zipcode":"34104","geo_score":0.714,"id":"ah767a2nkc2r","geo_precision":"zip"},"type":"Feature","geometry":{"type":"Point","coordinates":[-81.745447,26.178752]}},{"properties":{"zipcode":"32817","geo_score":0.714,"id":"ah767a6ifo4j","geo_precision":"zip"},"type":"Feature","geometry":{"type":"Point","coordinates":[-81.227652,28.589077]}},{"properties":{"zipcode":"96022","geo_score":0.714,"id":"ah7679ts1h9h","geo_precision":"zip"},"type":"Feature","geometry":{"type":"Point","coordinates":[-122.326947,40.300709]}}],"is_temporal":false,"author":{"url":"","metadata":"","contact_name":"","contact_address":"","source":"","contact_phone":""},"source":"","pagination":{"sort":null,"start":0,"total":259,"limit":1000000},"state":"complete","tags":"","published":"2014-08-16T17:58:47-04:00","id":394406}