{"type":"FeatureCollection","data_type":"Dataset","url_type":null,"permissions":[{"permissions":{"download":true,"view":true},"group_id":"everyone"}],"classification":null,"title":"Bradley Byrne","count":79,"stream_id":394660,"contributor":{"url":"http://geocommons.com/users/82328","name":"gwtynes"},"data_attributes":null,"calculation_params":null,"icon_link":null,"link":"http://geocommons.com/overlays/394660.json","extent":[-88.2553,30.2653,-72.8007,41.2612],"geometry_types":["point"],"unique_name":null,"name":"Bradley Byrne","feature_count":79,"description":"A look at Bradley Byrne's campaign contributions for the special election Sept. 24, 2013 for Alabama's First Congressional District. Compiled by Gabriel Tynes for Lagniappe.","next_feature":null,"is_raster":false,"short_classification":"Y","stats":{"amount":{"max":2600.0,"variance":669447.419668939,"mean":810.126582278481,"stdev":818.19766540179,"min":250.0,"median":500.0}},"features":[{"properties":{"occupation":"CEO","city":"BIRMINGHAM","zip":"35216","receipt date":"6/30/2013","geo_score":0.857,"contributor name":"ACHESON, THOMAS M MR.","employer":"TAMERON AUTOMOTIVE GROUP, INC.","amount":500.0,"id":"ah9721bwzi4h","geo_precision":"zip","state":"AL"},"type":"Feature","geometry":{"type":"Point","coordinates":[-86.798045,33.394276]}},{"properties":{"occupation":"RETIRED","city":"GUNTERSVILLE","zip":"35976","receipt date":"6/29/2013","geo_score":0.857,"contributor name":"BAKER, RICHARD MR.","employer":"RETIRED","amount":250.0,"id":"ah9721aafya4","geo_precision":"zip","state":"AL"},"type":"Feature","geometry":{"type":"Point","coordinates":[-86.314427,34.338148]}},{"properties":{"occupation":"PRESIDENT","city":"MOBILE","zip":"36602","receipt date":"6/21/2013","geo_score":0.857,"contributor name":"BEDSOLE, ANN MRS.","employer":"WHITE SMITH LAND COMPANY INC","amount":1000.0,"id":"ah9721592vvz","geo_precision":"zip","state":"AL"},"type":"Feature","geometry":{"type":"Point","coordinates":[-88.046698,30.692389]}},{"properties":{"occupation":"ATTORNEY","city":"FAIRHOPE","zip":"36532","receipt date":"6/19/2013","geo_score":0.857,"contributor name":"BENTON, DAN MR.","employer":"SELF EMPLOYED","amount":2000.0,"id":"ah9721bx9yyn","geo_precision":"zip","state":"AL"},"type":"Feature","geometry":{"type":"Point","coordinates":[-87.811935,30.450752]}},{"properties":{"occupation":"RETIRED","city":"ORANGE BEACH","zip":"36561","receipt date":"6/20/2013","geo_score":0.857,"contributor name":"BRADLEY, AL MR.","employer":"RETIRED","amount":2600.0,"id":"ah97213y6o53","geo_precision":"zip","state":"AL"},"type":"Feature","geometry":{"type":"Point","coordinates":[-87.581457,30.281046]}},{"properties":{"occupation":"RETIRED","city":"ORANGE BEACH","zip":"36561","receipt date":"6/20/2013","geo_score":0.857,"contributor name":"BRADLEY, LINDA MRS.","employer":"RETIRED","amount":2600.0,"id":"ah97212ojx77","geo_precision":"zip","state":"AL"},"type":"Feature","geometry":{"type":"Point","coordinates":[-87.581457,30.281046]}},{"properties":{"occupation":"ECONOMIC DEVELOPMENT","city":"MOUNTAIN BRK","zip":"35213","receipt date":"6/29/2013","geo_score":0.857,"contributor name":"BRITT, WESLEY MR.","employer":"ALABAMA POWER COMPANY","amount":250.0,"id":"ah9720zhsvct","geo_precision":"zip","state":"AL"},"type":"Feature","geometry":{"type":"Point","coordinates":[-86.749588,33.455408]}},{"properties":{"occupation":"MANAGEMENT","city":"AUBURN","zip":"36830","receipt date":"6/11/2013","geo_score":0.857,"contributor name":"BROCK, BUTCH MR.","employer":"AEROWIRE, INC","amount":250.0,"id":"ah972182idxz","geo_precision":"zip","state":"AL"},"type":"Feature","geometry":{"type":"Point","coordinates":[-85.468222,32.547542]}},{"properties":{"occupation":"RETIRED","city":"OPELIKA","zip":"36804","receipt date":"6/26/2013","geo_score":0.857,"contributor name":"BROUGHTON, DAN MR.","employer":"RETIRED","amount":500.0,"id":"ah97213uzv83","geo_precision":"zip","state":"AL"},"type":"Feature","geometry":{"type":"Point","coordinates":[-85.311984,32.576792]}},{"properties":{"occupation":"CONSULTANT","city":"TALLAHASSEE","zip":"32301","receipt date":"6/25/2013","geo_score":0.857,"contributor name":"BROWN, STEVE MR.","employer":"SELF EMPLOYED","amount":250.0,"id":"ah97215o64e9","geo_precision":"zip","state":"FL"},"type":"Feature","geometry":{"type":"Point","coordinates":[-84.399347,30.287701]}},{"properties":{"occupation":"INVESTMENTS","city":"FAIRHOPE","zip":"36532","receipt date":"6/30/2013","geo_score":0.857,"contributor name":"BYRD, JAMES L. MR.","employer":"SAFE HARBOR FINANCIAL SERVICES","amount":2600.0,"id":"ah972114lj2s","geo_precision":"zip","state":"AL"},"type":"Feature","geometry":{"type":"Point","coordinates":[-87.811935,30.450752]}},{"properties":{"occupation":"ATTORNEY","city":"MOBILE","zip":"36604","receipt date":"6/28/2013","geo_score":0.857,"contributor name":"CALLAWAY, HENRY MR.","employer":"HAND ARENDALL LLC","amount":250.0,"id":"ah97216gvre4","geo_precision":"zip","state":"AL"},"type":"Feature","geometry":{"type":"Point","coordinates":[-88.067048,30.684039]}},{"properties":{"occupation":"REAL ESTATE","city":"MOBILE","zip":"36608","receipt date":"6/30/2013","geo_score":0.857,"contributor name":"CARTER, JOHN KEVIN MR.","employer":"SELF-EMPLOYED","amount":500.0,"id":"ah97215tg7l4","geo_precision":"zip","state":"AL"},"type":"Feature","geometry":{"type":"Point","coordinates":[-88.138891,30.698523]}},{"properties":{"occupation":"GOVERNMENT RELATIONS","city":"MONTGOMERY","zip":"36117","receipt date":"6/14/2013","geo_score":0.857,"contributor name":"CHRISTIE, MARTIN W. MR.","employer":"CHRISTIE STRATEGY GROUP","amount":500.0,"id":"ah9721c2kdz0","geo_precision":"zip","state":"AL"},"type":"Feature","geometry":{"type":"Point","coordinates":[-86.116486,32.370048]}},{"properties":{"occupation":"PHYSICIAN","city":"MAGNOLIA SPRINGS","zip":"36555","receipt date":"6/28/2013","geo_score":0.857,"contributor name":"CLARK, CLAUD DR. III","employer":"PREMIER WEST","amount":250.0,"id":"ah9721a3wlip","geo_precision":"zip","state":"AL"},"type":"Feature","geometry":{"type":"Point","coordinates":[-87.816935,30.408809]}},{"properties":{"occupation":"HOMEMAKER","city":"MONTROSE","zip":"36559","receipt date":"6/28/2013","geo_score":0.857,"contributor name":"CLARK, JOANN F. MRS.","employer":"N/A","amount":500.0,"id":"ah9720xhxr6a","geo_precision":"zip","state":"AL"},"type":"Feature","geometry":{"type":"Point","coordinates":[-87.900545,30.562308]}},{"properties":{"occupation":"DIRECTOR, CORPORATE COMMUNICATIONS","city":"NEW CANAAN","zip":"6840","receipt date":"6/29/2013","geo_score":0.857,"contributor name":"COOPER, COLBY MR.","employer":"PEPSICO, INC.","amount":500.0,"id":"ah9720x0c38e","geo_precision":"zip","state":"CT"},"type":"Feature","geometry":{"type":"Point","coordinates":[-73.501267,41.162209]}},{"properties":{"occupation":"CPA","city":"BREWTON","zip":"36427","receipt date":"6/29/2013","geo_score":0.857,"contributor name":"COOPER, W EARL MR.","employer":"MCMILLAN LTD.","amount":250.0,"id":"ah97218gajgq","geo_precision":"zip","state":"AL"},"type":"Feature","geometry":{"type":"Point","coordinates":[-87.26404,31.091784]}},{"properties":{"occupation":"REAL ESTATE APPRAISER","city":"VESTAVIA","zip":"35226","receipt date":"6/24/2013","geo_score":0.857,"contributor name":"COWART, JOHN M. MR.","employer":"SELF EMPLOYED","amount":500.0,"id":"ah9721b6r7cq","geo_precision":"zip","state":"AL"},"type":"Feature","geometry":{"type":"Point","coordinates":[-86.834563,33.396723]}},{"properties":{"occupation":"ATTORNEY","city":"GULF SHORES","zip":"36547","receipt date":"6/21/2013","geo_score":0.857,"contributor name":"CRAVEN, DANIEL H. MR.","employer":"SELF EMPLOYED","amount":2600.0,"id":"ah9721a5pdmo","geo_precision":"zip","state":"AL"},"type":"Feature","geometry":{"type":"Point","coordinates":[-87.629926,30.265325]}},{"properties":{"occupation":"ATTORNEY","city":"GULF SHORES","zip":"36547","receipt date":"6/20/2013","geo_score":0.857,"contributor name":"CRAVEN, DANIEL H. MR.","employer":"SELF EMPLOYED","amount":2600.0,"id":"ah972194s2r0","geo_precision":"zip","state":"AL"},"type":"Feature","geometry":{"type":"Point","coordinates":[-87.629926,30.265325]}},{"properties":{"occupation":"ATTORNEY","city":"GULF SHORES","zip":"36547","receipt date":"6/20/2013","geo_score":0.857,"contributor name":"CRAVEN, DANIEL H. MR.","employer":"SELF EMPLOYED","amount":2600.0,"id":"ah9720y1v4v0","geo_precision":"zip","state":"AL"},"type":"Feature","geometry":{"type":"Point","coordinates":[-87.629926,30.265325]}},{"properties":{"occupation":"RETIRED","city":"MONTROSE","zip":"36559","receipt date":"6/23/2013","geo_score":0.857,"contributor name":"CRAWFORD, HENRY MR.","employer":"RETIRED","amount":250.0,"id":"ah9721crt6hz","geo_precision":"zip","state":"AL"},"type":"Feature","geometry":{"type":"Point","coordinates":[-87.900545,30.562308]}},{"properties":{"occupation":"INVESTOR","city":"BIRMINGHAM","zip":"35223","receipt date":"6/24/2013","geo_score":0.857,"contributor name":"DANSBY, STEWART M MR.","employer":"SELF EMPLOYED","amount":500.0,"id":"ah97211kgimn","geo_precision":"zip","state":"AL"},"type":"Feature","geometry":{"type":"Point","coordinates":[-86.752211,33.500938]}},{"properties":{"occupation":"ATTORNEY","city":"SPANISH FORT","zip":"36527","receipt date":"6/21/2013","geo_score":0.857,"contributor name":"DAVIS, RICHARD E. MR.","employer":"DAVIS &amp; FIELDS PC","amount":500.0,"id":"ah9720wya8cz","geo_precision":"zip","state":"AL"},"type":"Feature","geometry":{"type":"Point","coordinates":[-87.900287,30.737792]}},{"properties":{"occupation":"ATTORNEY","city":"MOBILE","zip":"36606","receipt date":"6/25/2013","geo_score":0.857,"contributor name":"DUMAS, BARRE MR.","employer":"SELF EMPLOYED","amount":250.0,"id":"ah9721913gwm","geo_precision":"zip","state":"AL"},"type":"Feature","geometry":{"type":"Point","coordinates":[-88.1052,30.66709]}},{"properties":{"occupation":"BUSINESS","city":"MOUNTAIN BRK","zip":"35223","receipt date":"6/21/2013","geo_score":0.857,"contributor name":"FRENCH, JAMES S.M. MR.","employer":"DUNN INVESTMENT CO.","amount":1000.0,"id":"ah9721a3l5v3","geo_precision":"zip","state":"AL"},"type":"Feature","geometry":{"type":"Point","coordinates":[-86.752211,33.500938]}},{"properties":{"occupation":"HOMEMAKER","city":"FAIRHOPE","zip":"36532","receipt date":"6/28/2013","geo_score":0.857,"contributor name":"FRIEDMAN, JULIA H. MS.","employer":"N/A","amount":500.0,"id":"ah97215sg5mi","geo_precision":"zip","state":"AL"},"type":"Feature","geometry":{"type":"Point","coordinates":[-87.811935,30.450752]}},{"properties":{"occupation":"INSURANCE","city":"DAPHNE","zip":"36526","receipt date":"6/24/2013","geo_score":0.857,"contributor name":"FRY, ROLAND G. MR.","employer":"SELF EMPLOYED","amount":1000.0,"id":"ah9721c02bd5","geo_precision":"zip","state":"AL"},"type":"Feature","geometry":{"type":"Point","coordinates":[-87.912216,30.643247]}},{"properties":{"occupation":"HEALTH EXECUTIVE","city":"MOBILE","zip":"36608","receipt date":"6/30/2013","geo_score":0.857,"contributor name":"FULGHAM, HENRY B. MR.","employer":"SAAD ENTERPRISES","amount":250.0,"id":"ah97211onth6","geo_precision":"zip","state":"AL"},"type":"Feature","geometry":{"type":"Point","coordinates":[-88.138891,30.698523]}},{"properties":{"occupation":"PHYSICIAN","city":"BRANFORD","zip":"6405","receipt date":"6/25/2013","geo_score":0.857,"contributor name":"GALLALEE, JOHN MR.","employer":"SELF EMPLOYED","amount":250.0,"id":"ah972144j7pf","geo_precision":"zip","state":"CT"},"type":"Feature","geometry":{"type":"Point","coordinates":[-72.800654,41.261208]}},{"properties":{"occupation":null,"city":"MONTROSE","zip":"36559","receipt date":"6/24/2013","geo_score":0.857,"contributor name":"GALLONEY, FRANK H. MR. III","employer":null,"amount":1000.0,"id":"ah9720xw2t7d","geo_precision":"zip","state":"AL"},"type":"Feature","geometry":{"type":"Point","coordinates":[-87.900545,30.562308]}},{"properties":{"occupation":"EXECUTIVE","city":"MOUNTAIN BRK","zip":"35223","receipt date":"6/21/2013","geo_score":0.857,"contributor name":"GOODRICH, T. MICHAEL MR.","employer":"GOODRICH MANAGEMENT CO.","amount":1000.0,"id":"ah972136kpro","geo_precision":"zip","state":"AL"},"type":"Feature","geometry":{"type":"Point","coordinates":[-86.752211,33.500938]}},{"properties":{"occupation":"CEO","city":"THEODORE","zip":"36582","receipt date":"6/25/2013","geo_score":0.857,"contributor name":"HACKBARTH, ROB MR.","employer":"HACKBARTH DELIVERY SERVICE, INC.","amount":250.0,"id":"ah97211aoc6l","geo_precision":"zip","state":"AL"},"type":"Feature","geometry":{"type":"Point","coordinates":[-88.16889,30.462419]}},{"properties":{"occupation":"REAL ESTATE DEVELOPER","city":"POINT CLEAR","zip":"36564","receipt date":"6/28/2013","geo_score":0.857,"contributor name":"HALEY, CHRISTOPHER L. MR.","employer":"SELF EMPLOYED","amount":1000.0,"id":"ah9720xu1d61","geo_precision":"zip","state":"AL"},"type":"Feature","geometry":{"type":"Point","coordinates":[-87.917867,30.475955]}},{"properties":{"occupation":"CHAIRMAN/CEO","city":"MOUNTAIN BRK","zip":"35223","receipt date":"6/21/2013","geo_score":0.857,"contributor name":"HARBERT, RAYMOND J. MR.","employer":"HARBERT MANAGEMENT CORP.","amount":2600.0,"id":"ah9720zo3vj4","geo_precision":"zip","state":"AL"},"type":"Feature","geometry":{"type":"Point","coordinates":[-86.752211,33.500938]}},{"properties":{"occupation":"ATTORNEY","city":"MOBILE","zip":"36608","receipt date":"6/20/2013","geo_score":0.857,"contributor name":"HARDIE, WILLIAM H. MR.","employer":"JOHNSTONE ADAMS","amount":250.0,"id":"ah97219j3wn9","geo_precision":"zip","state":"AL"},"type":"Feature","geometry":{"type":"Point","coordinates":[-88.138891,30.698523]}},{"properties":{"occupation":"CPA","city":"EUFAULA","zip":"36072","receipt date":"6/12/2013","geo_score":0.857,"contributor name":"HARTZOG, GRADY MR.","employer":"HARTZOG AND COMPANY, PC","amount":250.0,"id":"ah9721be5n5i","geo_precision":"zip","state":"AL"},"type":"Feature","geometry":{"type":"Point","coordinates":[-85.166028,31.826055]}},{"properties":{"occupation":"RETIRED","city":"FAIRHOPE","zip":"36532","receipt date":"6/12/2013","geo_score":0.857,"contributor name":"HEVERAN, RONALD MR.","employer":"RETIRED","amount":250.0,"id":"ah97215lzszj","geo_precision":"zip","state":"AL"},"type":"Feature","geometry":{"type":"Point","coordinates":[-87.811935,30.450752]}},{"properties":{"occupation":"CLINICAL APPLICATION COORDINATOR","city":"MOBILE","zip":"36608","receipt date":"6/29/2013","geo_score":0.857,"contributor name":"HILL, MICHELE MS.","employer":"UNIVERSITY OF SOUTH ALABAMA MEDICAL CE","amount":500.0,"id":"ah97214xmejf","geo_precision":"zip","state":"AL"},"type":"Feature","geometry":{"type":"Point","coordinates":[-88.138891,30.698523]}},{"properties":{"occupation":"OWNER","city":"GULF SHORES","zip":"36547","receipt date":"6/30/2013","geo_score":0.857,"contributor name":"HODGES, SHEILA MS.","employer":"SH ENTERPRISES","amount":2600.0,"id":"ah9721994m9e","geo_precision":"zip","state":"AL"},"type":"Feature","geometry":{"type":"Point","coordinates":[-87.629926,30.265325]}},{"properties":{"occupation":"ARCHITECT","city":"MOBILE","zip":"36601","receipt date":"6/20/2013","geo_score":0.857,"contributor name":"HOLMES, NICHOLAS H. MR. JR.","employer":"SELF EMPLOYED","amount":250.0,"id":"ah9721de5v4q","geo_precision":"zip","state":"AL"},"type":"Feature","geometry":{"type":"Point","coordinates":[-88.255283,30.607693]}},{"properties":{"occupation":"RETIRED","city":"MOBILE","zip":"36608","receipt date":"6/21/2013","geo_score":0.857,"contributor name":"HORST, T. A. MR.","employer":"RETIRED","amount":500.0,"id":"ah9721c5yzn7","geo_precision":"zip","state":"AL"},"type":"Feature","geometry":{"type":"Point","coordinates":[-88.138891,30.698523]}},{"properties":{"occupation":"PHYSICIAN","city":"MOBILE","zip":"36608","receipt date":"6/20/2013","geo_score":0.857,"contributor name":"JARDINE, JAMES Q. DR.","employer":"BAY AREA PHYSICIANS FOR WOMEN","amount":1000.0,"id":"ah972183auer","geo_precision":"zip","state":"AL"},"type":"Feature","geometry":{"type":"Point","coordinates":[-88.138891,30.698523]}},{"properties":{"occupation":null,"city":"MOBILE","zip":"36608","receipt date":"6/30/2013","geo_score":0.857,"contributor name":"LADD, KATHERINE C. MS.","employer":null,"amount":250.0,"id":"ah97213eal5d","geo_precision":"zip","state":"AL"},"type":"Feature","geometry":{"type":"Point","coordinates":[-88.138891,30.698523]}},{"properties":{"occupation":"PARTNER","city":"MOBILE","zip":"36608","receipt date":"6/30/2013","geo_score":0.857,"contributor name":"LADD, RUSSELL MR. III","employer":"THAMES, BATRE, MATTEI, BEVILLE","amount":250.0,"id":"ah972189layw","geo_precision":"zip","state":"AL"},"type":"Feature","geometry":{"type":"Point","coordinates":[-88.138891,30.698523]}},{"properties":{"occupation":"RETIRED","city":"POINT CLEAR","zip":"36564","receipt date":"6/20/2013","geo_score":0.857,"contributor name":"LYONS, CHAMP JR. MR.","employer":"RETIRED","amount":500.0,"id":"ah9721631x33","geo_precision":"zip","state":"AL"},"type":"Feature","geometry":{"type":"Point","coordinates":[-87.917867,30.475955]}},{"properties":{"occupation":"OFFICE MGR","city":"DAPHNE","zip":"36526","receipt date":"6/4/2013","geo_score":0.857,"contributor name":"MCALLISTER, FELICIA MS.","employer":"AMERICAN GENERAL OIL","amount":250.0,"id":"ah97218kz1wy","geo_precision":"zip","state":"AL"},"type":"Feature","geometry":{"type":"Point","coordinates":[-87.912216,30.643247]}},{"properties":{"occupation":"INVESTMENTS","city":"BREWTON","zip":"36427","receipt date":"6/19/2013","geo_score":0.857,"contributor name":"MCMILLAN, ROBERT MR.","employer":"SELF EMPLOYED","amount":2600.0,"id":"ah9720yemn3w","geo_precision":"zip","state":"AL"},"type":"Feature","geometry":{"type":"Point","coordinates":[-87.26404,31.091784]}},{"properties":{"occupation":"ATTORNEY","city":"GUNTERSVILLE","zip":"35976","receipt date":"6/27/2013","geo_score":0.857,"contributor name":"MCRIGHT, FRANK B. MR.","employer":"BURR FORMAN","amount":1000.0,"id":"ah97212je46j","geo_precision":"zip","state":"AL"},"type":"Feature","geometry":{"type":"Point","coordinates":[-86.314427,34.338148]}},{"properties":{"occupation":"DIRECTOR, REAL ESTATE","city":"MOBILE","zip":"36608","receipt date":"6/26/2013","geo_score":0.857,"contributor name":"METZGER, LEE MR.","employer":"PROVIDENCE HOSPITAL","amount":500.0,"id":"ah9720xcn0a3","geo_precision":"zip","state":"AL"},"type":"Feature","geometry":{"type":"Point","coordinates":[-88.138891,30.698523]}},{"properties":{"occupation":"SMALL BUSINESS OWNER","city":"MADISON","zip":"35758","receipt date":"6/25/2013","geo_score":0.857,"contributor name":"MONTGOMERY, DAN MR.","employer":"STRATEGIC DEFENSE SOLUTIONS, LLC (SDS)","amount":250.0,"id":"ah97218fb1h9","geo_precision":"zip","state":"AL"},"type":"Feature","geometry":{"type":"Point","coordinates":[-86.742478,34.710815]}},{"properties":{"occupation":"CHAIRMAN","city":"MOBILE","zip":"36606","receipt date":"6/28/2013","geo_score":0.857,"contributor name":"MOORE, LELAND T. MR.","employer":"S&amp;S SPRINKLER CO., LLC","amount":250.0,"id":"ah972151laap","geo_precision":"zip","state":"AL"},"type":"Feature","geometry":{"type":"Point","coordinates":[-88.1052,30.66709]}},{"properties":{"occupation":"ATTORNEY","city":"MONTGOMERY","zip":"36106","receipt date":"6/29/2013","geo_score":0.857,"contributor name":"MOOTY, DEAN MR.","employer":"MOOTY &amp; ASSOCIATES, P.C.","amount":500.0,"id":"ah972193ez5v","geo_precision":"zip","state":"AL"},"type":"Feature","geometry":{"type":"Point","coordinates":[-86.257517,32.353338]}},{"properties":{"occupation":"PHYSICIAN","city":"DECATUR","zip":"35603","receipt date":"6/30/2013","geo_score":0.857,"contributor name":"NEAL, TRACY MS.","employer":"HUNTSVILLE HOSPITAL","amount":250.0,"id":"ah97213w8rpc","geo_precision":"zip","state":"AL"},"type":"Feature","geometry":{"type":"Point","coordinates":[-86.96556,34.53832]}},{"properties":{"occupation":"INVESTMENT BANKER","city":"MOBILE","zip":"36607","receipt date":"6/11/2013","geo_score":0.857,"contributor name":"PERRY, WADE FOY MR.","employer":"GARDNYR MICHAEL CAPITAL, INC.","amount":250.0,"id":"ah97210dwzt0","geo_precision":"zip","state":"AL"},"type":"Feature","geometry":{"type":"Point","coordinates":[-88.088073,30.788123]}},{"properties":{"occupation":"CHAIRMAN/CEO","city":"DAPHNE","zip":"36526","receipt date":"6/28/2013","geo_score":0.857,"contributor name":"PIERCE, RONALD C.V. MR.","employer":"WESCO GAS &amp; WELDING SUPPLY","amount":400.0,"id":"ah972133f20f","geo_precision":"zip","state":"AL"},"type":"Feature","geometry":{"type":"Point","coordinates":[-87.912216,30.643247]}},{"properties":{"occupation":"SR MGR","city":"HUNTSVILLE","zip":"35824","receipt date":"6/25/2013","geo_score":0.857,"contributor name":"REITZELL, JOHN MR.","employer":"DYNETICS INC","amount":250.0,"id":"ah97218mtcwk","geo_precision":"zip","state":"AL"},"type":"Feature","geometry":{"type":"Point","coordinates":[-86.752294,34.645603]}},{"properties":{"occupation":"COMMISSIONER","city":"PIKE ROAD","zip":"36064","receipt date":"6/21/2013","geo_score":0.857,"contributor name":"RIDLING, JIM L. MR.","employer":"STATE OF ALABAMA","amount":1000.0,"id":"ah9720ys5uy9","geo_precision":"zip","state":"AL"},"type":"Feature","geometry":{"type":"Point","coordinates":[-86.050237,32.273198]}},{"properties":{"occupation":"RETIRED","city":"LILLIAN","zip":"36549","receipt date":"6/28/2013","geo_score":0.857,"contributor name":"RUSSELL, MICHAEL H. MR.","employer":"RETIRED","amount":500.0,"id":"ah9721cshl82","geo_precision":"zip","state":"AL"},"type":"Feature","geometry":{"type":"Point","coordinates":[-87.458796,30.39736]}},{"properties":{"occupation":"REALTOR","city":"FAIRHOPE","zip":"36532","receipt date":"6/26/2013","geo_score":0.857,"contributor name":"RUSSELL, MICKIE MR.","employer":"ROBERTS BROTHERS","amount":250.0,"id":"ah97214sr9pt","geo_precision":"zip","state":"AL"},"type":"Feature","geometry":{"type":"Point","coordinates":[-87.811935,30.450752]}},{"properties":{"occupation":"EXECUTIVE","city":"MOBILE","zip":"36608","receipt date":"6/20/2013","geo_score":0.857,"contributor name":"SAAD, G.B. MR.","employer":"SAAD ENTERPRISES","amount":2600.0,"id":"ah97217mrznh","geo_precision":"zip","state":"AL"},"type":"Feature","geometry":{"type":"Point","coordinates":[-88.138891,30.698523]}},{"properties":{"occupation":"HOMEMAKER","city":"MOBILE","zip":"36608","receipt date":"6/20/2013","geo_score":0.857,"contributor name":"SAAD, JAMIE MRS.","employer":"N/A","amount":2600.0,"id":"ah9721cbuln4","geo_precision":"zip","state":"AL"},"type":"Feature","geometry":{"type":"Point","coordinates":[-88.138891,30.698523]}},{"properties":{"occupation":"CONSULTANT","city":"HUNTSVILLE","zip":"35802","receipt date":"6/19/2013","geo_score":0.857,"contributor name":"SIMS, SANDRA H. DR.","employer":"B.W.P. AND ASSOCIATES","amount":500.0,"id":"ah972151male","geo_precision":"zip","state":"AL"},"type":"Feature","geometry":{"type":"Point","coordinates":[-86.536935,34.656758]}},{"properties":{"occupation":"EXECUTIVE","city":"BIRMINGHAM","zip":"35217","receipt date":"6/28/2013","geo_score":0.857,"contributor name":"SMITH, HATTON C.V. MR.","employer":"ROYAL CUP COFFEE","amount":250.0,"id":"ah97212wyq8x","geo_precision":"zip","state":"AL"},"type":"Feature","geometry":{"type":"Point","coordinates":[-86.771379,33.574549]}},{"properties":{"occupation":"RETIRED","city":"HUNTSVILLE","zip":"35801","receipt date":"6/21/2013","geo_score":0.857,"contributor name":"SMITH, LINDA J. MRS.","employer":"RETIRED","amount":500.0,"id":"ah97213gqpsv","geo_precision":"zip","state":"AL"},"type":"Feature","geometry":{"type":"Point","coordinates":[-86.556439,34.718428]}},{"properties":{"occupation":"RETIRED","city":"POINT CLEAR","zip":"36564","receipt date":"6/24/2013","geo_score":0.857,"contributor name":"SMITH, NORVELLE MR.","employer":"RETIRED","amount":2600.0,"id":"ah9721566n1v","geo_precision":"zip","state":"AL"},"type":"Feature","geometry":{"type":"Point","coordinates":[-87.917867,30.475955]}},{"properties":{"occupation":"EXECUTIVE","city":"BIRMINGHAM","zip":"35217","receipt date":"6/28/2013","geo_score":0.857,"contributor name":"SMITH, WILLIAM E. MR. JR.","employer":"ROYAL CUP COFFEE","amount":1000.0,"id":"ah9721ac5ndb","geo_precision":"zip","state":"AL"},"type":"Feature","geometry":{"type":"Point","coordinates":[-86.771379,33.574549]}},{"properties":{"occupation":"FORENSIC ACCOUNTANT","city":"MOBILE","zip":"36693","receipt date":"6/12/2013","geo_score":0.857,"contributor name":"STEELE, LINDA MS.","employer":"FORENSIC FINANCIAL SERVICES GROUP","amount":250.0,"id":"ah9721c9ia49","geo_precision":"zip","state":"AL"},"type":"Feature","geometry":{"type":"Point","coordinates":[-88.174502,30.635741]}},{"properties":{"occupation":"PRIEST","city":"FOLEY","zip":"36535","receipt date":"6/4/2013","geo_score":0.857,"contributor name":"TALBERT, KEITH MR.","employer":"ST. PAUL'S EPISCOPAL CHURCH","amount":250.0,"id":"ah9720xr559p","geo_precision":"zip","state":"AL"},"type":"Feature","geometry":{"type":"Point","coordinates":[-87.692401,30.467608]}},{"properties":{"occupation":"PHYSICIAN","city":"MOBILE","zip":"36608","receipt date":"6/28/2013","geo_score":0.857,"contributor name":"TAYLOR, BURT F. DR.","employer":"SELF EMPLOYED","amount":500.0,"id":"ah9720ynaazp","geo_precision":"zip","state":"AL"},"type":"Feature","geometry":{"type":"Point","coordinates":[-88.138891,30.698523]}},{"properties":{"occupation":"PHYSICIAN","city":"MOBILE","zip":"36608","receipt date":"6/25/2013","geo_score":0.857,"contributor name":"TERRY, WILLIAM MR.","employer":"UROLOGY &amp; ONCOLOGY SPECIALISTS, PC","amount":250.0,"id":"ah9721csobwh","geo_precision":"zip","state":"AL"},"type":"Feature","geometry":{"type":"Point","coordinates":[-88.138891,30.698523]}},{"properties":{"occupation":"RETIRED","city":"FAIRHOPE","zip":"36532","receipt date":"6/23/2013","geo_score":0.857,"contributor name":"VOGEL, WILLIAM S. MR.","employer":"RETIRED","amount":500.0,"id":"ah97216operm","geo_precision":"zip","state":"AL"},"type":"Feature","geometry":{"type":"Point","coordinates":[-87.811935,30.450752]}},{"properties":{"occupation":"EXECUTIVE DIRECTOR","city":"JACKSON","zip":"36545","receipt date":"6/12/2013","geo_score":0.857,"contributor name":"VROCHER, CHESTER MR.","employer":"ALABAMA TECHNOLOGY NETWORK","amount":250.0,"id":"ah97210rnump","geo_precision":"zip","state":"AL"},"type":"Feature","geometry":{"type":"Point","coordinates":[-87.917224,31.651827]}},{"properties":{"occupation":"PHYSICIAN","city":"MONTROSE","zip":"36559","receipt date":"6/24/2013","geo_score":0.857,"contributor name":"WALKER, RHETT P. DR.","employer":"SELF EMPLOYED","amount":500.0,"id":"ah9721d676v8","geo_precision":"zip","state":"AL"},"type":"Feature","geometry":{"type":"Point","coordinates":[-87.900545,30.562308]}},{"properties":{"occupation":"HEAVY HIGHWAY CONTRACTOR","city":"MOBILE","zip":"36608","receipt date":"6/30/2013","geo_score":0.857,"contributor name":"WEAVER, PAUL ELLIS MR.","employer":"HOSEA O. WEAVER AND SONS, INC.","amount":400.0,"id":"ah97216ohvon","geo_precision":"zip","state":"AL"},"type":"Feature","geometry":{"type":"Point","coordinates":[-88.138891,30.698523]}},{"properties":{"occupation":"CEO","city":"DAPHNE","zip":"36526","receipt date":"6/30/2013","geo_score":0.857,"contributor name":"WRIGHT, J. HAMILTON MR.","employer":"J.H. WRIGHT &amp; ASSOC.","amount":1000.0,"id":"ah972187k9z8","geo_precision":"zip","state":"AL"},"type":"Feature","geometry":{"type":"Point","coordinates":[-87.912216,30.643247]}},{"properties":{"occupation":"ATTORNEY","city":"FAIRHOPE","zip":"36532","receipt date":"6/24/2013","geo_score":0.857,"contributor name":"WYNNE, MARION E. MR. JR.","employer":"WILKINS, BANKESTER, BILES &amp; WYNNE","amount":500.0,"id":"ah9720xpn0wg","geo_precision":"zip","state":"AL"},"type":"Feature","geometry":{"type":"Point","coordinates":[-87.811935,30.450752]}},{"properties":{"occupation":"PHYSICIAN","city":"FAIRHOPE","zip":"36532","receipt date":"6/20/2013","geo_score":0.857,"contributor name":"YONGE, LYNN E. DR.","employer":"SELF EMPLOYED","amount":500.0,"id":"ah97217pe9t4","geo_precision":"zip","state":"AL"},"type":"Feature","geometry":{"type":"Point","coordinates":[-87.811935,30.450752]}}],"is_temporal":false,"author":{"url":"http://www.fec.gov/fecviewer/CandCmteTransaction.do","metadata":"http://www.fec.gov/fecviewer/CandCmteTransaction.do","contact_name":"","contact_address":"","source":"Federal Election Commission","contact_phone":""},"source":"http://www.fec.gov/fecviewer/CandCmteTransaction.do","pagination":{"sort":null,"start":0,"total":79,"limit":1000000},"state":"complete","tags":"bradley,byrne","published":"2013-09-16T16:00:00Z","id":394660}