{"type":"FeatureCollection","data_type":"Dataset","url_type":null,"permissions":[{"permissions":{"download":true,"view":true},"group_id":"everyone"}],"classification":null,"title":"Quin Hillyer","count":46,"stream_id":394666,"contributor":{"url":"http://geocommons.com/users/82328","name":"gwtynes"},"data_attributes":null,"calculation_params":null,"icon_link":null,"link":"http://geocommons.com/overlays/394666.json","extent":[-118.299,25.9388,-71.1329,43.4528],"geometry_types":["point"],"unique_name":null,"name":"Quin Hillyer","feature_count":46,"description":"Quin Hillyer for Congress","next_feature":null,"is_raster":false,"short_classification":"Y","stats":{"amount":{"max":2600.0,"variance":443686.214492753,"mean":835.086956521739,"stdev":666.097751454509,"min":250.0,"median":500.0}},"features":[{"properties":{"occupation":"RETIRED","city":"MANDEVILLE","zip":"70448","receipt date":"5/28/2013","geo_score":0.857,"contributor name":"DUNBAR, CHARLES E. IV","employer":"NONE","amount":500.0,"id":"ah99ey2g2k4d","geo_precision":"zip","state":"LA"},"type":"Feature","geometry":{"type":"Point","coordinates":[-89.977719,30.37706]}},{"properties":{"occupation":"GOVERNMENT AFFAIRS","city":"NEWTOWN SQUARE","zip":"19073","receipt date":"5/28/2013","geo_score":0.857,"contributor name":"JOHNSTON, KELLY D.","employer":"CAMPBELL SOUP COMPANY","amount":500.0,"id":"ah99exte98mz","geo_precision":"zip","state":"PA"},"type":"Feature","geometry":{"type":"Point","coordinates":[-75.412418,39.982888]}},{"properties":{"occupation":"PRESIDENT","city":"NEW ORLEANS","zip":"70118","receipt date":"5/30/2013","geo_score":0.857,"contributor name":"SLATTEN, SCOTT T.","employer":"BISSO TOWBOAT CO., INC.","amount":1000.0,"id":"ah99ey6ade0x","geo_precision":"zip","state":"LA"},"type":"Feature","geometry":{"type":"Point","coordinates":[-90.130074,29.947427]}},{"properties":{"occupation":null,"city":"FAIRHOPE","zip":"36533","receipt date":"5/30/2013","geo_score":0.857,"contributor name":"THOMPSON, JIM JR","employer":null,"amount":300.0,"id":"ah99exvfczwd","geo_precision":"zip","state":"AL"},"type":"Feature","geometry":{"type":"Point","coordinates":[-88.148617,31.219617]}},{"properties":{"occupation":"ATTORNEY","city":"STERLING","zip":"20166","receipt date":"6/2/2013","geo_score":0.857,"contributor name":"DAVIS, ARTUR","employer":"SELF","amount":500.0,"id":"ah99exrpiaz7","geo_precision":"zip","state":"VA"},"type":"Feature","geometry":{"type":"Point","coordinates":[-77.472333,38.981387]}},{"properties":{"occupation":"PROFESSOR","city":"INFO REQ PER BEST EFFORTS","zip":"11111","receipt date":"6/3/2013","geo_score":0.714,"contributor name":"ALEXANDER, GERARD","employer":"UNIVERSITY OF VIRGINIA","amount":2000.0,"id":"ah99exqe6ne1","geo_precision":"zip","state":"VA"},"type":"Feature","geometry":{"type":"Point","coordinates":[-73.948749,40.744824]}},{"properties":{"occupation":"INVESTMENT ANALYST","city":"THE WOODLANDS","zip":"77382","receipt date":"6/3/2013","geo_score":0.857,"contributor name":"MAY, ROGER ADAM","employer":"NEWPORT GLOBAL ADVISORS","amount":500.0,"id":"ah99exxf27r0","geo_precision":"zip","state":"TX"},"type":"Feature","geometry":{"type":"Point","coordinates":[-95.434241,29.83399]}},{"properties":{"occupation":"ATTORNEY","city":"ALEXANDRIA","zip":"22307","receipt date":"6/4/2013","geo_score":0.857,"contributor name":"ADAMS, J. CHRISTIAN","employer":"SELF","amount":500.0,"id":"ah99exvsdsfg","geo_precision":"zip","state":"VA"},"type":"Feature","geometry":{"type":"Point","coordinates":[-77.063033,38.785392]}},{"properties":{"occupation":"REAL ESTATE DEVELOPER","city":"ORANGE BEACH","zip":"36561","receipt date":"6/4/2013","geo_score":0.857,"contributor name":"BRETT, THOMAS E.","employer":"BRETT ROBINSON","amount":500.0,"id":"ah99exy89dgs","geo_precision":"zip","state":"AL"},"type":"Feature","geometry":{"type":"Point","coordinates":[-87.581457,30.281046]}},{"properties":{"occupation":"CEO","city":"CAMBRIDGE","zip":"2138","receipt date":"6/5/2013","geo_score":0.857,"contributor name":"CELLINI, RICHARD JOSEPH","employer":"BRIEFCASE ANALYTICS, INC.","amount":250.0,"id":"ah99ey4b3pd2","geo_precision":"zip","state":"MA"},"type":"Feature","geometry":{"type":"Point","coordinates":[-71.132947,42.380442]}},{"properties":{"occupation":"RETIRED","city":"HENDERSONVILLE","zip":"28739","receipt date":"6/5/2013","geo_score":0.857,"contributor name":"HILLYER, BRENDA E.","employer":"NONE","amount":1000.0,"id":"ah99ey5gyb34","geo_precision":"zip","state":"NC"},"type":"Feature","geometry":{"type":"Point","coordinates":[-82.487898,35.320673]}},{"properties":{"occupation":"RETIRED","city":"NEW YORK","zip":"10075","receipt date":"6/5/2013","geo_score":0.857,"contributor name":"WALPIN, SHEILA","employer":"NONE","amount":1000.0,"id":"ah99ey16a9y7","geo_precision":"zip","state":"NY"},"type":"Feature","geometry":{"type":"Point","coordinates":[-74.005973,40.714269]}},{"properties":{"occupation":"EXECUTIVE","city":"NEW ORLEANS","zip":"70115","receipt date":"6/6/2013","geo_score":0.857,"contributor name":"DUPUY, HOMER JOSEPH III","employer":"THE DUPUY CO.","amount":500.0,"id":"ah99exrgr6f6","geo_precision":"zip","state":"LA"},"type":"Feature","geometry":{"type":"Point","coordinates":[-90.100773,29.938343]}},{"properties":{"occupation":"RETIRED","city":"MOBILE","zip":"36608","receipt date":"6/6/2013","geo_score":0.857,"contributor name":"HOLMES, ELSIE C.","employer":"NONE","amount":1000.0,"id":"ah99exshddra","geo_precision":"zip","state":"AL"},"type":"Feature","geometry":{"type":"Point","coordinates":[-88.138891,30.698523]}},{"properties":{"occupation":"COMMUNICATIONS ADVISOR","city":"WASHINGTON","zip":"20015","receipt date":"6/7/2013","geo_score":0.857,"contributor name":"WOOD, CARTER","employer":"BUSINESS ROUNDTABLE","amount":250.0,"id":"ah99extekjtb","geo_precision":"zip","state":"DC"},"type":"Feature","geometry":{"type":"Point","coordinates":[-77.070949,38.96926]}},{"properties":{"occupation":null,"city":"MOBILE","zip":"36608","receipt date":"6/9/2013","geo_score":0.857,"contributor name":"MADONIA, DEBORAH R.","employer":null,"amount":2500.0,"id":"ah99exwpiejp","geo_precision":"zip","state":"AL"},"type":"Feature","geometry":{"type":"Point","coordinates":[-88.138891,30.698523]}},{"properties":{"occupation":"REAL ESTATE","city":"MOBILE","zip":"36609","receipt date":"6/10/2013","geo_score":0.857,"contributor name":"MEISLER, HERBERT A.","employer":"SELF","amount":1000.0,"id":"ah99exv3p6md","geo_precision":"zip","state":"AL"},"type":"Feature","geometry":{"type":"Point","coordinates":[-88.185603,30.551887]}},{"properties":{"occupation":"PRESIDENT","city":"ARLINGTON","zip":"22201","receipt date":"6/11/2013","geo_score":0.857,"contributor name":"BLACKWELL, MORTON C.","employer":"LEADERSHIP INSTITUTE","amount":2000.0,"id":"ah99exwx43qh","geo_precision":"zip","state":"VA"},"type":"Feature","geometry":{"type":"Point","coordinates":[-77.099113,38.885484]}},{"properties":{"occupation":"CONSULTANT","city":"MARCO ISLAND","zip":"34145","receipt date":"6/12/2013","geo_score":0.857,"contributor name":"CRETELLA, TOM","employer":"T2 VENTURES","amount":2600.0,"id":"ah99ey0tcmo1","geo_precision":"zip","state":"FL"},"type":"Feature","geometry":{"type":"Point","coordinates":[-81.696751,25.938768]}},{"properties":{"occupation":"ATTORNEY","city":"MANHASSET","zip":"11030","receipt date":"6/12/2013","geo_score":0.857,"contributor name":"PEGNO, DAVID S","employer":"LAW FIRM","amount":250.0,"id":"ah99exswnplr","geo_precision":"zip","state":"NY"},"type":"Feature","geometry":{"type":"Point","coordinates":[-73.679852,40.798712]}},{"properties":{"occupation":"ANALYST","city":"MOBILE","zip":"36608","receipt date":"6/13/2013","geo_score":0.857,"contributor name":"ROBINSON, ZACHARY","employer":"OHC CORP.","amount":400.0,"id":"ah99ey4sp7er","geo_precision":"zip","state":"AL"},"type":"Feature","geometry":{"type":"Point","coordinates":[-88.138891,30.698523]}},{"properties":{"occupation":"ATTORNEY","city":"ALEXANDRIA","zip":"22315","receipt date":"6/14/2013","geo_score":0.857,"contributor name":"DODD, QUIN","employer":"LAW OFFICES OF QUIN D. DODD, LLC","amount":250.0,"id":"ah99ey343x4u","geo_precision":"zip","state":"VA"},"type":"Feature","geometry":{"type":"Point","coordinates":[-77.147646,38.756466]}},{"properties":{"occupation":"ANALYST","city":"MOBILE","zip":"36608","receipt date":"6/14/2013","geo_score":0.857,"contributor name":"ROBINSON, ZACHARY","employer":"OHC CORP.","amount":600.0,"id":"ah99exyopyhr","geo_precision":"zip","state":"AL"},"type":"Feature","geometry":{"type":"Point","coordinates":[-88.138891,30.698523]}},{"properties":{"occupation":"ATTORNEY","city":"ALEXANDRIA","zip":"22314","receipt date":"6/16/2013","geo_score":0.857,"contributor name":"DONESA, CHRISTOPHER","employer":"US HOUSE OF REPRESENTATIVES","amount":500.0,"id":"ah99exte92h4","geo_precision":"zip","state":"VA"},"type":"Feature","geometry":{"type":"Point","coordinates":[-77.063587,38.811436]}},{"properties":{"occupation":"ATTORNEY","city":"FAIRHOPE","zip":"36533","receipt date":"6/17/2013","geo_score":0.857,"contributor name":"BECK, JOHN W.","employer":"SELF","amount":500.0,"id":"ah99ey2w34x6","geo_precision":"zip","state":"AL"},"type":"Feature","geometry":{"type":"Point","coordinates":[-88.148617,31.219617]}},{"properties":{"occupation":"PRIVATE EQUITY","city":"HOUSTON","zip":"77098","receipt date":"6/18/2013","geo_score":0.857,"contributor name":"DUBROWSKI, DANIEL R","employer":"LIONSTONE","amount":2600.0,"id":"ah99exqpf575","geo_precision":"zip","state":"TX"},"type":"Feature","geometry":{"type":"Point","coordinates":[-95.434241,29.83399]}},{"properties":{"occupation":"ATTORNEY","city":"NEW YORK","zip":"10128","receipt date":"6/18/2013","geo_score":0.857,"contributor name":"MCCORMICK, TERENCE W.","employer":"MINTZ &amp; GOLD LLP","amount":250.0,"id":"ah99exvoeq49","geo_precision":"zip","state":"NY"},"type":"Feature","geometry":{"type":"Point","coordinates":[-73.95158,40.780989]}},{"properties":{"occupation":"OWNER","city":"THEODORE","zip":"36582","receipt date":"6/21/2013","geo_score":0.857,"contributor name":"CALLAHAN, GREG","employer":"ABC SIGNS","amount":391.0,"id":"ah99ey56umjg","geo_precision":"zip","state":"AL"},"type":"Feature","geometry":{"type":"Point","coordinates":[-88.16889,30.462419]}},{"properties":{"occupation":"SENIOR FELLOW","city":"VIENNA","zip":"22180","receipt date":"6/22/2013","geo_score":0.857,"contributor name":"VON SPAKOVSKY, HANS A.","employer":"HERITAGE FOUNDATION","amount":1000.0,"id":"ah99ey1xsb8s","geo_precision":"zip","state":"VA"},"type":"Feature","geometry":{"type":"Point","coordinates":[-77.271094,38.930389]}},{"properties":{"occupation":"RETIRED","city":"EIGHT MILE","zip":"36613","receipt date":"6/24/2013","geo_score":0.857,"contributor name":"DAVIS, RONALD","employer":"NONE","amount":250.0,"id":"ah99ey3fc8nk","geo_precision":"zip","state":"AL"},"type":"Feature","geometry":{"type":"Point","coordinates":[-88.181948,30.85713]}},{"properties":{"occupation":"PHOTOGRAPHY AND GRAPHIC DESIGN","city":"MOBILE","zip":"36604","receipt date":"6/24/2013","geo_score":0.857,"contributor name":"MASTRO, MICHAEL","employer":"SELF","amount":1000.0,"id":"ah99exs1as4p","geo_precision":"zip","state":"AL"},"type":"Feature","geometry":{"type":"Point","coordinates":[-88.067048,30.684039]}},{"properties":{"occupation":"INVESTOR","city":"JACKSON","zip":"83001","receipt date":"6/25/2013","geo_score":0.857,"contributor name":"FRIESS, FOSTER S","employer":"FRIESS ASSOCIATES, LLC","amount":2500.0,"id":"ah99ey1sjitz","geo_precision":"zip","state":"WY"},"type":"Feature","geometry":{"type":"Point","coordinates":[-110.739266,43.452793]}},{"properties":{"occupation":"ATTORNEY","city":"BEVERLY HILLS","zip":"90210","receipt date":"6/25/2013","geo_score":0.857,"contributor name":"GEORGE, ERIC M","employer":"BROWNE GEORGE ROSS LLP","amount":500.0,"id":"ah99extlaog2","geo_precision":"zip","state":"CA"},"type":"Feature","geometry":{"type":"Point","coordinates":[-118.298662,33.786594]}},{"properties":{"occupation":"PHYSICIAN","city":"MOBILE","zip":"36695","receipt date":"6/25/2013","geo_score":0.857,"contributor name":"WOOD, ROBERT A.","employer":"MOBILE OB -GYN, PC","amount":500.0,"id":"ah99exqpubmy","geo_precision":"zip","state":"AL"},"type":"Feature","geometry":{"type":"Point","coordinates":[-88.226989,30.666959]}},{"properties":{"occupation":"ATTORNEY","city":"CLIFTON","zip":"20124","receipt date":"6/26/2013","geo_score":0.857,"contributor name":"BAKER, M. MILLER","employer":"MCDERMOTT WILL &amp; EMERY","amount":250.0,"id":"ah99exxukhe3","geo_precision":"zip","state":"VA"},"type":"Feature","geometry":{"type":"Point","coordinates":[-77.381808,38.781809]}},{"properties":{"occupation":"GOVERNMENT RELATIONS","city":"ALEXANDRIA","zip":"22308","receipt date":"6/26/2013","geo_score":0.857,"contributor name":"CAMBON, PAUL F.","employer":"THE LIVINGSTON GROUP","amount":1000.0,"id":"ah99ey46uyfk","geo_precision":"zip","state":"VA"},"type":"Feature","geometry":{"type":"Point","coordinates":[-77.066922,38.714004]}},{"properties":{"occupation":"VICE PRESIDENT","city":"ALEXANDRIA","zip":"22308","receipt date":"6/26/2013","geo_score":0.857,"contributor name":"EITEL, ROBERT S.","employer":"CAREER EDUCATION CORPORATION","amount":500.0,"id":"ah99ey661a8k","geo_precision":"zip","state":"VA"},"type":"Feature","geometry":{"type":"Point","coordinates":[-77.066922,38.714004]}},{"properties":{"occupation":"CONSULTANT","city":"ALEXANDRIA","zip":"22301","receipt date":"6/26/2013","geo_score":0.857,"contributor name":"GARDNER, JOHN S.","employer":"SELF","amount":500.0,"id":"ah99ey3pvgev","geo_precision":"zip","state":"VA"},"type":"Feature","geometry":{"type":"Point","coordinates":[-77.079622,38.823062]}},{"properties":{"occupation":"GOVERNMENT RELATIONS","city":"ALEXANDRIA","zip":"22308","receipt date":"6/26/2013","geo_score":0.857,"contributor name":"LIVINGSTON, ROBERT L.","employer":"LIVINGSTON GROUP","amount":1000.0,"id":"ah99exwing0s","geo_precision":"zip","state":"VA"},"type":"Feature","geometry":{"type":"Point","coordinates":[-77.066922,38.714004]}},{"properties":{"occupation":"ATTORNEY","city":"CHEVY CHASE","zip":"20815","receipt date":"6/26/2013","geo_score":0.857,"contributor name":"MALLORY, C. KING III","employer":"HUNTON &amp; WILLIAMS","amount":1000.0,"id":"ah99exvutkfr","geo_precision":"zip","state":"MD"},"type":"Feature","geometry":{"type":"Point","coordinates":[-77.097478,38.97011]}},{"properties":{"occupation":"GOVERNMENT RELATIONS","city":"VIENNA","zip":"22181","receipt date":"6/26/2013","geo_score":0.857,"contributor name":"MARTIN, J ALLEN","employer":"THE LIVINGSTON GROUP","amount":273.0,"id":"ah99exxh3q72","geo_precision":"zip","state":"VA"},"type":"Feature","geometry":{"type":"Point","coordinates":[-77.295256,38.90521]}},{"properties":{"occupation":"GOVERNMENT RELATIONS","city":"VIENNA","zip":"22181","receipt date":"6/26/2013","geo_score":0.857,"contributor name":"MARTIN, J. ALLEN","employer":"LIVINGSTON GROUP","amount":500.0,"id":"ah99exr3p35y","geo_precision":"zip","state":"VA"},"type":"Feature","geometry":{"type":"Point","coordinates":[-77.295256,38.90521]}},{"properties":{"occupation":"EXECUTIVE","city":"ARLINGTON","zip":"22209","receipt date":"6/26/2013","geo_score":0.857,"contributor name":"MARTIN, JAMES LEE","employer":"60 PLUS ASSOCIATION","amount":1000.0,"id":"ah99exvr1a8c","geo_precision":"zip","state":"VA"},"type":"Feature","geometry":{"type":"Point","coordinates":[-77.072478,38.896778]}},{"properties":{"occupation":"EXECUTIVE","city":"MOBILE","zip":"36608","receipt date":"6/26/2013","geo_score":0.857,"contributor name":"MCCALL, BARRETT BLOODWORTH","employer":"LARSON &amp; MCGOWIN, INC","amount":1000.0,"id":"ah99exuqrhzr","geo_precision":"zip","state":"AL"},"type":"Feature","geometry":{"type":"Point","coordinates":[-88.138891,30.698523]}},{"properties":{"occupation":"PRINCIPAL","city":"ALEXANDRIA","zip":"22304","receipt date":"6/28/2013","geo_score":0.857,"contributor name":"HIRSCHMANN, SUSAN B","employer":"WILLIAMS &amp; JENSEN, PLLC","amount":1000.0,"id":"ah99exuhrshl","geo_precision":"zip","state":"VA"},"type":"Feature","geometry":{"type":"Point","coordinates":[-77.109146,38.815391]}},{"properties":{"occupation":"ATTORNEY","city":"ARLINGTON","zip":"22201","receipt date":"6/29/2013","geo_score":0.857,"contributor name":"RENZULLI, JEFFREY J.","employer":"THE SACK LAW FIRM, PC","amount":500.0,"id":"ah99ey1d7u31","geo_precision":"zip","state":"VA"},"type":"Feature","geometry":{"type":"Point","coordinates":[-77.099113,38.885484]}}],"is_temporal":false,"author":{"url":"http://www.fec.gov/fecviewer/CandCmteTransaction.do","metadata":"","contact_name":"","contact_address":"","source":"","contact_phone":""},"source":"http://www.fec.gov/fecviewer/CandCmteTransaction.do","pagination":{"sort":null,"start":0,"total":46,"limit":1000000},"state":"complete","tags":"","published":"2014-08-16T18:16:13-04:00","id":394666}