{"type":"FeatureCollection","data_type":"Dataset","url_type":null,"permissions":[{"permissions":{"download":true,"view":true},"group_id":"everyone"}],"classification":null,"title":"Libro1","count":19,"stream_id":394770,"contributor":{"url":"http://geocommons.com/users/82418","name":"caritoq"},"data_attributes":null,"calculation_params":null,"icon_link":null,"link":"http://geocommons.com/overlays/394770.json","extent":[0.0,0.0,0.0,0.0],"geometry_types":[],"unique_name":null,"name":"Libro1","feature_count":19,"description":"","next_feature":null,"is_raster":false,"short_classification":"Y","stats":{},"features":[{"properties":{"university":"Charlote-Mecklenburg Schools","geo_score":0.0,"id":"ah9ndlefp8r8","geo_precision":"unmatched","address":"600 E. Fourth Street\rFifth Floor\rCharlotte, NC 28202","state":"North Carolina"},"type":"Feature","geometry":null},{"properties":{"university":"Buena Vista University","geo_score":0.0,"id":"ah9ndldgz263","geo_precision":"unmatched","address":"610 W 4th St, Storm Lake, IA 50588, United States","state":"Florida"},"type":"Feature","geometry":null},{"properties":{"university":"Huntsville Highschool","geo_score":0.0,"id":"ah9ndlf7n8zo","geo_precision":"unmatched","address":"594 S Harris St, Huntsville, AR 72740","state":"Arkansas"},"type":"Feature","geometry":null},{"properties":{"university":"Rollins College","geo_score":0.0,"id":"ah9ndlmlu1d6","geo_precision":"unmatched","address":"1001 Holt Ave., Winter Park, FL 32789","state":"Florida"},"type":"Feature","geometry":null},{"properties":{"university":"Bard Highschool","geo_score":0.0,"id":"ah9ndle8m5pk","geo_precision":"unmatched","address":"525 East Houston Street\rNew York, NY 10002","state":"New York"},"type":"Feature","geometry":null},{"properties":{"university":"Flager College","geo_score":0.0,"id":"ah9ndlopvzz3","geo_precision":"unmatched","address":"74 King Street St. Augustine, Florida 32084","state":"Florida"},"type":"Feature","geometry":null},{"properties":{"university":"Campbell University","geo_score":0.0,"id":"ah9ndle8sbdz","geo_precision":"unmatched","address":"109 Klvett Hall, Bules Creek, NC 27506","state":"North Carolina"},"type":"Feature","geometry":null},{"properties":{"university":"Saint Anns School","geo_score":0.0,"id":"ah9ndll40z5d","geo_precision":"unmatched","address":"129 Pierrepont Street, Brooklyn, NY 11201","state":"New York"},"type":"Feature","geometry":null},{"properties":{"university":"SUNY New Paltz","geo_score":0.0,"id":"ah9ndlh04ad3","geo_precision":"unmatched","address":"1 Hawk Dr, New Paltz, NY 12561","state":"New York"},"type":"Feature","geometry":null},{"properties":{"university":"Keene Central School","geo_score":0.0,"id":"ah9ndlngd779","geo_precision":"unmatched","address":"33 Market St  PO Box 67  Keene Valley, NY  12943","state":"New York"},"type":"Feature","geometry":null},{"properties":{"university":"Newark Collegiate Academy","geo_score":0.0,"id":"ah9ndlfveb0o","geo_precision":"unmatched","address":"909 Broad Street\rNewark, NJ 07102","state":"New Jersey"},"type":"Feature","geometry":null},{"properties":{"university":"University of South Florida","geo_score":0.0,"id":"ah9ndldc4qch","geo_precision":"unmatched","address":"4202 East Fowler Ave, CPR419, Tampa, FL 33620-5700","state":"Florida"},"type":"Feature","geometry":null},{"properties":{"university":"Adelphi University","geo_score":0.0,"id":"ah9ndlm2h6hg","geo_precision":"unmatched","address":"1 South Ave | P.O. Box 701 | Garden City, NY 11530-0701","state":"New York"},"type":"Feature","geometry":null},{"properties":{"university":"University of Arkansas - Fort Smith","geo_score":0.0,"id":"ah9ndl94fd0u","geo_precision":"unmatched","address":"5210 Grand Ave. P.O. Box 3649, Fort Smith, AR 72903","state":"Arkansas"},"type":"Feature","geometry":null},{"properties":{"university":"North Salem School","geo_score":0.0,"id":"ah9ndlg7xolz","geo_precision":"unmatched","address":"230 June Road, North Salem, NY 10560","state":"New York"},"type":"Feature","geometry":null},{"properties":{"university":"Binghamton University (SUNY)","geo_score":0.0,"id":"ah9ndlk3piag","geo_precision":"unmatched","address":"4400 Vestal Pkwy E  Binghamton, NY 13902","state":"New York"},"type":"Feature","geometry":null},{"properties":{"university":"Roma Catholic School","geo_score":0.0,"id":"ah9ndlgqamn0","geo_precision":"unmatched","address":"301 N Broad St, Philadelphia, PA 19107","state":"Pensylvania"},"type":"Feature","geometry":null},{"properties":{"university":"Florida International University","geo_score":0.0,"id":"ah9ndln31j1u","geo_precision":"unmatched","address":"11200 SW 8th St, Miami, FL 33199","state":"Florida"},"type":"Feature","geometry":null},{"properties":{"university":"University of North Carolina at Charlotte","geo_score":0.0,"id":"ah9ndlm2mp12","geo_precision":"unmatched","address":"9201 University City Blvd, Charlotte, NC 28223","state":"North Carolina"},"type":"Feature","geometry":null}],"is_temporal":false,"author":{"url":"","metadata":"","contact_name":"","contact_address":"","source":"","contact_phone":""},"source":"","pagination":{"sort":null,"start":0,"total":19,"limit":1000000},"state":"complete","tags":"","published":"2014-08-16T18:27:31-04:00","id":394770}