{"type":"FeatureCollection","data_type":"Dataset","url_type":null,"permissions":[{"permissions":{"download":true,"view":true},"group_id":"everyone"}],"classification":null,"title":"tapp2","count":491,"stream_id":394753,"contributor":{"url":"http://geocommons.com/users/82411","name":"yancynunez"},"data_attributes":null,"calculation_params":null,"icon_link":null,"link":"http://geocommons.com/overlays/394753.json","extent":[0.0,0.0,0.0,0.0],"geometry_types":[],"unique_name":null,"name":"tapp2","feature_count":491,"description":"","next_feature":null,"is_raster":false,"short_classification":"Y","stats":{},"features":[{"properties":{"zipcode":"78745","county":"AUSTIN","aian":null,"hapac":null,"int":null,"asian":null,"id":"ah9lldmjkehh","state":"TX"},"type":"Feature","geometry":null},{"properties":{"zipcode":"76380","county":"BAYLOR","aian":null,"hapac":null,"int":null,"asian":null,"id":"ah9lldz34rl9","state":"TX"},"type":"Feature","geometry":null},{"properties":{"zipcode":"76559","county":"BELL","aian":null,"hapac":null,"int":null,"asian":null,"id":"ah9lldply7x5","state":"TX"},"type":"Feature","geometry":null},{"properties":{"zipcode":"78132","county":"BEXAR","aian":null,"hapac":null,"int":null,"asian":null,"id":"ah9lldyprd68","state":"TX"},"type":"Feature","geometry":null},{"properties":{"zipcode":"78209","county":"BEXAR","aian":null,"hapac":null,"int":null,"asian":null,"id":"ah9lldtmq42j","state":"TX"},"type":"Feature","geometry":null},{"properties":{"zipcode":"78253","county":"BEXAR","aian":null,"hapac":null,"int":null,"asian":null,"id":"ah9lldkuoaz5","state":"TX"},"type":"Feature","geometry":null},{"properties":{"zipcode":"78254","county":"BEXAR","aian":null,"hapac":null,"int":null,"asian":null,"id":"ah9lldo1emr3","state":"TX"},"type":"Feature","geometry":null},{"properties":{"zipcode":"78259","county":"BEXAR","aian":null,"hapac":null,"int":null,"asian":null,"id":"ah9lldw5es10","state":"TX"},"type":"Feature","geometry":null},{"properties":{"zipcode":"78261","county":"BEXAR","aian":null,"hapac":null,"int":null,"asian":null,"id":"ah9lldmmyhk7","state":"TX"},"type":"Feature","geometry":null},{"properties":{"zipcode":"76652","county":"BOSQUE","aian":null,"hapac":null,"int":null,"asian":null,"id":"ah9lldy4g8be","state":"TX"},"type":"Feature","geometry":null},{"properties":{"zipcode":"75052","county":"CALIFORNIA","aian":null,"hapac":null,"int":null,"asian":null,"id":"ah9lldyqod7e","state":"TX"},"type":"Feature","geometry":null},{"properties":{"zipcode":"95370","county":"CALIFORNIA","aian":null,"hapac":null,"int":null,"asian":null,"id":"ah9lldotg69y","state":"CA"},"type":"Feature","geometry":null},{"properties":{"zipcode":"79510","county":"CALLAHAN","aian":null,"hapac":null,"int":null,"asian":null,"id":"ah9lldnn8sqg","state":"TX"},"type":"Feature","geometry":null},{"properties":{"zipcode":"75025","county":"COLLIN","aian":null,"hapac":null,"int":null,"asian":null,"id":"ah9lldyxh3rm","state":"TX"},"type":"Feature","geometry":null},{"properties":{"zipcode":"75071","county":"COLLIN","aian":null,"hapac":null,"int":null,"asian":null,"id":"ah9lldpww77u","state":"TX"},"type":"Feature","geometry":null},{"properties":{"zipcode":"75093","county":"COLLIN","aian":null,"hapac":null,"int":null,"asian":null,"id":"ah9lldwpwlgr","state":"TX"},"type":"Feature","geometry":null},{"properties":{"zipcode":"75442","county":"COLLIN","aian":null,"hapac":null,"int":null,"asian":null,"id":"ah9lldy08azs","state":"TX"},"type":"Feature","geometry":null},{"properties":{"zipcode":"78962","county":"COLORADO","aian":null,"hapac":null,"int":null,"asian":null,"id":"ah9lle058jag","state":"TX"},"type":"Feature","geometry":null},{"properties":{"zipcode":"75081","county":"DALLAS","aian":null,"hapac":null,"int":null,"asian":null,"id":"ah9lldktpzp7","state":"TX"},"type":"Feature","geometry":null},{"properties":{"zipcode":"75116","county":"DALLAS","aian":null,"hapac":null,"int":null,"asian":null,"id":"ah9lldve87d0","state":"TX"},"type":"Feature","geometry":null},{"properties":{"zipcode":"79411","county":"DALLAS","aian":null,"hapac":null,"int":null,"asian":null,"id":"ah9lldppspgq","state":"TX"},"type":"Feature","geometry":null},{"properties":{"zipcode":"75067","county":"DENTON","aian":null,"hapac":null,"int":null,"asian":null,"id":"ah9lldlwta6x","state":"TX"},"type":"Feature","geometry":null},{"properties":{"zipcode":"76262","county":"DENTON","aian":null,"hapac":null,"int":null,"asian":null,"id":"ah9lldniw1bg","state":"TX"},"type":"Feature","geometry":null},{"properties":{"zipcode":"79912","county":"EL PASO","aian":null,"hapac":null,"int":null,"asian":null,"id":"ah9lldvg29d2","state":"TX"},"type":"Feature","geometry":null},{"properties":{"zipcode":"79927","county":"EL PASO","aian":null,"hapac":null,"int":null,"asian":null,"id":"ah9lldy2vb4r","state":"TX"},"type":"Feature","geometry":null},{"properties":{"zipcode":"76446","county":"ERATH","aian":null,"hapac":null,"int":null,"asian":null,"id":"ah9llduf2rer","state":"TX"},"type":"Feature","geometry":null},{"properties":{"zipcode":"77469","county":"FORT BEND","aian":null,"hapac":null,"int":null,"asian":null,"id":"ah9lldpcuxu6","state":"TX"},"type":"Feature","geometry":null},{"properties":{"zipcode":"77479","county":"FORT BEND","aian":null,"hapac":null,"int":null,"asian":null,"id":"ah9lldxoq0ht","state":"TX"},"type":"Feature","geometry":null},{"properties":{"zipcode":"77545","county":"FORT BEND","aian":null,"hapac":null,"int":null,"asian":null,"id":"ah9lldtx1xy4","state":"TX"},"type":"Feature","geometry":null},{"properties":{"zipcode":"78624","county":"GILLESPIE","aian":null,"hapac":null,"int":null,"asian":null,"id":"ah9lldsvvj7v","state":"TX"},"type":"Feature","geometry":null},{"properties":{"zipcode":"78130","county":"GUADALUPE","aian":null,"hapac":null,"int":null,"asian":null,"id":"ah9lldxpdvmf","state":"TX"},"type":"Feature","geometry":null},{"properties":{"zipcode":"77018","county":"HARRIS","aian":null,"hapac":null,"int":null,"asian":null,"id":"ah9lldv2va9o","state":"TX"},"type":"Feature","geometry":null},{"properties":{"zipcode":"77059","county":"HARRIS","aian":null,"hapac":null,"int":null,"asian":null,"id":"ah9lldw92uxj","state":"TX"},"type":"Feature","geometry":null},{"properties":{"zipcode":"77070","county":"HARRIS","aian":null,"hapac":null,"int":null,"asian":null,"id":"ah9lldpp2k2k","state":"TX"},"type":"Feature","geometry":null},{"properties":{"zipcode":"77088","county":"HARRIS","aian":null,"hapac":null,"int":null,"asian":null,"id":"ah9lldwxwqyl","state":"TX"},"type":"Feature","geometry":null},{"properties":{"zipcode":"77401","county":"HARRIS","aian":null,"hapac":null,"int":null,"asian":null,"id":"ah9lldmves1j","state":"TX"},"type":"Feature","geometry":null},{"properties":{"zipcode":"78619","county":"HAYS","aian":null,"hapac":null,"int":null,"asian":null,"id":"ah9lldod0wjk","state":"TX"},"type":"Feature","geometry":null},{"properties":{"zipcode":"78501","county":"HIDALGO","aian":null,"hapac":null,"int":null,"asian":null,"id":"ah9lldz5j71w","state":"TX"},"type":"Feature","geometry":null},{"properties":{"zipcode":"78501","county":"HIDALGO","aian":null,"hapac":null,"int":null,"asian":null,"id":"ah9lldwfnw45","state":"TX"},"type":"Feature","geometry":null},{"properties":{"zipcode":"76476","county":"HOOD","aian":null,"hapac":null,"int":null,"asian":null,"id":"ah9lldsr92n5","state":"TX"},"type":"Feature","geometry":null},{"properties":{"zipcode":"77640","county":"JEFFERRSON","aian":null,"hapac":null,"int":null,"asian":null,"id":"ah9lldt26zwa","state":"TX"},"type":"Feature","geometry":null},{"properties":{"zipcode":"76028","county":"JOHNSON","aian":null,"hapac":null,"int":null,"asian":null,"id":"ah9lldumigb2","state":"TX"},"type":"Feature","geometry":null},{"properties":{"zipcode":"78015","county":"KENDALL","aian":null,"hapac":null,"int":null,"asian":null,"id":"ah9lldzg04eh","state":"TX"},"type":"Feature","geometry":null},{"properties":{"zipcode":"79408","county":"LUBBOCK COUNTY","aian":"Y","hapac":null,"int":null,"asian":null,"id":"ah9lle0seb1q","state":"TX"},"type":"Feature","geometry":null},{"properties":{"zipcode":"79423","county":"LUBBOCK COUNTY","aian":"Y","hapac":null,"int":null,"asian":null,"id":"ah9lldvfub35","state":"TX"},"type":"Feature","geometry":null},{"properties":{"zipcode":"75662","county":"MARION","aian":null,"hapac":null,"int":null,"asian":null,"id":"ah9lldzz3d07","state":"TX"},"type":"Feature","geometry":null},{"properties":{"zipcode":"79703","county":"MIDLAND","aian":null,"hapac":null,"int":null,"asian":null,"id":"ah9lldqvqfex","state":"TX"},"type":"Feature","geometry":null},{"properties":{"zipcode":"79705","county":"MIDLAND","aian":null,"hapac":null,"int":null,"asian":null,"id":"ah9lldm67cy5","state":"TX"},"type":"Feature","geometry":null},{"properties":{"zipcode":"79706","county":"MIDLAND","aian":null,"hapac":null,"int":null,"asian":null,"id":"ah9lldvlpxjd","state":"TX"},"type":"Feature","geometry":null},{"properties":{"zipcode":"79706","county":"MIDLAND","aian":null,"hapac":null,"int":null,"asian":null,"id":"ah9llduh27jl","state":"TX"},"type":"Feature","geometry":null},{"properties":{"zipcode":"77386","county":"MONTGOMERY","aian":null,"hapac":null,"int":null,"asian":"Y","id":"ah9lldy01wql","state":"TX"},"type":"Feature","geometry":null},{"properties":{"zipcode":"77386","county":"MONTGOMERY","aian":null,"hapac":null,"int":null,"asian":null,"id":"ah9llduuwt8n","state":"TX"},"type":"Feature","geometry":null},{"properties":{"zipcode":"76008","county":"PARKER","aian":null,"hapac":null,"int":null,"asian":null,"id":"ah9lldlvhkv0","state":"TX"},"type":"Feature","geometry":null},{"properties":{"zipcode":"75032","county":"ROCKWALL","aian":null,"hapac":null,"int":null,"asian":null,"id":"ah9lldu0wu78","state":"TX"},"type":"Feature","geometry":null},{"properties":{"zipcode":"75087","county":"ROCKWALL","aian":null,"hapac":null,"int":null,"asian":null,"id":"ah9lldo45uol","state":"TX"},"type":"Feature","geometry":null},{"properties":{"zipcode":"76430","county":"SHACKELFORD","aian":null,"hapac":null,"int":null,"asian":null,"id":"ah9lle07u9er","state":"TX"},"type":"Feature","geometry":null},{"properties":{"zipcode":"75701","county":"SMITH","aian":null,"hapac":null,"int":null,"asian":null,"id":"ah9lldvvy6tm","state":"TX"},"type":"Feature","geometry":null},{"properties":{"zipcode":"76013","county":"TARRANT","aian":null,"hapac":null,"int":null,"asian":null,"id":"ah9lldz6k49f","state":"TX"},"type":"Feature","geometry":null},{"properties":{"zipcode":"76015","county":"TARRANT","aian":null,"hapac":null,"int":null,"asian":null,"id":"ah9lldo5zzcq","state":"TX"},"type":"Feature","geometry":null},{"properties":{"zipcode":"76016","county":"TARRANT","aian":null,"hapac":null,"int":null,"asian":null,"id":"ah9lldkwrgv6","state":"TX"},"type":"Feature","geometry":null},{"properties":{"zipcode":"76051","county":"TARRANT","aian":null,"hapac":null,"int":null,"asian":null,"id":"ah9lldpl9j9s","state":"TX"},"type":"Feature","geometry":null},{"properties":{"zipcode":"76107","county":"TARRANT","aian":null,"hapac":null,"int":null,"asian":null,"id":"ah9lldxqlrtl","state":"TX"},"type":"Feature","geometry":null},{"properties":{"zipcode":"76116","county":"TARRANT","aian":null,"hapac":null,"int":null,"asian":null,"id":"ah9lldwq9mx7","state":"TX"},"type":"Feature","geometry":null},{"properties":{"zipcode":"76116","county":"TARRANT","aian":null,"hapac":null,"int":null,"asian":null,"id":"ah9lldl3tluu","state":"TX"},"type":"Feature","geometry":null},{"properties":{"zipcode":"76179","county":"TARRANT","aian":null,"hapac":null,"int":null,"asian":null,"id":"ah9llduh7tun","state":"TX"},"type":"Feature","geometry":null},{"properties":{"zipcode":"76180","county":"TARRANT","aian":null,"hapac":null,"int":null,"asian":null,"id":"ah9lle02v1uj","state":"TX"},"type":"Feature","geometry":null},{"properties":{"zipcode":"76262","county":"TARRANT","aian":null,"hapac":null,"int":null,"asian":null,"id":"ah9lldqs84by","state":"TX"},"type":"Feature","geometry":null},{"properties":{"zipcode":"79536","county":"TAYLOR","aian":null,"hapac":null,"int":null,"asian":null,"id":"ah9lldn394g3","state":"TX"},"type":"Feature","geometry":null},{"properties":{"zipcode":"79562","county":"TAYLOR","aian":null,"hapac":null,"int":null,"asian":null,"id":"ah9lldl70fhx","state":"TX"},"type":"Feature","geometry":null},{"properties":{"zipcode":"79606","county":"TAYLOR","aian":null,"hapac":null,"int":null,"asian":null,"id":"ah9lldvqzvpp","state":"TX"},"type":"Feature","geometry":null},{"properties":{"zipcode":"78736","county":"TRAVIS","aian":null,"hapac":null,"int":null,"asian":null,"id":"ah9lldzdhknz","state":"TX"},"type":"Feature","geometry":null},{"properties":{"zipcode":"78748","county":"TRAVIS","aian":null,"hapac":null,"int":null,"asian":null,"id":"ah9lldz5552z","state":"TX"},"type":"Feature","geometry":null},{"properties":{"zipcode":"76308","county":"WICHITA","aian":null,"hapac":null,"int":null,"asian":null,"id":"ah9lldkuauwl","state":"TX"},"type":"Feature","geometry":null},{"properties":{"zipcode":"76310","county":"WICHITA","aian":null,"hapac":null,"int":null,"asian":null,"id":"ah9lldr9yqu6","state":"TX"},"type":"Feature","geometry":null},{"properties":{"zipcode":"78633","county":"WILLIAMSON","aian":null,"hapac":null,"int":null,"asian":null,"id":"ah9lldvxyq2c","state":"TX"},"type":"Feature","geometry":null},{"properties":{"zipcode":"78633","county":"WILLIAMSON","aian":null,"hapac":null,"int":null,"asian":null,"id":"ah9lldmret6c","state":"TX"},"type":"Feature","geometry":null},{"properties":{"zipcode":"78634","county":"WILLIAMSON","aian":null,"hapac":null,"int":null,"asian":null,"id":"ah9lldvkw1d0","state":"TX"},"type":"Feature","geometry":null},{"properties":{"zipcode":"78634","county":"WILLIAMSON","aian":null,"hapac":null,"int":null,"asian":null,"id":"ah9lldn9wlb7","state":"TX"},"type":"Feature","geometry":null},{"properties":{"zipcode":"78641","county":"WILLIAMSON","aian":null,"hapac":null,"int":null,"asian":null,"id":"ah9lldpgen7c","state":"TX"},"type":"Feature","geometry":null},{"properties":{"zipcode":"78681","county":"WILLIAMSON","aian":null,"hapac":null,"int":null,"asian":null,"id":"ah9lldwlb385","state":"TX"},"type":"Feature","geometry":null},{"properties":{"zipcode":"78681","county":"WILLIAMSON","aian":null,"hapac":null,"int":null,"asian":null,"id":"ah9lldlmmexe","state":"TX"},"type":"Feature","geometry":null},{"properties":{"zipcode":"79423","county":"WILLIAMSON","aian":"Y","hapac":null,"int":null,"asian":null,"id":"ah9lldwtlhej","state":"TX"},"type":"Feature","geometry":null},{"properties":{"zipcode":"76258","county":"DENTON","aian":null,"hapac":null,"int":null,"asian":null,"id":"ah9lldwyoa8o","state":"TX"},"type":"Feature","geometry":null},{"properties":{"zipcode":"78732","county":"TRAVIS","aian":null,"hapac":null,"int":null,"asian":null,"id":"ah9lldycry1k","state":"TX"},"type":"Feature","geometry":null},{"properties":{"zipcode":"77573","county":"GALVESTON","aian":null,"hapac":null,"int":null,"asian":null,"id":"ah9lldtxt48t","state":"TX"},"type":"Feature","geometry":null},{"properties":{"zipcode":"79088","county":"SWISHER","aian":null,"hapac":null,"int":null,"asian":null,"id":"ah9lldp5ziy9","state":"TX"},"type":"Feature","geometry":null},{"properties":{"zipcode":"77090","county":"HARRIS","aian":null,"hapac":null,"int":null,"asian":null,"id":"ah9lldy9px3x","state":"TX"},"type":"Feature","geometry":null},{"properties":{"zipcode":"79121","county":"RANDALL","aian":null,"hapac":null,"int":null,"asian":null,"id":"ah9lldona689","state":"TX"},"type":"Feature","geometry":null},{"properties":{"zipcode":"78023","county":"BEXAR","aian":null,"hapac":null,"int":null,"asian":null,"id":"ah9lldygt44l","state":"TX"},"type":"Feature","geometry":null},{"properties":{"zipcode":"75137","county":"DALLAS","aian":null,"hapac":null,"int":null,"asian":null,"id":"ah9lldrhdjfz","state":"TX"},"type":"Feature","geometry":null},{"properties":{"zipcode":"77055","county":"HARRIS","aian":null,"hapac":null,"int":null,"asian":null,"id":"ah9lldlfb6yc","state":"TX"},"type":"Feature","geometry":null},{"properties":{"zipcode":"77379","county":"HARRIS","aian":null,"hapac":null,"int":null,"asian":null,"id":"ah9llds9fq8d","state":"TX"},"type":"Feature","geometry":null},{"properties":{"zipcode":"79109","county":"RANDALL","aian":null,"hapac":null,"int":null,"asian":null,"id":"ah9lldvpxfk4","state":"TX"},"type":"Feature","geometry":null},{"properties":{"zipcode":"76442","county":"COMANCHE","aian":null,"hapac":null,"int":null,"asian":null,"id":"ah9lldr5rbje","state":"TX"},"type":"Feature","geometry":null},{"properties":{"zipcode":"75252","county":"DALLAS","aian":null,"hapac":null,"int":null,"asian":null,"id":"ah9lldy8kky9","state":"TX"},"type":"Feature","geometry":null},{"properties":{"zipcode":"77494","county":"FORT BEND","aian":null,"hapac":null,"int":null,"asian":null,"id":"ah9lldtg1n1c","state":"TX"},"type":"Feature","geometry":null},{"properties":{"zipcode":"77096","county":"HARRIS","aian":null,"hapac":null,"int":null,"asian":null,"id":"ah9lldpvmvbp","state":"TX"},"type":"Feature","geometry":null},{"properties":{"zipcode":"79424","county":"LUBBOCK COUNTY","aian":null,"hapac":null,"int":null,"asian":null,"id":"ah9lldmht27q","state":"TX"},"type":"Feature","geometry":null},{"properties":{"zipcode":"79413","county":"LUBBOCK COUNTY","aian":null,"hapac":null,"int":null,"asian":null,"id":"ah9lldz2pnfi","state":"TX"},"type":"Feature","geometry":null},{"properties":{"zipcode":"90660","county":"CALIFORNIA","aian":null,"hapac":null,"int":null,"asian":null,"id":"ah9lldzcl4mn","state":"CA"},"type":"Feature","geometry":null},{"properties":{"zipcode":"75077","county":"DENTON","aian":null,"hapac":null,"int":null,"asian":null,"id":"ah9lldoz697k","state":"TX"},"type":"Feature","geometry":null},{"properties":{"zipcode":"88345","county":"LUBBOCK COUNTY","aian":null,"hapac":null,"int":null,"asian":null,"id":"ah9lle0olcmu","state":"NM"},"type":"Feature","geometry":null},{"properties":{"zipcode":"77082","county":"HARRIS","aian":null,"hapac":null,"int":null,"asian":null,"id":"ah9llduymt7v","state":"TX"},"type":"Feature","geometry":null},{"properties":{"zipcode":"79411","county":"LUBBOCK COUNTY","aian":null,"hapac":null,"int":null,"asian":null,"id":"ah9lldxhnqkx","state":"TX"},"type":"Feature","geometry":null},{"properties":{"zipcode":"79602","county":"TAYLOR","aian":null,"hapac":null,"int":null,"asian":null,"id":"ah9lldud3yqz","state":"TX"},"type":"Feature","geometry":null},{"properties":{"zipcode":"75013","county":"COLLIN","aian":null,"hapac":null,"int":null,"asian":null,"id":"ah9lldkvhtjr","state":"TX"},"type":"Feature","geometry":null},{"properties":{"zipcode":"75077","county":"DENTON","aian":null,"hapac":null,"int":null,"asian":null,"id":"ah9lle0hoo59","state":"TX"},"type":"Feature","geometry":null},{"properties":{"zipcode":"77573","county":"GALVESTON","aian":null,"hapac":null,"int":null,"asian":null,"id":"ah9lle0jbzfd","state":"TX"},"type":"Feature","geometry":null},{"properties":{"zipcode":"76849","county":"KIMBLE","aian":null,"hapac":null,"int":null,"asian":null,"id":"ah9lldwwrkt0","state":"TX"},"type":"Feature","geometry":null},{"properties":{"zipcode":"79701","county":"MIDLAND","aian":null,"hapac":null,"int":null,"asian":null,"id":"ah9lldxi0toz","state":"TX"},"type":"Feature","geometry":null},{"properties":{"zipcode":"76002","county":"TARRANT","aian":null,"hapac":null,"int":null,"asian":null,"id":"ah9lle0oduzk","state":"TX"},"type":"Feature","geometry":null},{"properties":{"zipcode":"76107","county":"TARRANT","aian":null,"hapac":null,"int":null,"asian":null,"id":"ah9llduxnwia","state":"TX"},"type":"Feature","geometry":null},{"properties":{"zipcode":"78634","county":"WILLIAMSON","aian":null,"hapac":null,"int":null,"asian":null,"id":"ah9lldnfim22","state":"TX"},"type":"Feature","geometry":null},{"properties":{"zipcode":"79404","county":"LUBBOCK COUNTY","aian":null,"hapac":null,"int":null,"asian":null,"id":"ah9lldzzxmcv","state":"TX"},"type":"Feature","geometry":null},{"properties":{"zipcode":"79403","county":"LUBBOCK COUNTY","aian":null,"hapac":null,"int":null,"asian":null,"id":"ah9lldqwj616","state":"TX"},"type":"Feature","geometry":null},{"properties":{"zipcode":"75077","county":"DENTON","aian":null,"hapac":null,"int":null,"asian":null,"id":"ah9lldzxls7n","state":"TX"},"type":"Feature","geometry":null},{"properties":{"zipcode":"76109","county":"TARRANT","aian":null,"hapac":null,"int":null,"asian":null,"id":"ah9lldm2rxj6","state":"TX"},"type":"Feature","geometry":null},{"properties":{"zipcode":"79412","county":"LUBBOCK COUNTY","aian":null,"hapac":null,"int":null,"asian":null,"id":"ah9lldplxbag","state":"TX"},"type":"Feature","geometry":null},{"properties":{"zipcode":"79404","county":"LUBBOCK COUNTY","aian":null,"hapac":null,"int":null,"asian":null,"id":"ah9lldv7chfq","state":"TX"},"type":"Feature","geometry":null},{"properties":{"zipcode":"75110","county":"NAVARRO","aian":null,"hapac":null,"int":null,"asian":null,"id":"ah9lldmkeebz","state":"TX"},"type":"Feature","geometry":null},{"properties":{"zipcode":"75028","county":"DENTON","aian":null,"hapac":null,"int":null,"asian":null,"id":"ah9lldsi4q0m","state":"TX"},"type":"Feature","geometry":null},{"properties":{"zipcode":"77084","county":"HARRIS","aian":null,"hapac":null,"int":null,"asian":null,"id":"ah9lldnywdxl","state":"TX"},"type":"Feature","geometry":null},{"properties":{"zipcode":"78254","county":"BEXAR","aian":null,"hapac":null,"int":null,"asian":"Y","id":"ah9lldnm8cjl","state":"TX"},"type":"Feature","geometry":null},{"properties":{"zipcode":"76226","county":"DENTON","aian":null,"hapac":null,"int":null,"asian":null,"id":"ah9llduecnps","state":"TX"},"type":"Feature","geometry":null},{"properties":{"zipcode":"76426","county":"WISE","aian":null,"hapac":null,"int":null,"asian":null,"id":"ah9lldl0bbtj","state":"TX"},"type":"Feature","geometry":null},{"properties":{"zipcode":"75236","county":"DALLAS","aian":null,"hapac":null,"int":null,"asian":null,"id":"ah9lldv7ovuz","state":"TX"},"type":"Feature","geometry":null},{"properties":{"zipcode":"79705","county":"MIDLAND","aian":null,"hapac":null,"int":null,"asian":null,"id":"ah9lldt07z1l","state":"TX"},"type":"Feature","geometry":null},{"properties":{"zipcode":"75094","county":"COLLIN","aian":null,"hapac":null,"int":null,"asian":null,"id":"ah9lldksl3zb","state":"TX"},"type":"Feature","geometry":null},{"properties":{"zipcode":"76006","county":"TARRANT","aian":null,"hapac":null,"int":null,"asian":null,"id":"ah9lldszaedc","state":"TX"},"type":"Feature","geometry":null},{"properties":{"zipcode":"76705","county":"MCLENNAN","aian":null,"hapac":null,"int":null,"asian":null,"id":"ah9llduttpeu","state":"TX"},"type":"Feature","geometry":null},{"properties":{"zipcode":"76126","county":"TARRANT","aian":null,"hapac":null,"int":null,"asian":null,"id":"ah9lldozqhro","state":"TX"},"type":"Feature","geometry":null},{"properties":{"zipcode":"76033","county":"JOHNSON","aian":null,"hapac":null,"int":null,"asian":null,"id":"ah9lldvlm22e","state":"TX"},"type":"Feature","geometry":null},{"properties":{"zipcode":"76015","county":"TARRANT","aian":null,"hapac":null,"int":null,"asian":null,"id":"ah9llduhm8x2","state":"TX"},"type":"Feature","geometry":null},{"properties":{"zipcode":"76248","county":"TARRANT","aian":null,"hapac":null,"int":null,"asian":null,"id":"ah9lldulsdkn","state":"TX"},"type":"Feature","geometry":null},{"properties":{"zipcode":"76801","county":"BROWN","aian":null,"hapac":null,"int":null,"asian":null,"id":"ah9lldozzneo","state":"TX"},"type":"Feature","geometry":null},{"properties":{"zipcode":"75098","county":"COLLIN","aian":null,"hapac":null,"int":null,"asian":null,"id":"ah9lldxcr3va","state":"TX"},"type":"Feature","geometry":null},{"properties":{"zipcode":"76133","county":"TARRANT","aian":null,"hapac":null,"int":null,"asian":null,"id":"ah9lldpmryrn","state":"TX"},"type":"Feature","geometry":null},{"properties":{"zipcode":"76234","county":"WISE","aian":null,"hapac":null,"int":null,"asian":null,"id":"ah9lldz40urh","state":"TX"},"type":"Feature","geometry":null},{"properties":{"zipcode":"78596","county":"HIDALGO","aian":null,"hapac":null,"int":null,"asian":null,"id":"ah9lldv8uady","state":"TX"},"type":"Feature","geometry":null},{"properties":{"zipcode":"79119","county":"RANDALL","aian":null,"hapac":null,"int":null,"asian":null,"id":"ah9lle0538u0","state":"TX"},"type":"Feature","geometry":null},{"properties":{"zipcode":"76034","county":"TARRANT","aian":null,"hapac":null,"int":null,"asian":null,"id":"ah9lldunsbvb","state":"TX"},"type":"Feature","geometry":null},{"properties":{"zipcode":"75238","county":"DALLAS","aian":null,"hapac":null,"int":null,"asian":null,"id":"ah9lldpf40rc","state":"TX"},"type":"Feature","geometry":null},{"properties":{"zipcode":"75077","county":"DENTON","aian":null,"hapac":null,"int":null,"asian":null,"id":"ah9lldwx77g4","state":"TX"},"type":"Feature","geometry":null},{"properties":{"zipcode":"77546","county":"GALVESTON","aian":null,"hapac":null,"int":null,"asian":null,"id":"ah9lldmka2yi","state":"TX"},"type":"Feature","geometry":null},{"properties":{"zipcode":"78624","county":"GILLESPIE","aian":null,"hapac":null,"int":null,"asian":null,"id":"ah9lldpuorqf","state":"TX"},"type":"Feature","geometry":null},{"properties":{"zipcode":"77094","county":"HARRIS","aian":null,"hapac":null,"int":null,"asian":null,"id":"ah9lldp6a0l3","state":"TX"},"type":"Feature","geometry":null},{"properties":{"zipcode":"78640","county":"HAYS","aian":null,"hapac":null,"int":null,"asian":null,"id":"ah9lldreme03","state":"TX"},"type":"Feature","geometry":null},{"properties":{"zipcode":"76049","county":"HOOD","aian":null,"hapac":null,"int":null,"asian":null,"id":"ah9lldldfw4w","state":"TX"},"type":"Feature","geometry":null},{"properties":{"zipcode":"75703","county":"SMITH","aian":null,"hapac":null,"int":null,"asian":null,"id":"ah9lldy8wvtf","state":"TX"},"type":"Feature","geometry":null},{"properties":{"zipcode":"78669","county":"TRAVIS","aian":null,"hapac":null,"int":null,"asian":null,"id":"ah9llduaf5rx","state":"TX"},"type":"Feature","geometry":null},{"properties":{"zipcode":"78681","county":"WILLIAMSON","aian":null,"hapac":null,"int":null,"asian":null,"id":"ah9lldzqynw9","state":"TX"},"type":"Feature","geometry":null},{"properties":{"zipcode":"77379","county":"HARRIS","aian":null,"hapac":null,"int":null,"asian":null,"id":"ah9lldqxc732","state":"TX"},"type":"Feature","geometry":null},{"properties":{"zipcode":"79701","county":"MIDLAND","aian":null,"hapac":null,"int":null,"asian":null,"id":"ah9lldxdw34j","state":"TX"},"type":"Feature","geometry":null},{"properties":{"zipcode":"79602","county":"TAYLOR","aian":null,"hapac":null,"int":null,"asian":null,"id":"ah9lldwz5684","state":"TX"},"type":"Feature","geometry":null},{"properties":{"zipcode":"79323","county":"YOAKUM COUNTY","aian":null,"hapac":null,"int":null,"asian":null,"id":"ah9lle0glc8l","state":"TX"},"type":"Feature","geometry":null},{"properties":{"zipcode":"76164","county":"TARRANT","aian":null,"hapac":null,"int":null,"asian":null,"id":"ah9lldomjvjv","state":"TX"},"type":"Feature","geometry":null},{"properties":{"zipcode":"78748","county":"TRAVIS","aian":null,"hapac":null,"int":null,"asian":null,"id":"ah9lle0vxboh","state":"TX"},"type":"Feature","geometry":null},{"properties":{"zipcode":"78523","county":"ARANSAS","aian":null,"hapac":null,"int":null,"asian":null,"id":"ah9lldpknxer","state":"TX"},"type":"Feature","geometry":null},{"properties":{"zipcode":"78231","county":"BEXAR","aian":null,"hapac":null,"int":null,"asian":null,"id":"ah9lldl5qhcp","state":"TX"},"type":"Feature","geometry":null},{"properties":{"zipcode":"78258","county":"BEXAR","aian":"Y","hapac":null,"int":null,"asian":null,"id":"ah9lldu4zfr6","state":"TX"},"type":"Feature","geometry":null},{"properties":{"zipcode":"76802","county":"BROWN","aian":null,"hapac":null,"int":null,"asian":null,"id":"ah9lldxgx9ua","state":"TX"},"type":"Feature","geometry":null},{"properties":{"zipcode":"75074","county":"COLLIN","aian":null,"hapac":null,"int":null,"asian":null,"id":"ah9lldoo0lua","state":"TX"},"type":"Feature","geometry":null},{"properties":{"zipcode":"75093","county":"COLLIN","aian":null,"hapac":null,"int":null,"asian":null,"id":"ah9lldx0besr","state":"TX"},"type":"Feature","geometry":null},{"properties":{"zipcode":"75028","county":"DALLAS","aian":null,"hapac":null,"int":null,"asian":null,"id":"ah9llducmx78","state":"TX"},"type":"Feature","geometry":null},{"properties":{"zipcode":"75248","county":"DALLAS","aian":null,"hapac":null,"int":null,"asian":null,"id":"ah9lldrefqlr","state":"TX"},"type":"Feature","geometry":null},{"properties":{"zipcode":"75601","county":"GREGG","aian":null,"hapac":null,"int":null,"asian":null,"id":"ah9lldyk2q8a","state":"TX"},"type":"Feature","geometry":null},{"properties":{"zipcode":"77051","county":"HARRIS","aian":null,"hapac":null,"int":null,"asian":null,"id":"ah9llduo4der","state":"TX"},"type":"Feature","geometry":null},{"properties":{"zipcode":"79416","county":"LUBBOCK COUNTY","aian":null,"hapac":null,"int":null,"asian":null,"id":"ah9lldx95yvu","state":"TX"},"type":"Feature","geometry":null},{"properties":{"zipcode":"79567","county":"RUNNELS","aian":null,"hapac":null,"int":null,"asian":null,"id":"ah9lldqw2u75","state":"TX"},"type":"Feature","geometry":null},{"properties":{"zipcode":"76001","county":"TARRANT","aian":null,"hapac":null,"int":null,"asian":null,"id":"ah9lldnns29d","state":"TX"},"type":"Feature","geometry":null},{"properties":{"zipcode":"79606","county":"TAYLOR","aian":null,"hapac":null,"int":null,"asian":null,"id":"ah9lldv4xnhg","state":"TX"},"type":"Feature","geometry":null},{"properties":{"zipcode":"78681","county":"WILLIAMSON","aian":null,"hapac":null,"int":null,"asian":null,"id":"ah9lldnfthqw","state":"TX"},"type":"Feature","geometry":null},{"properties":{"zipcode":"79930","county":"EL PASO","aian":null,"hapac":null,"int":null,"asian":null,"id":"ah9lldrwqove","state":"TX"},"type":"Feature","geometry":null},{"properties":{"zipcode":"78626","county":"WILLIAMSON","aian":"Y","hapac":null,"int":null,"asian":null,"id":"ah9lldo3yaxw","state":"TX"},"type":"Feature","geometry":null},{"properties":{"zipcode":"78209","county":"BEXAR","aian":null,"hapac":null,"int":null,"asian":null,"id":"ah9lldq20cgx","state":"TX"},"type":"Feature","geometry":null},{"properties":{"zipcode":"77584","county":"BRAZORIA","aian":null,"hapac":null,"int":null,"asian":null,"id":"ah9lldvovl27","state":"TX"},"type":"Feature","geometry":null},{"properties":{"zipcode":"75035","county":"COLLIN","aian":null,"hapac":null,"int":null,"asian":"Y","id":"ah9lldsz8yot","state":"TX"},"type":"Feature","geometry":null},{"properties":{"zipcode":"75062","county":"DALLAS","aian":null,"hapac":null,"int":null,"asian":null,"id":"ah9lle0i65g6","state":"TX"},"type":"Feature","geometry":null},{"properties":{"zipcode":"77459","county":"FORT BEND","aian":null,"hapac":null,"int":null,"asian":null,"id":"ah9lldx4gpki","state":"TX"},"type":"Feature","geometry":null},{"properties":{"zipcode":"77089","county":"HARRIS","aian":null,"hapac":null,"int":null,"asian":null,"id":"ah9lldtku6ip","state":"TX"},"type":"Feature","geometry":null},{"properties":{"zipcode":"78737","county":"HAYS","aian":null,"hapac":null,"int":null,"asian":null,"id":"ah9lldrzd8mp","state":"TX"},"type":"Feature","geometry":null},{"properties":{"zipcode":"78574","county":"HIDALGO","aian":null,"hapac":null,"int":null,"asian":null,"id":"ah9lldvbo0k6","state":"TX"},"type":"Feature","geometry":null},{"properties":{"zipcode":"76230","county":"MONTAGUE","aian":null,"hapac":null,"int":null,"asian":null,"id":"ah9lldqdin3x","state":"TX"},"type":"Feature","geometry":null},{"properties":{"zipcode":"76008","county":"PARKER","aian":null,"hapac":null,"int":null,"asian":null,"id":"ah9lldso6563","state":"TX"},"type":"Feature","geometry":null},{"properties":{"zipcode":"75701","county":"SMITH","aian":null,"hapac":null,"int":null,"asian":null,"id":"ah9lldm1n1o7","state":"TX"},"type":"Feature","geometry":null},{"properties":{"zipcode":"76180","county":"TARRANT","aian":null,"hapac":null,"int":null,"asian":null,"id":"ah9lldz0yqus","state":"TX"},"type":"Feature","geometry":null},{"properties":{"zipcode":"79601","county":"TAYLOR","aian":null,"hapac":null,"int":null,"asian":null,"id":"ah9lldokgpsn","state":"TX"},"type":"Feature","geometry":null},{"properties":{"zipcode":"78745","county":"TRAVIS","aian":null,"hapac":null,"int":null,"asian":null,"id":"ah9lldxr7uyx","state":"TX"},"type":"Feature","geometry":null},{"properties":{"zipcode":"76308","county":"WICHITA","aian":"Y","hapac":null,"int":null,"asian":null,"id":"ah9lldoqj0ef","state":"TX"},"type":"Feature","geometry":null},{"properties":{"zipcode":"76882","county":"COLEMAN","aian":null,"hapac":null,"int":null,"asian":null,"id":"ah9lldsky9rc","state":"TX"},"type":"Feature","geometry":null},{"properties":{"zipcode":"75077","county":"DENTON","aian":null,"hapac":null,"int":null,"asian":null,"id":"ah9lldu3m1rj","state":"TX"},"type":"Feature","geometry":null},{"properties":{"zipcode":"78654","county":"BURNET","aian":null,"hapac":null,"int":null,"asian":null,"id":"ah9lldrqgwg9","state":"TX"},"type":"Feature","geometry":null},{"properties":{"zipcode":"78251","county":"BEXAR","aian":null,"hapac":null,"int":null,"asian":null,"id":"ah9lldm3vpoi","state":"TX"},"type":"Feature","geometry":null},{"properties":{"zipcode":"79731","county":"CRANE","aian":"Y","hapac":null,"int":null,"asian":null,"id":"ah9lldnytt8n","state":"TX"},"type":"Feature","geometry":null},{"properties":{"zipcode":"75028","county":"DENTON","aian":null,"hapac":null,"int":null,"asian":null,"id":"ah9lldsia0br","state":"TX"},"type":"Feature","geometry":null},{"properties":{"zipcode":"79762","county":"ECTOR","aian":null,"hapac":null,"int":null,"asian":"Y","id":"ah9lldnxo2cm","state":"TX"},"type":"Feature","geometry":null},{"properties":{"zipcode":"77498","county":"FORT BEND","aian":null,"hapac":null,"int":null,"asian":null,"id":"ah9lldq5ecbv","state":"TX"},"type":"Feature","geometry":null},{"properties":{"zipcode":"77346","county":"HARRIS","aian":null,"hapac":null,"int":null,"asian":null,"id":"ah9lldmgo18u","state":"TX"},"type":"Feature","geometry":null},{"properties":{"zipcode":"79007","county":"HUTCHINSON","aian":null,"hapac":null,"int":null,"asian":null,"id":"ah9lldzu9ahp","state":"TX"},"type":"Feature","geometry":null},{"properties":{"zipcode":"75110","county":"NEW MEXICO","aian":null,"hapac":null,"int":null,"asian":null,"id":"ah9lldv3n4t7","state":"TX"},"type":"Feature","geometry":null},{"properties":{"zipcode":"88101","county":"NEW MEXICO","aian":null,"hapac":null,"int":null,"asian":null,"id":"ah9lldkjlydv","state":"NM"},"type":"Feature","geometry":null},{"properties":{"zipcode":"76137","county":"TARRANT","aian":null,"hapac":null,"int":null,"asian":null,"id":"ah9lldo73f33","state":"TX"},"type":"Feature","geometry":null},{"properties":{"zipcode":"78759","county":"TRAVIS","aian":null,"hapac":null,"int":null,"asian":null,"id":"ah9lldmbvpbk","state":"TX"},"type":"Feature","geometry":null},{"properties":{"zipcode":"78626","county":"WILLIAMSON","aian":"Y","hapac":null,"int":null,"asian":null,"id":"ah9lldval4m9","state":"TX"},"type":"Feature","geometry":null},{"properties":{"zipcode":"78121","county":"WILSON","aian":null,"hapac":null,"int":null,"asian":null,"id":"ah9lldrxnsmc","state":"TX"},"type":"Feature","geometry":null},{"properties":{"zipcode":"76182","county":"TARRANT","aian":null,"hapac":null,"int":null,"asian":null,"id":"ah9lldx21fi5","state":"TX"},"type":"Feature","geometry":null},{"properties":{"zipcode":"75067","county":"DENTON","aian":null,"hapac":null,"int":null,"asian":null,"id":"ah9lldvq1fs6","state":"TX"},"type":"Feature","geometry":null},{"properties":{"zipcode":"78006","county":"KENDALL","aian":null,"hapac":null,"int":null,"asian":null,"id":"ah9lldlslmh0","state":"TX"},"type":"Feature","geometry":null},{"properties":{"zipcode":"75034","county":"COLLIN","aian":null,"hapac":null,"int":null,"asian":null,"id":"ah9lle0g7nh1","state":"TX"},"type":"Feature","geometry":null},{"properties":{"zipcode":"75074","county":"COLLIN","aian":null,"hapac":null,"int":null,"asian":null,"id":"ah9lldp6os0t","state":"TX"},"type":"Feature","geometry":null},{"properties":{"zipcode":"79912","county":"EL PASO","aian":null,"hapac":null,"int":null,"asian":null,"id":"ah9lldvjgtkw","state":"TX"},"type":"Feature","geometry":null},{"properties":{"zipcode":"79081","county":"HANSFORD","aian":null,"hapac":null,"int":null,"asian":null,"id":"ah9lldm6wu32","state":"TX"},"type":"Feature","geometry":null},{"properties":{"zipcode":"77084","county":"HARRIS","aian":null,"hapac":null,"int":null,"asian":null,"id":"ah9llduphfua","state":"TX"},"type":"Feature","geometry":null},{"properties":{"zipcode":"78640","county":"HAYS","aian":null,"hapac":null,"int":null,"asian":null,"id":"ah9lldy2ofsf","state":"TX"},"type":"Feature","geometry":null},{"properties":{"zipcode":"76230","county":"MONTAGUE","aian":null,"hapac":null,"int":null,"asian":null,"id":"ah9lldm2uez0","state":"TX"},"type":"Feature","geometry":null},{"properties":{"zipcode":"87122","county":"NEW MEXICO","aian":null,"hapac":null,"int":null,"asian":null,"id":"ah9lldq88wkf","state":"NM"},"type":"Feature","geometry":null},{"properties":{"zipcode":"76132","county":"TARRANT","aian":null,"hapac":null,"int":null,"asian":null,"id":"ah9lldpmmst8","state":"TX"},"type":"Feature","geometry":null},{"properties":{"zipcode":"76137","county":"TARRANT","aian":null,"hapac":null,"int":null,"asian":null,"id":"ah9lldva3vov","state":"TX"},"type":"Feature","geometry":null},{"properties":{"zipcode":"78732","county":"TRAVIS","aian":null,"hapac":null,"int":null,"asian":null,"id":"ah9lldlhwr50","state":"TX"},"type":"Feature","geometry":null},{"properties":{"zipcode":"22603","county":"VIRGINIA","aian":null,"hapac":null,"int":null,"asian":null,"id":"ah9lldsjf0kv","state":"VA"},"type":"Feature","geometry":null},{"properties":{"zipcode":"78114","county":"WILSON","aian":null,"hapac":null,"int":null,"asian":null,"id":"ah9lle0u4mhg","state":"TX"},"type":"Feature","geometry":null},{"properties":{"zipcode":"78015","county":"KENDALL","aian":null,"hapac":null,"int":null,"asian":null,"id":"ah9lldyzfeu9","state":"TX"},"type":"Feature","geometry":null},{"properties":{"zipcode":"79118","county":"RANDALL","aian":null,"hapac":null,"int":null,"asian":null,"id":"ah9lldkp4bzn","state":"TX"},"type":"Feature","geometry":null},{"properties":{"zipcode":"10591","county":"MISSOURI","aian":null,"hapac":null,"int":null,"asian":null,"id":"ah9lldv7qsj8","state":"NY"},"type":"Feature","geometry":null},{"properties":{"zipcode":"78132","county":"COMAL","aian":null,"hapac":null,"int":null,"asian":null,"id":"ah9lldswr64u","state":"TX"},"type":"Feature","geometry":null},{"properties":{"zipcode":"79932","county":"EL PASO","aian":null,"hapac":null,"int":null,"asian":null,"id":"ah9lldp5glf1","state":"TX"},"type":"Feature","geometry":null},{"properties":{"zipcode":"77059","county":"HARRIS","aian":null,"hapac":null,"int":null,"asian":null,"id":"ah9lldrzb7cg","state":"TX"},"type":"Feature","geometry":null},{"properties":{"zipcode":"76016","county":"TARRANT","aian":null,"hapac":null,"int":null,"asian":null,"id":"ah9lle04enn9","state":"TX"},"type":"Feature","geometry":null},{"properties":{"zipcode":"79406","county":"TARRANT","aian":null,"hapac":null,"int":null,"asian":null,"id":"ah9lldv2xobl","state":"TX"},"type":"Feature","geometry":null},{"properties":{"zipcode":"78734","county":"TRAVIS","aian":"Y","hapac":null,"int":null,"asian":null,"id":"ah9lldqlqpa0","state":"TX"},"type":"Feature","geometry":null},{"properties":{"zipcode":"75052","county":"DALLAS","aian":null,"hapac":null,"int":null,"asian":null,"id":"ah9lldx00wh7","state":"TX"},"type":"Feature","geometry":null},{"properties":{"zipcode":"75126","county":"KAUFMAN","aian":null,"hapac":null,"int":null,"asian":null,"id":"ah9lldrtin7c","state":"TX"},"type":"Feature","geometry":null},{"properties":{"zipcode":"79403","county":"LUBBOCK COUNTY","aian":null,"hapac":null,"int":null,"asian":null,"id":"ah9lldrjxa71","state":"TX"},"type":"Feature","geometry":null},{"properties":{"zipcode":"77445","county":"WALLER","aian":null,"hapac":null,"int":null,"asian":null,"id":"ah9lldr3uvqm","state":"TX"},"type":"Feature","geometry":null},{"properties":{"zipcode":"77094","county":"HARRIS","aian":null,"hapac":null,"int":null,"asian":null,"id":"ah9lle0gpqqk","state":"TX"},"type":"Feature","geometry":null},{"properties":{"zipcode":"78201","county":"BEXAR","aian":null,"hapac":null,"int":null,"asian":null,"id":"ah9lldumcntz","state":"TX"},"type":"Feature","geometry":null},{"properties":{"zipcode":"79912","county":"EL PASO","aian":null,"hapac":null,"int":null,"asian":null,"id":"ah9lldwrowaw","state":"TX"},"type":"Feature","geometry":null},{"properties":{"zipcode":"78840","county":"VAL VERDE","aian":null,"hapac":null,"int":null,"asian":null,"id":"ah9lldvuhtp5","state":"TX"},"type":"Feature","geometry":null},{"properties":{"zipcode":"76834","county":"COLEMAN","aian":null,"hapac":null,"int":null,"asian":null,"id":"ah9lldq84cgs","state":"TX"},"type":"Feature","geometry":null},{"properties":{"zipcode":"79424","county":"LUBBOCK COUNTY","aian":null,"hapac":null,"int":null,"asian":null,"id":"ah9lldw9gvoj","state":"TX"},"type":"Feature","geometry":null},{"properties":{"zipcode":"76308","county":"WICHITA","aian":null,"hapac":null,"int":null,"asian":null,"id":"ah9lldwcgy4j","state":"TX"},"type":"Feature","geometry":null},{"properties":{"zipcode":"75077","county":"DENTON","aian":null,"hapac":null,"int":null,"asian":null,"id":"ah9lldqw0ori","state":"TX"},"type":"Feature","geometry":null},{"properties":{"zipcode":"77450","county":"HARRIS","aian":null,"hapac":null,"int":null,"asian":null,"id":"ah9lldtjdna5","state":"TX"},"type":"Feature","geometry":null},{"properties":{"zipcode":"76092","county":"TARRANT","aian":null,"hapac":null,"int":null,"asian":null,"id":"ah9lldsmcp9n","state":"TX"},"type":"Feature","geometry":null},{"properties":{"zipcode":"78664","county":"WILLIAMSON","aian":null,"hapac":null,"int":null,"asian":null,"id":"ah9lldriwpzp","state":"TX"},"type":"Feature","geometry":null},{"properties":{"zipcode":"79424","county":"LUBBOCK COUNTY","aian":null,"hapac":null,"int":null,"asian":null,"id":"ah9lldx4j51p","state":"TX"},"type":"Feature","geometry":null},{"properties":{"zipcode":"79416","county":"FLORIDA","aian":null,"hapac":null,"int":null,"asian":null,"id":"ah9lldum0enz","state":"TX"},"type":"Feature","geometry":null},{"properties":{"zipcode":"78732","county":"TRAVIS","aian":null,"hapac":null,"int":null,"asian":null,"id":"ah9lldmo556f","state":"TX"},"type":"Feature","geometry":null},{"properties":{"zipcode":"79416","county":"LUBBOCK COUNTY","aian":null,"hapac":null,"int":null,"asian":null,"id":"ah9lldn9ar13","state":"TX"},"type":"Feature","geometry":null},{"properties":{"zipcode":"76065","county":"ELLIS","aian":null,"hapac":null,"int":null,"asian":null,"id":"ah9lldq8qu9m","state":"TX"},"type":"Feature","geometry":null},{"properties":{"zipcode":"79412","county":"LUBBOCK COUNTY","aian":null,"hapac":null,"int":null,"asian":null,"id":"ah9lldz5yfje","state":"TX"},"type":"Feature","geometry":null},{"properties":{"zipcode":"75034","county":"COLLIN","aian":null,"hapac":null,"int":null,"asian":null,"id":"ah9lldmzccy7","state":"TX"},"type":"Feature","geometry":null},{"properties":{"zipcode":"75034","county":"DENTON","aian":null,"hapac":null,"int":null,"asian":null,"id":"ah9lldmt82kp","state":"TX"},"type":"Feature","geometry":null},{"properties":{"zipcode":"77018","county":"HARRIS","aian":null,"hapac":null,"int":null,"asian":null,"id":"ah9lldvox0e1","state":"TX"},"type":"Feature","geometry":null},{"properties":{"zipcode":"79606","county":"TAYLOR","aian":null,"hapac":null,"int":null,"asian":null,"id":"ah9lldvzi89v","state":"TX"},"type":"Feature","geometry":null},{"properties":{"zipcode":"78613","county":"WILLIAMSON","aian":null,"hapac":null,"int":null,"asian":null,"id":"ah9lldvj2d44","state":"TX"},"type":"Feature","geometry":null},{"properties":{"zipcode":"77498","county":"FORT BEND","aian":null,"hapac":null,"int":null,"asian":null,"id":"ah9lldsyyemb","state":"TX"},"type":"Feature","geometry":null},{"properties":{"zipcode":"75078","county":"COLLIN","aian":null,"hapac":null,"int":null,"asian":null,"id":"ah9llduuljqr","state":"TX"},"type":"Feature","geometry":null},{"properties":{"zipcode":"79602","county":"TAYLOR","aian":null,"hapac":null,"int":null,"asian":null,"id":"ah9lldtkuse0","state":"TX"},"type":"Feature","geometry":null},{"properties":{"zipcode":"78733","county":"TRAVIS","aian":null,"hapac":null,"int":null,"asian":null,"id":"ah9lldl6oh73","state":"TX"},"type":"Feature","geometry":null},{"properties":{"zipcode":"76034","county":"TARRANT","aian":null,"hapac":null,"int":null,"asian":null,"id":"ah9lldtpd5t8","state":"TX"},"type":"Feature","geometry":null},{"properties":{"zipcode":"76126","county":"TARRANT","aian":null,"hapac":null,"int":null,"asian":null,"id":"ah9lldw21cdz","state":"TX"},"type":"Feature","geometry":null},{"properties":{"zipcode":"76182","county":"TARRANT","aian":null,"hapac":null,"int":null,"asian":null,"id":"ah9lldz7gyz3","state":"TX"},"type":"Feature","geometry":null},{"properties":{"zipcode":"79262","county":"TARRANT","aian":null,"hapac":null,"int":null,"asian":null,"id":"ah9lldxvtyn4","state":"TX"},"type":"Feature","geometry":null},{"properties":{"zipcode":"78731","county":"TRAVIS","aian":null,"hapac":null,"int":null,"asian":null,"id":"ah9lldpjrc98","state":"TX"},"type":"Feature","geometry":null},{"properties":{"zipcode":"76522","county":"CORYELL","aian":null,"hapac":null,"int":null,"asian":null,"id":"ah9lldtrx1i6","state":"TX"},"type":"Feature","geometry":null},{"properties":{"zipcode":"75088","county":"DALLAS","aian":null,"hapac":null,"int":null,"asian":null,"id":"ah9lldtawuyx","state":"TX"},"type":"Feature","geometry":null},{"properties":{"zipcode":"78233","county":"BEXAR","aian":null,"hapac":null,"int":null,"asian":null,"id":"ah9lldt8usv7","state":"TX"},"type":"Feature","geometry":null},{"properties":{"zipcode":"76248","county":"TARRANT","aian":null,"hapac":null,"int":null,"asian":null,"id":"ah9lldxzud0j","state":"TX"},"type":"Feature","geometry":null},{"properties":{"zipcode":"78746","county":"TRAVIS","aian":null,"hapac":null,"int":null,"asian":null,"id":"ah9lldrdl1hi","state":"TX"},"type":"Feature","geometry":null},{"properties":{"zipcode":"79415","county":"TARRANT","aian":null,"hapac":null,"int":null,"asian":null,"id":"ah9lldnpiqf9","state":"TX"},"type":"Feature","geometry":null},{"properties":{"zipcode":"75231","county":"DALLAS","aian":null,"hapac":null,"int":null,"asian":null,"id":"ah9lldqghuks","state":"TX"},"type":"Feature","geometry":null},{"properties":{"zipcode":"76941","county":"IRION","aian":null,"hapac":null,"int":null,"asian":null,"id":"ah9lldx8hl9y","state":"TX"},"type":"Feature","geometry":null},{"properties":{"zipcode":"75248","county":"DALLAS","aian":null,"hapac":null,"int":null,"asian":null,"id":"ah9lldox5zqh","state":"TX"},"type":"Feature","geometry":null},{"properties":{"zipcode":"76117","county":"TARRANT","aian":null,"hapac":null,"int":null,"asian":null,"id":"ah9lldrjb4gl","state":"TX"},"type":"Feature","geometry":null},{"properties":{"zipcode":"75115","county":"DALLAS","aian":null,"hapac":null,"int":null,"asian":null,"id":"ah9lldxaucmm","state":"TX"},"type":"Feature","geometry":null},{"properties":{"zipcode":"77584","county":"BRAZORIA","aian":null,"hapac":null,"int":null,"asian":null,"id":"ah9lldkh7ghg","state":"TX"},"type":"Feature","geometry":null},{"properties":{"zipcode":"77381","county":"MONTGOMERY","aian":null,"hapac":null,"int":null,"asian":null,"id":"ah9lldzpax8a","state":"TX"},"type":"Feature","geometry":null},{"properties":{"zipcode":"77379","county":"HARRIS","aian":null,"hapac":null,"int":null,"asian":null,"id":"ah9lldkpj66b","state":"TX"},"type":"Feature","geometry":null},{"properties":{"zipcode":"77583","county":"BRAZORIA","aian":null,"hapac":null,"int":null,"asian":null,"id":"ah9lldpg5ayi","state":"TX"},"type":"Feature","geometry":null},{"properties":{"zipcode":"79410","county":"MIDLAND","aian":null,"hapac":null,"int":null,"asian":null,"id":"ah9lldvdgztn","state":"TX"},"type":"Feature","geometry":null},{"properties":{"zipcode":"79364","county":"LUBBOCK COUNTY","aian":null,"hapac":null,"int":null,"asian":null,"id":"ah9lldulhe4f","state":"TX"},"type":"Feature","geometry":null},{"properties":{"zipcode":"78260","county":"BEXAR","aian":null,"hapac":null,"int":null,"asian":null,"id":"ah9lldsnmz5a","state":"TX"},"type":"Feature","geometry":null},{"properties":{"zipcode":"76401","county":"ERATH","aian":null,"hapac":null,"int":null,"asian":null,"id":"ah9lldq9r1io","state":"TX"},"type":"Feature","geometry":null},{"properties":{"zipcode":"79401","county":"BEXAR","aian":null,"hapac":null,"int":null,"asian":null,"id":"ah9lldsb51v9","state":"TX"},"type":"Feature","geometry":null},{"properties":{"zipcode":"75080","county":"DALLAS","aian":null,"hapac":null,"int":null,"asian":null,"id":"ah9lldw3albd","state":"TX"},"type":"Feature","geometry":null},{"properties":{"zipcode":"75007","county":"DENTON","aian":null,"hapac":null,"int":null,"asian":null,"id":"ah9lldqkm31r","state":"TX"},"type":"Feature","geometry":null},{"properties":{"zipcode":"79938","county":"EL PASO","aian":null,"hapac":null,"int":null,"asian":null,"id":"ah9lldqgj0za","state":"TX"},"type":"Feature","geometry":null},{"properties":{"zipcode":"77064","county":"HARRIS","aian":null,"hapac":null,"int":null,"asian":null,"id":"ah9lldy2e4wf","state":"TX"},"type":"Feature","geometry":null},{"properties":{"zipcode":"78746","county":"TRAVIS","aian":null,"hapac":null,"int":null,"asian":null,"id":"ah9llduxfduh","state":"TX"},"type":"Feature","geometry":null},{"properties":{"zipcode":"75249","county":"DALLAS","aian":null,"hapac":null,"int":null,"asian":null,"id":"ah9lldvl291t","state":"TX"},"type":"Feature","geometry":null},{"properties":{"zipcode":"70003","county":"LOUISIANA","aian":null,"hapac":null,"int":null,"asian":null,"id":"ah9lldspdx4g","state":"LA"},"type":"Feature","geometry":null},{"properties":{"zipcode":"79410","county":"DENTON","aian":null,"hapac":null,"int":null,"asian":null,"id":"ah9lldt217vw","state":"TX"},"type":"Feature","geometry":null},{"properties":{"zipcode":"78217","county":"BEXAR","aian":null,"hapac":null,"int":null,"asian":null,"id":"ah9lle0ojenu","state":"TX"},"type":"Feature","geometry":null},{"properties":{"zipcode":"75002","county":"COLLIN","aian":null,"hapac":null,"int":null,"asian":null,"id":"ah9lldkq3z02","state":"TX"},"type":"Feature","geometry":null},{"properties":{"zipcode":"75013","county":"COLLIN","aian":null,"hapac":null,"int":null,"asian":null,"id":"ah9lldp7ztx6","state":"TX"},"type":"Feature","geometry":null},{"properties":{"zipcode":"75070","county":"COLLIN","aian":null,"hapac":null,"int":null,"asian":null,"id":"ah9lldkhpspo","state":"TX"},"type":"Feature","geometry":null},{"properties":{"zipcode":"75028","county":"DENTON","aian":null,"hapac":null,"int":null,"asian":null,"id":"ah9lldw7es4p","state":"TX"},"type":"Feature","geometry":null},{"properties":{"zipcode":"79424","county":"LUBBOCK COUNTY","aian":null,"hapac":null,"int":null,"asian":null,"id":"ah9lldxlgkbc","state":"TX"},"type":"Feature","geometry":null},{"properties":{"zipcode":"77354","county":"MONTGOMERY","aian":null,"hapac":null,"int":null,"asian":null,"id":"ah9lldvb9es5","state":"TX"},"type":"Feature","geometry":null},{"properties":{"zipcode":"75703","county":"SMITH","aian":null,"hapac":null,"int":null,"asian":null,"id":"ah9lldyfdays","state":"TX"},"type":"Feature","geometry":null},{"properties":{"zipcode":"76052","county":"TARRANT","aian":null,"hapac":null,"int":null,"asian":null,"id":"ah9lldrpp5n4","state":"TX"},"type":"Feature","geometry":null},{"properties":{"zipcode":"76133","county":"TARRANT","aian":null,"hapac":null,"int":null,"asian":null,"id":"ah9lldq7y3ln","state":"TX"},"type":"Feature","geometry":null},{"properties":{"zipcode":"78731","county":"TRAVIS","aian":null,"hapac":null,"int":null,"asian":null,"id":"ah9lldsuwlc0","state":"TX"},"type":"Feature","geometry":null},{"properties":{"zipcode":"79416","county":"POTTER","aian":null,"hapac":null,"int":null,"asian":"Y","id":"ah9lldsfzicz","state":"TX"},"type":"Feature","geometry":null},{"properties":{"zipcode":"78133","county":"COMAL","aian":null,"hapac":null,"int":null,"asian":null,"id":"ah9lldyk4lj7","state":"TX"},"type":"Feature","geometry":null},{"properties":{"zipcode":"75104","county":"DALLAS","aian":null,"hapac":null,"int":null,"asian":null,"id":"ah9lldsq3oub","state":"TX"},"type":"Feature","geometry":null},{"properties":{"zipcode":"75022","county":"DENTON","aian":null,"hapac":null,"int":null,"asian":null,"id":"ah9lldu9mzxq","state":"TX"},"type":"Feature","geometry":null},{"properties":{"zipcode":"75034","county":"DENTON","aian":null,"hapac":null,"int":null,"asian":null,"id":"ah9llduswo63","state":"TX"},"type":"Feature","geometry":null},{"properties":{"zipcode":"76262","county":"DENTON","aian":null,"hapac":null,"int":null,"asian":null,"id":"ah9lldm9bcbx","state":"TX"},"type":"Feature","geometry":null},{"properties":{"zipcode":"75092","county":"GRAYSON","aian":null,"hapac":null,"int":null,"asian":null,"id":"ah9lldz4zk71","state":"TX"},"type":"Feature","geometry":null},{"properties":{"zipcode":"78108","county":"GUADALUPE","aian":null,"hapac":null,"int":null,"asian":null,"id":"ah9lldxhd6ml","state":"TX"},"type":"Feature","geometry":null},{"properties":{"zipcode":"77450","county":"HARRIS","aian":null,"hapac":null,"int":null,"asian":null,"id":"ah9lldx1avba","state":"TX"},"type":"Feature","geometry":null},{"properties":{"zipcode":"77546","county":"HARRIS","aian":null,"hapac":null,"int":null,"asian":null,"id":"ah9lldry7t5z","state":"TX"},"type":"Feature","geometry":null},{"properties":{"zipcode":"77304","county":"MONTGOMERY","aian":null,"hapac":null,"int":null,"asian":null,"id":"ah9lldudd856","state":"TX"},"type":"Feature","geometry":null},{"properties":{"zipcode":"76034","county":"TARRANT","aian":null,"hapac":null,"int":null,"asian":null,"id":"ah9lldw2hy1t","state":"TX"},"type":"Feature","geometry":null},{"properties":{"zipcode":"76248","county":"TARRANT","aian":null,"hapac":null,"int":null,"asian":null,"id":"ah9lldmvgjv3","state":"TX"},"type":"Feature","geometry":null},{"properties":{"zipcode":"78739","county":"TRAVIS","aian":null,"hapac":null,"int":null,"asian":null,"id":"ah9lldmsbcps","state":"TX"},"type":"Feature","geometry":null},{"properties":{"zipcode":"78620","county":"HAYS","aian":null,"hapac":null,"int":null,"asian":null,"id":"ah9lldsv1qad","state":"TX"},"type":"Feature","geometry":null},{"properties":{"zipcode":"76001","county":"TARRANT","aian":null,"hapac":null,"int":null,"asian":null,"id":"ah9lldm8lb42","state":"TX"},"type":"Feature","geometry":null},{"properties":{"zipcode":"79350","county":"LUBBOCK COUNTY","aian":null,"hapac":null,"int":null,"asian":null,"id":"ah9lldqdv8s4","state":"TX"},"type":"Feature","geometry":null},{"properties":{"zipcode":"75211","county":"DALLAS","aian":null,"hapac":null,"int":null,"asian":null,"id":"ah9lldrnnsvc","state":"TX"},"type":"Feature","geometry":null},{"properties":{"zipcode":"77406","county":"FORT BEND","aian":null,"hapac":null,"int":null,"asian":null,"id":"ah9lldwhgmaf","state":"TX"},"type":"Feature","geometry":null},{"properties":{"zipcode":"75965","county":"NACOGDOCHES","aian":null,"hapac":null,"int":null,"asian":null,"id":"ah9lldzwwdrg","state":"TX"},"type":"Feature","geometry":null},{"properties":{"zipcode":"75703","county":"SMITH","aian":null,"hapac":null,"int":null,"asian":null,"id":"ah9lle0qfcvw","state":"TX"},"type":"Feature","geometry":null},{"properties":{"zipcode":"76248","county":"TARRANT","aian":null,"hapac":null,"int":null,"asian":null,"id":"ah9lldoyqlxo","state":"TX"},"type":"Feature","geometry":null},{"properties":{"zipcode":"76248","county":"TARRANT","aian":null,"hapac":null,"int":null,"asian":null,"id":"ah9lldn8gqgh","state":"TX"},"type":"Feature","geometry":null},{"properties":{"zipcode":"78738","county":"TRAVIS","aian":null,"hapac":null,"int":null,"asian":null,"id":"ah9lldl8l18r","state":"TX"},"type":"Feature","geometry":null},{"properties":{"zipcode":"78758","county":"AUSTIN","aian":null,"hapac":null,"int":null,"asian":null,"id":"ah9lle0vnof2","state":"TX"},"type":"Feature","geometry":null},{"properties":{"zipcode":"76450","county":"YOUNG","aian":null,"hapac":null,"int":null,"asian":"Y","id":"ah9lldw7vlra","state":"TX"},"type":"Feature","geometry":null},{"properties":{"zipcode":"79382","county":"LUBBOCK COUNTY","aian":null,"hapac":null,"int":null,"asian":null,"id":"ah9lldrob6mz","state":"TX"},"type":"Feature","geometry":null},{"properties":{"zipcode":"75025","county":"COLLIN","aian":null,"hapac":null,"int":null,"asian":null,"id":"ah9lldpy9rqd","state":"TX"},"type":"Feature","geometry":null},{"properties":{"zipcode":"79424","county":"TAYLOR","aian":null,"hapac":null,"int":null,"asian":null,"id":"ah9lldy8xicd","state":"TX"},"type":"Feature","geometry":null},{"properties":{"zipcode":"79412","county":"LUBBOCK COUNTY","aian":null,"hapac":null,"int":null,"asian":null,"id":"ah9lldmmyvvg","state":"TX"},"type":"Feature","geometry":null},{"properties":{"zipcode":"77095","county":"HARRIS","aian":null,"hapac":null,"int":null,"asian":null,"id":"ah9lldrmxjfw","state":"TX"},"type":"Feature","geometry":null},{"properties":{"zipcode":"75007","county":"DENTON","aian":null,"hapac":null,"int":null,"asian":null,"id":"ah9lldnql4s4","state":"TX"},"type":"Feature","geometry":null},{"properties":{"zipcode":"76450","county":"YOUNG","aian":null,"hapac":null,"int":null,"asian":null,"id":"ah9lldvnav25","state":"TX"},"type":"Feature","geometry":null},{"properties":{"zipcode":"79423","county":"LUBBOCK COUNTY","aian":null,"hapac":null,"int":null,"asian":null,"id":"ah9lldn69byc","state":"TX"},"type":"Feature","geometry":null},{"properties":{"zipcode":"78665","county":"WILLIAMSON","aian":null,"hapac":null,"int":null,"asian":null,"id":"ah9lldpzo33p","state":"TX"},"type":"Feature","geometry":null},{"properties":{"zipcode":"77550","county":"GALVESTON","aian":"Y","hapac":null,"int":null,"asian":"Y","id":"ah9lldszxawc","state":"TX"},"type":"Feature","geometry":null},{"properties":{"zipcode":"77708","county":"JEFFERRSON","aian":null,"hapac":null,"int":null,"asian":null,"id":"ah9lldmkyaz6","state":"TX"},"type":"Feature","geometry":null},{"properties":{"zipcode":"78258","county":"BEXAR","aian":null,"hapac":null,"int":null,"asian":null,"id":"ah9lldn3jcjz","state":"TX"},"type":"Feature","geometry":null},{"properties":{"zipcode":"79424","county":"LUBBOCK COUNTY","aian":null,"hapac":null,"int":null,"asian":null,"id":"ah9lldv6tgmx","state":"TX"},"type":"Feature","geometry":null},{"properties":{"zipcode":"79423","county":"LUBBOCK COUNTY","aian":null,"hapac":null,"int":null,"asian":null,"id":"ah9lldynv72y","state":"TX"},"type":"Feature","geometry":null},{"properties":{"zipcode":"76549","county":"BELL","aian":null,"hapac":null,"int":null,"asian":null,"id":"ah9lldm7ohhz","state":"TX"},"type":"Feature","geometry":null},{"properties":{"zipcode":"78611","county":"BURNET","aian":null,"hapac":null,"int":null,"asian":null,"id":"ah9lldpfvkvi","state":"TX"},"type":"Feature","geometry":null},{"properties":{"zipcode":"75007","county":"DENTON","aian":null,"hapac":null,"int":null,"asian":null,"id":"ah9lldw6pokg","state":"TX"},"type":"Feature","geometry":null},{"properties":{"zipcode":"77345","county":"HARRIS","aian":null,"hapac":null,"int":null,"asian":null,"id":"ah9lldzvdpn5","state":"TX"},"type":"Feature","geometry":null},{"properties":{"zipcode":"77242","county":"HARRIS","aian":null,"hapac":null,"int":null,"asian":null,"id":"ah9lldw9npx1","state":"TX"},"type":"Feature","geometry":null},{"properties":{"zipcode":"77807","county":"BRAZOS","aian":null,"hapac":null,"int":null,"asian":null,"id":"ah9lldlhlpwh","state":"TX"},"type":"Feature","geometry":null},{"properties":{"zipcode":"79401","county":"LUBBOCK COUNTY","aian":null,"hapac":null,"int":null,"asian":null,"id":"ah9lldqefvup","state":"TX"},"type":"Feature","geometry":null},{"properties":{"zipcode":"79415","county":"LUBBOCK COUNTY","aian":null,"hapac":null,"int":null,"asian":null,"id":"ah9lldoiol6h","state":"TX"},"type":"Feature","geometry":null},{"properties":{"zipcode":"76308","county":"WICHITA","aian":null,"hapac":null,"int":null,"asian":null,"id":"ah9lldtgmxcy","state":"TX"},"type":"Feature","geometry":null},{"properties":{"zipcode":"75007","county":"DENTON","aian":null,"hapac":null,"int":null,"asian":null,"id":"ah9lldt1dxzv","state":"TX"},"type":"Feature","geometry":null},{"properties":{"zipcode":"79606","county":"TAYLOR","aian":null,"hapac":null,"int":null,"asian":null,"id":"ah9lldknj5rh","state":"TX"},"type":"Feature","geometry":null},{"properties":{"zipcode":"79350","county":"LUBBOCK COUNTY","aian":null,"hapac":null,"int":null,"asian":null,"id":"ah9lldpxntuh","state":"TX"},"type":"Feature","geometry":null},{"properties":{"zipcode":"76442","county":"COMANCHE","aian":null,"hapac":null,"int":null,"asian":null,"id":"ah9lldy0djn1","state":"TX"},"type":"Feature","geometry":null},{"properties":{"zipcode":"79453","county":"LUBBOCK COUNTY","aian":null,"hapac":null,"int":null,"asian":null,"id":"ah9lldlhbhak","state":"TX"},"type":"Feature","geometry":null},{"properties":{"zipcode":"76021","county":"TARRANT","aian":null,"hapac":null,"int":null,"asian":null,"id":"ah9lldu4ay8a","state":"TX"},"type":"Feature","geometry":null},{"properties":{"zipcode":"77520","county":"HARRIS","aian":null,"hapac":null,"int":null,"asian":null,"id":"ah9lldm97rl3","state":"TX"},"type":"Feature","geometry":null},{"properties":{"zipcode":"79382","county":"LUBBOCK COUNTY","aian":null,"hapac":null,"int":null,"asian":null,"id":"ah9lldw96huw","state":"TX"},"type":"Feature","geometry":null},{"properties":{"zipcode":"76017","county":"TARRANT","aian":null,"hapac":null,"int":null,"asian":null,"id":"ah9lldq6xvy4","state":"TX"},"type":"Feature","geometry":null},{"properties":{"zipcode":"79416","county":"WISE","aian":null,"hapac":null,"int":null,"asian":null,"id":"ah9lldv4vymv","state":"TX"},"type":"Feature","geometry":null},{"properties":{"zipcode":"79410","county":"TARRANT","aian":null,"hapac":null,"int":null,"asian":null,"id":"ah9lle05epee","state":"TX"},"type":"Feature","geometry":null},{"properties":{"zipcode":"75071","county":"COLLIN","aian":null,"hapac":null,"int":null,"asian":null,"id":"ah9lldx7iwv7","state":"TX"},"type":"Feature","geometry":null},{"properties":{"zipcode":"75218","county":"DALLAS","aian":null,"hapac":null,"int":null,"asian":null,"id":"ah9lldzui2k0","state":"TX"},"type":"Feature","geometry":null},{"properties":{"zipcode":"76092","county":"TARRANT","aian":null,"hapac":null,"int":null,"asian":null,"id":"ah9lldxty5nq","state":"TX"},"type":"Feature","geometry":null},{"properties":{"zipcode":"77084","county":"HARRIS","aian":null,"hapac":null,"int":null,"asian":null,"id":"ah9lldwgaxs0","state":"TX"},"type":"Feature","geometry":null},{"properties":{"zipcode":"79413","county":"TARRANT","aian":null,"hapac":null,"int":null,"asian":null,"id":"ah9lldz0nu58","state":"TX"},"type":"Feature","geometry":null},{"properties":{"zipcode":"79407","county":"LUBBOCK COUNTY","aian":null,"hapac":null,"int":null,"asian":null,"id":"ah9lldlauo60","state":"TX"},"type":"Feature","geometry":null},{"properties":{"zipcode":"77056","county":"HARRIS","aian":null,"hapac":null,"int":null,"asian":null,"id":"ah9lldmv01f4","state":"TX"},"type":"Feature","geometry":null},{"properties":{"zipcode":"76903","county":"TOM GREEN","aian":null,"hapac":null,"int":null,"asian":null,"id":"ah9lldw4zpwd","state":"TX"},"type":"Feature","geometry":null},{"properties":{"zipcode":"79407","county":"HARRIS","aian":null,"hapac":null,"int":null,"asian":null,"id":"ah9lldso7dcb","state":"TX"},"type":"Feature","geometry":null},{"properties":{"zipcode":"75248","county":"DALLAS","aian":null,"hapac":null,"int":null,"asian":null,"id":"ah9lldls4l9c","state":"TX"},"type":"Feature","geometry":null},{"properties":{"zipcode":"76123","county":"TARRANT","aian":null,"hapac":null,"int":null,"asian":null,"id":"ah9lldsl6clw","state":"TX"},"type":"Feature","geometry":null},{"properties":{"zipcode":"79414","county":"LUBBOCK COUNTY","aian":null,"hapac":null,"int":null,"asian":null,"id":"ah9lle0o7thc","state":"TX"},"type":"Feature","geometry":null},{"properties":{"zipcode":"76036","county":"TARRANT","aian":null,"hapac":null,"int":null,"asian":null,"id":"ah9lldqd81fj","state":"TX"},"type":"Feature","geometry":null},{"properties":{"zipcode":"78070","county":"LUBBOCK COUNTY","aian":null,"hapac":null,"int":null,"asian":null,"id":"ah9lldliqojd","state":"TX"},"type":"Feature","geometry":null},{"properties":{"zipcode":"76262","county":"TARRANT","aian":null,"hapac":null,"int":null,"asian":null,"id":"ah9lldppp6uv","state":"TX"},"type":"Feature","geometry":null},{"properties":{"zipcode":"78660","county":"HAYS","aian":null,"hapac":null,"int":null,"asian":null,"id":"ah9lldqp7240","state":"TX"},"type":"Feature","geometry":null},{"properties":{"zipcode":"75022","county":"DENTON","aian":null,"hapac":null,"int":null,"asian":null,"id":"ah9lldkxr2no","state":"TX"},"type":"Feature","geometry":null},{"properties":{"zipcode":"75022","county":"DENTON","aian":null,"hapac":null,"int":null,"asian":null,"id":"ah9lldv2sglx","state":"TX"},"type":"Feature","geometry":null},{"properties":{"zipcode":"78213","county":"BEXAR","aian":null,"hapac":null,"int":null,"asian":null,"id":"ah9lldkqjzqv","state":"TX"},"type":"Feature","geometry":null},{"properties":{"zipcode":"79545","county":"NOLAN","aian":null,"hapac":null,"int":null,"asian":null,"id":"ah9lldn8xudt","state":"TX"},"type":"Feature","geometry":null},{"properties":{"zipcode":"79423","county":"LUBBOCK COUNTY","aian":null,"hapac":null,"int":null,"asian":null,"id":"ah9lldo2dabq","state":"TX"},"type":"Feature","geometry":null},{"properties":{"zipcode":"75855","county":"FREESTONE","aian":null,"hapac":null,"int":null,"asian":null,"id":"ah9lldmxop20","state":"TX"},"type":"Feature","geometry":null},{"properties":{"zipcode":"76266","county":"DENTON","aian":null,"hapac":null,"int":null,"asian":null,"id":"ah9lldzrxvj2","state":"TX"},"type":"Feature","geometry":null},{"properties":{"zipcode":"79407","county":"HARRIS","aian":null,"hapac":null,"int":null,"asian":null,"id":"ah9lldkswk4z","state":"TX"},"type":"Feature","geometry":null},{"properties":{"zipcode":"79401","county":"LUBBOCK COUNTY","aian":null,"hapac":null,"int":null,"asian":null,"id":"ah9lldsx8gyz","state":"TX"},"type":"Feature","geometry":null},{"properties":{"zipcode":"79410","county":"TARRANT","aian":null,"hapac":null,"int":null,"asian":"Y","id":"ah9lldobxdeh","state":"TX"},"type":"Feature","geometry":null},{"properties":{"zipcode":"76458","county":"JACK","aian":null,"hapac":null,"int":null,"asian":null,"id":"ah9lldsv3yqd","state":"TX"},"type":"Feature","geometry":null},{"properties":{"zipcode":"78660","county":"TRAVIS","aian":null,"hapac":null,"int":null,"asian":null,"id":"ah9lldz1cwrd","state":"TX"},"type":"Feature","geometry":null},{"properties":{"zipcode":"76051","county":"TARRANT","aian":null,"hapac":null,"int":null,"asian":null,"id":"ah9lldqcrvx2","state":"TX"},"type":"Feature","geometry":null},{"properties":{"zipcode":"77530","county":"HARRIS","aian":null,"hapac":null,"int":null,"asian":null,"id":"ah9lldpaa40h","state":"TX"},"type":"Feature","geometry":null},{"properties":{"zipcode":"78613","county":"TRAVIS","aian":null,"hapac":null,"int":null,"asian":null,"id":"ah9lldwfkko2","state":"TX"},"type":"Feature","geometry":null},{"properties":{"zipcode":"75087","county":"ROCKWALL","aian":null,"hapac":null,"int":null,"asian":null,"id":"ah9lldluw027","state":"TX"},"type":"Feature","geometry":null},{"properties":{"zipcode":"76036","county":"TARRANT","aian":null,"hapac":null,"int":null,"asian":null,"id":"ah9lldkv9fxm","state":"TX"},"type":"Feature","geometry":null},{"properties":{"zipcode":"77450","county":"HARRIS","aian":null,"hapac":null,"int":null,"asian":null,"id":"ah9lldz7x075","state":"TX"},"type":"Feature","geometry":null},{"properties":{"zipcode":"77377","county":"HARRIS","aian":null,"hapac":null,"int":null,"asian":null,"id":"ah9lldtw4xce","state":"TX"},"type":"Feature","geometry":null},{"properties":{"zipcode":"77401","county":"HARRIS","aian":null,"hapac":null,"int":null,"asian":null,"id":"ah9lldr3hxej","state":"TX"},"type":"Feature","geometry":null},{"properties":{"zipcode":"79401","county":"DENTON","aian":null,"hapac":null,"int":null,"asian":null,"id":"ah9lldr2vepk","state":"TX"},"type":"Feature","geometry":null},{"properties":{"zipcode":"78249","county":"BEXAR","aian":null,"hapac":null,"int":null,"asian":null,"id":"ah9lldwt5ch0","state":"TX"},"type":"Feature","geometry":null},{"properties":{"zipcode":"76017","county":"TARRANT","aian":null,"hapac":null,"int":null,"asian":null,"id":"ah9lldmd4vr1","state":"TX"},"type":"Feature","geometry":null},{"properties":{"zipcode":"78209","county":"BEXAR","aian":null,"hapac":null,"int":null,"asian":null,"id":"ah9llds667st","state":"TX"},"type":"Feature","geometry":null},{"properties":{"zipcode":"79521","county":"HASKELL","aian":null,"hapac":null,"int":null,"asian":null,"id":"ah9lldrt77dy","state":"TX"},"type":"Feature","geometry":null},{"properties":{"zipcode":"77382","county":"MONTGOMERY","aian":null,"hapac":null,"int":null,"asian":null,"id":"ah9lldo1vhhn","state":"TX"},"type":"Feature","geometry":null},{"properties":{"zipcode":"76134","county":"TARRANT","aian":null,"hapac":null,"int":null,"asian":null,"id":"ah9lldxft7z0","state":"TX"},"type":"Feature","geometry":null},{"properties":{"zipcode":"88418","county":"NEW MEXICO","aian":null,"hapac":null,"int":null,"asian":null,"id":"ah9lldym7lzo","state":"NM"},"type":"Feature","geometry":null},{"properties":{"zipcode":"79416","county":"DALLAS","aian":null,"hapac":null,"int":null,"asian":null,"id":"ah9lldxild3l","state":"TX"},"type":"Feature","geometry":null},{"properties":{"zipcode":"75075","county":"COLLIN","aian":null,"hapac":null,"int":null,"asian":null,"id":"ah9llds1f481","state":"TX"},"type":"Feature","geometry":null},{"properties":{"zipcode":"79401","county":"GRAYSON","aian":null,"hapac":null,"int":null,"asian":null,"id":"ah9lldnjen6c","state":"TX"},"type":"Feature","geometry":null},{"properties":{"zipcode":"77401","county":"HARRIS","aian":null,"hapac":null,"int":null,"asian":null,"id":"ah9lldobdmnj","state":"TX"},"type":"Feature","geometry":null},{"properties":{"zipcode":"75002","county":"COLLIN","aian":null,"hapac":null,"int":null,"asian":null,"id":"ah9lldq7w0so","state":"TX"},"type":"Feature","geometry":null},{"properties":{"zipcode":"76248","county":"TARRANT","aian":null,"hapac":null,"int":null,"asian":null,"id":"ah9lldou53jh","state":"TX"},"type":"Feature","geometry":null},{"properties":{"zipcode":"78641","county":"WILLIAMSON","aian":"Y","hapac":null,"int":null,"asian":null,"id":"ah9lldwffb5d","state":"TX"},"type":"Feature","geometry":null},{"properties":{"zipcode":"76063","county":"JOHNSON","aian":null,"hapac":null,"int":null,"asian":null,"id":"ah9lldrdf8ix","state":"TX"},"type":"Feature","geometry":null},{"properties":{"zipcode":"78633","county":"WILLIAMSON","aian":null,"hapac":null,"int":null,"asian":null,"id":"ah9lldkxo6e6","state":"TX"},"type":"Feature","geometry":null},{"properties":{"zipcode":"76063","county":"TARRANT","aian":null,"hapac":null,"int":null,"asian":null,"id":"ah9lldln7w7f","state":"TX"},"type":"Feature","geometry":null},{"properties":{"zipcode":"75007","county":"COLLIN","aian":null,"hapac":null,"int":null,"asian":null,"id":"ah9lldpjvl5y","state":"TX"},"type":"Feature","geometry":null},{"properties":{"zipcode":"79423","county":"LUBBOCK COUNTY","aian":null,"hapac":null,"int":null,"asian":null,"id":"ah9lldut3qqy","state":"TX"},"type":"Feature","geometry":null},{"properties":{"zipcode":"77479","county":"FORT BEND","aian":null,"hapac":null,"int":null,"asian":null,"id":"ah9lldnzaizk","state":"TX"},"type":"Feature","geometry":null},{"properties":{"zipcode":"79416","county":"LUBBOCK COUNTY","aian":null,"hapac":null,"int":null,"asian":null,"id":"ah9lldv1o9g4","state":"TX"},"type":"Feature","geometry":null},{"properties":{"zipcode":"79413","county":"LUBBOCK COUNTY","aian":null,"hapac":null,"int":null,"asian":null,"id":"ah9lldzpck0k","state":"TX"},"type":"Feature","geometry":null},{"properties":{"zipcode":"77905","county":"VICTORIA","aian":null,"hapac":null,"int":null,"asian":null,"id":"ah9lldlzidbr","state":"TX"},"type":"Feature","geometry":null},{"properties":{"zipcode":"76450","county":"YOUNG","aian":null,"hapac":null,"int":null,"asian":null,"id":"ah9lldqyz2b9","state":"TX"},"type":"Feature","geometry":null},{"properties":{"zipcode":"79416","county":"LUBBOCK COUNTY","aian":null,"hapac":null,"int":null,"asian":null,"id":"ah9lldmm2463","state":"TX"},"type":"Feature","geometry":null},{"properties":{"zipcode":"79416","county":"LUBBOCK COUNTY","aian":null,"hapac":null,"int":null,"asian":null,"id":"ah9lldw39q6u","state":"TX"},"type":"Feature","geometry":null},{"properties":{"zipcode":"79413","county":"LUBBOCK COUNTY","aian":null,"hapac":null,"int":null,"asian":null,"id":"ah9lldypgo9g","state":"TX"},"type":"Feature","geometry":null},{"properties":{"zipcode":"79382","county":"LUBBOCK COUNTY","aian":null,"hapac":null,"int":null,"asian":null,"id":"ah9lldo22khp","state":"TX"},"type":"Feature","geometry":null},{"properties":{"zipcode":"79411","county":"LUBBOCK COUNTY","aian":null,"hapac":null,"int":null,"asian":null,"id":"ah9lldzys17e","state":"TX"},"type":"Feature","geometry":null},{"properties":{"zipcode":"78613","county":"WILLIAMSON","aian":null,"hapac":null,"int":null,"asian":null,"id":"ah9lldt2y1bq","state":"TX"},"type":"Feature","geometry":null},{"properties":{"zipcode":"79413","county":"LUBBOCK COUNTY","aian":null,"hapac":null,"int":null,"asian":null,"id":"ah9lldytvze5","state":"TX"},"type":"Feature","geometry":null},{"properties":{"zipcode":"78006","county":"KENDALL","aian":null,"hapac":null,"int":null,"asian":null,"id":"ah9lldpizicr","state":"TX"},"type":"Feature","geometry":null},{"properties":{"zipcode":"79416","county":"LUBBOCK COUNTY","aian":null,"hapac":null,"int":null,"asian":null,"id":"ah9lldpwbjc0","state":"TX"},"type":"Feature","geometry":null},{"properties":{"zipcode":"79707","county":"MIDLAND","aian":null,"hapac":null,"int":null,"asian":null,"id":"ah9lldza29nq","state":"TX"},"type":"Feature","geometry":null},{"properties":{"zipcode":"76017","county":"TARRANT","aian":null,"hapac":null,"int":null,"asian":null,"id":"ah9lldvpzaju","state":"TX"},"type":"Feature","geometry":null},{"properties":{"zipcode":"76017","county":"TARRANT","aian":null,"hapac":null,"int":null,"asian":null,"id":"ah9lldpvm07d","state":"TX"},"type":"Feature","geometry":null},{"properties":{"zipcode":"76051","county":"TARRANT","aian":null,"hapac":null,"int":null,"asian":null,"id":"ah9lldvii9h5","state":"TX"},"type":"Feature","geometry":null},{"properties":{"zipcode":"75081","county":"DALLAS","aian":null,"hapac":null,"int":null,"asian":null,"id":"ah9lldmv9d0n","state":"TX"},"type":"Feature","geometry":null},{"properties":{"zipcode":"75248","county":"DALLAS","aian":null,"hapac":null,"int":null,"asian":null,"id":"ah9lldx40566","state":"TX"},"type":"Feature","geometry":null},{"properties":{"zipcode":"77023","county":"HARRIS","aian":null,"hapac":null,"int":null,"asian":null,"id":"ah9lldof7m45","state":"TX"},"type":"Feature","geometry":null},{"properties":{"zipcode":"33029","county":"FLORIDA","aian":null,"hapac":null,"int":null,"asian":null,"id":"ah9lldph619s","state":"FL"},"type":"Feature","geometry":null},{"properties":{"zipcode":"75209","county":"DALLAS","aian":null,"hapac":null,"int":null,"asian":null,"id":"ah9lle0nt9hj","state":"TX"},"type":"Feature","geometry":null},{"properties":{"zipcode":"75022","county":"DENTON","aian":null,"hapac":null,"int":null,"asian":null,"id":"ah9lldwgg9ig","state":"TX"},"type":"Feature","geometry":null},{"properties":{"zipcode":"78660","county":"TRAVIS","aian":null,"hapac":null,"int":null,"asian":null,"id":"ah9lle023r4y","state":"TX"},"type":"Feature","geometry":null},{"properties":{"zipcode":"78633","county":"WILLIAMSON","aian":null,"hapac":null,"int":null,"asian":null,"id":"ah9lldxcuza1","state":"TX"},"type":"Feature","geometry":null},{"properties":{"zipcode":"76034","county":"TARRANT","aian":null,"hapac":null,"int":null,"asian":null,"id":"ah9lldxvux6o","state":"TX"},"type":"Feature","geometry":null},{"properties":{"zipcode":"77018","county":"HARRIS","aian":null,"hapac":null,"int":null,"asian":null,"id":"ah9lldvp4qas","state":"TX"},"type":"Feature","geometry":null},{"properties":{"zipcode":"79416","county":"DENTON","aian":null,"hapac":null,"int":null,"asian":null,"id":"ah9lldo670tf","state":"TX"},"type":"Feature","geometry":null},{"properties":{"zipcode":"75040","county":"DALLAS","aian":null,"hapac":null,"int":null,"asian":null,"id":"ah9lldxdjg45","state":"TX"},"type":"Feature","geometry":null},{"properties":{"zipcode":"79701","county":"MIDLAND","aian":null,"hapac":null,"int":null,"asian":null,"id":"ah9lldwfdnqz","state":"TX"},"type":"Feature","geometry":null},{"properties":{"zipcode":"78737","county":"HAYS","aian":null,"hapac":null,"int":null,"asian":null,"id":"ah9lldm1n16y","state":"TX"},"type":"Feature","geometry":null},{"properties":{"zipcode":"78258","county":"BEXAR","aian":null,"hapac":null,"int":null,"asian":null,"id":"ah9lldn0m31g","state":"TX"},"type":"Feature","geometry":null},{"properties":{"zipcode":"79401","county":"ROCKWALL","aian":null,"hapac":null,"int":null,"asian":null,"id":"ah9lldmifsj4","state":"TX"},"type":"Feature","geometry":null},{"properties":{"zipcode":"75115","county":"DALLAS","aian":null,"hapac":null,"int":null,"asian":null,"id":"ah9lldntmr23","state":"TX"},"type":"Feature","geometry":null},{"properties":{"zipcode":"79416","county":"TARRANT","aian":null,"hapac":null,"int":null,"asian":null,"id":"ah9lldlbvt0s","state":"TX"},"type":"Feature","geometry":null},{"properties":{"zipcode":"76048","county":"HOOD","aian":null,"hapac":null,"int":null,"asian":null,"id":"ah9lle0nvrdk","state":"TX"},"type":"Feature","geometry":null},{"properties":{"zipcode":"79403","county":"LUBBOCK COUNTY","aian":null,"hapac":null,"int":null,"asian":null,"id":"ah9lldznu6z2","state":"TX"},"type":"Feature","geometry":null},{"properties":{"zipcode":"75075","county":"COLLIN","aian":null,"hapac":null,"int":null,"asian":null,"id":"ah9lldy5yl02","state":"TX"},"type":"Feature","geometry":null},{"properties":{"zipcode":"79761","county":"ECTOR","aian":null,"hapac":null,"int":null,"asian":null,"id":"ah9lldxju6yz","state":"TX"},"type":"Feature","geometry":null},{"properties":{"zipcode":"79416","county":"LUBBOCK COUNTY","aian":null,"hapac":null,"int":null,"asian":null,"id":"ah9lldnz6rak","state":"TX"},"type":"Feature","geometry":null},{"properties":{"zipcode":"75010","county":"DENTON","aian":null,"hapac":null,"int":null,"asian":null,"id":"ah9lldze7uu5","state":"TX"},"type":"Feature","geometry":null},{"properties":{"zipcode":"75035","county":"LIBERTY","aian":null,"hapac":null,"int":null,"asian":null,"id":"ah9lldrnh08g","state":"TX"},"type":"Feature","geometry":null},{"properties":{"zipcode":"79415","county":"LUBBOCK COUNTY","aian":null,"hapac":null,"int":null,"asian":null,"id":"ah9lldx5gs85","state":"TX"},"type":"Feature","geometry":null},{"properties":{"zipcode":"75022","county":"DENTON","aian":null,"hapac":null,"int":null,"asian":null,"id":"ah9lldrw0b6o","state":"TX"},"type":"Feature","geometry":null},{"properties":{"zipcode":"79416","county":"LUBBOCK COUNTY","aian":null,"hapac":null,"int":null,"asian":null,"id":"ah9lldwea2l6","state":"TX"},"type":"Feature","geometry":null},{"properties":{"zipcode":"76051","county":"TARRANT","aian":null,"hapac":null,"int":null,"asian":null,"id":"ah9lldug074f","state":"TX"},"type":"Feature","geometry":null},{"properties":{"zipcode":"79772","county":"REEVES","aian":null,"hapac":null,"int":null,"asian":null,"id":"ah9lldssh2fy","state":"TX"},"type":"Feature","geometry":null},{"properties":{"zipcode":"79410","county":"LUBBOCK COUNTY","aian":null,"hapac":null,"int":null,"asian":null,"id":"ah9lle0vq23b","state":"TX"},"type":"Feature","geometry":null},{"properties":{"zipcode":"77379","county":"HARRIS","aian":null,"hapac":null,"int":null,"asian":null,"id":"ah9lldlntngb","state":"TX"},"type":"Feature","geometry":null},{"properties":{"zipcode":"79936","county":"EL PASO","aian":null,"hapac":null,"int":null,"asian":null,"id":"ah9lldv0hvkx","state":"TX"},"type":"Feature","geometry":null},{"properties":{"zipcode":"77042","county":"HARRIS","aian":null,"hapac":null,"int":null,"asian":null,"id":"ah9lldtebb6x","state":"TX"},"type":"Feature","geometry":null},{"properties":{"zipcode":"75002","county":"COLLIN","aian":null,"hapac":null,"int":null,"asian":null,"id":"ah9lldmjnybk","state":"TX"},"type":"Feature","geometry":null},{"properties":{"zipcode":"79410","county":"LUBBOCK COUNTY","aian":null,"hapac":null,"int":null,"asian":null,"id":"ah9lldn34qzi","state":"TX"},"type":"Feature","geometry":null},{"properties":{"zipcode":"79416","county":"LUBBOCK COUNTY","aian":null,"hapac":null,"int":null,"asian":null,"id":"ah9lldnhl9yr","state":"TX"},"type":"Feature","geometry":null},{"properties":{"zipcode":"79413","county":"LUBBOCK COUNTY","aian":null,"hapac":null,"int":null,"asian":null,"id":"ah9lldmuypjg","state":"TX"},"type":"Feature","geometry":null},{"properties":{"zipcode":"79415","county":"LUBBOCK COUNTY","aian":null,"hapac":null,"int":null,"asian":null,"id":"ah9lldpqigyn","state":"TX"},"type":"Feature","geometry":null},{"properties":{"zipcode":"79411","county":"HARRIS","aian":null,"hapac":null,"int":null,"asian":null,"id":"ah9lldl1iwyv","state":"TX"},"type":"Feature","geometry":null},{"properties":{"zipcode":"76502","county":"BELL","aian":null,"hapac":null,"int":null,"asian":null,"id":"ah9lldph25rn","state":"TX"},"type":"Feature","geometry":null},{"properties":{"zipcode":"76542","county":"BELL","aian":null,"hapac":null,"int":null,"asian":null,"id":"ah9lldlszpby","state":"TX"},"type":"Feature","geometry":null},{"properties":{"zipcode":"75024","county":"COLLIN","aian":null,"hapac":null,"int":null,"asian":null,"id":"ah9lldtpop73","state":"TX"},"type":"Feature","geometry":null},{"properties":{"zipcode":"75062","county":"DALLAS","aian":null,"hapac":null,"int":null,"asian":null,"id":"ah9lldtt4rrj","state":"TX"},"type":"Feature","geometry":null},{"properties":{"zipcode":"77963","county":"GOLIAD","aian":null,"hapac":null,"int":null,"asian":null,"id":"ah9lldliy78e","state":"TX"},"type":"Feature","geometry":null},{"properties":{"zipcode":"77084","county":"HARRIS","aian":null,"hapac":null,"int":null,"asian":null,"id":"ah9lldvvx435","state":"TX"},"type":"Feature","geometry":null},{"properties":{"zipcode":"77532","county":"HARRIS","aian":null,"hapac":null,"int":null,"asian":null,"id":"ah9lldl3lgwu","state":"TX"},"type":"Feature","geometry":null},{"properties":{"zipcode":"78504","county":"HIDALGO","aian":null,"hapac":null,"int":null,"asian":null,"id":"ah9lldob9f3e","state":"TX"},"type":"Feature","geometry":null},{"properties":{"zipcode":"75158","county":"KAUFMAN","aian":"Y","hapac":null,"int":null,"asian":null,"id":"ah9lldxo8mid","state":"TX"},"type":"Feature","geometry":null},{"properties":{"zipcode":"78852","county":"MAVERICK","aian":null,"hapac":null,"int":null,"asian":null,"id":"ah9lldlc8kmh","state":"TX"},"type":"Feature","geometry":null},{"properties":{"zipcode":"76832","county":"SAN SABA","aian":null,"hapac":null,"int":null,"asian":null,"id":"ah9lldmaduy2","state":"TX"},"type":"Feature","geometry":null},{"properties":{"zipcode":"78628","county":"WILLIAMSON","aian":null,"hapac":null,"int":null,"asian":null,"id":"ah9lldmq8dr3","state":"TX"},"type":"Feature","geometry":null},{"properties":{"zipcode":"79416","county":"LUBBOCK COUNTY","aian":"Y","hapac":null,"int":null,"asian":null,"id":"ah9lldsg8x52","state":"TX"},"type":"Feature","geometry":null}],"is_temporal":false,"author":{"url":"","metadata":"","contact_name":"","contact_address":"","source":"","contact_phone":""},"source":"","pagination":{"sort":null,"start":0,"total":491,"limit":1000000},"state":"complete","tags":"","published":"2014-08-16T18:25:24-04:00","id":394753}