{"type":"FeatureCollection","data_type":"Dataset","url_type":null,"permissions":[{"permissions":{"download":true,"view":true},"group_id":"everyone"}],"classification":null,"title":"Siquijor_Provincial_Science_High_School_Brgy_G7","count":38,"stream_id":395788,"contributor":{"url":"http://geocommons.com/users/81761","name":"Nonnie123"},"data_attributes":null,"calculation_params":null,"icon_link":null,"link":"http://geocommons.com/overlays/395788.json","extent":[0.0,0.0,0.0,0.0],"geometry_types":null,"unique_name":null,"name":"Siquijor_Provincial_Science_High_School_Brgy_G7","feature_count":38,"description":"","next_feature":null,"is_raster":false,"short_classification":"Y","features":[{"properties":{"brgy name":"Tulapos","brgy id":"36433","municipality":"Enrique Villanueva","count":"2","id":"ahbz0qux3edw"},"type":"Feature","geometry":null},{"properties":{"brgy name":"Candigum","brgy id":"36441","municipality":"Larena","count":"1","id":"ahbz0qpcyncf"},"type":"Feature","geometry":null},{"properties":{"brgy name":"Helen","brgy id":"36449","municipality":"Larena","count":"2","id":"ahbz0qnd2djf"},"type":"Feature","geometry":null},{"properties":{"brgy name":"Nonoc","brgy id":"36450","municipality":"Larena","count":"4","id":"ahbz0qradyap"},"type":"Feature","geometry":null},{"properties":{"brgy name":"Ponong","brgy id":"36452","municipality":"Larena","count":"2","id":"ahbz0qkoxwr6"},"type":"Feature","geometry":null},{"properties":{"brgy name":"Capalasanan","brgy id":"36460","municipality":"Lazi","count":"2","id":"ahbz0qxkngeh"},"type":"Feature","geometry":null},{"properties":{"brgy name":"Catamboan","brgy id":"36461","municipality":"Lazi","count":"6","id":"ahbz0qrm4ie9"},"type":"Feature","geometry":null},{"properties":{"brgy name":"Lower Cabangcalan","brgy id":"36465","municipality":"Lazi","count":"1","id":"ahbz0qtgzilr"},"type":"Feature","geometry":null},{"properties":{"brgy name":"Po-O","brgy id":"36467","municipality":"Lazi","count":"1","id":"ahbz0qxgnzas"},"type":"Feature","geometry":null},{"properties":{"brgy name":"Simacolong","brgy id":"36468","municipality":"Lazi","count":"1","id":"ahbz0qn91yph"},"type":"Feature","geometry":null},{"properties":{"brgy name":"Tignao","brgy id":"36472","municipality":"Lazi","count":"1","id":"ahbz0qoqa78c"},"type":"Feature","geometry":null},{"properties":{"brgy name":"Ytaya","brgy id":"36474","municipality":"Lazi","count":"1","id":"ahbz0qxcj08x"},"type":"Feature","geometry":null},{"properties":{"brgy name":"Calunasan","brgy id":"36478","municipality":"Maria","count":"1","id":"ahbz0qyt3c35"},"type":"Feature","geometry":null},{"properties":{"brgy name":"Candaping A","brgy id":"36479","municipality":"Maria","count":"1","id":"ahbz0qm1gtx5"},"type":"Feature","geometry":null},{"properties":{"brgy name":"Olang","brgy id":"36490","municipality":"Maria","count":"1","id":"ahbz0qmtmdlt"},"type":"Feature","geometry":null},{"properties":{"brgy name":"Poblacion Norte","brgy id":"36493","municipality":"Maria","count":"1","id":"ahbz0qu4bic4"},"type":"Feature","geometry":null},{"properties":{"brgy name":"Canasagan","brgy id":"36497","municipality":"San Juan","count":"2","id":"ahbz0qrawc27"},"type":"Feature","geometry":null},{"properties":{"brgy name":"Cangmunag","brgy id":"36499","municipality":"San Juan","count":"1","id":"ahbz0quspxit"},"type":"Feature","geometry":null},{"properties":{"brgy name":"Catulayan","brgy id":"36501","municipality":"San Juan","count":"2","id":"ahbz0qssv0s8"},"type":"Feature","geometry":null},{"properties":{"brgy name":"Lala-O","brgy id":"36502","municipality":"San Juan","count":"1","id":"ahbz0qxzaztv"},"type":"Feature","geometry":null},{"properties":{"brgy name":"Maite","brgy id":"36503","municipality":"San Juan","count":"1","id":"ahbz0qqs0e0j"},"type":"Feature","geometry":null},{"properties":{"brgy name":"Napo","brgy id":"36504","municipality":"San Juan","count":"1","id":"ahbz0ql4p26y"},"type":"Feature","geometry":null},{"properties":{"brgy name":"Solangon","brgy id":"36507","municipality":"San Juan","count":"1","id":"ahbz0qs31w2u"},"type":"Feature","geometry":null},{"properties":{"brgy name":"Timbaon","brgy id":"36510","municipality":"San Juan","count":"1","id":"ahbz0qobsukc"},"type":"Feature","geometry":null},{"properties":{"brgy name":"Tubod","brgy id":"36511","municipality":"San Juan","count":"1","id":"ahbz0qocs1o1"},"type":"Feature","geometry":null},{"properties":{"brgy name":"Caitican","brgy id":"36515","municipality":"Siquijor","count":"2","id":"ahbz0qoo8n5g"},"type":"Feature","geometry":null},{"properties":{"brgy name":"Calalinan","brgy id":"36516","municipality":"Siquijor","count":"2","id":"ahbz0qlrtghw"},"type":"Feature","geometry":null},{"properties":{"brgy name":"Canal","brgy id":"36517","municipality":"Siquijor","count":"1","id":"ahbz0qw66pfg"},"type":"Feature","geometry":null},{"properties":{"brgy name":"Candanay Norte","brgy id":"36518","municipality":"Siquijor","count":"2","id":"ahbz0quvtmjg"},"type":"Feature","geometry":null},{"properties":{"brgy name":"Candanay Sur","brgy id":"36519","municipality":"Siquijor","count":"3","id":"ahbz0qtp5sta"},"type":"Feature","geometry":null},{"properties":{"brgy name":"Dumanhog","brgy id":"36532","municipality":"Siquijor","count":"1","id":"ahbz0qxg84hh"},"type":"Feature","geometry":null},{"properties":{"brgy name":"Olo","brgy id":"36537","municipality":"Siquijor","count":"1","id":"ahbz0qkxz2ok"},"type":"Feature","geometry":null},{"properties":{"brgy name":"Pangi","brgy id":"36538","municipality":"Siquijor","count":"6","id":"ahbz0qmg5m5j"},"type":"Feature","geometry":null},{"properties":{"brgy name":"Poblacion","brgy id":"36542","municipality":"Siquijor","count":"6","id":"ahbz0qk79vok"},"type":"Feature","geometry":null},{"properties":{"brgy name":"Polangyuta","brgy id":"36543","municipality":"Siquijor","count":"1","id":"ahbz0qxikncl"},"type":"Feature","geometry":null},{"properties":{"brgy name":"Songculan","brgy id":"36547","municipality":"Siquijor","count":"1","id":"ahbz0qkrx2fl"},"type":"Feature","geometry":null},{"properties":{"brgy name":"Tacloban","brgy id":"36549","municipality":"Siquijor","count":"1","id":"ahbz0qmqw0bo"},"type":"Feature","geometry":null},{"properties":{"brgy name":"Tambisan","brgy id":"36550","municipality":"Siquijor","count":"1","id":"ahbz0qwfp4lm"},"type":"Feature","geometry":null}],"is_temporal":false,"author":{"url":"","metadata":null,"contact_name":null,"contact_address":null,"source":null,"contact_phone":null},"source":"","pagination":{"sort":null,"start":0,"total":38,"limit":1000000},"state":"parsed","tags":"","published":"2014-08-16T19:43:46-04:00","id":395788}