{"type":"FeatureCollection","data_type":"Dataset","url_type":null,"permissions":[{"permissions":{"download":true,"view":true},"group_id":"everyone"}],"classification":null,"title":"zip-9","count":43,"stream_id":397919,"contributor":{"url":"http://geocommons.com/users/83025","name":"terrayearbook"},"data_attributes":null,"calculation_params":null,"icon_link":null,"link":"http://geocommons.com/overlays/397919.json","extent":[-80.5868,25.4536,-80.1256,25.9584],"geometry_types":["point"],"unique_name":null,"name":"zip-9","feature_count":43,"description":"","next_feature":null,"is_raster":false,"short_classification":"Y","stats":{"count":{"max":59,"variance":201.158361018826,"mean":10.2790697674419,"stdev":14.1830307416584,"min":1,"median":3}},"features":[{"properties":{"zip":"33010","geo_score":0.714,"count":1,"id":"ahhb3mxrd924","geo_precision":"zip"},"type":"Feature","geometry":{"type":"Point","coordinates":[-80.278106,25.857596]}},{"properties":{"zip":"33012","geo_score":0.714,"count":1,"id":"ahhb3n243wax","geo_precision":"zip"},"type":"Feature","geometry":{"type":"Point","coordinates":[-80.302659,25.866021]}},{"properties":{"zip":"33014","geo_score":0.714,"count":2,"id":"ahhb3msxxcu2","geo_precision":"zip"},"type":"Feature","geometry":{"type":"Point","coordinates":[-80.302463,25.904128]}},{"properties":{"zip":"33030","geo_score":0.714,"count":1,"id":"ahhb3n1ucbjk","geo_precision":"zip"},"type":"Feature","geometry":{"type":"Point","coordinates":[-80.443112,25.50261]}},{"properties":{"zip":"33032","geo_score":0.714,"count":3,"id":"ahhb3n6ywp9a","geo_precision":"zip"},"type":"Feature","geometry":{"type":"Point","coordinates":[-80.477557,25.468722]}},{"properties":{"zip":"33033","geo_score":0.714,"count":3,"id":"ahhb3mudsbgd","geo_precision":"zip"},"type":"Feature","geometry":{"type":"Point","coordinates":[-80.418186,25.485508]}},{"properties":{"zip":"33035","geo_score":0.714,"count":1,"id":"ahhb3n5llkuz","geo_precision":"zip"},"type":"Feature","geometry":{"type":"Point","coordinates":[-80.439114,25.453604]}},{"properties":{"zip":"33056","geo_score":0.714,"count":1,"id":"ahhb3n7g8vem","geo_precision":"zip"},"type":"Feature","geometry":{"type":"Point","coordinates":[-80.245068,25.949125]}},{"properties":{"zip":"33126","geo_score":0.714,"count":2,"id":"ahhb3mwatse8","geo_precision":"zip"},"type":"Feature","geometry":{"type":"Point","coordinates":[-80.294302,25.786724]}},{"properties":{"zip":"33127","geo_score":0.714,"count":1,"id":"ahhb3n3sfolq","geo_precision":"zip"},"type":"Feature","geometry":{"type":"Point","coordinates":[-80.205611,25.813321]}},{"properties":{"zip":"33134","geo_score":0.714,"count":2,"id":"ahhb3n4xyx3p","geo_precision":"zip"},"type":"Feature","geometry":{"type":"Point","coordinates":[-80.193659,25.774266]}},{"properties":{"zip":"33135","geo_score":0.714,"count":1,"id":"ahhb3muldqlv","geo_precision":"zip"},"type":"Feature","geometry":{"type":"Point","coordinates":[-80.235025,25.766564]}},{"properties":{"zip":"33143","geo_score":0.714,"count":5,"id":"ahhb3ms50rix","geo_precision":"zip"},"type":"Feature","geometry":{"type":"Point","coordinates":[-80.325608,25.707602]}},{"properties":{"zip":"33144","geo_score":0.714,"count":2,"id":"ahhb3myvpuid","geo_precision":"zip"},"type":"Feature","geometry":{"type":"Point","coordinates":[-80.398387,25.758711]}},{"properties":{"zip":"33145","geo_score":0.714,"count":3,"id":"ahhb3mv95i0n","geo_precision":"zip"},"type":"Feature","geometry":{"type":"Point","coordinates":[-80.222271,25.759544]}},{"properties":{"zip":"33146","geo_score":0.714,"count":1,"id":"ahhb3mytfk4n","geo_precision":"zip"},"type":"Feature","geometry":{"type":"Point","coordinates":[-80.272902,25.720498]}},{"properties":{"zip":"33154","geo_score":0.714,"count":1,"id":"ahhb3msgu5q7","geo_precision":"zip"},"type":"Feature","geometry":{"type":"Point","coordinates":[-80.125601,25.878429]}},{"properties":{"zip":"33155","geo_score":0.714,"count":18,"id":"ahhb3mrr893q","geo_precision":"zip"},"type":"Feature","geometry":{"type":"Point","coordinates":[-80.311216,25.736599]}},{"properties":{"zip":"33156","geo_score":0.714,"count":15,"id":"ahhb3n5seoiy","geo_precision":"zip"},"type":"Feature","geometry":{"type":"Point","coordinates":[-80.368943,25.631494]}},{"properties":{"zip":"33157","geo_score":0.714,"count":19,"id":"ahhb3ms8r8tj","geo_precision":"zip"},"type":"Feature","geometry":{"type":"Point","coordinates":[-80.34672,25.580662]}},{"properties":{"zip":"33158","geo_score":0.714,"count":7,"id":"ahhb3mus01vz","geo_precision":"zip"},"type":"Feature","geometry":{"type":"Point","coordinates":[-80.301163,25.637326]}},{"properties":{"zip":"33165","geo_score":0.714,"count":20,"id":"ahhb3n6edv8y","geo_precision":"zip"},"type":"Feature","geometry":{"type":"Point","coordinates":[-80.372831,25.729268]}},{"properties":{"zip":"33166","geo_score":0.714,"count":3,"id":"ahhb3mwij3pt","geo_precision":"zip"},"type":"Feature","geometry":{"type":"Point","coordinates":[-80.32644,25.840653]}},{"properties":{"zip":"33170","geo_score":0.714,"count":3,"id":"ahhb3msombck","geo_precision":"zip"},"type":"Feature","geometry":{"type":"Point","coordinates":[-80.193659,25.774266]}},{"properties":{"zip":"33172","geo_score":0.714,"count":5,"id":"ahhb3n13nq2b","geo_precision":"zip"},"type":"Feature","geometry":{"type":"Point","coordinates":[-80.359727,25.786922]}},{"properties":{"zip":"33173","geo_score":0.714,"count":46,"id":"ahhb3myvw0jv","geo_precision":"zip"},"type":"Feature","geometry":{"type":"Point","coordinates":[-80.357892,25.701518]}},{"properties":{"zip":"33174","geo_score":0.714,"count":4,"id":"ahhb3mwnes4z","geo_precision":"zip"},"type":"Feature","geometry":{"type":"Point","coordinates":[-80.360479,25.761868]}},{"properties":{"zip":"33175","geo_score":0.714,"count":21,"id":"ahhb3myvtvmy","geo_precision":"zip"},"type":"Feature","geometry":{"type":"Point","coordinates":[-80.355331,25.726768]}},{"properties":{"zip":"33176","geo_score":0.714,"count":49,"id":"ahhb3n42bur8","geo_precision":"zip"},"type":"Feature","geometry":{"type":"Point","coordinates":[-80.358991,25.65815]}},{"properties":{"zip":"33177","geo_score":0.714,"count":23,"id":"ahhb3mv82t9l","geo_precision":"zip"},"type":"Feature","geometry":{"type":"Point","coordinates":[-80.404463,25.596814]}},{"properties":{"zip":"33178","geo_score":0.714,"count":2,"id":"ahhb3my88mlg","geo_precision":"zip"},"type":"Feature","geometry":{"type":"Point","coordinates":[-80.381857,25.859963]}},{"properties":{"zip":"33179","geo_score":0.714,"count":1,"id":"ahhb3n586ll2","geo_precision":"zip"},"type":"Feature","geometry":{"type":"Point","coordinates":[-80.179804,25.958396]}},{"properties":{"zip":"33182","geo_score":0.714,"count":6,"id":"ahhb3n0cp4tq","geo_precision":"zip"},"type":"Feature","geometry":{"type":"Point","coordinates":[-80.43942,25.825429]}},{"properties":{"zip":"33183","geo_score":0.714,"count":25,"id":"ahhb3msug529","geo_precision":"zip"},"type":"Feature","geometry":{"type":"Point","coordinates":[-80.405864,25.701277]}},{"properties":{"zip":"33184","geo_score":0.714,"count":3,"id":"ahhb3myc9ozl","geo_precision":"zip"},"type":"Feature","geometry":{"type":"Point","coordinates":[-80.405545,25.759247]}},{"properties":{"zip":"33185","geo_score":0.714,"count":19,"id":"ahhb3muvho66","geo_precision":"zip"},"type":"Feature","geometry":{"type":"Point","coordinates":[-80.462518,25.738535]}},{"properties":{"zip":"33186","geo_score":0.714,"count":59,"id":"ahhb3n166xda","geo_precision":"zip"},"type":"Feature","geometry":{"type":"Point","coordinates":[-80.410144,25.656462]}},{"properties":{"zip":"33187","geo_score":0.714,"count":7,"id":"ahhb3mzn1i4t","geo_precision":"zip"},"type":"Feature","geometry":{"type":"Point","coordinates":[-80.492417,25.59968]}},{"properties":{"zip":"33189","geo_score":0.714,"count":3,"id":"ahhb3mxyabzv","geo_precision":"zip"},"type":"Feature","geometry":{"type":"Point","coordinates":[-80.332926,25.56804]}},{"properties":{"zip":"33190","geo_score":0.714,"count":3,"id":"ahhb3n5lw8ja","geo_precision":"zip"},"type":"Feature","geometry":{"type":"Point","coordinates":[-80.348539,25.554185]}},{"properties":{"zip":"33193","geo_score":0.714,"count":11,"id":"ahhb3mv3ap08","geo_precision":"zip"},"type":"Feature","geometry":{"type":"Point","coordinates":[-80.466412,25.701136]}},{"properties":{"zip":"33194","geo_score":0.714,"count":3,"id":"ahhb3n5lp6z9","geo_precision":"zip"},"type":"Feature","geometry":{"type":"Point","coordinates":[-80.193659,25.774266]}},{"properties":{"zip":"33196","geo_score":0.714,"count":36,"id":"ahhb3n0helkt","geo_precision":"zip"},"type":"Feature","geometry":{"type":"Point","coordinates":[-80.586802,25.622896]}}],"is_temporal":false,"author":{"url":"","metadata":"","contact_name":"","contact_address":"","source":"","contact_phone":""},"source":"","pagination":{"sort":null,"start":0,"total":43,"limit":1000000},"state":"complete","tags":"","published":"2014-08-16T22:34:10-04:00","id":397919}