{"type":"FeatureCollection","data_type":"Dataset Analysis","url_type":null,"permissions":[{"permissions":{"download":true,"view":true},"group_id":"everyone"}],"classification":null,"title":"Result of percent change in population against zip-12","count":40,"stream_id":397927,"contributor":{"url":"http://geocommons.com/users/83211","name":"dhruva"},"data_attributes":null,"calculation_params":{"input":{"title":"percent change in population","result_attribute":"result","expression":"((($[count]-$[count])/$[count]) * 100)","id":397922},"calculation":"expression"},"icon_link":null,"link":"http://geocommons.com/overlays/397927.json","extent":[-80.5868,25.4687,-80.1539,26.048],"geometry_types":["point"],"unique_name":null,"name":"Result of percent change in population against zip-12","feature_count":40,"description":"Dataset derived by applying Refinement module/expression analysis to 'zip-12' ","next_feature":null,"is_raster":false,"short_classification":"Y","stats":{"result":{"max":0,"variance":0.0,"mean":0.0,"stdev":0.0,"min":0,"median":0},"geo_score":{"max":0.714,"variance":2.02272026979747e-31,"mean":0.714,"stdev":4.49746625312238e-16,"min":0.714,"median":0.714},"count":{"max":63,"variance":162.715384615385,"mean":9.55,"stdev":12.7559940661394,"min":1,"median":3}},"features":[{"properties":{"result":0,"zip":"33176","geo_score":0.714,"count":35,"id":"ahhb3s836eba","geo_precision":"zip"},"type":"Feature","geometry":{"type":"Point","coordinates":[-80.358991,25.65815]}},{"properties":{"result":0,"zip":"33145","geo_score":0.714,"count":1,"id":"ahhb3s9g85yk","geo_precision":"zip"},"type":"Feature","geometry":{"type":"Point","coordinates":[-80.222271,25.759544]}},{"properties":{"result":0,"zip":"33033","geo_score":0.714,"count":2,"id":"ahhb3s550ayp","geo_precision":"zip"},"type":"Feature","geometry":{"type":"Point","coordinates":[-80.418186,25.485508]}},{"properties":{"result":0,"zip":"33196","geo_score":0.714,"count":27,"id":"ahhb3rxhih7i","geo_precision":"zip"},"type":"Feature","geometry":{"type":"Point","coordinates":[-80.586802,25.622896]}},{"properties":{"result":0,"zip":"33177","geo_score":0.714,"count":23,"id":"ahhb3s4zm0l8","geo_precision":"zip"},"type":"Feature","geometry":{"type":"Point","coordinates":[-80.404463,25.596814]}},{"properties":{"result":0,"zip":"33173","geo_score":0.714,"count":28,"id":"ahhb3rzg4y3q","geo_precision":"zip"},"type":"Feature","geometry":{"type":"Point","coordinates":[-80.357892,25.701518]}},{"properties":{"result":0,"zip":"33157","geo_score":0.714,"count":16,"id":"ahhb3s90vjf0","geo_precision":"zip"},"type":"Feature","geometry":{"type":"Point","coordinates":[-80.34672,25.580662]}},{"properties":{"result":0,"zip":"33186","geo_score":0.714,"count":63,"id":"ahhb3rylu1ub","geo_precision":"zip"},"type":"Feature","geometry":{"type":"Point","coordinates":[-80.410144,25.656462]}},{"properties":{"result":0,"zip":"33183","geo_score":0.714,"count":24,"id":"ahhb3s2cyajg","geo_precision":"zip"},"type":"Feature","geometry":{"type":"Point","coordinates":[-80.405864,25.701277]}},{"properties":{"result":0,"zip":"33193","geo_score":0.714,"count":21,"id":"ahhb3s1wga4d","geo_precision":"zip"},"type":"Feature","geometry":{"type":"Point","coordinates":[-80.466412,25.701136]}},{"properties":{"result":0,"zip":"33032","geo_score":0.714,"count":4,"id":"ahhb3ruxja69","geo_precision":"zip"},"type":"Feature","geometry":{"type":"Point","coordinates":[-80.477557,25.468722]}},{"properties":{"result":0,"zip":"33175","geo_score":0.714,"count":15,"id":"ahhb3s2kpswo","geo_precision":"zip"},"type":"Feature","geometry":{"type":"Point","coordinates":[-80.355331,25.726768]}},{"properties":{"result":0,"zip":"33156","geo_score":0.714,"count":13,"id":"ahhb3s23y9qn","geo_precision":"zip"},"type":"Feature","geometry":{"type":"Point","coordinates":[-80.368943,25.631494]}},{"properties":{"result":0,"zip":"33014","geo_score":0.714,"count":4,"id":"ahhb3rtqv48j","geo_precision":"zip"},"type":"Feature","geometry":{"type":"Point","coordinates":[-80.302463,25.904128]}},{"properties":{"result":0,"zip":"33174","geo_score":0.714,"count":2,"id":"ahhb3s52egt1","geo_precision":"zip"},"type":"Feature","geometry":{"type":"Point","coordinates":[-80.360479,25.761868]}},{"properties":{"result":0,"zip":"33165","geo_score":0.714,"count":19,"id":"ahhb3rzsg80c","geo_precision":"zip"},"type":"Feature","geometry":{"type":"Point","coordinates":[-80.372831,25.729268]}},{"properties":{"result":0,"zip":"33031","geo_score":0.714,"count":1,"id":"ahhb3s6263gj","geo_precision":"zip"},"type":"Feature","geometry":{"type":"Point","coordinates":[-80.499812,25.526889]}},{"properties":{"result":0,"zip":"33190","geo_score":0.714,"count":4,"id":"ahhb3s42xqc1","geo_precision":"zip"},"type":"Feature","geometry":{"type":"Point","coordinates":[-80.348539,25.554185]}},{"properties":{"result":0,"zip":"33185","geo_score":0.714,"count":17,"id":"ahhb3s6h4lnl","geo_precision":"zip"},"type":"Feature","geometry":{"type":"Point","coordinates":[-80.462518,25.738535]}},{"properties":{"result":0,"zip":"33182","geo_score":0.714,"count":3,"id":"ahhb3s67jrdq","geo_precision":"zip"},"type":"Feature","geometry":{"type":"Point","coordinates":[-80.43942,25.825429]}},{"properties":{"result":0,"zip":"33331","geo_score":0.714,"count":1,"id":"ahhb3s8h4cl9","geo_precision":"zip"},"type":"Feature","geometry":{"type":"Point","coordinates":[-80.374894,26.048032]}},{"properties":{"result":0,"zip":"33155","geo_score":0.714,"count":9,"id":"ahhb3s88xdfg","geo_precision":"zip"},"type":"Feature","geometry":{"type":"Point","coordinates":[-80.311216,25.736599]}},{"properties":{"result":0,"zip":"33187","geo_score":0.714,"count":10,"id":"ahhb3s8q8slr","geo_precision":"zip"},"type":"Feature","geometry":{"type":"Point","coordinates":[-80.492417,25.59968]}},{"properties":{"result":0,"zip":"33143","geo_score":0.714,"count":10,"id":"ahhb3rz7bo3y","geo_precision":"zip"},"type":"Feature","geometry":{"type":"Point","coordinates":[-80.325608,25.707602]}},{"properties":{"result":0,"zip":"33158","geo_score":0.714,"count":7,"id":"ahhb3s8hvp6s","geo_precision":"zip"},"type":"Feature","geometry":{"type":"Point","coordinates":[-80.301163,25.637326]}},{"properties":{"result":0,"zip":"33184","geo_score":0.714,"count":3,"id":"ahhb3s22cska","geo_precision":"zip"},"type":"Feature","geometry":{"type":"Point","coordinates":[-80.405545,25.759247]}},{"properties":{"result":0,"zip":"33015","geo_score":0.714,"count":1,"id":"ahhb3s4yvvnp","geo_precision":"zip"},"type":"Feature","geometry":{"type":"Point","coordinates":[-80.317681,25.941296]}},{"properties":{"result":0,"zip":"33172","geo_score":0.714,"count":2,"id":"ahhb3s2h9wi7","geo_precision":"zip"},"type":"Feature","geometry":{"type":"Point","coordinates":[-80.359727,25.786922]}},{"properties":{"result":0,"zip":"33149","geo_score":0.714,"count":1,"id":"ahhb3s1hejrc","geo_precision":"zip"},"type":"Feature","geometry":{"type":"Point","coordinates":[-80.193659,25.774266]}},{"properties":{"result":0,"zip":"33170","geo_score":0.714,"count":3,"id":"ahhb3rytqbkg","geo_precision":"zip"},"type":"Feature","geometry":{"type":"Point","coordinates":[-80.193659,25.774266]}},{"properties":{"result":0,"zip":"33178","geo_score":0.714,"count":1,"id":"ahhb3rweyyzt","geo_precision":"zip"},"type":"Feature","geometry":{"type":"Point","coordinates":[-80.381857,25.859963]}},{"properties":{"result":0,"zip":"33194","geo_score":0.714,"count":1,"id":"ahhb3s7s1m9b","geo_precision":"zip"},"type":"Feature","geometry":{"type":"Point","coordinates":[-80.193659,25.774266]}},{"properties":{"result":0,"zip":"33126","geo_score":0.714,"count":1,"id":"ahhb3s3s34ga","geo_precision":"zip"},"type":"Feature","geometry":{"type":"Point","coordinates":[-80.294302,25.786724]}},{"properties":{"result":0,"zip":"33144","geo_score":0.714,"count":2,"id":"ahhb3rtkw42m","geo_precision":"zip"},"type":"Feature","geometry":{"type":"Point","coordinates":[-80.398387,25.758711]}},{"properties":{"result":0,"zip":"33134","geo_score":0.714,"count":2,"id":"ahhb3s75i6ja","geo_precision":"zip"},"type":"Feature","geometry":{"type":"Point","coordinates":[-80.193659,25.774266]}},{"properties":{"result":0,"zip":"33189","geo_score":0.714,"count":2,"id":"ahhb3ryeufk8","geo_precision":"zip"},"type":"Feature","geometry":{"type":"Point","coordinates":[-80.332926,25.56804]}},{"properties":{"result":0,"zip":"33133","geo_score":0.714,"count":1,"id":"ahhb3s5kcv35","geo_precision":"zip"},"type":"Feature","geometry":{"type":"Point","coordinates":[-80.193659,25.774266]}},{"properties":{"result":0,"zip":"33141","geo_score":0.714,"count":1,"id":"ahhb3s1l2nfv","geo_precision":"zip"},"type":"Feature","geometry":{"type":"Point","coordinates":[-80.153935,25.846208]}},{"properties":{"result":0,"zip":"33054","geo_score":0.714,"count":1,"id":"ahhb3s1tpacw","geo_precision":"zip"},"type":"Feature","geometry":{"type":"Point","coordinates":[-80.477557,25.468722]}},{"properties":{"result":0,"zip":"33030","geo_score":0.714,"count":1,"id":"ahhb3ryjo0te","geo_precision":"zip"},"type":"Feature","geometry":{"type":"Point","coordinates":[-80.443112,25.50261]}}],"is_temporal":false,"author":{"url":null,"metadata":null,"contact_name":null,"contact_address":null,"source":null,"contact_phone":null},"source":null,"pagination":{"sort":null,"start":0,"total":40,"limit":1000000},"state":"complete","tags":"","published":"2014-08-16T22:34:19-04:00","id":397927}