{"type":"FeatureCollection","data_type":"Dataset","url_type":null,"permissions":[{"permissions":{"download":true,"view":true},"group_id":"everyone"}],"classification":null,"title":"MaryHogan student addresses","count":403,"stream_id":398144,"contributor":{"url":"http://geocommons.com/users/75712","name":"b8sigrist"},"data_attributes":null,"calculation_params":null,"icon_link":null,"link":"http://geocommons.com/overlays/398144.json","extent":[-73.1716,43.9919,-73.1716,43.9919],"geometry_types":["point"],"unique_name":null,"name":"MaryHogan student addresses","feature_count":403,"description":"","next_feature":null,"is_raster":false,"short_classification":"Y","stats":{},"features":[{"properties":{"City":"East Middlebury","name":"7 Piper Road","geo_score":0.714,"State":"VT","description":"\n<b>Street:</b> 7 Piper Road<b>City:</b> East Middlebury<b>State:</b> VT<b>Address:</b> 7 Piper Road  East Middlebury , VT\n","id":"ahi3c08tpzad","geo_precision":"city"},"type":"Feature","geometry":{"type":"Point","coordinates":[-73.171578,43.991942]}},{"properties":{"City":"East Middlebury","name":"5 Piper Road","geo_score":0.714,"State":"VT","description":"\n<b>Street:</b> 5 Piper Road<b>City:</b> East Middlebury<b>State:</b> VT<b>Address:</b> 5 Piper Road  East Middlebury , VT\n","id":"ahi3c07be97v","geo_precision":"city"},"type":"Feature","geometry":{"type":"Point","coordinates":[-73.171578,43.991942]}},{"properties":{"City":"East Middlebury","name":"30 Grist Mill Road","geo_score":0.714,"State":"VT","description":"\n<b>Street:</b> 30 Grist Mill Road<b>City:</b> East Middlebury<b>State:</b> VT<b>Address:</b> 30 Grist Mill Road  East Middlebury , VT\n","id":"ahi3c03bi411","geo_precision":"city"},"type":"Feature","geometry":{"type":"Point","coordinates":[-73.171578,43.991942]}},{"properties":{"City":"East Middlebury","name":"9 Piper Road","geo_score":0.714,"State":"VT","description":"\n<b>Street:</b> 9 Piper Road<b>City:</b> East Middlebury<b>State:</b> VT<b>Address:</b> 9 Piper Road  East Middlebury , VT\n","id":"ahi3c0ib2ddg","geo_precision":"city"},"type":"Feature","geometry":{"type":"Point","coordinates":[-73.171578,43.991942]}},{"properties":{"City":"East Middlebury","name":"7 Piper Road","geo_score":0.714,"State":"VT","description":"\n<b>Street:</b> 7 Piper Road<b>City:</b> East Middlebury<b>State:</b> VT<b>Address:</b> 7 Piper Road  East Middlebury , VT\n","id":"ahi3c0dkybrp","geo_precision":"city"},"type":"Feature","geometry":{"type":"Point","coordinates":[-73.171578,43.991942]}},{"properties":{"City":"East Middlebury","name":"3 Church Street","geo_score":0.714,"State":"VT","description":"\n<b>Street:</b> 3 Church Street<b>City:</b> East Middlebury<b>State:</b> VT<b>Address:</b> 3 Church Street  East Middlebury , VT\n","id":"ahi3c0i9e3kx","geo_precision":"city"},"type":"Feature","geometry":{"type":"Point","coordinates":[-73.171578,43.991942]}},{"properties":{"City":"East Middlebury","name":"3 Church Street","geo_score":0.714,"State":"VT","description":"\n<b>Street:</b> 3 Church Street<b>City:</b> East Middlebury<b>State:</b> VT<b>Address:</b> 3 Church Street  East Middlebury , VT\n","id":"ahi3c09qdo6t","geo_precision":"city"},"type":"Feature","geometry":{"type":"Point","coordinates":[-73.171578,43.991942]}},{"properties":{"City":"East Middlebury","name":"30 Grist Mill Road","geo_score":0.714,"State":"VT","description":"\n<b>Street:</b> 30 Grist Mill Road<b>City:</b> East Middlebury<b>State:</b> VT<b>Address:</b> 30 Grist Mill Road  East Middlebury , VT\n","id":"ahi3c0biqzpm","geo_precision":"city"},"type":"Feature","geometry":{"type":"Point","coordinates":[-73.171578,43.991942]}},{"properties":{"City":"East Middlebury","name":"8 Maple Court","geo_score":0.714,"State":"VT","description":"\n<b>Street:</b> 8 Maple Court<b>City:</b> East Middlebury<b>State:</b> VT<b>Address:</b> 8 Maple Court  East Middlebury , VT\n","id":"ahi3c05u8sgk","geo_precision":"city"},"type":"Feature","geometry":{"type":"Point","coordinates":[-73.171578,43.991942]}},{"properties":{"City":"East Middlebury","name":"8 Maple Court","geo_score":0.714,"State":"VT","description":"\n<b>Street:</b> 8 Maple Court<b>City:</b> East Middlebury<b>State:</b> VT<b>Address:</b> 8 Maple Court  East Middlebury , VT\n","id":"ahi3c08plqjg","geo_precision":"city"},"type":"Feature","geometry":{"type":"Point","coordinates":[-73.171578,43.991942]}},{"properties":{"City":"East Middlebury","name":"9 Piper Road","geo_score":0.714,"State":"VT","description":"\n<b>Street:</b> 9 Piper Road<b>City:</b> East Middlebury<b>State:</b> VT<b>Address:</b> 9 Piper Road  East Middlebury , VT\n","id":"ahi3c0e0cqwb","geo_precision":"city"},"type":"Feature","geometry":{"type":"Point","coordinates":[-73.171578,43.991942]}},{"properties":{"City":"East Middlebury","name":"3 North Branch Road","geo_score":0.714,"State":"VT","description":"\n<b>Street:</b> 3 North Branch Road<b>City:</b> East Middlebury<b>State:</b> VT<b>Address:</b> 3 North Branch Road  East Middlebury , VT\n","id":"ahi3c0ea2rhv","geo_precision":"city"},"type":"Feature","geometry":{"type":"Point","coordinates":[-73.171578,43.991942]}},{"properties":{"City":"Midddlebury","name":"43 South Street","geo_score":0.714,"State":"VT","description":"\n<b>Street:</b> 43 South Street<b>City:</b> Midddlebury<b>State:</b> VT<b>Address:</b> 43 South Street  Midddlebury , VT\n","id":"ahi3c0h007oo","geo_precision":"city"},"type":"Feature","geometry":{"type":"Point","coordinates":[-73.171578,43.991942]}},{"properties":{"City":"Middlebury","name":"74 Seminary Street Ext.","geo_score":0.714,"State":"VT","description":"\n<b>Street:</b> 74 Seminary Street Ext.<b>City:</b> Middlebury<b>State:</b> VT<b>Address:</b> 74 Seminary Street Ext.  Middlebury , VT\n","id":"ahi3c0gc83kn","geo_precision":"city"},"type":"Feature","geometry":{"type":"Point","coordinates":[-73.171578,43.991942]}},{"properties":{"City":"Middlebury","name":"91 Jackson Lane Apt. 20","geo_score":0.714,"State":"VT","description":"\n<b>Street:</b> 91 Jackson Lane Apt. 20<b>City:</b> Middlebury<b>State:</b> VT<b>Address:</b> 91 Jackson Lane Apt. 20  Middlebury , VT\n","id":"ahi3c0emxdjm","geo_precision":"city"},"type":"Feature","geometry":{"type":"Point","coordinates":[-73.171578,43.991942]}},{"properties":{"City":"Middlebury","name":"76 Peterson Terrace","geo_score":0.714,"State":"VT","description":"\n<b>Street:</b> 76 Peterson Terrace<b>City:</b> Middlebury<b>State:</b> VT<b>Address:</b> 76 Peterson Terrace  Middlebury , VT\n","id":"ahi3c0is1q1j","geo_precision":"city"},"type":"Feature","geometry":{"type":"Point","coordinates":[-73.171578,43.991942]}},{"properties":{"City":"Middlebury","name":"706 Happy Valley Road","geo_score":0.714,"State":"VT","description":"\n<b>Street:</b> 706 Happy Valley Road<b>City:</b> Middlebury<b>State:</b> VT<b>Address:</b> 706 Happy Valley Road  Middlebury , VT\n","id":"ahi3c05c0ukz","geo_precision":"city"},"type":"Feature","geometry":{"type":"Point","coordinates":[-73.171578,43.991942]}},{"properties":{"City":"Middlebury","name":"356 Washington Street Ext. #3","geo_score":0.714,"State":"VT","description":"\n<b>Street:</b> 356 Washington Street Ext. #3<b>City:</b> Middlebury<b>State:</b> VT<b>Address:</b> 356 Washington Street Ext. #3  Middlebury , VT\n","id":"ahi3c0h9f898","geo_precision":"city"},"type":"Feature","geometry":{"type":"Point","coordinates":[-73.171578,43.991942]}},{"properties":{"City":"Middlebury","name":"111 Oak Drive","geo_score":0.714,"State":"VT","description":"\n<b>Street:</b> 111 Oak Drive<b>City:</b> Middlebury<b>State:</b> VT<b>Address:</b> 111 Oak Drive  Middlebury , VT\n","id":"ahi3c09r1rn0","geo_precision":"city"},"type":"Feature","geometry":{"type":"Point","coordinates":[-73.171578,43.991942]}},{"properties":{"City":"Middlebury","name":"31A John Graham Court","geo_score":0.714,"State":"VT","description":"\n<b>Street:</b> 31A John Graham Court<b>City:</b> Middlebury<b>State:</b> VT<b>Address:</b> 31A John Graham Court  Middlebury , VT\n","id":"ahi3c04tq74k","geo_precision":"city"},"type":"Feature","geometry":{"type":"Point","coordinates":[-73.171578,43.991942]}},{"properties":{"City":"Middlebury","name":"39 Seminary Street","geo_score":0.714,"State":"VT","description":"\n<b>Street:</b> 39 Seminary Street<b>City:</b> Middlebury<b>State:</b> VT<b>Address:</b> 39 Seminary Street  Middlebury , VT\n","id":"ahi3c0i4ko71","geo_precision":"city"},"type":"Feature","geometry":{"type":"Point","coordinates":[-73.171578,43.991942]}},{"properties":{"City":"Middlebury","name":"167 Monroe Street","geo_score":0.714,"State":"VT","description":"\n<b>Street:</b> 167 Monroe Street<b>City:</b> Middlebury<b>State:</b> VT<b>Address:</b> 167 Monroe Street  Middlebury , VT\n","id":"ahi3c0dmxsn8","geo_precision":"city"},"type":"Feature","geometry":{"type":"Point","coordinates":[-73.171578,43.991942]}},{"properties":{"City":"Middlebury","name":"171 Lindale Circle","geo_score":0.714,"State":"VT","description":"\n<b>Street:</b> 171 Lindale Circle<b>City:</b> Middlebury<b>State:</b> VT<b>Address:</b> 171 Lindale Circle  Middlebury , VT\n","id":"ahi3c0eoj4ir","geo_precision":"city"},"type":"Feature","geometry":{"type":"Point","coordinates":[-73.171578,43.991942]}},{"properties":{"City":"Middlebury","name":"184 Birch Drive","geo_score":0.714,"State":"VT","description":"\n<b>Street:</b> 184 Birch Drive<b>City:</b> Middlebury<b>State:</b> VT<b>Address:</b> 184 Birch Drive  Middlebury , VT\n","id":"ahi3c0dlzmc1","geo_precision":"city"},"type":"Feature","geometry":{"type":"Point","coordinates":[-73.171578,43.991942]}},{"properties":{"City":"Middlebury","name":"67 Oak Drive","geo_score":0.714,"State":"VT","description":"\n<b>Street:</b> 67 Oak Drive<b>City:</b> Middlebury<b>State:</b> VT<b>Address:</b> 67 Oak Drive  Middlebury , VT\n","id":"ahi3c03zbdcq","geo_precision":"city"},"type":"Feature","geometry":{"type":"Point","coordinates":[-73.171578,43.991942]}},{"properties":{"City":"Middlebury","name":"226 South Munger Street","geo_score":0.714,"State":"VT","description":"\n<b>Street:</b> 226 South Munger Street<b>City:</b> Middlebury<b>State:</b> VT<b>Address:</b> 226 South Munger Street  Middlebury , VT\n","id":"ahi3c0cb4piq","geo_precision":"city"},"type":"Feature","geometry":{"type":"Point","coordinates":[-73.171578,43.991942]}},{"properties":{"City":"Middlebury","name":"16 Case Street","geo_score":0.714,"State":"VT","description":"\n<b>Street:</b> 16 Case Street<b>City:</b> Middlebury<b>State:</b> VT<b>Address:</b> 16 Case Street  Middlebury , VT\n","id":"ahi3c04e62ca","geo_precision":"city"},"type":"Feature","geometry":{"type":"Point","coordinates":[-73.171578,43.991942]}},{"properties":{"City":"Middlebury","name":"1 South Gorham Lane","geo_score":0.714,"State":"VT","description":"\n<b>Street:</b> 1 South Gorham Lane<b>City:</b> Middlebury<b>State:</b> VT<b>Address:</b> 1 South Gorham Lane  Middlebury , VT\n","id":"ahi3c054e4jl","geo_precision":"city"},"type":"Feature","geometry":{"type":"Point","coordinates":[-73.171578,43.991942]}},{"properties":{"City":"Middlebury","name":"7 Swanage Court","geo_score":0.714,"State":"VT","description":"\n<b>Street:</b> 7 Swanage Court<b>City:</b> Middlebury<b>State:</b> VT<b>Address:</b> 7 Swanage Court  Middlebury , VT\n","id":"ahi3c071m77n","geo_precision":"city"},"type":"Feature","geometry":{"type":"Point","coordinates":[-73.171578,43.991942]}},{"properties":{"City":"Middlebury","name":"28 North Forty Lane","geo_score":0.714,"State":"VT","description":"\n<b>Street:</b> 28 North Forty Lane<b>City:</b> Middlebury<b>State:</b> VT<b>Address:</b> 28 North Forty Lane  Middlebury , VT\n","id":"ahi3c056v3em","geo_precision":"city"},"type":"Feature","geometry":{"type":"Point","coordinates":[-73.171578,43.991942]}},{"properties":{"City":"Middlebury","name":"315 East Main Street","geo_score":0.714,"State":"VT","description":"\n<b>Street:</b> 315 East Main Street<b>City:</b> Middlebury<b>State:</b> VT<b>Address:</b> 315 East Main Street  Middlebury , VT\n","id":"ahi3c046na5x","geo_precision":"city"},"type":"Feature","geometry":{"type":"Point","coordinates":[-73.171578,43.991942]}},{"properties":{"City":"Middlebury","name":"1818 Route 7 South","geo_score":0.714,"State":"VT","description":"\n<b>Street:</b> 1818 Route 7 South<b>City:</b> Middlebury<b>State:</b> VT<b>Address:</b> 1818 Route 7 South  Middlebury , VT\n","id":"ahi3c07p83u9","geo_precision":"city"},"type":"Feature","geometry":{"type":"Point","coordinates":[-73.171578,43.991942]}},{"properties":{"City":"Middlebury","name":"4 Thomas Street","geo_score":0.714,"State":"VT","description":"\n<b>Street:</b> 4 Thomas Street<b>City:</b> Middlebury<b>State:</b> VT<b>Address:</b> 4 Thomas Street  Middlebury , VT\n","id":"ahi3c0ezqrlt","geo_precision":"city"},"type":"Feature","geometry":{"type":"Point","coordinates":[-73.171578,43.991942]}},{"properties":{"City":"Middlebury","name":"102 Chipman Park","geo_score":0.714,"State":"VT","description":"\n<b>Street:</b> 102 Chipman Park<b>City:</b> Middlebury<b>State:</b> VT<b>Address:</b> 102 Chipman Park  Middlebury , VT\n","id":"ahi3c08d59cn","geo_precision":"city"},"type":"Feature","geometry":{"type":"Point","coordinates":[-73.171578,43.991942]}},{"properties":{"City":"Middlebury","name":"52 Seminary Street","geo_score":0.714,"State":"VT","description":"\n<b>Street:</b> 52 Seminary Street<b>City:</b> Middlebury<b>State:</b> VT<b>Address:</b> 52 Seminary Street  Middlebury , VT\n","id":"ahi3c0ip82ln","geo_precision":"city"},"type":"Feature","geometry":{"type":"Point","coordinates":[-73.171578,43.991942]}},{"properties":{"City":"Middlebury","name":"242 Valley View Road Apt. C4","geo_score":0.714,"State":"VT","description":"\n<b>Street:</b> 242 Valley View Road Apt. C4<b>City:</b> Middlebury<b>State:</b> VT<b>Address:</b> 242 Valley View Road Apt. C4  Middlebury , VT\n","id":"ahi3c0f4uccp","geo_precision":"city"},"type":"Feature","geometry":{"type":"Point","coordinates":[-73.171578,43.991942]}},{"properties":{"City":"Middlebury","name":"227 Creek Road","geo_score":0.714,"State":"VT","description":"\n<b>Street:</b> 227 Creek Road<b>City:</b> Middlebury<b>State:</b> VT<b>Address:</b> 227 Creek Road  Middlebury , VT\n","id":"ahi3c06s5aqv","geo_precision":"city"},"type":"Feature","geometry":{"type":"Point","coordinates":[-73.171578,43.991942]}},{"properties":{"City":"Middlebury","name":"27 Lower Plains Road","geo_score":0.714,"State":"VT","description":"\n<b>Street:</b> 27 Lower Plains Road<b>City:</b> Middlebury<b>State:</b> VT<b>Address:</b> 27 Lower Plains Road  Middlebury , VT\n","id":"ahi3c0axogww","geo_precision":"city"},"type":"Feature","geometry":{"type":"Point","coordinates":[-73.171578,43.991942]}},{"properties":{"City":"Middlebury","name":"70 Ossie Road","geo_score":0.714,"State":"VT","description":"\n<b>Street:</b> 70 Ossie Road<b>City:</b> Middlebury<b>State:</b> VT<b>Address:</b> 70 Ossie Road  Middlebury , VT\n","id":"ahi3c0g5jjkg","geo_precision":"city"},"type":"Feature","geometry":{"type":"Point","coordinates":[-73.171578,43.991942]}},{"properties":{"City":"Middlebury","name":"10 Lower Plains Road","geo_score":0.714,"State":"VT","description":"\n<b>Street:</b> 10 Lower Plains Road<b>City:</b> Middlebury<b>State:</b> VT<b>Address:</b> 10 Lower Plains Road  Middlebury , VT\n","id":"ahi3c05hg7es","geo_precision":"city"},"type":"Feature","geometry":{"type":"Point","coordinates":[-73.171578,43.991942]}},{"properties":{"City":"Middlebury","name":"172 Valley View","geo_score":0.714,"State":"VT","description":"\n<b>Street:</b> 172 Valley View<b>City:</b> Middlebury<b>State:</b> VT<b>Address:</b> 172 Valley View  Middlebury , VT\n","id":"ahi3c0hsc2r6","geo_precision":"city"},"type":"Feature","geometry":{"type":"Point","coordinates":[-73.171578,43.991942]}},{"properties":{"City":"Middlebury","name":"43 Court Street","geo_score":0.714,"State":"VT","description":"\n<b>Street:</b> 43 Court Street<b>City:</b> Middlebury<b>State:</b> VT<b>Address:</b> 43 Court Street  Middlebury , VT\n","id":"ahi3c0gupwkf","geo_precision":"city"},"type":"Feature","geometry":{"type":"Point","coordinates":[-73.171578,43.991942]}},{"properties":{"City":"Middlebury","name":"31 Twin Circles","geo_score":0.714,"State":"VT","description":"\n<b>Street:</b> 31 Twin Circles<b>City:</b> Middlebury<b>State:</b> VT<b>Address:</b> 31 Twin Circles  Middlebury , VT\n","id":"ahi3c07w145l","geo_precision":"city"},"type":"Feature","geometry":{"type":"Point","coordinates":[-73.171578,43.991942]}},{"properties":{"City":"Middlebury","name":"28 North Forty Lane","geo_score":0.714,"State":"VT","description":"\n<b>Street:</b> 28 North Forty Lane<b>City:</b> Middlebury<b>State:</b> VT<b>Address:</b> 28 North Forty Lane  Middlebury , VT\n","id":"ahi3c0629lrx","geo_precision":"city"},"type":"Feature","geometry":{"type":"Point","coordinates":[-73.171578,43.991942]}},{"properties":{"City":"Middlebury","name":"4548 Case Street","geo_score":0.714,"State":"VT","description":"\n<b>Street:</b> 4548 Case Street<b>City:</b> Middlebury<b>State:</b> VT<b>Address:</b> 4548 Case Street  Middlebury , VT\n","id":"ahi3c0epjgyw","geo_precision":"city"},"type":"Feature","geometry":{"type":"Point","coordinates":[-73.171578,43.991942]}},{"properties":{"City":"Middlebury","name":"55 Commodore Way","geo_score":0.714,"State":"VT","description":"\n<b>Street:</b> 55 Commodore Way<b>City:</b> Middlebury<b>State:</b> VT<b>Address:</b> 55 Commodore Way  Middlebury , VT\n","id":"ahi3c0d37erq","geo_precision":"city"},"type":"Feature","geometry":{"type":"Point","coordinates":[-73.171578,43.991942]}},{"properties":{"City":"Middlebury","name":"70 Sugarwood Court #12","geo_score":0.714,"State":"VT","description":"\n<b>Street:</b> 70 Sugarwood Court #12<b>City:</b> Middlebury<b>State:</b> VT<b>Address:</b> 70 Sugarwood Court #12  Middlebury , VT\n","id":"ahi3c04lkkqv","geo_precision":"city"},"type":"Feature","geometry":{"type":"Point","coordinates":[-73.171578,43.991942]}},{"properties":{"City":"Middlebury","name":"1 Church Street","geo_score":0.714,"State":"VT","description":"\n<b>Street:</b> 1 Church Street<b>City:</b> Middlebury<b>State:</b> VT<b>Address:</b> 1 Church Street  Middlebury , VT\n","id":"ahi3c0c3v2p6","geo_precision":"city"},"type":"Feature","geometry":{"type":"Point","coordinates":[-73.171578,43.991942]}},{"properties":{"City":"Middlebury","name":"78 Gambrel Court","geo_score":0.714,"State":"VT","description":"\n<b>Street:</b> 78 Gambrel Court<b>City:</b> Middlebury<b>State:</b> VT<b>Address:</b> 78 Gambrel Court  Middlebury , VT\n","id":"ahi3c0b87a58","geo_precision":"city"},"type":"Feature","geometry":{"type":"Point","coordinates":[-73.171578,43.991942]}},{"properties":{"City":"Middlebury","name":"11 Seminary Street Apt. 2","geo_score":0.714,"State":"VT","description":"\n<b>Street:</b> 11 Seminary Street Apt. 2<b>City:</b> Middlebury<b>State:</b> VT<b>Address:</b> 11 Seminary Street Apt. 2  Middlebury , VT\n","id":"ahi3c0bo4qv0","geo_precision":"city"},"type":"Feature","geometry":{"type":"Point","coordinates":[-73.171578,43.991942]}},{"properties":{"City":"Middlebury","name":"336 Chipman Park","geo_score":0.714,"State":"VT","description":"\n<b>Street:</b> 336 Chipman Park<b>City:</b> Middlebury<b>State:</b> VT<b>Address:</b> 336 Chipman Park  Middlebury , VT\n","id":"ahi3c0igwlnt","geo_precision":"city"},"type":"Feature","geometry":{"type":"Point","coordinates":[-73.171578,43.991942]}},{"properties":{"City":"Middlebury","name":"329 Woodland Park","geo_score":0.714,"State":"VT","description":"\n<b>Street:</b> 329 Woodland Park<b>City:</b> Middlebury<b>State:</b> VT<b>Address:</b> 329 Woodland Park  Middlebury , VT\n","id":"ahi3c0bd9xc0","geo_precision":"city"},"type":"Feature","geometry":{"type":"Point","coordinates":[-73.171578,43.991942]}},{"properties":{"City":"Middlebury","name":"11 Lower Plains Road","geo_score":0.714,"State":"VT","description":"\n<b>Street:</b> 11 Lower Plains Road<b>City:</b> Middlebury<b>State:</b> VT<b>Address:</b> 11 Lower Plains Road  Middlebury , VT\n","id":"ahi3c05sls8s","geo_precision":"city"},"type":"Feature","geometry":{"type":"Point","coordinates":[-73.171578,43.991942]}},{"properties":{"City":"Middlebury","name":"164 Cottage Lane","geo_score":0.714,"State":"VT","description":"\n<b>Street:</b> 164 Cottage Lane<b>City:</b> Middlebury<b>State:</b> VT<b>Address:</b> 164 Cottage Lane  Middlebury , VT\n","id":"ahi3c0clwyqn","geo_precision":"city"},"type":"Feature","geometry":{"type":"Point","coordinates":[-73.171578,43.991942]}},{"properties":{"City":"Middlebury","name":"93 Jackson Lane, Apt. 23","geo_score":0.714,"State":"VT","description":"\n<b>Street:</b> 93 Jackson Lane, Apt. 23<b>City:</b> Middlebury<b>State:</b> VT<b>Address:</b> 93 Jackson Lane, Apt. 23  Middlebury , VT\n","id":"ahi3c05s8y8d","geo_precision":"city"},"type":"Feature","geometry":{"type":"Point","coordinates":[-73.171578,43.991942]}},{"properties":{"City":"Middlebury","name":"4 Heritage Circle","geo_score":0.714,"State":"VT","description":"\n<b>Street:</b> 4 Heritage Circle<b>City:</b> Middlebury<b>State:</b> VT<b>Address:</b> 4 Heritage Circle  Middlebury , VT\n","id":"ahi3c0936h2f","geo_precision":"city"},"type":"Feature","geometry":{"type":"Point","coordinates":[-73.171578,43.991942]}},{"properties":{"City":"Middlebury","name":"88G South Pleasant Street","geo_score":0.714,"State":"VT","description":"\n<b>Street:</b> 88G South Pleasant Street<b>City:</b> Middlebury<b>State:</b> VT<b>Address:</b> 88G South Pleasant Street  Middlebury , VT\n","id":"ahi3c0i2gawh","geo_precision":"city"},"type":"Feature","geometry":{"type":"Point","coordinates":[-73.171578,43.991942]}},{"properties":{"City":"Middlebury","name":"959 Happy Valley Road","geo_score":0.714,"State":"VT","description":"\n<b>Street:</b> 959 Happy Valley Road<b>City:</b> Middlebury<b>State:</b> VT<b>Address:</b> 959 Happy Valley Road  Middlebury , VT\n","id":"ahi3c0cmxro0","geo_precision":"city"},"type":"Feature","geometry":{"type":"Point","coordinates":[-73.171578,43.991942]}},{"properties":{"City":"Middlebury","name":"10 Meadow Way","geo_score":0.714,"State":"VT","description":"\n<b>Street:</b> 10 Meadow Way<b>City:</b> Middlebury<b>State:</b> VT<b>Address:</b> 10 Meadow Way  Middlebury , VT\n","id":"ahi3c04uma33","geo_precision":"city"},"type":"Feature","geometry":{"type":"Point","coordinates":[-73.171578,43.991942]}},{"properties":{"City":"Middlebury","name":"153 Rogers Road","geo_score":0.714,"State":"VT","description":"\n<b>Street:</b> 153 Rogers Road<b>City:</b> Middlebury<b>State:</b> VT<b>Address:</b> 153 Rogers Road  Middlebury , VT\n","id":"ahi3c0gw3xha","geo_precision":"city"},"type":"Feature","geometry":{"type":"Point","coordinates":[-73.171578,43.991942]}},{"properties":{"City":"Middlebury","name":"36 Lower Plains Road","geo_score":0.714,"State":"VT","description":"\n<b>Street:</b> 36 Lower Plains Road<b>City:</b> Middlebury<b>State:</b> VT<b>Address:</b> 36 Lower Plains Road  Middlebury , VT\n","id":"ahi3c06gu461","geo_precision":"city"},"type":"Feature","geometry":{"type":"Point","coordinates":[-73.171578,43.991942]}},{"properties":{"City":"Middlebury","name":"18 South Street","geo_score":0.714,"State":"VT","description":"\n<b>Street:</b> 18 South Street<b>City:</b> Middlebury<b>State:</b> VT<b>Address:</b> 18 South Street  Middlebury , VT\n","id":"ahi3c08funcv","geo_precision":"city"},"type":"Feature","geometry":{"type":"Point","coordinates":[-73.171578,43.991942]}},{"properties":{"City":"Middlebury","name":"11 Seminary Street #4","geo_score":0.714,"State":"VT","description":"\n<b>Street:</b> 11 Seminary Street #4<b>City:</b> Middlebury<b>State:</b> VT<b>Address:</b> 11 Seminary Street #4  Middlebury , VT\n","id":"ahi3c0g7m4v3","geo_precision":"city"},"type":"Feature","geometry":{"type":"Point","coordinates":[-73.171578,43.991942]}},{"properties":{"City":"Middlebury","name":"275 Weybridge Street","geo_score":0.714,"State":"VT","description":"\n<b>Street:</b> 275 Weybridge Street<b>City:</b> Middlebury<b>State:</b> VT<b>Address:</b> 275 Weybridge Street  Middlebury , VT\n","id":"ahi3c05r0fx7","geo_precision":"city"},"type":"Feature","geometry":{"type":"Point","coordinates":[-73.171578,43.991942]}},{"properties":{"City":"Middlebury","name":"100 South Main Street","geo_score":0.714,"State":"VT","description":"\n<b>Street:</b> 100 South Main Street<b>City:</b> Middlebury<b>State:</b> VT<b>Address:</b> 100 South Main Street  Middlebury , VT\n","id":"ahi3c05gua31","geo_precision":"city"},"type":"Feature","geometry":{"type":"Point","coordinates":[-73.171578,43.991942]}},{"properties":{"City":"Middlebury","name":"195A Creek Road","geo_score":0.714,"State":"VT","description":"\n<b>Street:</b> 195A Creek Road<b>City:</b> Middlebury<b>State:</b> VT<b>Address:</b> 195A Creek Road  Middlebury , VT\n","id":"ahi3c0iifrov","geo_precision":"city"},"type":"Feature","geometry":{"type":"Point","coordinates":[-73.171578,43.991942]}},{"properties":{"City":"Middlebury","name":"53 Sugarwood Court Apt.8","geo_score":0.714,"State":"VT","description":"\n<b>Street:</b> 53 Sugarwood Court Apt.8<b>City:</b> Middlebury<b>State:</b> VT<b>Address:</b> 53 Sugarwood Court Apt.8  Middlebury , VT\n","id":"ahi3c0erigcq","geo_precision":"city"},"type":"Feature","geometry":{"type":"Point","coordinates":[-73.171578,43.991942]}},{"properties":{"City":"Middlebury","name":"82 Seminary Street Ext.","geo_score":0.714,"State":"VT","description":"\n<b>Street:</b> 82 Seminary Street Ext.<b>City:</b> Middlebury<b>State:</b> VT<b>Address:</b> 82 Seminary Street Ext.  Middlebury , VT\n","id":"ahi3c09nbg4h","geo_precision":"city"},"type":"Feature","geometry":{"type":"Point","coordinates":[-73.171578,43.991942]}},{"properties":{"City":"Middlebury","name":"13 Washington Street Ext., Apt 2","geo_score":0.714,"State":"VT","description":"\n<b>Street:</b> 13 Washington Street Ext., Apt 2<b>City:</b> Middlebury<b>State:</b> VT<b>Address:</b> 13 Washington Street Ext., Apt 2  Middlebury , VT\n","id":"ahi3c03qjyon","geo_precision":"city"},"type":"Feature","geometry":{"type":"Point","coordinates":[-73.171578,43.991942]}},{"properties":{"City":"Middlebury","name":"11 Lower Plains Road","geo_score":0.714,"State":"VT","description":"\n<b>Street:</b> 11 Lower Plains Road<b>City:</b> Middlebury<b>State:</b> VT<b>Address:</b> 11 Lower Plains Road  Middlebury , VT\n","id":"ahi3c060sisq","geo_precision":"city"},"type":"Feature","geometry":{"type":"Point","coordinates":[-73.171578,43.991942]}},{"properties":{"City":"Middlebury","name":"20 South Street","geo_score":0.714,"State":"VT","description":"\n<b>Street:</b> 20 South Street<b>City:</b> Middlebury<b>State:</b> VT<b>Address:</b> 20 South Street  Middlebury , VT\n","id":"ahi3c0332ryf","geo_precision":"city"},"type":"Feature","geometry":{"type":"Point","coordinates":[-73.171578,43.991942]}},{"properties":{"City":"Middlebury","name":"15 Sugarwood Court #2","geo_score":0.714,"State":"VT","description":"\n<b>Street:</b> 15 Sugarwood Court #2<b>City:</b> Middlebury<b>State:</b> VT<b>Address:</b> 15 Sugarwood Court #2  Middlebury , VT\n","id":"ahi3c0fq9k4m","geo_precision":"city"},"type":"Feature","geometry":{"type":"Point","coordinates":[-73.171578,43.991942]}},{"properties":{"City":"Middlebury","name":"3945 Case Street Apt. D","geo_score":0.714,"State":"VT","description":"\n<b>Street:</b> 3945 Case Street Apt. D<b>City:</b> Middlebury<b>State:</b> VT<b>Address:</b> 3945 Case Street Apt. D  Middlebury , VT\n","id":"ahi3c0ifotf6","geo_precision":"city"},"type":"Feature","geometry":{"type":"Point","coordinates":[-73.171578,43.991942]}},{"properties":{"City":"Middlebury","name":"2 North Street","geo_score":0.714,"State":"VT","description":"\n<b>Street:</b> 2 North Street<b>City:</b> Middlebury<b>State:</b> VT<b>Address:</b> 2 North Street  Middlebury , VT\n","id":"ahi3c0ff1xbb","geo_precision":"city"},"type":"Feature","geometry":{"type":"Point","coordinates":[-73.171578,43.991942]}},{"properties":{"City":"Middlebury","name":"228 Valley View Road Apt. B6","geo_score":0.714,"State":"VT","description":"\n<b>Street:</b> 228 Valley View Road Apt. B6<b>City:</b> Middlebury<b>State:</b> VT<b>Address:</b> 228 Valley View Road Apt. B6  Middlebury , VT\n","id":"ahi3c04oswpq","geo_precision":"city"},"type":"Feature","geometry":{"type":"Point","coordinates":[-73.171578,43.991942]}},{"properties":{"City":"Middlebury","name":"21 South Street","geo_score":0.714,"State":"VT","description":"\n<b>Street:</b> 21 South Street<b>City:</b> Middlebury<b>State:</b> VT<b>Address:</b> 21 South Street  Middlebury , VT\n","id":"ahi3c04clrbg","geo_precision":"city"},"type":"Feature","geometry":{"type":"Point","coordinates":[-73.171578,43.991942]}},{"properties":{"City":"Middlebury","name":"223 Airport Road","geo_score":0.714,"State":"VT","description":"\n<b>Street:</b> 223 Airport Road<b>City:</b> Middlebury<b>State:</b> VT<b>Address:</b> 223 Airport Road  Middlebury , VT\n","id":"ahi3c0adcfp0","geo_precision":"city"},"type":"Feature","geometry":{"type":"Point","coordinates":[-73.171578,43.991942]}},{"properties":{"City":"Middlebury","name":"40 South Street","geo_score":0.714,"State":"VT","description":"\n<b>Street:</b> 40 South Street<b>City:</b> Middlebury<b>State:</b> VT<b>Address:</b> 40 South Street  Middlebury , VT\n","id":"ahi3c0a7267s","geo_precision":"city"},"type":"Feature","geometry":{"type":"Point","coordinates":[-73.171578,43.991942]}},{"properties":{"City":"Middlebury","name":"100 South Main Street","geo_score":0.714,"State":"VT","description":"\n<b>Street:</b> 100 South Main Street<b>City:</b> Middlebury<b>State:</b> VT<b>Address:</b> 100 South Main Street  Middlebury , VT\n","id":"ahi3c09z7wgl","geo_precision":"city"},"type":"Feature","geometry":{"type":"Point","coordinates":[-73.171578,43.991942]}},{"properties":{"City":"Middlebury","name":"4548 Case Street","geo_score":0.714,"State":"VT","description":"\n<b>Street:</b> 4548 Case Street<b>City:</b> Middlebury<b>State:</b> VT<b>Address:</b> 4548 Case Street  Middlebury , VT\n","id":"ahi3c0dsd7cx","geo_precision":"city"},"type":"Feature","geometry":{"type":"Point","coordinates":[-73.171578,43.991942]}},{"properties":{"City":"Middlebury","name":"1818 Route 7 South","geo_score":0.714,"State":"VT","description":"\n<b>Street:</b> 1818 Route 7 South<b>City:</b> Middlebury<b>State:</b> VT<b>Address:</b> 1818 Route 7 South  Middlebury , VT\n","id":"ahi3c0dcniv4","geo_precision":"city"},"type":"Feature","geometry":{"type":"Point","coordinates":[-73.171578,43.991942]}},{"properties":{"City":"Middlebury","name":"198 Charles Avenue","geo_score":0.714,"State":"VT","description":"\n<b>Street:</b> 198 Charles Avenue<b>City:</b> Middlebury<b>State:</b> VT<b>Address:</b> 198 Charles Avenue  Middlebury , VT\n","id":"ahi3c0ai6jx7","geo_precision":"city"},"type":"Feature","geometry":{"type":"Point","coordinates":[-73.171578,43.991942]}},{"properties":{"City":"Middlebury","name":"48 High Street","geo_score":0.714,"State":"VT","description":"\n<b>Street:</b> 48 High Street<b>City:</b> Middlebury<b>State:</b> VT<b>Address:</b> 48 High Street  Middlebury , VT\n","id":"ahi3c050blzo","geo_precision":"city"},"type":"Feature","geometry":{"type":"Point","coordinates":[-73.171578,43.991942]}},{"properties":{"City":"Middlebury","name":"89 Court Street","geo_score":0.714,"State":"VT","description":"\n<b>Street:</b> 89 Court Street<b>City:</b> Middlebury<b>State:</b> VT<b>Address:</b> 89 Court Street  Middlebury , VT\n","id":"ahi3c0f3jggm","geo_precision":"city"},"type":"Feature","geometry":{"type":"Point","coordinates":[-73.171578,43.991942]}},{"properties":{"City":"Middlebury","name":"252 Fields Road","geo_score":0.714,"State":"VT","description":"\n<b>Street:</b> 252 Fields Road<b>City:</b> Middlebury<b>State:</b> VT<b>Address:</b> 252 Fields Road  Middlebury , VT\n","id":"ahi3c075r35e","geo_precision":"city"},"type":"Feature","geometry":{"type":"Point","coordinates":[-73.171578,43.991942]}},{"properties":{"City":"Middlebury","name":"18 Court Street, Apt. 1A","geo_score":0.714,"State":"VT","description":"\n<b>Street:</b> 18 Court Street, Apt. 1A<b>City:</b> Middlebury<b>State:</b> VT<b>Address:</b> 18 Court Street, Apt. 1A  Middlebury , VT\n","id":"ahi3c0cwsjhi","geo_precision":"city"},"type":"Feature","geometry":{"type":"Point","coordinates":[-73.171578,43.991942]}},{"properties":{"City":"Middlebury","name":"15 Sugarwood Court #2","geo_score":0.714,"State":"VT","description":"\n<b>Street:</b> 15 Sugarwood Court #2<b>City:</b> Middlebury<b>State:</b> VT<b>Address:</b> 15 Sugarwood Court #2  Middlebury , VT\n","id":"ahi3c0ceyoao","geo_precision":"city"},"type":"Feature","geometry":{"type":"Point","coordinates":[-73.171578,43.991942]}},{"properties":{"City":"Middlebury","name":"358 South Street Ext.","geo_score":0.714,"State":"VT","description":"\n<b>Street:</b> 358 South Street Ext.<b>City:</b> Middlebury<b>State:</b> VT<b>Address:</b> 358 South Street Ext.  Middlebury , VT\n","id":"ahi3c0gmjvl2","geo_precision":"city"},"type":"Feature","geometry":{"type":"Point","coordinates":[-73.171578,43.991942]}},{"properties":{"City":"Middlebury","name":"122 Birch Drive","geo_score":0.714,"State":"VT","description":"\n<b>Street:</b> 122 Birch Drive<b>City:</b> Middlebury<b>State:</b> VT<b>Address:</b> 122 Birch Drive  Middlebury , VT\n","id":"ahi3c0cw3vqr","geo_precision":"city"},"type":"Feature","geometry":{"type":"Point","coordinates":[-73.171578,43.991942]}},{"properties":{"City":"Middlebury","name":"91 Jackson Lane Apt. 20","geo_score":0.714,"State":"VT","description":"\n<b>Street:</b> 91 Jackson Lane Apt. 20<b>City:</b> Middlebury<b>State:</b> VT<b>Address:</b> 91 Jackson Lane Apt. 20  Middlebury , VT\n","id":"ahi3c09jddyn","geo_precision":"city"},"type":"Feature","geometry":{"type":"Point","coordinates":[-73.171578,43.991942]}},{"properties":{"City":"Middlebury","name":"235 Burnham Drive","geo_score":0.714,"State":"VT","description":"\n<b>Street:</b> 235 Burnham Drive<b>City:</b> Middlebury<b>State:</b> VT<b>Address:</b> 235 Burnham Drive  Middlebury , VT\n","id":"ahi3c032pp9b","geo_precision":"city"},"type":"Feature","geometry":{"type":"Point","coordinates":[-73.171578,43.991942]}},{"properties":{"City":"Middlebury","name":"2 Cross Street Apt 3","geo_score":0.714,"State":"VT","description":"\n<b>Street:</b> 2 Cross Street Apt 3<b>City:</b> Middlebury<b>State:</b> VT<b>Address:</b> 2 Cross Street Apt 3  Middlebury , VT\n","id":"ahi3c043f0xj","geo_precision":"city"},"type":"Feature","geometry":{"type":"Point","coordinates":[-73.171578,43.991942]}},{"properties":{"City":"Middlebury","name":"34 North Pleasant Street, Apt. B, Apt. B","geo_score":0.714,"State":"VT","description":"\n<b>Street:</b> 34 North Pleasant Street, Apt. B, Apt. B<b>City:</b> Middlebury<b>State:</b> VT<b>Address:</b> 34 North Pleasant Street, Apt. B, Apt. B  Middlebury , VT\n","id":"ahi3c0igbzxr","geo_precision":"city"},"type":"Feature","geometry":{"type":"Point","coordinates":[-73.171578,43.991942]}},{"properties":{"City":"Middlebury","name":"396 East Main Street","geo_score":0.714,"State":"VT","description":"\n<b>Street:</b> 396 East Main Street<b>City:</b> Middlebury<b>State:</b> VT<b>Address:</b> 396 East Main Street  Middlebury , VT\n","id":"ahi3c0c4r14t","geo_precision":"city"},"type":"Feature","geometry":{"type":"Point","coordinates":[-73.171578,43.991942]}},{"properties":{"City":"Middlebury","name":"334 Chipman Park","geo_score":0.714,"State":"VT","description":"\n<b>Street:</b> 334 Chipman Park<b>City:</b> Middlebury<b>State:</b> VT<b>Address:</b> 334 Chipman Park  Middlebury , VT\n","id":"ahi3c0ad9pbc","geo_precision":"city"},"type":"Feature","geometry":{"type":"Point","coordinates":[-73.171578,43.991942]}},{"properties":{"City":"Middlebury","name":"20 1/2 Seymour Street","geo_score":0.714,"State":"VT","description":"\n<b>Street:</b> 20 1/2 Seymour Street<b>City:</b> Middlebury<b>State:</b> VT<b>Address:</b> 20 1/2 Seymour Street  Middlebury , VT\n","id":"ahi3c05dp0aa","geo_precision":"city"},"type":"Feature","geometry":{"type":"Point","coordinates":[-73.171578,43.991942]}},{"properties":{"City":"Middlebury","name":"73 Perkins Lane","geo_score":0.714,"State":"VT","description":"\n<b>Street:</b> 73 Perkins Lane<b>City:</b> Middlebury<b>State:</b> VT<b>Address:</b> 73 Perkins Lane  Middlebury , VT\n","id":"ahi3c0co7cqz","geo_precision":"city"},"type":"Feature","geometry":{"type":"Point","coordinates":[-73.171578,43.991942]}},{"properties":{"City":"Middlebury","name":"86 Seminary Street Ext.","geo_score":0.714,"State":"VT","description":"\n<b>Street:</b> 86 Seminary Street Ext.<b>City:</b> Middlebury<b>State:</b> VT<b>Address:</b> 86 Seminary Street Ext.  Middlebury , VT\n","id":"ahi3c038fe73","geo_precision":"city"},"type":"Feature","geometry":{"type":"Point","coordinates":[-73.171578,43.991942]}},{"properties":{"City":"Middlebury","name":"468 East Main Street","geo_score":0.714,"State":"VT","description":"\n<b>Street:</b> 468 East Main Street<b>City:</b> Middlebury<b>State:</b> VT<b>Address:</b> 468 East Main Street  Middlebury , VT\n","id":"ahi3c04bon8a","geo_precision":"city"},"type":"Feature","geometry":{"type":"Point","coordinates":[-73.171578,43.991942]}},{"properties":{"City":"Middlebury","name":"45 Seymour Street Apt. 4","geo_score":0.714,"State":"VT","description":"\n<b>Street:</b> 45 Seymour Street Apt. 4<b>City:</b> Middlebury<b>State:</b> VT<b>Address:</b> 45 Seymour Street Apt. 4  Middlebury , VT\n","id":"ahi3c0j82bpw","geo_precision":"city"},"type":"Feature","geometry":{"type":"Point","coordinates":[-73.171578,43.991942]}},{"properties":{"City":"Middlebury","name":"1123 Munger Street","geo_score":0.714,"State":"VT","description":"\n<b>Street:</b> 1123 Munger Street<b>City:</b> Middlebury<b>State:</b> VT<b>Address:</b> 1123 Munger Street  Middlebury , VT\n","id":"ahi3c0jdg0m8","geo_precision":"city"},"type":"Feature","geometry":{"type":"Point","coordinates":[-73.171578,43.991942]}},{"properties":{"City":"Middlebury","name":"65 Otterside Court","geo_score":0.714,"State":"VT","description":"\n<b>Street:</b> 65 Otterside Court<b>City:</b> Middlebury<b>State:</b> VT<b>Address:</b> 65 Otterside Court  Middlebury , VT\n","id":"ahi3c0enwes4","geo_precision":"city"},"type":"Feature","geometry":{"type":"Point","coordinates":[-73.171578,43.991942]}},{"properties":{"City":"Middlebury","name":"245 Monroe Street","geo_score":0.714,"State":"VT","description":"\n<b>Street:</b> 245 Monroe Street<b>City:</b> Middlebury<b>State:</b> VT<b>Address:</b> 245 Monroe Street  Middlebury , VT\n","id":"ahi3c0amre0f","geo_precision":"city"},"type":"Feature","geometry":{"type":"Point","coordinates":[-73.171578,43.991942]}},{"properties":{"City":"Middlebury","name":"4 Jayne Court Apt. 33, Apt. 33","geo_score":0.714,"State":"VT","description":"\n<b>Street:</b> 4 Jayne Court Apt. 33, Apt. 33<b>City:</b> Middlebury<b>State:</b> VT<b>Address:</b> 4 Jayne Court Apt. 33, Apt. 33  Middlebury , VT\n","id":"ahi3c0etqx3l","geo_precision":"city"},"type":"Feature","geometry":{"type":"Point","coordinates":[-73.171578,43.991942]}},{"properties":{"City":"Middlebury","name":"855 Case Street","geo_score":0.714,"State":"VT","description":"\n<b>Street:</b> 855 Case Street<b>City:</b> Middlebury<b>State:</b> VT<b>Address:</b> 855 Case Street  Middlebury , VT\n","id":"ahi3c0eddru6","geo_precision":"city"},"type":"Feature","geometry":{"type":"Point","coordinates":[-73.171578,43.991942]}},{"properties":{"City":"Middlebury","name":"6 Lower Plains Road","geo_score":0.714,"State":"VT","description":"\n<b>Street:</b> 6 Lower Plains Road<b>City:</b> Middlebury<b>State:</b> VT<b>Address:</b> 6 Lower Plains Road  Middlebury , VT\n","id":"ahi3c0if2t6z","geo_precision":"city"},"type":"Feature","geometry":{"type":"Point","coordinates":[-73.171578,43.991942]}},{"properties":{"City":"Middlebury","name":"13 Washington Street Apt. 4","geo_score":0.714,"State":"VT","description":"\n<b>Street:</b> 13 Washington Street Apt. 4<b>City:</b> Middlebury<b>State:</b> VT<b>Address:</b> 13 Washington Street Apt. 4  Middlebury , VT\n","id":"ahi3c0d0kw11","geo_precision":"city"},"type":"Feature","geometry":{"type":"Point","coordinates":[-73.171578,43.991942]}},{"properties":{"City":"Middlebury","name":"56 Monarch Court","geo_score":0.714,"State":"VT","description":"\n<b>Street:</b> 56 Monarch Court<b>City:</b> Middlebury<b>State:</b> VT<b>Address:</b> 56 Monarch Court  Middlebury , VT\n","id":"ahi3c0cjbbq1","geo_precision":"city"},"type":"Feature","geometry":{"type":"Point","coordinates":[-73.171578,43.991942]}},{"properties":{"City":"Middlebury","name":"11 Seminary Street, Apt. 3","geo_score":0.714,"State":"VT","description":"\n<b>Street:</b> 11 Seminary Street, Apt. 3<b>City:</b> Middlebury<b>State:</b> VT<b>Address:</b> 11 Seminary Street, Apt. 3  Middlebury , VT\n","id":"ahi3c04lvg6y","geo_precision":"city"},"type":"Feature","geometry":{"type":"Point","coordinates":[-73.171578,43.991942]}},{"properties":{"City":"Middlebury","name":"93 Jackson Lane, Apt. 23","geo_score":0.714,"State":"VT","description":"\n<b>Street:</b> 93 Jackson Lane, Apt. 23<b>City:</b> Middlebury<b>State:</b> VT<b>Address:</b> 93 Jackson Lane, Apt. 23  Middlebury , VT\n","id":"ahi3c06iz7gs","geo_precision":"city"},"type":"Feature","geometry":{"type":"Point","coordinates":[-73.171578,43.991942]}},{"properties":{"City":"Middlebury","name":"24 High Street","geo_score":0.714,"State":"VT","description":"\n<b>Street:</b> 24 High Street<b>City:</b> Middlebury<b>State:</b> VT<b>Address:</b> 24 High Street  Middlebury , VT\n","id":"ahi3c0cz6j6c","geo_precision":"city"},"type":"Feature","geometry":{"type":"Point","coordinates":[-73.171578,43.991942]}},{"properties":{"City":"Middlebury","name":"Blue Spruce Motel 2428 Rt 7S","geo_score":0.714,"State":"VT","description":"\n<b>Street:</b> Blue Spruce Motel 2428 Rt 7S<b>City:</b> Middlebury<b>State:</b> VT<b>Address:</b> Blue Spruce Motel 2428 Rt 7S  Middlebury , VT\n","id":"ahi3c0j8qihw","geo_precision":"city"},"type":"Feature","geometry":{"type":"Point","coordinates":[-73.171578,43.991942]}},{"properties":{"City":"Middlebury","name":"51 North Pleasant Street","geo_score":0.714,"State":"VT","description":"\n<b>Street:</b> 51 North Pleasant Street<b>City:</b> Middlebury<b>State:</b> VT<b>Address:</b> 51 North Pleasant Street  Middlebury , VT\n","id":"ahi3c07dmdok","geo_precision":"city"},"type":"Feature","geometry":{"type":"Point","coordinates":[-73.171578,43.991942]}},{"properties":{"City":"Middlebury","name":"2888 Route 7 South","geo_score":0.714,"State":"VT","description":"\n<b>Street:</b> 2888 Route 7 South<b>City:</b> Middlebury<b>State:</b> VT<b>Address:</b> 2888 Route 7 South  Middlebury , VT\n","id":"ahi3c0inslnr","geo_precision":"city"},"type":"Feature","geometry":{"type":"Point","coordinates":[-73.171578,43.991942]}},{"properties":{"City":"Middlebury","name":"3669 Case Street","geo_score":0.714,"State":"VT","description":"\n<b>Street:</b> 3669 Case Street<b>City:</b> Middlebury<b>State:</b> VT<b>Address:</b> 3669 Case Street  Middlebury , VT\n","id":"ahi3c0h4kw83","geo_precision":"city"},"type":"Feature","geometry":{"type":"Point","coordinates":[-73.171578,43.991942]}},{"properties":{"City":"Middlebury","name":"85 Court Street Apt. 2","geo_score":0.714,"State":"VT","description":"\n<b>Street:</b> 85 Court Street Apt. 2<b>City:</b> Middlebury<b>State:</b> VT<b>Address:</b> 85 Court Street Apt. 2  Middlebury , VT\n","id":"ahi3c0gi46dz","geo_precision":"city"},"type":"Feature","geometry":{"type":"Point","coordinates":[-73.171578,43.991942]}},{"properties":{"City":"Middlebury","name":"53 Sugarwood Court, Apt. 7","geo_score":0.714,"State":"VT","description":"\n<b>Street:</b> 53 Sugarwood Court, Apt. 7<b>City:</b> Middlebury<b>State:</b> VT<b>Address:</b> 53 Sugarwood Court, Apt. 7  Middlebury , VT\n","id":"ahi3c08fwwra","geo_precision":"city"},"type":"Feature","geometry":{"type":"Point","coordinates":[-73.171578,43.991942]}},{"properties":{"City":"Middlebury","name":"275 Weybridge Street","geo_score":0.714,"State":"VT","description":"\n<b>Street:</b> 275 Weybridge Street<b>City:</b> Middlebury<b>State:</b> VT<b>Address:</b> 275 Weybridge Street  Middlebury , VT\n","id":"ahi3c0furcyr","geo_precision":"city"},"type":"Feature","geometry":{"type":"Point","coordinates":[-73.171578,43.991942]}},{"properties":{"City":"Middlebury","name":"30 South Village Green #301","geo_score":0.714,"State":"VT","description":"\n<b>Street:</b> 30 South Village Green #301<b>City:</b> Middlebury<b>State:</b> VT<b>Address:</b> 30 South Village Green #301  Middlebury , VT\n","id":"ahi3c0e27v52","geo_precision":"city"},"type":"Feature","geometry":{"type":"Point","coordinates":[-73.171578,43.991942]}},{"properties":{"City":"Middlebury","name":"567 Weybridge Street","geo_score":0.714,"State":"VT","description":"\n<b>Street:</b> 567 Weybridge Street<b>City:</b> Middlebury<b>State:</b> VT<b>Address:</b> 567 Weybridge Street  Middlebury , VT\n","id":"ahi3c03mx0h8","geo_precision":"city"},"type":"Feature","geometry":{"type":"Point","coordinates":[-73.171578,43.991942]}},{"properties":{"City":"Middlebury","name":"31B John Graham Court","geo_score":0.714,"State":"VT","description":"\n<b>Street:</b> 31B John Graham Court<b>City:</b> Middlebury<b>State:</b> VT<b>Address:</b> 31B John Graham Court  Middlebury , VT\n","id":"ahi3c09fj2wt","geo_precision":"city"},"type":"Feature","geometry":{"type":"Point","coordinates":[-73.171578,43.991942]}},{"properties":{"City":"Middlebury","name":"1818 Route 7 South","geo_score":0.714,"State":"VT","description":"\n<b>Street:</b> 1818 Route 7 South<b>City:</b> Middlebury<b>State:</b> VT<b>Address:</b> 1818 Route 7 South  Middlebury , VT\n","id":"ahi3c0grybed","geo_precision":"city"},"type":"Feature","geometry":{"type":"Point","coordinates":[-73.171578,43.991942]}},{"properties":{"City":"Middlebury","name":"245 Monroe Street","geo_score":0.714,"State":"VT","description":"\n<b>Street:</b> 245 Monroe Street<b>City:</b> Middlebury<b>State:</b> VT<b>Address:</b> 245 Monroe Street  Middlebury , VT\n","id":"ahi3c0gpn2hi","geo_precision":"city"},"type":"Feature","geometry":{"type":"Point","coordinates":[-73.171578,43.991942]}},{"properties":{"City":"Middlebury","name":"413 East Main Street","geo_score":0.714,"State":"VT","description":"\n<b>Street:</b> 413 East Main Street<b>City:</b> Middlebury<b>State:</b> VT<b>Address:</b> 413 East Main Street  Middlebury , VT\n","id":"ahi3c0ehnq0o","geo_precision":"city"},"type":"Feature","geometry":{"type":"Point","coordinates":[-73.171578,43.991942]}},{"properties":{"City":"Middlebury","name":"102 Chipman Park","geo_score":0.714,"State":"VT","description":"\n<b>Street:</b> 102 Chipman Park<b>City:</b> Middlebury<b>State:</b> VT<b>Address:</b> 102 Chipman Park  Middlebury , VT\n","id":"ahi3c099ohlp","geo_precision":"city"},"type":"Feature","geometry":{"type":"Point","coordinates":[-73.171578,43.991942]}},{"properties":{"City":"Middlebury","name":"13 Lower Plains Road","geo_score":0.714,"State":"VT","description":"\n<b>Street:</b> 13 Lower Plains Road<b>City:</b> Middlebury<b>State:</b> VT<b>Address:</b> 13 Lower Plains Road  Middlebury , VT\n","id":"ahi3c0iqdlue","geo_precision":"city"},"type":"Feature","geometry":{"type":"Point","coordinates":[-73.171578,43.991942]}},{"properties":{"City":"Middlebury","name":"26 Nashua Lane","geo_score":0.714,"State":"VT","description":"\n<b>Street:</b> 26 Nashua Lane<b>City:</b> Middlebury<b>State:</b> VT<b>Address:</b> 26 Nashua Lane  Middlebury , VT\n","id":"ahi3c0c58bg7","geo_precision":"city"},"type":"Feature","geometry":{"type":"Point","coordinates":[-73.171578,43.991942]}},{"properties":{"City":"Middlebury","name":"4961 Case Street","geo_score":0.714,"State":"VT","description":"\n<b>Street:</b> 4961 Case Street<b>City:</b> Middlebury<b>State:</b> VT<b>Address:</b> 4961 Case Street  Middlebury , VT\n","id":"ahi3c0ddx06q","geo_precision":"city"},"type":"Feature","geometry":{"type":"Point","coordinates":[-73.171578,43.991942]}},{"properties":{"City":"Middlebury","name":"94 Skyline Lane","geo_score":0.714,"State":"VT","description":"\n<b>Street:</b> 94 Skyline Lane<b>City:</b> Middlebury<b>State:</b> VT<b>Address:</b> 94 Skyline Lane  Middlebury , VT\n","id":"ahi3c0552c9w","geo_precision":"city"},"type":"Feature","geometry":{"type":"Point","coordinates":[-73.171578,43.991942]}},{"properties":{"City":"Middlebury","name":"88 Charles Avenue","geo_score":0.714,"State":"VT","description":"\n<b>Street:</b> 88 Charles Avenue<b>City:</b> Middlebury<b>State:</b> VT<b>Address:</b> 88 Charles Avenue  Middlebury , VT\n","id":"ahi3c0jcl1km","geo_precision":"city"},"type":"Feature","geometry":{"type":"Point","coordinates":[-73.171578,43.991942]}},{"properties":{"City":"Middlebury","name":"19 Chipman Heights","geo_score":0.714,"State":"VT","description":"\n<b>Street:</b> 19 Chipman Heights<b>City:</b> Middlebury<b>State:</b> VT<b>Address:</b> 19 Chipman Heights  Middlebury , VT\n","id":"ahi3c03r31f6","geo_precision":"city"},"type":"Feature","geometry":{"type":"Point","coordinates":[-73.171578,43.991942]}},{"properties":{"City":"Middlebury","name":"387 East Main Street","geo_score":0.714,"State":"VT","description":"\n<b>Street:</b> 387 East Main Street<b>City:</b> Middlebury<b>State:</b> VT<b>Address:</b> 387 East Main Street  Middlebury , VT\n","id":"ahi3c0493hbu","geo_precision":"city"},"type":"Feature","geometry":{"type":"Point","coordinates":[-73.171578,43.991942]}},{"properties":{"City":"Middlebury","name":"408 East Main Street","geo_score":0.714,"State":"VT","description":"\n<b>Street:</b> 408 East Main Street<b>City:</b> Middlebury<b>State:</b> VT<b>Address:</b> 408 East Main Street  Middlebury , VT\n","id":"ahi3c05qautt","geo_precision":"city"},"type":"Feature","geometry":{"type":"Point","coordinates":[-73.171578,43.991942]}},{"properties":{"City":"Middlebury","name":"43 Court Street","geo_score":0.714,"State":"VT","description":"\n<b>Street:</b> 43 Court Street<b>City:</b> Middlebury<b>State:</b> VT<b>Address:</b> 43 Court Street  Middlebury , VT\n","id":"ahi3c0h9pdfo","geo_precision":"city"},"type":"Feature","geometry":{"type":"Point","coordinates":[-73.171578,43.991942]}},{"properties":{"City":"Middlebury","name":"13 Washington Street Apt. 4","geo_score":0.714,"State":"VT","description":"\n<b>Street:</b> 13 Washington Street Apt. 4<b>City:</b> Middlebury<b>State:</b> VT<b>Address:</b> 13 Washington Street Apt. 4  Middlebury , VT\n","id":"ahi3c078mq7g","geo_precision":"city"},"type":"Feature","geometry":{"type":"Point","coordinates":[-73.171578,43.991942]}},{"properties":{"City":"Middlebury","name":"51 Seminary Street","geo_score":0.714,"State":"VT","description":"\n<b>Street:</b> 51 Seminary Street<b>City:</b> Middlebury<b>State:</b> VT<b>Address:</b> 51 Seminary Street  Middlebury , VT\n","id":"ahi3c0cdb4dh","geo_precision":"city"},"type":"Feature","geometry":{"type":"Point","coordinates":[-73.171578,43.991942]}},{"properties":{"City":"Middlebury","name":"364 Chipman Park","geo_score":0.714,"State":"VT","description":"\n<b>Street:</b> 364 Chipman Park<b>City:</b> Middlebury<b>State:</b> VT<b>Address:</b> 364 Chipman Park  Middlebury , VT\n","id":"ahi3c05xlq4s","geo_precision":"city"},"type":"Feature","geometry":{"type":"Point","coordinates":[-73.171578,43.991942]}},{"properties":{"City":"Middlebury","name":"5 Meadow Way","geo_score":0.714,"State":"VT","description":"\n<b>Street:</b> 5 Meadow Way<b>City:</b> Middlebury<b>State:</b> VT<b>Address:</b> 5 Meadow Way  Middlebury , VT\n","id":"ahi3c0cvalaz","geo_precision":"city"},"type":"Feature","geometry":{"type":"Point","coordinates":[-73.171578,43.991942]}},{"properties":{"City":"Middlebury","name":"12 Lindale Circle","geo_score":0.0,"State":"Vt","description":"\n<b>Street:</b> 12 Lindale Circle<b>City:</b> Middlebury<b>State:</b> Vt<b>Address:</b> 12 Lindale Circle  Middlebury , Vt\n","id":"ahi3c074bwe7","geo_precision":"unmatched"},"type":"Feature","geometry":null},{"properties":{"City":"Middlebury","name":"89 Court Street","geo_score":0.714,"State":"VT","description":"\n<b>Street:</b> 89 Court Street<b>City:</b> Middlebury<b>State:</b> VT<b>Address:</b> 89 Court Street  Middlebury , VT\n","id":"ahi3c06fgw4i","geo_precision":"city"},"type":"Feature","geometry":{"type":"Point","coordinates":[-73.171578,43.991942]}},{"properties":{"City":"Middlebury","name":"332 East Main Street","geo_score":0.714,"State":"VT","description":"\n<b>Street:</b> 332 East Main Street<b>City:</b> Middlebury<b>State:</b> VT<b>Address:</b> 332 East Main Street  Middlebury , VT\n","id":"ahi3c05zacts","geo_precision":"city"},"type":"Feature","geometry":{"type":"Point","coordinates":[-73.171578,43.991942]}},{"properties":{"City":"Middlebury","name":"15 Woodbridge Lane","geo_score":0.714,"State":"VT","description":"\n<b>Street:</b> 15 Woodbridge Lane<b>City:</b> Middlebury<b>State:</b> VT<b>Address:</b> 15 Woodbridge Lane  Middlebury , VT\n","id":"ahi3c0fy3vu7","geo_precision":"city"},"type":"Feature","geometry":{"type":"Point","coordinates":[-73.171578,43.991942]}},{"properties":{"City":"Middlebury","name":"228 Valley View Road Apt. B6","geo_score":0.714,"State":"VT","description":"\n<b>Street:</b> 228 Valley View Road Apt. B6<b>City:</b> Middlebury<b>State:</b> VT<b>Address:</b> 228 Valley View Road Apt. B6  Middlebury , VT\n","id":"ahi3c0iodedb","geo_precision":"city"},"type":"Feature","geometry":{"type":"Point","coordinates":[-73.171578,43.991942]}},{"properties":{"City":"Middlebury","name":"86 Chipman Park","geo_score":0.714,"State":"VT","description":"\n<b>Street:</b> 86 Chipman Park<b>City:</b> Middlebury<b>State:</b> VT<b>Address:</b> 86 Chipman Park  Middlebury , VT\n","id":"ahi3c0gekdfi","geo_precision":"city"},"type":"Feature","geometry":{"type":"Point","coordinates":[-73.171578,43.991942]}},{"properties":{"City":"Middlebury","name":"524 Buttolph Drive","geo_score":0.714,"State":"VT","description":"\n<b>Street:</b> 524 Buttolph Drive<b>City:</b> Middlebury<b>State:</b> VT<b>Address:</b> 524 Buttolph Drive  Middlebury , VT\n","id":"ahi3c0d4u7yn","geo_precision":"city"},"type":"Feature","geometry":{"type":"Point","coordinates":[-73.171578,43.991942]}},{"properties":{"City":"Middlebury","name":"107 Sarah's Way","geo_score":0.714,"State":"VT","description":"\n<b>Street:</b> 107 Sarah's Way<b>City:</b> Middlebury<b>State:</b> VT<b>Address:</b> 107 Sarah's Way  Middlebury , VT\n","id":"ahi3c05x84gv","geo_precision":"city"},"type":"Feature","geometry":{"type":"Point","coordinates":[-73.171578,43.991942]}},{"properties":{"City":"Middlebury","name":"155 Cottage Lane","geo_score":0.714,"State":"VT","description":"\n<b>Street:</b> 155 Cottage Lane<b>City:</b> Middlebury<b>State:</b> VT<b>Address:</b> 155 Cottage Lane  Middlebury , VT\n","id":"ahi3c0a5fm1m","geo_precision":"city"},"type":"Feature","geometry":{"type":"Point","coordinates":[-73.171578,43.991942]}},{"properties":{"City":"Middlebury","name":"651 Blake Roy Road","geo_score":0.714,"State":"VT","description":"\n<b>Street:</b> 651 Blake Roy Road<b>City:</b> Middlebury<b>State:</b> VT<b>Address:</b> 651 Blake Roy Road  Middlebury , VT\n","id":"ahi3c0e2g7ea","geo_precision":"city"},"type":"Feature","geometry":{"type":"Point","coordinates":[-73.171578,43.991942]}},{"properties":{"City":"Middlebury","name":"73 North Pleasant Street","geo_score":0.714,"State":"VT","description":"\n<b>Street:</b> 73 North Pleasant Street<b>City:</b> Middlebury<b>State:</b> VT<b>Address:</b> 73 North Pleasant Street  Middlebury , VT\n","id":"ahi3c0geacww","geo_precision":"city"},"type":"Feature","geometry":{"type":"Point","coordinates":[-73.171578,43.991942]}},{"properties":{"City":"Middlebury","name":"30 South Village Green #301","geo_score":0.714,"State":"VT","description":"\n<b>Street:</b> 30 South Village Green #301<b>City:</b> Middlebury<b>State:</b> VT<b>Address:</b> 30 South Village Green #301  Middlebury , VT\n","id":"ahi3c035b929","geo_precision":"city"},"type":"Feature","geometry":{"type":"Point","coordinates":[-73.171578,43.991942]}},{"properties":{"City":"Middlebury","name":"430 East Main Street","geo_score":0.714,"State":"VT","description":"\n<b>Street:</b> 430 East Main Street<b>City:</b> Middlebury<b>State:</b> VT<b>Address:</b> 430 East Main Street  Middlebury , VT\n","id":"ahi3c09ar179","geo_precision":"city"},"type":"Feature","geometry":{"type":"Point","coordinates":[-73.171578,43.991942]}},{"properties":{"City":"Middlebury","name":"16 Springside Road","geo_score":0.714,"State":"VT","description":"\n<b>Street:</b> 16 Springside Road<b>City:</b> Middlebury<b>State:</b> VT<b>Address:</b> 16 Springside Road  Middlebury , VT\n","id":"ahi3c0gouu7b","geo_precision":"city"},"type":"Feature","geometry":{"type":"Point","coordinates":[-73.171578,43.991942]}},{"properties":{"City":"Middlebury","name":"45 Bakery Lane","geo_score":0.714,"State":"VT","description":"\n<b>Street:</b> 45 Bakery Lane<b>City:</b> Middlebury<b>State:</b> VT<b>Address:</b> 45 Bakery Lane  Middlebury , VT\n","id":"ahi3c04xb5ec","geo_precision":"city"},"type":"Feature","geometry":{"type":"Point","coordinates":[-73.171578,43.991942]}},{"properties":{"City":"Middlebury","name":"12 Lindale Circle","geo_score":0.0,"State":"Vt","description":"\n<b>Street:</b> 12 Lindale Circle<b>City:</b> Middlebury<b>State:</b> Vt<b>Address:</b> 12 Lindale Circle  Middlebury , Vt\n","id":"ahi3c03cuqgo","geo_precision":"unmatched"},"type":"Feature","geometry":null},{"properties":{"City":"Middlebury","name":"51 Seymour Street","geo_score":0.714,"State":"VT","description":"\n<b>Street:</b> 51 Seymour Street<b>City:</b> Middlebury<b>State:</b> VT<b>Address:</b> 51 Seymour Street  Middlebury , VT\n","id":"ahi3c053w0vg","geo_precision":"city"},"type":"Feature","geometry":{"type":"Point","coordinates":[-73.171578,43.991942]}},{"properties":{"City":"Middlebury","name":"28 North Forty Lane","geo_score":0.714,"State":"VT","description":"\n<b>Street:</b> 28 North Forty Lane<b>City:</b> Middlebury<b>State:</b> VT<b>Address:</b> 28 North Forty Lane  Middlebury , VT\n","id":"ahi3c0gnd7cc","geo_precision":"city"},"type":"Feature","geometry":{"type":"Point","coordinates":[-73.171578,43.991942]}},{"properties":{"City":"Middlebury","name":"4277 Case Street","geo_score":0.714,"State":"VT","description":"\n<b>Street:</b> 4277 Case Street<b>City:</b> Middlebury<b>State:</b> VT<b>Address:</b> 4277 Case Street  Middlebury , VT\n","id":"ahi3c0djyy4e","geo_precision":"city"},"type":"Feature","geometry":{"type":"Point","coordinates":[-73.171578,43.991942]}},{"properties":{"City":"Middlebury","name":"40 Monroe Street","geo_score":0.714,"State":"VT","description":"\n<b>Street:</b> 40 Monroe Street<b>City:</b> Middlebury<b>State:</b> VT<b>Address:</b> 40 Monroe Street  Middlebury , VT\n","id":"ahi3c044rvn5","geo_precision":"city"},"type":"Feature","geometry":{"type":"Point","coordinates":[-73.171578,43.991942]}},{"properties":{"City":"Middlebury","name":"252 Fields Road","geo_score":0.714,"State":"VT","description":"\n<b>Street:</b> 252 Fields Road<b>City:</b> Middlebury<b>State:</b> VT<b>Address:</b> 252 Fields Road  Middlebury , VT\n","id":"ahi3c072rq5h","geo_precision":"city"},"type":"Feature","geometry":{"type":"Point","coordinates":[-73.171578,43.991942]}},{"properties":{"City":"Middlebury","name":"636 Happy Valley Road","geo_score":0.714,"State":"VT","description":"\n<b>Street:</b> 636 Happy Valley Road<b>City:</b> Middlebury<b>State:</b> VT<b>Address:</b> 636 Happy Valley Road  Middlebury , VT\n","id":"ahi3c0j6sznl","geo_precision":"city"},"type":"Feature","geometry":{"type":"Point","coordinates":[-73.171578,43.991942]}},{"properties":{"City":"Middlebury","name":"15 Maple Street","geo_score":0.714,"State":"VT","description":"\n<b>Street:</b> 15 Maple Street<b>City:</b> Middlebury<b>State:</b> VT<b>Address:</b> 15 Maple Street  Middlebury , VT\n","id":"ahi3c0dqg879","geo_precision":"city"},"type":"Feature","geometry":{"type":"Point","coordinates":[-73.171578,43.991942]}},{"properties":{"City":"Middlebury","name":"316 Painter Hills Road","geo_score":0.714,"State":"VT","description":"\n<b>Street:</b> 316 Painter Hills Road<b>City:</b> Middlebury<b>State:</b> VT<b>Address:</b> 316 Painter Hills Road  Middlebury , VT\n","id":"ahi3c0g4mohl","geo_precision":"city"},"type":"Feature","geometry":{"type":"Point","coordinates":[-73.171578,43.991942]}},{"properties":{"City":"Middlebury","name":"109 South Main Street","geo_score":0.714,"State":"VT","description":"\n<b>Street:</b> 109 South Main Street<b>City:</b> Middlebury<b>State:</b> VT<b>Address:</b> 109 South Main Street  Middlebury , VT\n","id":"ahi3c085e4yk","geo_precision":"city"},"type":"Feature","geometry":{"type":"Point","coordinates":[-73.171578,43.991942]}},{"properties":{"City":"Middlebury","name":"58 Otterside Court","geo_score":0.714,"State":"VT","description":"\n<b>Street:</b> 58 Otterside Court<b>City:</b> Middlebury<b>State:</b> VT<b>Address:</b> 58 Otterside Court  Middlebury , VT\n","id":"ahi3c08lkuep","geo_precision":"city"},"type":"Feature","geometry":{"type":"Point","coordinates":[-73.171578,43.991942]}},{"properties":{"City":"Middlebury","name":"39 Seminary Street","geo_score":0.714,"State":"VT","description":"\n<b>Street:</b> 39 Seminary Street<b>City:</b> Middlebury<b>State:</b> VT<b>Address:</b> 39 Seminary Street  Middlebury , VT\n","id":"ahi3c067i796","geo_precision":"city"},"type":"Feature","geometry":{"type":"Point","coordinates":[-73.171578,43.991942]}},{"properties":{"City":"Middlebury","name":"415 East Main Street","geo_score":0.714,"State":"VT","description":"\n<b>Street:</b> 415 East Main Street<b>City:</b> Middlebury<b>State:</b> VT<b>Address:</b> 415 East Main Street  Middlebury , VT\n","id":"ahi3c05wigth","geo_precision":"city"},"type":"Feature","geometry":{"type":"Point","coordinates":[-73.171578,43.991942]}},{"properties":{"City":"Middlebury","name":"104 Water Street","geo_score":0.714,"State":"VT","description":"\n<b>Street:</b> 104 Water Street<b>City:</b> Middlebury<b>State:</b> VT<b>Address:</b> 104 Water Street  Middlebury , VT\n","id":"ahi3c071uq5h","geo_precision":"city"},"type":"Feature","geometry":{"type":"Point","coordinates":[-73.171578,43.991942]}},{"properties":{"City":"Middlebury","name":"73 Perkins Lane","geo_score":0.714,"State":"VT","description":"\n<b>Street:</b> 73 Perkins Lane<b>City:</b> Middlebury<b>State:</b> VT<b>Address:</b> 73 Perkins Lane  Middlebury , VT\n","id":"ahi3c054zurh","geo_precision":"city"},"type":"Feature","geometry":{"type":"Point","coordinates":[-73.171578,43.991942]}},{"properties":{"City":"Middlebury","name":"3945 Case Street, Apt. B","geo_score":0.714,"State":"VT","description":"\n<b>Street:</b> 3945 Case Street, Apt. B<b>City:</b> Middlebury<b>State:</b> VT<b>Address:</b> 3945 Case Street, Apt. B  Middlebury , VT\n","id":"ahi3c03gr4gd","geo_precision":"city"},"type":"Feature","geometry":{"type":"Point","coordinates":[-73.171578,43.991942]}},{"properties":{"City":"Middlebury","name":"23 Woodbridge Lane","geo_score":0.714,"State":"VT","description":"\n<b>Street:</b> 23 Woodbridge Lane<b>City:</b> Middlebury<b>State:</b> VT<b>Address:</b> 23 Woodbridge Lane  Middlebury , VT\n","id":"ahi3c0a2m2dg","geo_precision":"city"},"type":"Feature","geometry":{"type":"Point","coordinates":[-73.171578,43.991942]}},{"properties":{"City":"Middlebury","name":"4 Murdock Court","geo_score":0.714,"State":"VT","description":"\n<b>Street:</b> 4 Murdock Court<b>City:</b> Middlebury<b>State:</b> VT<b>Address:</b> 4 Murdock Court  Middlebury , VT\n","id":"ahi3c05jb3ir","geo_precision":"city"},"type":"Feature","geometry":{"type":"Point","coordinates":[-73.171578,43.991942]}},{"properties":{"City":"Middlebury","name":"51 Seymour Street","geo_score":0.714,"State":"VT","description":"\n<b>Street:</b> 51 Seymour Street<b>City:</b> Middlebury<b>State:</b> VT<b>Address:</b> 51 Seymour Street  Middlebury , VT\n","id":"ahi3c03fgtp8","geo_precision":"city"},"type":"Feature","geometry":{"type":"Point","coordinates":[-73.171578,43.991942]}},{"properties":{"City":"Middlebury","name":"70 Maple Street Unit 304","geo_score":0.714,"State":"VT","description":"\n<b>Street:</b> 70 Maple Street Unit 304<b>City:</b> Middlebury<b>State:</b> VT<b>Address:</b> 70 Maple Street Unit 304  Middlebury , VT\n","id":"ahi3c0cl6q39","geo_precision":"city"},"type":"Feature","geometry":{"type":"Point","coordinates":[-73.171578,43.991942]}},{"properties":{"City":"Middlebury","name":"91 Jackson Lane Apt. 20","geo_score":0.714,"State":"VT","description":"\n<b>Street:</b> 91 Jackson Lane Apt. 20<b>City:</b> Middlebury<b>State:</b> VT<b>Address:</b> 91 Jackson Lane Apt. 20  Middlebury , VT\n","id":"ahi3c0ccv0gj","geo_precision":"city"},"type":"Feature","geometry":{"type":"Point","coordinates":[-73.171578,43.991942]}},{"properties":{"City":"Middlebury","name":"30 South Village Green , Apt. 101","geo_score":0.714,"State":"VT","description":"\n<b>Street:</b> 30 South Village Green , Apt. 101<b>City:</b> Middlebury<b>State:</b> VT<b>Address:</b> 30 South Village Green , Apt. 101  Middlebury , VT\n","id":"ahi3c0ghrbsc","geo_precision":"city"},"type":"Feature","geometry":{"type":"Point","coordinates":[-73.171578,43.991942]}},{"properties":{"City":"Middlebury","name":"228 Valley View, Apt. B2","geo_score":0.714,"State":"VT","description":"\n<b>Street:</b> 228 Valley View, Apt. B2<b>City:</b> Middlebury<b>State:</b> VT<b>Address:</b> 228 Valley View, Apt. B2  Middlebury , VT\n","id":"ahi3c0dc1jte","geo_precision":"city"},"type":"Feature","geometry":{"type":"Point","coordinates":[-73.171578,43.991942]}},{"properties":{"City":"Middlebury","name":"31B John Graham Court","geo_score":0.714,"State":"VT","description":"\n<b>Street:</b> 31B John Graham Court<b>City:</b> Middlebury<b>State:</b> VT<b>Address:</b> 31B John Graham Court  Middlebury , VT\n","id":"ahi3c0j6mpgv","geo_precision":"city"},"type":"Feature","geometry":{"type":"Point","coordinates":[-73.171578,43.991942]}},{"properties":{"City":"Middlebury","name":"66 Otterside","geo_score":0.714,"State":"VT","description":"\n<b>Street:</b> 66 Otterside<b>City:</b> Middlebury<b>State:</b> VT<b>Address:</b> 66 Otterside  Middlebury , VT\n","id":"ahi3c0h1kr3r","geo_precision":"city"},"type":"Feature","geometry":{"type":"Point","coordinates":[-73.171578,43.991942]}},{"properties":{"City":"Middlebury","name":"21 Otterside Court, Apt. 27","geo_score":0.714,"State":"VT","description":"\n<b>Street:</b> 21 Otterside Court, Apt. 27<b>City:</b> Middlebury<b>State:</b> VT<b>Address:</b> 21 Otterside Court, Apt. 27  Middlebury , VT\n","id":"ahi3c0g5wqe0","geo_precision":"city"},"type":"Feature","geometry":{"type":"Point","coordinates":[-73.171578,43.991942]}},{"properties":{"City":"Middlebury","name":"161 Creek Road","geo_score":0.714,"State":"VT","description":"\n<b>Street:</b> 161 Creek Road<b>City:</b> Middlebury<b>State:</b> VT<b>Address:</b> 161 Creek Road  Middlebury , VT\n","id":"ahi3c0443dlx","geo_precision":"city"},"type":"Feature","geometry":{"type":"Point","coordinates":[-73.171578,43.991942]}},{"properties":{"City":"Middlebury","name":"358 South Street Ext.","geo_score":0.714,"State":"VT","description":"\n<b>Street:</b> 358 South Street Ext.<b>City:</b> Middlebury<b>State:</b> VT<b>Address:</b> 358 South Street Ext.  Middlebury , VT\n","id":"ahi3c0ilx90t","geo_precision":"city"},"type":"Feature","geometry":{"type":"Point","coordinates":[-73.171578,43.991942]}},{"properties":{"City":"Middlebury","name":"235 Burnham Drive","geo_score":0.714,"State":"VT","description":"\n<b>Street:</b> 235 Burnham Drive<b>City:</b> Middlebury<b>State:</b> VT<b>Address:</b> 235 Burnham Drive  Middlebury , VT\n","id":"ahi3c03vpeyt","geo_precision":"city"},"type":"Feature","geometry":{"type":"Point","coordinates":[-73.171578,43.991942]}},{"properties":{"City":"Middlebury","name":"51 North Pleasant Street","geo_score":0.714,"State":"VT","description":"\n<b>Street:</b> 51 North Pleasant Street<b>City:</b> Middlebury<b>State:</b> VT<b>Address:</b> 51 North Pleasant Street  Middlebury , VT\n","id":"ahi3c03s96us","geo_precision":"city"},"type":"Feature","geometry":{"type":"Point","coordinates":[-73.171578,43.991942]}},{"properties":{"City":"Middlebury","name":"78 Seminary Street Ext.","geo_score":0.714,"State":"VT","description":"\n<b>Street:</b> 78 Seminary Street Ext.<b>City:</b> Middlebury<b>State:</b> VT<b>Address:</b> 78 Seminary Street Ext.  Middlebury , VT\n","id":"ahi3c06u6u73","geo_precision":"city"},"type":"Feature","geometry":{"type":"Point","coordinates":[-73.171578,43.991942]}},{"properties":{"City":"Middlebury","name":"6 Forbes Circle","geo_score":0.714,"State":"VT","description":"\n<b>Street:</b> 6 Forbes Circle<b>City:</b> Middlebury<b>State:</b> VT<b>Address:</b> 6 Forbes Circle  Middlebury , VT\n","id":"ahi3c09on510","geo_precision":"city"},"type":"Feature","geometry":{"type":"Point","coordinates":[-73.171578,43.991942]}},{"properties":{"City":"Middlebury","name":"10 Chipman Heights","geo_score":0.714,"State":"VT","description":"\n<b>Street:</b> 10 Chipman Heights<b>City:</b> Middlebury<b>State:</b> VT<b>Address:</b> 10 Chipman Heights  Middlebury , VT\n","id":"ahi3c04zuwxy","geo_precision":"city"},"type":"Feature","geometry":{"type":"Point","coordinates":[-73.171578,43.991942]}},{"properties":{"City":"Middlebury","name":"39 Sugarwood Court , Apt. 6","geo_score":0.714,"State":"VT","description":"\n<b>Street:</b> 39 Sugarwood Court , Apt. 6<b>City:</b> Middlebury<b>State:</b> VT<b>Address:</b> 39 Sugarwood Court , Apt. 6  Middlebury , VT\n","id":"ahi3c0a58a7j","geo_precision":"city"},"type":"Feature","geometry":{"type":"Point","coordinates":[-73.171578,43.991942]}},{"properties":{"City":"Middlebury","name":"55 Commodore Way","geo_score":0.714,"State":"VT","description":"\n<b>Street:</b> 55 Commodore Way<b>City:</b> Middlebury<b>State:</b> VT<b>Address:</b> 55 Commodore Way  Middlebury , VT\n","id":"ahi3c05hkrrp","geo_precision":"city"},"type":"Feature","geometry":{"type":"Point","coordinates":[-73.171578,43.991942]}},{"properties":{"City":"Middlebury","name":"424 Quarry Road","geo_score":0.714,"State":"VT","description":"\n<b>Street:</b> 424 Quarry Road<b>City:</b> Middlebury<b>State:</b> VT<b>Address:</b> 424 Quarry Road  Middlebury , VT\n","id":"ahi3c04z1qp4","geo_precision":"city"},"type":"Feature","geometry":{"type":"Point","coordinates":[-73.171578,43.991942]}},{"properties":{"City":"Middlebury","name":"103 Seymour Street","geo_score":0.714,"State":"VT","description":"\n<b>Street:</b> 103 Seymour Street<b>City:</b> Middlebury<b>State:</b> VT<b>Address:</b> 103 Seymour Street  Middlebury , VT\n","id":"ahi3c0edt8nz","geo_precision":"city"},"type":"Feature","geometry":{"type":"Point","coordinates":[-73.171578,43.991942]}},{"properties":{"City":"Middlebury","name":"1283 Case Street","geo_score":0.714,"State":"VT","description":"\n<b>Street:</b> 1283 Case Street<b>City:</b> Middlebury<b>State:</b> VT<b>Address:</b> 1283 Case Street  Middlebury , VT\n","id":"ahi3c0aab2ab","geo_precision":"city"},"type":"Feature","geometry":{"type":"Point","coordinates":[-73.171578,43.991942]}},{"properties":{"City":"Middlebury","name":"6 Forest Ridge Drive","geo_score":0.714,"State":"VT","description":"\n<b>Street:</b> 6 Forest Ridge Drive<b>City:</b> Middlebury<b>State:</b> VT<b>Address:</b> 6 Forest Ridge Drive  Middlebury , VT\n","id":"ahi3c0djwzch","geo_precision":"city"},"type":"Feature","geometry":{"type":"Point","coordinates":[-73.171578,43.991942]}},{"properties":{"City":"Middlebury","name":"274 Lindale Circle","geo_score":0.714,"State":"VT","description":"\n<b>Street:</b> 274 Lindale Circle<b>City:</b> Middlebury<b>State:</b> VT<b>Address:</b> 274 Lindale Circle  Middlebury , VT\n","id":"ahi3c0701n46","geo_precision":"city"},"type":"Feature","geometry":{"type":"Point","coordinates":[-73.171578,43.991942]}},{"properties":{"City":"Middlebury","name":"150 Chipman Park","geo_score":0.714,"State":"VT","description":"\n<b>Street:</b> 150 Chipman Park<b>City:</b> Middlebury<b>State:</b> VT<b>Address:</b> 150 Chipman Park  Middlebury , VT\n","id":"ahi3c04s10me","geo_precision":"city"},"type":"Feature","geometry":{"type":"Point","coordinates":[-73.171578,43.991942]}},{"properties":{"City":"Middlebury","name":"700 Munson Road","geo_score":0.714,"State":"VT","description":"\n<b>Street:</b> 700 Munson Road<b>City:</b> Middlebury<b>State:</b> VT<b>Address:</b> 700 Munson Road  Middlebury , VT\n","id":"ahi3c0outk1t","geo_precision":"city"},"type":"Feature","geometry":{"type":"Point","coordinates":[-73.171578,43.991942]}},{"properties":{"City":"Middlebury","name":"516 Weybridge Street","geo_score":0.714,"State":"VT","description":"\n<b>Street:</b> 516 Weybridge Street<b>City:</b> Middlebury<b>State:</b> VT<b>Address:</b> 516 Weybridge Street  Middlebury , VT\n","id":"ahi3c0nh7a9n","geo_precision":"city"},"type":"Feature","geometry":{"type":"Point","coordinates":[-73.171578,43.991942]}},{"properties":{"City":"Middlebury","name":"403 East Main Street","geo_score":0.714,"State":"VT","description":"\n<b>Street:</b> 403 East Main Street<b>City:</b> Middlebury<b>State:</b> VT<b>Address:</b> 403 East Main Street  Middlebury , VT\n","id":"ahi3c0zxfs2p","geo_precision":"city"},"type":"Feature","geometry":{"type":"Point","coordinates":[-73.171578,43.991942]}},{"properties":{"City":"Middlebury","name":"17 Stonegate Drive","geo_score":0.714,"State":"VT","description":"\n<b>Street:</b> 17 Stonegate Drive<b>City:</b> Middlebury<b>State:</b> VT<b>Address:</b> 17 Stonegate Drive  Middlebury , VT\n","id":"ahi3c0m3dbeh","geo_precision":"city"},"type":"Feature","geometry":{"type":"Point","coordinates":[-73.171578,43.991942]}},{"properties":{"City":"Middlebury","name":"209 Monroe Street","geo_score":0.714,"State":"VT","description":"\n<b>Street:</b> 209 Monroe Street<b>City:</b> Middlebury<b>State:</b> VT<b>Address:</b> 209 Monroe Street  Middlebury , VT\n","id":"ahi3c0v1mmrg","geo_precision":"city"},"type":"Feature","geometry":{"type":"Point","coordinates":[-73.171578,43.991942]}},{"properties":{"City":"Middlebury","name":"757 Weybridge Street","geo_score":0.714,"State":"VT","description":"\n<b>Street:</b> 757 Weybridge Street<b>City:</b> Middlebury<b>State:</b> VT<b>Address:</b> 757 Weybridge Street  Middlebury , VT\n","id":"ahi3c0x156xv","geo_precision":"city"},"type":"Feature","geometry":{"type":"Point","coordinates":[-73.171578,43.991942]}},{"properties":{"City":"Middlebury","name":"4220 Case Street","geo_score":0.714,"State":"VT","description":"\n<b>Street:</b> 4220 Case Street<b>City:</b> Middlebury<b>State:</b> VT<b>Address:</b> 4220 Case Street  Middlebury , VT\n","id":"ahi3c0y7p47r","geo_precision":"city"},"type":"Feature","geometry":{"type":"Point","coordinates":[-73.171578,43.991942]}},{"properties":{"City":"Middlebury","name":"107 Sarah's Way","geo_score":0.714,"State":"VT","description":"\n<b>Street:</b> 107 Sarah's Way<b>City:</b> Middlebury<b>State:</b> VT<b>Address:</b> 107 Sarah's Way  Middlebury , VT\n","id":"ahi3c0u5avmv","geo_precision":"city"},"type":"Feature","geometry":{"type":"Point","coordinates":[-73.171578,43.991942]}},{"properties":{"City":"Middlebury","name":"67 Monroe Street","geo_score":0.714,"State":"VT","description":"\n<b>Street:</b> 67 Monroe Street<b>City:</b> Middlebury<b>State:</b> VT<b>Address:</b> 67 Monroe Street  Middlebury , VT\n","id":"ahi3c0vtma68","geo_precision":"city"},"type":"Feature","geometry":{"type":"Point","coordinates":[-73.171578,43.991942]}},{"properties":{"City":"Middlebury","name":"172 Valley View","geo_score":0.714,"State":"VT","description":"\n<b>Street:</b> 172 Valley View<b>City:</b> Middlebury<b>State:</b> VT<b>Address:</b> 172 Valley View  Middlebury , VT\n","id":"ahi3c0znr935","geo_precision":"city"},"type":"Feature","geometry":{"type":"Point","coordinates":[-73.171578,43.991942]}},{"properties":{"City":"Middlebury","name":"255 Rolling Acres","geo_score":0.714,"State":"VT","description":"\n<b>Street:</b> 255 Rolling Acres<b>City:</b> Middlebury<b>State:</b> VT<b>Address:</b> 255 Rolling Acres  Middlebury , VT\n","id":"ahi3c0xnneha","geo_precision":"city"},"type":"Feature","geometry":{"type":"Point","coordinates":[-73.171578,43.991942]}},{"properties":{"City":"Middlebury","name":"31 Lower Plains Road","geo_score":0.714,"State":"VT","description":"\n<b>Street:</b> 31 Lower Plains Road<b>City:</b> Middlebury<b>State:</b> VT<b>Address:</b> 31 Lower Plains Road  Middlebury , VT\n","id":"ahi3c0wuefza","geo_precision":"city"},"type":"Feature","geometry":{"type":"Point","coordinates":[-73.171578,43.991942]}},{"properties":{"City":"Middlebury","name":"1 Lantern Lane","geo_score":0.714,"State":"VT","description":"\n<b>Street:</b> 1 Lantern Lane<b>City:</b> Middlebury<b>State:</b> VT<b>Address:</b> 1 Lantern Lane  Middlebury , VT\n","id":"ahi3c0x4q9f3","geo_precision":"city"},"type":"Feature","geometry":{"type":"Point","coordinates":[-73.171578,43.991942]}},{"properties":{"City":"Middlebury","name":"922 Happy Valley Road","geo_score":0.714,"State":"VT","description":"\n<b>Street:</b> 922 Happy Valley Road<b>City:</b> Middlebury<b>State:</b> VT<b>Address:</b> 922 Happy Valley Road  Middlebury , VT\n","id":"ahi3c0so19bb","geo_precision":"city"},"type":"Feature","geometry":{"type":"Point","coordinates":[-73.171578,43.991942]}},{"properties":{"City":"Middlebury","name":"131 Skyline Lane","geo_score":0.714,"State":"VT","description":"\n<b>Street:</b> 131 Skyline Lane<b>City:</b> Middlebury<b>State:</b> VT<b>Address:</b> 131 Skyline Lane  Middlebury , VT\n","id":"ahi3c0pu1rgx","geo_precision":"city"},"type":"Feature","geometry":{"type":"Point","coordinates":[-73.171578,43.991942]}},{"properties":{"City":"Middlebury","name":"87 Lindale Circle","geo_score":0.714,"State":"VT","description":"\n<b>Street:</b> 87 Lindale Circle<b>City:</b> Middlebury<b>State:</b> VT<b>Address:</b> 87 Lindale Circle  Middlebury , VT\n","id":"ahi3c0ljz5p4","geo_precision":"city"},"type":"Feature","geometry":{"type":"Point","coordinates":[-73.171578,43.991942]}},{"properties":{"City":"Middlebury","name":"1229 South Street Ext.","geo_score":0.714,"State":"VT","description":"\n<b>Street:</b> 1229 South Street Ext.<b>City:</b> Middlebury<b>State:</b> VT<b>Address:</b> 1229 South Street Ext.  Middlebury , VT\n","id":"ahi3c0mmfeaq","geo_precision":"city"},"type":"Feature","geometry":{"type":"Point","coordinates":[-73.171578,43.991942]}},{"properties":{"City":"Middlebury","name":"468 East Main Street","geo_score":0.714,"State":"VT","description":"\n<b>Street:</b> 468 East Main Street<b>City:</b> Middlebury<b>State:</b> VT<b>Address:</b> 468 East Main Street  Middlebury , VT\n","id":"ahi3c0uz1ukr","geo_precision":"city"},"type":"Feature","geometry":{"type":"Point","coordinates":[-73.171578,43.991942]}},{"properties":{"City":"Middlebury","name":"877 Quarry Road","geo_score":0.714,"State":"VT","description":"\n<b>Street:</b> 877 Quarry Road<b>City:</b> Middlebury<b>State:</b> VT<b>Address:</b> 877 Quarry Road  Middlebury , VT\n","id":"ahi3c0rvzxxn","geo_precision":"city"},"type":"Feature","geometry":{"type":"Point","coordinates":[-73.171578,43.991942]}},{"properties":{"City":"Middlebury","name":"651 Blake Roy Road","geo_score":0.714,"State":"VT","description":"\n<b>Street:</b> 651 Blake Roy Road<b>City:</b> Middlebury<b>State:</b> VT<b>Address:</b> 651 Blake Roy Road  Middlebury , VT\n","id":"ahi3c0nuguv9","geo_precision":"city"},"type":"Feature","geometry":{"type":"Point","coordinates":[-73.171578,43.991942]}},{"properties":{"City":"Middlebury","name":"350 Foote Street","geo_score":0.714,"State":"VT","description":"\n<b>Street:</b> 350 Foote Street<b>City:</b> Middlebury<b>State:</b> VT<b>Address:</b> 350 Foote Street  Middlebury , VT\n","id":"ahi3c0xdqxfo","geo_precision":"city"},"type":"Feature","geometry":{"type":"Point","coordinates":[-73.171578,43.991942]}},{"properties":{"City":"Middlebury","name":"150 Chipman Park","geo_score":0.714,"State":"VT","description":"\n<b>Street:</b> 150 Chipman Park<b>City:</b> Middlebury<b>State:</b> VT<b>Address:</b> 150 Chipman Park  Middlebury , VT\n","id":"ahi3c0p0s188","geo_precision":"city"},"type":"Feature","geometry":{"type":"Point","coordinates":[-73.171578,43.991942]}},{"properties":{"City":"Middlebury","name":"65 Gardiner Close","geo_score":0.714,"State":"VT","description":"\n<b>Street:</b> 65 Gardiner Close<b>City:</b> Middlebury<b>State:</b> VT<b>Address:</b> 65 Gardiner Close  Middlebury , VT\n","id":"ahi3c0ohvnyj","geo_precision":"city"},"type":"Feature","geometry":{"type":"Point","coordinates":[-73.171578,43.991942]}},{"properties":{"City":"Middlebury","name":"403 East Main Street","geo_score":0.714,"State":"VT","description":"\n<b>Street:</b> 403 East Main Street<b>City:</b> Middlebury<b>State:</b> VT<b>Address:</b> 403 East Main Street  Middlebury , VT\n","id":"ahi3c0n6jjab","geo_precision":"city"},"type":"Feature","geometry":{"type":"Point","coordinates":[-73.171578,43.991942]}},{"properties":{"City":"Middlebury","name":"41 Court Street","geo_score":0.714,"State":"VT","description":"\n<b>Street:</b> 41 Court Street<b>City:</b> Middlebury<b>State:</b> VT<b>Address:</b> 41 Court Street  Middlebury , VT\n","id":"ahi3c0nx4qj6","geo_precision":"city"},"type":"Feature","geometry":{"type":"Point","coordinates":[-73.171578,43.991942]}},{"properties":{"City":"Middlebury","name":"47 Ossie Road","geo_score":0.714,"State":"VT","description":"\n<b>Street:</b> 47 Ossie Road<b>City:</b> Middlebury<b>State:</b> VT<b>Address:</b> 47 Ossie Road  Middlebury , VT\n","id":"ahi3c0yqdbrk","geo_precision":"city"},"type":"Feature","geometry":{"type":"Point","coordinates":[-73.171578,43.991942]}},{"properties":{"City":"Middlebury","name":"2 Cross Street Apt. 3","geo_score":0.714,"State":"VT","description":"\n<b>Street:</b> 2 Cross Street Apt. 3<b>City:</b> Middlebury<b>State:</b> VT<b>Address:</b> 2 Cross Street Apt. 3  Middlebury , VT\n","id":"ahi3c0qgk2k4","geo_precision":"city"},"type":"Feature","geometry":{"type":"Point","coordinates":[-73.171578,43.991942]}},{"properties":{"City":"Middlebury","name":"1 East Road","geo_score":0.714,"State":"VT","description":"\n<b>Street:</b> 1 East Road<b>City:</b> Middlebury<b>State:</b> VT<b>Address:</b> 1 East Road  Middlebury , VT\n","id":"ahi3c0rfyk02","geo_precision":"city"},"type":"Feature","geometry":{"type":"Point","coordinates":[-73.171578,43.991942]}},{"properties":{"City":"Middlebury","name":"394 Woodland Park","geo_score":0.714,"State":"VT","description":"\n<b>Street:</b> 394 Woodland Park<b>City:</b> Middlebury<b>State:</b> VT<b>Address:</b> 394 Woodland Park  Middlebury , VT\n","id":"ahi3c0moro73","geo_precision":"city"},"type":"Feature","geometry":{"type":"Point","coordinates":[-73.171578,43.991942]}},{"properties":{"City":"Middlebury","name":"428 Court Street, Apt. 106","geo_score":0.714,"State":"VT","description":"\n<b>Street:</b> 428 Court Street, Apt. 106<b>City:</b> Middlebury<b>State:</b> VT<b>Address:</b> 428 Court Street, Apt. 106  Middlebury , VT\n","id":"ahi3c0kejtva","geo_precision":"city"},"type":"Feature","geometry":{"type":"Point","coordinates":[-73.171578,43.991942]}},{"properties":{"City":"Middlebury","name":"195A Creek Road","geo_score":0.714,"State":"VT","description":"\n<b>Street:</b> 195A Creek Road<b>City:</b> Middlebury<b>State:</b> VT<b>Address:</b> 195A Creek Road  Middlebury , VT\n","id":"ahi3c0rqpzjd","geo_precision":"city"},"type":"Feature","geometry":{"type":"Point","coordinates":[-73.171578,43.991942]}},{"properties":{"City":"Middlebury","name":"54 North Pleasant Street","geo_score":0.714,"State":"VT","description":"\n<b>Street:</b> 54 North Pleasant Street<b>City:</b> Middlebury<b>State:</b> VT<b>Address:</b> 54 North Pleasant Street  Middlebury , VT\n","id":"ahi3c0pr9mso","geo_precision":"city"},"type":"Feature","geometry":{"type":"Point","coordinates":[-73.171578,43.991942]}},{"properties":{"City":"Middlebury","name":"45 Bakery Lane","geo_score":0.714,"State":"VT","description":"\n<b>Street:</b> 45 Bakery Lane<b>City:</b> Middlebury<b>State:</b> VT<b>Address:</b> 45 Bakery Lane  Middlebury , VT\n","id":"ahi3c0ulw97e","geo_precision":"city"},"type":"Feature","geometry":{"type":"Point","coordinates":[-73.171578,43.991942]}},{"properties":{"City":"Middlebury","name":"6 Forest Ridge Drive","geo_score":0.714,"State":"VT","description":"\n<b>Street:</b> 6 Forest Ridge Drive<b>City:</b> Middlebury<b>State:</b> VT<b>Address:</b> 6 Forest Ridge Drive  Middlebury , VT\n","id":"ahi3c0nwcky3","geo_precision":"city"},"type":"Feature","geometry":{"type":"Point","coordinates":[-73.171578,43.991942]}},{"properties":{"City":"Middlebury","name":"424 Quarry Road","geo_score":0.714,"State":"VT","description":"\n<b>Street:</b> 424 Quarry Road<b>City:</b> Middlebury<b>State:</b> VT<b>Address:</b> 424 Quarry Road  Middlebury , VT\n","id":"ahi3c0zyfvbt","geo_precision":"city"},"type":"Feature","geometry":{"type":"Point","coordinates":[-73.171578,43.991942]}},{"properties":{"City":"Middlebury","name":"2 Jayne Court Apt. #15","geo_score":0.714,"State":"VT","description":"\n<b>Street:</b> 2 Jayne Court Apt. #15<b>City:</b> Middlebury<b>State:</b> VT<b>Address:</b> 2 Jayne Court Apt. #15  Middlebury , VT\n","id":"ahi3c0zwnhi3","geo_precision":"city"},"type":"Feature","geometry":{"type":"Point","coordinates":[-73.171578,43.991942]}},{"properties":{"City":"Middlebury","name":"50 Lindale Circle","geo_score":0.714,"State":"VT","description":"\n<b>Street:</b> 50 Lindale Circle<b>City:</b> Middlebury<b>State:</b> VT<b>Address:</b> 50 Lindale Circle  Middlebury , VT\n","id":"ahi3c0vgwamm","geo_precision":"city"},"type":"Feature","geometry":{"type":"Point","coordinates":[-73.171578,43.991942]}},{"properties":{"City":"Middlebury","name":"415 Mead Lane","geo_score":0.714,"State":"VT","description":"\n<b>Street:</b> 415 Mead Lane<b>City:</b> Middlebury<b>State:</b> VT<b>Address:</b> 415 Mead Lane  Middlebury , VT\n","id":"ahi3c0vizoox","geo_precision":"city"},"type":"Feature","geometry":{"type":"Point","coordinates":[-73.171578,43.991942]}},{"properties":{"City":"Middlebury","name":"30 South Village Green Apt. 105","geo_score":0.714,"State":"VT","description":"\n<b>Street:</b> 30 South Village Green Apt. 105<b>City:</b> Middlebury<b>State:</b> VT<b>Address:</b> 30 South Village Green Apt. 105  Middlebury , VT\n","id":"ahi3c0yer3ji","geo_precision":"city"},"type":"Feature","geometry":{"type":"Point","coordinates":[-73.171578,43.991942]}},{"properties":{"City":"Middlebury","name":"287 Rolling Acres","geo_score":0.714,"State":"VT","description":"\n<b>Street:</b> 287 Rolling Acres<b>City:</b> Middlebury<b>State:</b> VT<b>Address:</b> 287 Rolling Acres  Middlebury , VT\n","id":"ahi3c0k5apq2","geo_precision":"city"},"type":"Feature","geometry":{"type":"Point","coordinates":[-73.171578,43.991942]}},{"properties":{"City":"Middlebury","name":"310 Chipman Park","geo_score":0.714,"State":"VT","description":"\n<b>Street:</b> 310 Chipman Park<b>City:</b> Middlebury<b>State:</b> VT<b>Address:</b> 310 Chipman Park  Middlebury , VT\n","id":"ahi3c0ueweqw","geo_precision":"city"},"type":"Feature","geometry":{"type":"Point","coordinates":[-73.171578,43.991942]}},{"properties":{"City":"Middlebury","name":"329 Woodland Park","geo_score":0.714,"State":"VT","description":"\n<b>Street:</b> 329 Woodland Park<b>City:</b> Middlebury<b>State:</b> VT<b>Address:</b> 329 Woodland Park  Middlebury , VT\n","id":"ahi3c0ofi39a","geo_precision":"city"},"type":"Feature","geometry":{"type":"Point","coordinates":[-73.171578,43.991942]}},{"properties":{"City":"Middlebury","name":"209 Danyow Drive","geo_score":0.714,"State":"VT","description":"\n<b>Street:</b> 209 Danyow Drive<b>City:</b> Middlebury<b>State:</b> VT<b>Address:</b> 209 Danyow Drive  Middlebury , VT\n","id":"ahi3c0mgxfby","geo_precision":"city"},"type":"Feature","geometry":{"type":"Point","coordinates":[-73.171578,43.991942]}},{"properties":{"City":"Middlebury","name":"5471 Case Street","geo_score":0.714,"State":"VT","description":"\n<b>Street:</b> 5471 Case Street<b>City:</b> Middlebury<b>State:</b> VT<b>Address:</b> 5471 Case Street  Middlebury , VT\n","id":"ahi3c0saf8e2","geo_precision":"city"},"type":"Feature","geometry":{"type":"Point","coordinates":[-73.171578,43.991942]}},{"properties":{"City":"Middlebury","name":"1646 Case Street","geo_score":0.714,"State":"VT","description":"\n<b>Street:</b> 1646 Case Street<b>City:</b> Middlebury<b>State:</b> VT<b>Address:</b> 1646 Case Street  Middlebury , VT\n","id":"ahi3c0uj7pn7","geo_precision":"city"},"type":"Feature","geometry":{"type":"Point","coordinates":[-73.171578,43.991942]}},{"properties":{"City":"Middlebury","name":"72 Mayapple Lane","geo_score":0.714,"State":"VT","description":"\n<b>Street:</b> 72 Mayapple Lane<b>City:</b> Middlebury<b>State:</b> VT<b>Address:</b> 72 Mayapple Lane  Middlebury , VT\n","id":"ahi3c0odmcr9","geo_precision":"city"},"type":"Feature","geometry":{"type":"Point","coordinates":[-73.171578,43.991942]}},{"properties":{"City":"Middlebury","name":"10 Woodbridge Lane","geo_score":0.714,"State":"VT","description":"\n<b>Street:</b> 10 Woodbridge Lane<b>City:</b> Middlebury<b>State:</b> VT<b>Address:</b> 10 Woodbridge Lane  Middlebury , VT\n","id":"ahi3c0yejxe8","geo_precision":"city"},"type":"Feature","geometry":{"type":"Point","coordinates":[-73.171578,43.991942]}},{"properties":{"City":"Middlebury","name":"89 Sarah's Way","geo_score":0.714,"State":"VT","description":"\n<b>Street:</b> 89 Sarah's Way<b>City:</b> Middlebury<b>State:</b> VT<b>Address:</b> 89 Sarah's Way  Middlebury , VT\n","id":"ahi3c0x06pae","geo_precision":"city"},"type":"Feature","geometry":{"type":"Point","coordinates":[-73.171578,43.991942]}},{"properties":{"City":"Middlebury","name":"340 Halladay Road","geo_score":0.714,"State":"VT","description":"\n<b>Street:</b> 340 Halladay Road<b>City:</b> Middlebury<b>State:</b> VT<b>Address:</b> 340 Halladay Road  Middlebury , VT\n","id":"ahi3c0m9ffr6","geo_precision":"city"},"type":"Feature","geometry":{"type":"Point","coordinates":[-73.171578,43.991942]}},{"properties":{"City":"Middlebury","name":"435 Weybridge Street","geo_score":0.714,"State":"VT","description":"\n<b>Street:</b> 435 Weybridge Street<b>City:</b> Middlebury<b>State:</b> VT<b>Address:</b> 435 Weybridge Street  Middlebury , VT\n","id":"ahi3c0k4dj12","geo_precision":"city"},"type":"Feature","geometry":{"type":"Point","coordinates":[-73.171578,43.991942]}},{"properties":{"City":"Middlebury","name":"51 Seminary Street","geo_score":0.714,"State":"VT","description":"\n<b>Street:</b> 51 Seminary Street<b>City:</b> Middlebury<b>State:</b> VT<b>Address:</b> 51 Seminary Street  Middlebury , VT\n","id":"ahi3c0ro4p0c","geo_precision":"city"},"type":"Feature","geometry":{"type":"Point","coordinates":[-73.171578,43.991942]}},{"properties":{"City":"Middlebury","name":"44 Seymour Street","geo_score":0.714,"State":"VT","description":"\n<b>Street:</b> 44 Seymour Street<b>City:</b> Middlebury<b>State:</b> VT<b>Address:</b> 44 Seymour Street  Middlebury , VT\n","id":"ahi3c0ya7nqs","geo_precision":"city"},"type":"Feature","geometry":{"type":"Point","coordinates":[-73.171578,43.991942]}},{"properties":{"City":"Middlebury","name":"1 South Gorham Lane","geo_score":0.714,"State":"VT","description":"\n<b>Street:</b> 1 South Gorham Lane<b>City:</b> Middlebury<b>State:</b> VT<b>Address:</b> 1 South Gorham Lane  Middlebury , VT\n","id":"ahi3c0jmwxcp","geo_precision":"city"},"type":"Feature","geometry":{"type":"Point","coordinates":[-73.171578,43.991942]}},{"properties":{"City":"Middlebury","name":"35 South Street","geo_score":0.714,"State":"VT","description":"\n<b>Street:</b> 35 South Street<b>City:</b> Middlebury<b>State:</b> VT<b>Address:</b> 35 South Street  Middlebury , VT\n","id":"ahi3c0mhl2vn","geo_precision":"city"},"type":"Feature","geometry":{"type":"Point","coordinates":[-73.171578,43.991942]}},{"properties":{"City":"Middlebury","name":"157 Jackson Lane Apt. 28","geo_score":0.714,"State":"VT","description":"\n<b>Street:</b> 157 Jackson Lane Apt. 28<b>City:</b> Middlebury<b>State:</b> VT<b>Address:</b> 157 Jackson Lane Apt. 28  Middlebury , VT\n","id":"ahi3c0k12mtv","geo_precision":"city"},"type":"Feature","geometry":{"type":"Point","coordinates":[-73.171578,43.991942]}},{"properties":{"City":"Middlebury","name":"11 Seminary Street, Apt. 1","geo_score":0.714,"State":"VT","description":"\n<b>Street:</b> 11 Seminary Street, Apt. 1<b>City:</b> Middlebury<b>State:</b> VT<b>Address:</b> 11 Seminary Street, Apt. 1  Middlebury , VT\n","id":"ahi3c0o619bh","geo_precision":"city"},"type":"Feature","geometry":{"type":"Point","coordinates":[-73.171578,43.991942]}},{"properties":{"City":"Middlebury","name":"334 East Main Street","geo_score":0.714,"State":"VT","description":"\n<b>Street:</b> 334 East Main Street<b>City:</b> Middlebury<b>State:</b> VT<b>Address:</b> 334 East Main Street  Middlebury , VT\n","id":"ahi3c0owm8wb","geo_precision":"city"},"type":"Feature","geometry":{"type":"Point","coordinates":[-73.171578,43.991942]}},{"properties":{"City":"Middlebury","name":"264 Valley View Road Apt. D4","geo_score":0.714,"State":"VT","description":"\n<b>Street:</b> 264 Valley View Road Apt. D4<b>City:</b> Middlebury<b>State:</b> VT<b>Address:</b> 264 Valley View Road Apt. D4  Middlebury , VT\n","id":"ahi3c0l4c9mo","geo_precision":"city"},"type":"Feature","geometry":{"type":"Point","coordinates":[-73.171578,43.991942]}},{"properties":{"City":"Middlebury","name":"252 Fields Road","geo_score":0.714,"State":"VT","description":"\n<b>Street:</b> 252 Fields Road<b>City:</b> Middlebury<b>State:</b> VT<b>Address:</b> 252 Fields Road  Middlebury , VT\n","id":"ahi3c0l1w9z5","geo_precision":"city"},"type":"Feature","geometry":{"type":"Point","coordinates":[-73.171578,43.991942]}},{"properties":{"City":"Middlebury","name":"2056 Munger Street","geo_score":0.714,"State":"VT","description":"\n<b>Street:</b> 2056 Munger Street<b>City:</b> Middlebury<b>State:</b> VT<b>Address:</b> 2056 Munger Street  Middlebury , VT\n","id":"ahi3c0xdc4lz","geo_precision":"city"},"type":"Feature","geometry":{"type":"Point","coordinates":[-73.171578,43.991942]}},{"properties":{"City":"Middlebury","name":"137 South Munger Street","geo_score":0.714,"State":"VT","description":"\n<b>Street:</b> 137 South Munger Street<b>City:</b> Middlebury<b>State:</b> VT<b>Address:</b> 137 South Munger Street  Middlebury , VT\n","id":"ahi3c0ymunf6","geo_precision":"city"},"type":"Feature","geometry":{"type":"Point","coordinates":[-73.171578,43.991942]}},{"properties":{"City":"Middlebury","name":"4961 Case Street","geo_score":0.714,"State":"VT","description":"\n<b>Street:</b> 4961 Case Street<b>City:</b> Middlebury<b>State:</b> VT<b>Address:</b> 4961 Case Street  Middlebury , VT\n","id":"ahi3c0kn1ums","geo_precision":"city"},"type":"Feature","geometry":{"type":"Point","coordinates":[-73.171578,43.991942]}},{"properties":{"City":"Middlebury","name":"4220 Case Street","geo_score":0.714,"State":"VT","description":"\n<b>Street:</b> 4220 Case Street<b>City:</b> Middlebury<b>State:</b> VT<b>Address:</b> 4220 Case Street  Middlebury , VT\n","id":"ahi3c0wy6yvo","geo_precision":"city"},"type":"Feature","geometry":{"type":"Point","coordinates":[-73.171578,43.991942]}},{"properties":{"City":"Middlebury","name":"86 Chipman Park","geo_score":0.714,"State":"VT","description":"\n<b>Street:</b> 86 Chipman Park<b>City:</b> Middlebury<b>State:</b> VT<b>Address:</b> 86 Chipman Park  Middlebury , VT\n","id":"ahi3c0kt9hsi","geo_precision":"city"},"type":"Feature","geometry":{"type":"Point","coordinates":[-73.171578,43.991942]}},{"properties":{"City":"Middlebury","name":"53 Seymour Street","geo_score":0.714,"State":"VT","description":"\n<b>Street:</b> 53 Seymour Street<b>City:</b> Middlebury<b>State:</b> VT<b>Address:</b> 53 Seymour Street  Middlebury , VT\n","id":"ahi3c0wic2b7","geo_precision":"city"},"type":"Feature","geometry":{"type":"Point","coordinates":[-73.171578,43.991942]}},{"properties":{"City":"Middlebury","name":"223 Airport Road","geo_score":0.714,"State":"VT","description":"\n<b>Street:</b> 223 Airport Road<b>City:</b> Middlebury<b>State:</b> VT<b>Address:</b> 223 Airport Road  Middlebury , VT\n","id":"ahi3c0jv6nlv","geo_precision":"city"},"type":"Feature","geometry":{"type":"Point","coordinates":[-73.171578,43.991942]}},{"properties":{"City":"Middlebury","name":"172 Valley View","geo_score":0.714,"State":"VT","description":"\n<b>Street:</b> 172 Valley View<b>City:</b> Middlebury<b>State:</b> VT<b>Address:</b> 172 Valley View  Middlebury , VT\n","id":"ahi3c0yo8dtc","geo_precision":"city"},"type":"Feature","geometry":{"type":"Point","coordinates":[-73.171578,43.991942]}},{"properties":{"City":"Middlebury","name":"43 Court Street","geo_score":0.714,"State":"VT","description":"\n<b>Street:</b> 43 Court Street<b>City:</b> Middlebury<b>State:</b> VT<b>Address:</b> 43 Court Street  Middlebury , VT\n","id":"ahi3c0yfcfe5","geo_precision":"city"},"type":"Feature","geometry":{"type":"Point","coordinates":[-73.171578,43.991942]}},{"properties":{"City":"Middlebury","name":"10 Stonegate Drive","geo_score":0.714,"State":"VT","description":"\n<b>Street:</b> 10 Stonegate Drive<b>City:</b> Middlebury<b>State:</b> VT<b>Address:</b> 10 Stonegate Drive  Middlebury , VT\n","id":"ahi3c0vlwjzm","geo_precision":"city"},"type":"Feature","geometry":{"type":"Point","coordinates":[-73.171578,43.991942]}},{"properties":{"City":"Middlebury","name":"7 Ledgewood Court","geo_score":0.714,"State":"VT","description":"\n<b>Street:</b> 7 Ledgewood Court<b>City:</b> Middlebury<b>State:</b> VT<b>Address:</b> 7 Ledgewood Court  Middlebury , VT\n","id":"ahi3c0z07cy9","geo_precision":"city"},"type":"Feature","geometry":{"type":"Point","coordinates":[-73.171578,43.991942]}},{"properties":{"City":"Middlebury","name":"627 Painter Road","geo_score":0.714,"State":"VT","description":"\n<b>Street:</b> 627 Painter Road<b>City:</b> Middlebury<b>State:</b> VT<b>Address:</b> 627 Painter Road  Middlebury , VT\n","id":"ahi3c0w96jpp","geo_precision":"city"},"type":"Feature","geometry":{"type":"Point","coordinates":[-73.171578,43.991942]}},{"properties":{"City":"Middlebury","name":"115 Jackson Lane Apt. 25","geo_score":0.714,"State":"VT","description":"\n<b>Street:</b> 115 Jackson Lane Apt. 25<b>City:</b> Middlebury<b>State:</b> VT<b>Address:</b> 115 Jackson Lane Apt. 25  Middlebury , VT\n","id":"ahi3c0x3l0p2","geo_precision":"city"},"type":"Feature","geometry":{"type":"Point","coordinates":[-73.171578,43.991942]}},{"properties":{"City":"Middlebury","name":"30 South Village Green, Apt 201","geo_score":0.714,"State":"VT","description":"\n<b>Street:</b> 30 South Village Green, Apt 201<b>City:</b> Middlebury<b>State:</b> VT<b>Address:</b> 30 South Village Green, Apt 201  Middlebury , VT\n","id":"ahi3c0sj1t02","geo_precision":"city"},"type":"Feature","geometry":{"type":"Point","coordinates":[-73.171578,43.991942]}},{"properties":{"City":"Middlebury","name":"65 Otterside Court","geo_score":0.714,"State":"VT","description":"\n<b>Street:</b> 65 Otterside Court<b>City:</b> Middlebury<b>State:</b> VT<b>Address:</b> 65 Otterside Court  Middlebury , VT\n","id":"ahi3c0p32yrz","geo_precision":"city"},"type":"Feature","geometry":{"type":"Point","coordinates":[-73.171578,43.991942]}},{"properties":{"City":"Middlebury","name":"11 Seminary Street, Apt. 3","geo_score":0.714,"State":"VT","description":"\n<b>Street:</b> 11 Seminary Street, Apt. 3<b>City:</b> Middlebury<b>State:</b> VT<b>Address:</b> 11 Seminary Street, Apt. 3  Middlebury , VT\n","id":"ahi3c0k607ub","geo_precision":"city"},"type":"Feature","geometry":{"type":"Point","coordinates":[-73.171578,43.991942]}},{"properties":{"City":"Middlebury","name":"6 Thomas Street","geo_score":0.714,"State":"VT","description":"\n<b>Street:</b> 6 Thomas Street<b>City:</b> Middlebury<b>State:</b> VT<b>Address:</b> 6 Thomas Street  Middlebury , VT\n","id":"ahi3c0v7puw2","geo_precision":"city"},"type":"Feature","geometry":{"type":"Point","coordinates":[-73.171578,43.991942]}},{"properties":{"City":"Middlebury","name":"316 Painter Hills Road","geo_score":0.714,"State":"VT","description":"\n<b>Street:</b> 316 Painter Hills Road<b>City:</b> Middlebury<b>State:</b> VT<b>Address:</b> 316 Painter Hills Road  Middlebury , VT\n","id":"ahi3c0yuhtff","geo_precision":"city"},"type":"Feature","geometry":{"type":"Point","coordinates":[-73.171578,43.991942]}},{"properties":{"City":"Middlebury","name":"157 Jackson Lane Apt. 28","geo_score":0.714,"State":"VT","description":"\n<b>Street:</b> 157 Jackson Lane Apt. 28<b>City:</b> Middlebury<b>State:</b> VT<b>Address:</b> 157 Jackson Lane Apt. 28  Middlebury , VT\n","id":"ahi3c0r4bikr","geo_precision":"city"},"type":"Feature","geometry":{"type":"Point","coordinates":[-73.171578,43.991942]}},{"properties":{"City":"Middlebury","name":"21 South Street","geo_score":0.714,"State":"VT","description":"\n<b>Street:</b> 21 South Street<b>City:</b> Middlebury<b>State:</b> VT<b>Address:</b> 21 South Street  Middlebury , VT\n","id":"ahi3c0p0hirv","geo_precision":"city"},"type":"Feature","geometry":{"type":"Point","coordinates":[-73.171578,43.991942]}},{"properties":{"City":"Middlebury","name":"19 South Street","geo_score":0.714,"State":"VT","description":"\n<b>Street:</b> 19 South Street<b>City:</b> Middlebury<b>State:</b> VT<b>Address:</b> 19 South Street  Middlebury , VT\n","id":"ahi3c0mxqevu","geo_precision":"city"},"type":"Feature","geometry":{"type":"Point","coordinates":[-73.171578,43.991942]}},{"properties":{"City":"Middlebury","name":"285 Airport Road","geo_score":0.714,"State":"VT","description":"\n<b>Street:</b> 285 Airport Road<b>City:</b> Middlebury<b>State:</b> VT<b>Address:</b> 285 Airport Road  Middlebury , VT\n","id":"ahi3c0tfw4wv","geo_precision":"city"},"type":"Feature","geometry":{"type":"Point","coordinates":[-73.171578,43.991942]}},{"properties":{"City":"Middlebury","name":"98 Mead Lane","geo_score":0.714,"State":"VT","description":"\n<b>Street:</b> 98 Mead Lane<b>City:</b> Middlebury<b>State:</b> VT<b>Address:</b> 98 Mead Lane  Middlebury , VT\n","id":"ahi3c0llgbv5","geo_precision":"city"},"type":"Feature","geometry":{"type":"Point","coordinates":[-73.171578,43.991942]}},{"properties":{"City":"Middlebury","name":"29 North Pleasant Street Apt. A","geo_score":0.714,"State":"VT","description":"\n<b>Street:</b> 29 North Pleasant Street Apt. A<b>City:</b> Middlebury<b>State:</b> VT<b>Address:</b> 29 North Pleasant Street Apt. A  Middlebury , VT\n","id":"ahi3c0lj249j","geo_precision":"city"},"type":"Feature","geometry":{"type":"Point","coordinates":[-73.171578,43.991942]}},{"properties":{"City":"Middlebury","name":"44 Munson Road","geo_score":0.714,"State":"VT","description":"\n<b>Street:</b> 44 Munson Road<b>City:</b> Middlebury<b>State:</b> VT<b>Address:</b> 44 Munson Road  Middlebury , VT\n","id":"ahi3c0pbdh1b","geo_precision":"city"},"type":"Feature","geometry":{"type":"Point","coordinates":[-73.171578,43.991942]}},{"properties":{"City":"Middlebury","name":"11 Swanage Court","geo_score":0.714,"State":"VT","description":"\n<b>Street:</b> 11 Swanage Court<b>City:</b> Middlebury<b>State:</b> VT<b>Address:</b> 11 Swanage Court  Middlebury , VT\n","id":"ahi3c0r12ah7","geo_precision":"city"},"type":"Feature","geometry":{"type":"Point","coordinates":[-73.171578,43.991942]}},{"properties":{"City":"Middlebury","name":"567 Weybridge Street","geo_score":0.714,"State":"VT","description":"\n<b>Street:</b> 567 Weybridge Street<b>City:</b> Middlebury<b>State:</b> VT<b>Address:</b> 567 Weybridge Street  Middlebury , VT\n","id":"ahi3c0tcisum","geo_precision":"city"},"type":"Feature","geometry":{"type":"Point","coordinates":[-73.171578,43.991942]}},{"properties":{"City":"Middlebury","name":"133 Drew Lane","geo_score":0.714,"State":"VT","description":"\n<b>Street:</b> 133 Drew Lane<b>City:</b> Middlebury<b>State:</b> VT<b>Address:</b> 133 Drew Lane  Middlebury , VT\n","id":"ahi3c0o9vuny","geo_precision":"city"},"type":"Feature","geometry":{"type":"Point","coordinates":[-73.171578,43.991942]}},{"properties":{"City":"Middlebury","name":"104 Water Street","geo_score":0.714,"State":"VT","description":"\n<b>Street:</b> 104 Water Street<b>City:</b> Middlebury<b>State:</b> VT<b>Address:</b> 104 Water Street  Middlebury , VT\n","id":"ahi3c0ld7ssx","geo_precision":"city"},"type":"Feature","geometry":{"type":"Point","coordinates":[-73.171578,43.991942]}},{"properties":{"City":"Middlebury","name":"54 North Pleasant Street","geo_score":0.714,"State":"VT","description":"\n<b>Street:</b> 54 North Pleasant Street<b>City:</b> Middlebury<b>State:</b> VT<b>Address:</b> 54 North Pleasant Street  Middlebury , VT\n","id":"ahi3c0u240uk","geo_precision":"city"},"type":"Feature","geometry":{"type":"Point","coordinates":[-73.171578,43.991942]}},{"properties":{"City":"Middlebury","name":"10 Murdock Court","geo_score":0.714,"State":"VT","description":"\n<b>Street:</b> 10 Murdock Court<b>City:</b> Middlebury<b>State:</b> VT<b>Address:</b> 10 Murdock Court  Middlebury , VT\n","id":"ahi3c0qxdhj3","geo_precision":"city"},"type":"Feature","geometry":{"type":"Point","coordinates":[-73.171578,43.991942]}},{"properties":{"City":"Middlebury","name":"6 Forest Ridge Drive","geo_score":0.714,"State":"VT","description":"\n<b>Street:</b> 6 Forest Ridge Drive<b>City:</b> Middlebury<b>State:</b> VT<b>Address:</b> 6 Forest Ridge Drive  Middlebury , VT\n","id":"ahi3c0n8p6mq","geo_precision":"city"},"type":"Feature","geometry":{"type":"Point","coordinates":[-73.171578,43.991942]}},{"properties":{"City":"Middlebury","name":"87 Benedict Lane","geo_score":0.714,"State":"VT","description":"\n<b>Street:</b> 87 Benedict Lane<b>City:</b> Middlebury<b>State:</b> VT<b>Address:</b> 87 Benedict Lane  Middlebury , VT\n","id":"ahi3c0qk25l0","geo_precision":"city"},"type":"Feature","geometry":{"type":"Point","coordinates":[-73.171578,43.991942]}},{"properties":{"City":"Middlebury","name":"1271 Case Street","geo_score":0.714,"State":"VT","description":"\n<b>Street:</b> 1271 Case Street<b>City:</b> Middlebury<b>State:</b> VT<b>Address:</b> 1271 Case Street  Middlebury , VT\n","id":"ahi3c0s15v26","geo_precision":"city"},"type":"Feature","geometry":{"type":"Point","coordinates":[-73.171578,43.991942]}},{"properties":{"City":"Middlebury","name":"252 Fields Road","geo_score":0.714,"State":"VT","description":"\n<b>Street:</b> 252 Fields Road<b>City:</b> Middlebury<b>State:</b> VT<b>Address:</b> 252 Fields Road  Middlebury , VT\n","id":"ahi3c0xt1ibw","geo_precision":"city"},"type":"Feature","geometry":{"type":"Point","coordinates":[-73.171578,43.991942]}},{"properties":{"City":"Middlebury","name":"30 South Village Green Apt. #205","geo_score":0.714,"State":"VT","description":"\n<b>Street:</b> 30 South Village Green Apt. #205<b>City:</b> Middlebury<b>State:</b> VT<b>Address:</b> 30 South Village Green Apt. #205  Middlebury , VT\n","id":"ahi3c0l2d2dl","geo_precision":"city"},"type":"Feature","geometry":{"type":"Point","coordinates":[-73.171578,43.991942]}},{"properties":{"City":"Middlebury","name":"23 North Leno Lane","geo_score":0.714,"State":"VT","description":"\n<b>Street:</b> 23 North Leno Lane<b>City:</b> Middlebury<b>State:</b> VT<b>Address:</b> 23 North Leno Lane  Middlebury , VT\n","id":"ahi3c0ysg2ss","geo_precision":"city"},"type":"Feature","geometry":{"type":"Point","coordinates":[-73.171578,43.991942]}},{"properties":{"City":"Middlebury","name":"Blue Spruce Motel 2428 Rt 7S","geo_score":0.714,"State":"VT","description":"\n<b>Street:</b> Blue Spruce Motel 2428 Rt 7S<b>City:</b> Middlebury<b>State:</b> VT<b>Address:</b> Blue Spruce Motel 2428 Rt 7S  Middlebury , VT\n","id":"ahi3c0tibt67","geo_precision":"city"},"type":"Feature","geometry":{"type":"Point","coordinates":[-73.171578,43.991942]}},{"properties":{"City":"Middlebury","name":"107 Sarah's Way","geo_score":0.714,"State":"VT","description":"\n<b>Street:</b> 107 Sarah's Way<b>City:</b> Middlebury<b>State:</b> VT<b>Address:</b> 107 Sarah's Way  Middlebury , VT\n","id":"ahi3c0xc4miu","geo_precision":"city"},"type":"Feature","geometry":{"type":"Point","coordinates":[-73.171578,43.991942]}},{"properties":{"City":"Middlebury","name":"195B Creek Road","geo_score":0.714,"State":"VT","description":"\n<b>Street:</b> 195B Creek Road<b>City:</b> Middlebury<b>State:</b> VT<b>Address:</b> 195B Creek Road  Middlebury , VT\n","id":"ahi3c0xnt65a","geo_precision":"city"},"type":"Feature","geometry":{"type":"Point","coordinates":[-73.171578,43.991942]}},{"properties":{"City":"Middlebury","name":"51 Seymour Street","geo_score":0.714,"State":"VT","description":"\n<b>Street:</b> 51 Seymour Street<b>City:</b> Middlebury<b>State:</b> VT<b>Address:</b> 51 Seymour Street  Middlebury , VT\n","id":"ahi3c0zxv8jl","geo_precision":"city"},"type":"Feature","geometry":{"type":"Point","coordinates":[-73.171578,43.991942]}},{"properties":{"City":"Middlebury","name":"65 Sarah's Way","geo_score":0.714,"State":"VT","description":"\n<b>Street:</b> 65 Sarah's Way<b>City:</b> Middlebury<b>State:</b> VT<b>Address:</b> 65 Sarah's Way  Middlebury , VT\n","id":"ahi3c0kgmavi","geo_precision":"city"},"type":"Feature","geometry":{"type":"Point","coordinates":[-73.171578,43.991942]}},{"properties":{"City":"Middlebury","name":"36 Lower Plains Road","geo_score":0.714,"State":"VT","description":"\n<b>Street:</b> 36 Lower Plains Road<b>City:</b> Middlebury<b>State:</b> VT<b>Address:</b> 36 Lower Plains Road  Middlebury , VT\n","id":"ahi3c0zc4bv5","geo_precision":"city"},"type":"Feature","geometry":{"type":"Point","coordinates":[-73.171578,43.991942]}},{"properties":{"City":"Middlebury","name":"2020 Case Street","geo_score":0.714,"State":"VT","description":"\n<b>Street:</b> 2020 Case Street<b>City:</b> Middlebury<b>State:</b> VT<b>Address:</b> 2020 Case Street  Middlebury , VT\n","id":"ahi3c0ucou5i","geo_precision":"city"},"type":"Feature","geometry":{"type":"Point","coordinates":[-73.171578,43.991942]}},{"properties":{"City":"Middlebury","name":"127 Jackson Lane #27","geo_score":0.714,"State":"VT","description":"\n<b>Street:</b> 127 Jackson Lane #27<b>City:</b> Middlebury<b>State:</b> VT<b>Address:</b> 127 Jackson Lane #27  Middlebury , VT\n","id":"ahi3c0lueq6f","geo_precision":"city"},"type":"Feature","geometry":{"type":"Point","coordinates":[-73.171578,43.991942]}},{"properties":{"City":"Middlebury","name":"10 Stonegate Drive","geo_score":0.714,"State":"VT","description":"\n<b>Street:</b> 10 Stonegate Drive<b>City:</b> Middlebury<b>State:</b> VT<b>Address:</b> 10 Stonegate Drive  Middlebury , VT\n","id":"ahi3c0z963jn","geo_precision":"city"},"type":"Feature","geometry":{"type":"Point","coordinates":[-73.171578,43.991942]}},{"properties":{"City":"Middlebury","name":"37 North Pleasant Street, Apt. B","geo_score":0.714,"State":"VT","description":"\n<b>Street:</b> 37 North Pleasant Street, Apt. B<b>City:</b> Middlebury<b>State:</b> VT<b>Address:</b> 37 North Pleasant Street, Apt. B  Middlebury , VT\n","id":"ahi3c0mmp2mp","geo_precision":"city"},"type":"Feature","geometry":{"type":"Point","coordinates":[-73.171578,43.991942]}},{"properties":{"City":"Middlebury","name":"287 Shard Villa Road","geo_score":0.714,"State":"VT","description":"\n<b>Street:</b> 287 Shard Villa Road<b>City:</b> Middlebury<b>State:</b> VT<b>Address:</b> 287 Shard Villa Road  Middlebury , VT\n","id":"ahi3c0zfd3wr","geo_precision":"city"},"type":"Feature","geometry":{"type":"Point","coordinates":[-73.171578,43.991942]}},{"properties":{"City":"Middlebury","name":"191 Burnham Drive","geo_score":0.714,"State":"VT","description":"\n<b>Street:</b> 191 Burnham Drive<b>City:</b> Middlebury<b>State:</b> VT<b>Address:</b> 191 Burnham Drive  Middlebury , VT\n","id":"ahi3c0pza9tr","geo_precision":"city"},"type":"Feature","geometry":{"type":"Point","coordinates":[-73.171578,43.991942]}},{"properties":{"City":"MIddlebury","name":"30 South Village Green, Apt. 103","geo_score":0.714,"State":"VT","description":"\n<b>Street:</b> 30 South Village Green, Apt. 103<b>City:</b> MIddlebury<b>State:</b> VT<b>Address:</b> 30 South Village Green, Apt. 103  MIddlebury , VT\n","id":"ahi3c0k0hp6f","geo_precision":"city"},"type":"Feature","geometry":{"type":"Point","coordinates":[-73.171578,43.991942]}},{"properties":{"City":"Middlebury","name":"636 Happy Valley Road","geo_score":0.714,"State":"VT","description":"\n<b>Street:</b> 636 Happy Valley Road<b>City:</b> Middlebury<b>State:</b> VT<b>Address:</b> 636 Happy Valley Road  Middlebury , VT\n","id":"ahi3c0poinzs","geo_precision":"city"},"type":"Feature","geometry":{"type":"Point","coordinates":[-73.171578,43.991942]}},{"properties":{"City":"Middlebury","name":"58 Otterside Court","geo_score":0.714,"State":"VT","description":"\n<b>Street:</b> 58 Otterside Court<b>City:</b> Middlebury<b>State:</b> VT<b>Address:</b> 58 Otterside Court  Middlebury , VT\n","id":"ahi3c0y1ohtz","geo_precision":"city"},"type":"Feature","geometry":{"type":"Point","coordinates":[-73.171578,43.991942]}},{"properties":{"City":"Middlebury","name":"4220 Case Street","geo_score":0.714,"State":"VT","description":"\n<b>Street:</b> 4220 Case Street<b>City:</b> Middlebury<b>State:</b> VT<b>Address:</b> 4220 Case Street  Middlebury , VT\n","id":"ahi3c0zvocq1","geo_precision":"city"},"type":"Feature","geometry":{"type":"Point","coordinates":[-73.171578,43.991942]}},{"properties":{"City":"Middlebury","name":"370 Foote Street","geo_score":0.714,"State":"VT","description":"\n<b>Street:</b> 370 Foote Street<b>City:</b> Middlebury<b>State:</b> VT<b>Address:</b> 370 Foote Street  Middlebury , VT\n","id":"ahi3c0m0tsji","geo_precision":"city"},"type":"Feature","geometry":{"type":"Point","coordinates":[-73.171578,43.991942]}},{"properties":{"City":"Middlebury","name":"2 Jayne Court Apt. 19","geo_score":0.714,"State":"VT","description":"\n<b>Street:</b> 2 Jayne Court Apt. 19<b>City:</b> Middlebury<b>State:</b> VT<b>Address:</b> 2 Jayne Court Apt. 19  Middlebury , VT\n","id":"ahi3c0o654of","geo_precision":"city"},"type":"Feature","geometry":{"type":"Point","coordinates":[-73.171578,43.991942]}},{"properties":{"City":"Middlebury","name":"6 Forbes Circle","geo_score":0.714,"State":"VT","description":"\n<b>Street:</b> 6 Forbes Circle<b>City:</b> Middlebury<b>State:</b> VT<b>Address:</b> 6 Forbes Circle  Middlebury , VT\n","id":"ahi3c0s95o55","geo_precision":"city"},"type":"Feature","geometry":{"type":"Point","coordinates":[-73.171578,43.991942]}},{"properties":{"City":"Middlebury","name":"65 Sarah's Way","geo_score":0.714,"State":"VT","description":"\n<b>Street:</b> 65 Sarah's Way<b>City:</b> Middlebury<b>State:</b> VT<b>Address:</b> 65 Sarah's Way  Middlebury , VT\n","id":"ahi3c0qemo2x","geo_precision":"city"},"type":"Feature","geometry":{"type":"Point","coordinates":[-73.171578,43.991942]}},{"properties":{"City":"Middlebury","name":"255 Rolling Acres","geo_score":0.714,"State":"VT","description":"\n<b>Street:</b> 255 Rolling Acres<b>City:</b> Middlebury<b>State:</b> VT<b>Address:</b> 255 Rolling Acres  Middlebury , VT\n","id":"ahi3c0oc9g6e","geo_precision":"city"},"type":"Feature","geometry":{"type":"Point","coordinates":[-73.171578,43.991942]}},{"properties":{"City":"Middlebury","name":"184 Birch Drive","geo_score":0.714,"State":"VT","description":"\n<b>Street:</b> 184 Birch Drive<b>City:</b> Middlebury<b>State:</b> VT<b>Address:</b> 184 Birch Drive  Middlebury , VT\n","id":"ahi3c0p1e0ji","geo_precision":"city"},"type":"Feature","geometry":{"type":"Point","coordinates":[-73.171578,43.991942]}},{"properties":{"City":"Middlebury","name":"3 Twin Circles","geo_score":0.714,"State":"VT","description":"\n<b>Street:</b> 3 Twin Circles<b>City:</b> Middlebury<b>State:</b> VT<b>Address:</b> 3 Twin Circles  Middlebury , VT\n","id":"ahi3c0jt2d1r","geo_precision":"city"},"type":"Feature","geometry":{"type":"Point","coordinates":[-73.171578,43.991942]}},{"properties":{"City":"Middlebury","name":"2 Woodbridge Lane","geo_score":0.714,"State":"VT","description":"\n<b>Street:</b> 2 Woodbridge Lane<b>City:</b> Middlebury<b>State:</b> VT<b>Address:</b> 2 Woodbridge Lane  Middlebury , VT\n","id":"ahi3c0sfko0m","geo_precision":"city"},"type":"Feature","geometry":{"type":"Point","coordinates":[-73.171578,43.991942]}},{"properties":{"City":"Middlebury","name":"226 South Munger Street","geo_score":0.714,"State":"VT","description":"\n<b>Street:</b> 226 South Munger Street<b>City:</b> Middlebury<b>State:</b> VT<b>Address:</b> 226 South Munger Street  Middlebury , VT\n","id":"ahi3c0mbfm32","geo_precision":"city"},"type":"Feature","geometry":{"type":"Point","coordinates":[-73.171578,43.991942]}},{"properties":{"City":"Middlebury","name":"4025 Case Street","geo_score":0.714,"State":"VT","description":"\n<b>Street:</b> 4025 Case Street<b>City:</b> Middlebury<b>State:</b> VT<b>Address:</b> 4025 Case Street  Middlebury , VT\n","id":"ahi3c0x3iw3c","geo_precision":"city"},"type":"Feature","geometry":{"type":"Point","coordinates":[-73.171578,43.991942]}},{"properties":{"City":"Middlebury","name":"364 Chipman Park","geo_score":0.714,"State":"VT","description":"\n<b>Street:</b> 364 Chipman Park<b>City:</b> Middlebury<b>State:</b> VT<b>Address:</b> 364 Chipman Park  Middlebury , VT\n","id":"ahi3c0lay5lt","geo_precision":"city"},"type":"Feature","geometry":{"type":"Point","coordinates":[-73.171578,43.991942]}},{"properties":{"City":"Middlebury","name":"7 Old College Farm Road","geo_score":0.714,"State":"VT","description":"\n<b>Street:</b> 7 Old College Farm Road<b>City:</b> Middlebury<b>State:</b> VT<b>Address:</b> 7 Old College Farm Road  Middlebury , VT\n","id":"ahi3c0r3r35u","geo_precision":"city"},"type":"Feature","geometry":{"type":"Point","coordinates":[-73.171578,43.991942]}},{"properties":{"City":"Middlebury","name":"24 Seymour Street","geo_score":0.714,"State":"VT","description":"\n<b>Street:</b> 24 Seymour Street<b>City:</b> Middlebury<b>State:</b> VT<b>Address:</b> 24 Seymour Street  Middlebury , VT\n","id":"ahi3c0k8dvj3","geo_precision":"city"},"type":"Feature","geometry":{"type":"Point","coordinates":[-73.171578,43.991942]}},{"properties":{"City":"Middlebury","name":"5 Swanage Court","geo_score":0.714,"State":"VT","description":"\n<b>Street:</b> 5 Swanage Court<b>City:</b> Middlebury<b>State:</b> VT<b>Address:</b> 5 Swanage Court  Middlebury , VT\n","id":"ahi3c0wsisz7","geo_precision":"city"},"type":"Feature","geometry":{"type":"Point","coordinates":[-73.171578,43.991942]}},{"properties":{"City":"Middlebury","name":"235 Rolling Acres","geo_score":0.714,"State":"VT","description":"\n<b>Street:</b> 235 Rolling Acres<b>City:</b> Middlebury<b>State:</b> VT<b>Address:</b> 235 Rolling Acres  Middlebury , VT\n","id":"ahi3c0rhy257","geo_precision":"city"},"type":"Feature","geometry":{"type":"Point","coordinates":[-73.171578,43.991942]}},{"properties":{"City":"Middlebury","name":"51A John Graham Court","geo_score":0.714,"State":"VT","description":"\n<b>Street:</b> 51A John Graham Court<b>City:</b> Middlebury<b>State:</b> VT<b>Address:</b> 51A John Graham Court  Middlebury , VT\n","id":"ahi3c0q1kizs","geo_precision":"city"},"type":"Feature","geometry":{"type":"Point","coordinates":[-73.171578,43.991942]}},{"properties":{"City":"Middlebury","name":"20 South Street","geo_score":0.714,"State":"VT","description":"\n<b>Street:</b> 20 South Street<b>City:</b> Middlebury<b>State:</b> VT<b>Address:</b> 20 South Street  Middlebury , VT\n","id":"ahi3c0z16jcv","geo_precision":"city"},"type":"Feature","geometry":{"type":"Point","coordinates":[-73.171578,43.991942]}},{"properties":{"City":"Middlebury","name":"15 Maple Street","geo_score":0.714,"State":"VT","description":"\n<b>Street:</b> 15 Maple Street<b>City:</b> Middlebury<b>State:</b> VT<b>Address:</b> 15 Maple Street  Middlebury , VT\n","id":"ahi3c0yutqay","geo_precision":"city"},"type":"Feature","geometry":{"type":"Point","coordinates":[-73.171578,43.991942]}},{"properties":{"City":"Middlebury","name":"97 Court Street","geo_score":0.714,"State":"VT","description":"\n<b>Street:</b> 97 Court Street<b>City:</b> Middlebury<b>State:</b> VT<b>Address:</b> 97 Court Street  Middlebury , VT\n","id":"ahi3c0sow8av","geo_precision":"city"},"type":"Feature","geometry":{"type":"Point","coordinates":[-73.171578,43.991942]}},{"properties":{"City":"Middlebury","name":"395 East Main Street","geo_score":0.714,"State":"VT","description":"\n<b>Street:</b> 395 East Main Street<b>City:</b> Middlebury<b>State:</b> VT<b>Address:</b> 395 East Main Street  Middlebury , VT\n","id":"ahi3c0zt2g3i","geo_precision":"city"},"type":"Feature","geometry":{"type":"Point","coordinates":[-73.171578,43.991942]}},{"properties":{"City":"Middlebury","name":"21 Fields Road","geo_score":0.714,"State":"VT","description":"\n<b>Street:</b> 21 Fields Road<b>City:</b> Middlebury<b>State:</b> VT<b>Address:</b> 21 Fields Road  Middlebury , VT\n","id":"ahi3c0o7d5ua","geo_precision":"city"},"type":"Feature","geometry":{"type":"Point","coordinates":[-73.171578,43.991942]}},{"properties":{"City":"Middlebury","name":"72 Mayapple Lane","geo_score":0.714,"State":"VT","description":"\n<b>Street:</b> 72 Mayapple Lane<b>City:</b> Middlebury<b>State:</b> VT<b>Address:</b> 72 Mayapple Lane  Middlebury , VT\n","id":"ahi3c0zwbf4n","geo_precision":"city"},"type":"Feature","geometry":{"type":"Point","coordinates":[-73.171578,43.991942]}},{"properties":{"City":"Middlebury","name":"19 South Street","geo_score":0.714,"State":"VT","description":"\n<b>Street:</b> 19 South Street<b>City:</b> Middlebury<b>State:</b> VT<b>Address:</b> 19 South Street  Middlebury , VT\n","id":"ahi3c0la84hp","geo_precision":"city"},"type":"Feature","geometry":{"type":"Point","coordinates":[-73.171578,43.991942]}},{"properties":{"City":"Middlebury","name":"374 Weybridge Street","geo_score":0.714,"State":"VT","description":"\n<b>Street:</b> 374 Weybridge Street<b>City:</b> Middlebury<b>State:</b> VT<b>Address:</b> 374 Weybridge Street  Middlebury , VT\n","id":"ahi3c0wzir3k","geo_precision":"city"},"type":"Feature","geometry":{"type":"Point","coordinates":[-73.171578,43.991942]}},{"properties":{"City":"Middlebury","name":"162 Danyow Drive","geo_score":0.714,"State":"VT","description":"\n<b>Street:</b> 162 Danyow Drive<b>City:</b> Middlebury<b>State:</b> VT<b>Address:</b> 162 Danyow Drive  Middlebury , VT\n","id":"ahi3c0jodymk","geo_precision":"city"},"type":"Feature","geometry":{"type":"Point","coordinates":[-73.171578,43.991942]}},{"properties":{"City":"Middlebury","name":"30 South Village Green #305","geo_score":0.714,"State":"VT","description":"\n<b>Street:</b> 30 South Village Green #305<b>City:</b> Middlebury<b>State:</b> VT<b>Address:</b> 30 South Village Green #305  Middlebury , VT\n","id":"ahi3c0t7yyu6","geo_precision":"city"},"type":"Feature","geometry":{"type":"Point","coordinates":[-73.171578,43.991942]}},{"properties":{"City":"Middlebury","name":"12 Swanage Court","geo_score":0.714,"State":"VT","description":"\n<b>Street:</b> 12 Swanage Court<b>City:</b> Middlebury<b>State:</b> VT<b>Address:</b> 12 Swanage Court  Middlebury , VT\n","id":"ahi3c0xgttld","geo_precision":"city"},"type":"Feature","geometry":{"type":"Point","coordinates":[-73.171578,43.991942]}},{"properties":{"City":"Middlebury","name":"350 Foote Street","geo_score":0.714,"State":"VT","description":"\n<b>Street:</b> 350 Foote Street<b>City:</b> Middlebury<b>State:</b> VT<b>Address:</b> 350 Foote Street  Middlebury , VT\n","id":"ahi3c0x52hrq","geo_precision":"city"},"type":"Feature","geometry":{"type":"Point","coordinates":[-73.171578,43.991942]}},{"properties":{"City":"Middlebury","name":"1108 Quarry Road","geo_score":0.714,"State":"VT","description":"\n<b>Street:</b> 1108 Quarry Road<b>City:</b> Middlebury<b>State:</b> VT<b>Address:</b> 1108 Quarry Road  Middlebury , VT\n","id":"ahi3c0kcjp77","geo_precision":"city"},"type":"Feature","geometry":{"type":"Point","coordinates":[-73.171578,43.991942]}},{"properties":{"City":"Middlebury","name":"2815 South Street Ext.","geo_score":0.0,"State":"Vt","description":"\n<b>Street:</b> 2815 South Street Ext.<b>City:</b> Middlebury<b>State:</b> Vt<b>Address:</b> 2815 South Street Ext.  Middlebury , Vt\n","id":"ahi3c0ln9wvm","geo_precision":"unmatched"},"type":"Feature","geometry":null},{"properties":{"City":"Middlebury","name":"80 Ossie Road","geo_score":0.714,"State":"VT","description":"\n<b>Street:</b> 80 Ossie Road<b>City:</b> Middlebury<b>State:</b> VT<b>Address:</b> 80 Ossie Road  Middlebury , VT\n","id":"ahi3c0y2igrf","geo_precision":"city"},"type":"Feature","geometry":{"type":"Point","coordinates":[-73.171578,43.991942]}},{"properties":{"City":"Middlebury","name":"4 Thomas Street","geo_score":0.714,"State":"VT","description":"\n<b>Street:</b> 4 Thomas Street<b>City:</b> Middlebury<b>State:</b> VT<b>Address:</b> 4 Thomas Street  Middlebury , VT\n","id":"ahi3c0w933m9","geo_precision":"city"},"type":"Feature","geometry":{"type":"Point","coordinates":[-73.171578,43.991942]}},{"properties":{"City":"Middlebury","name":"4 Jayne Court Apt. 33, Apt. 33","geo_score":0.714,"State":"VT","description":"\n<b>Street:</b> 4 Jayne Court Apt. 33, Apt. 33<b>City:</b> Middlebury<b>State:</b> VT<b>Address:</b> 4 Jayne Court Apt. 33, Apt. 33  Middlebury , VT\n","id":"ahi3c0vq7wsi","geo_precision":"city"},"type":"Feature","geometry":{"type":"Point","coordinates":[-73.171578,43.991942]}},{"properties":{"City":"Middlebury","name":"66 North Pleasant Street","geo_score":0.714,"State":"VT","description":"\n<b>Street:</b> 66 North Pleasant Street<b>City:</b> Middlebury<b>State:</b> VT<b>Address:</b> 66 North Pleasant Street  Middlebury , VT\n","id":"ahi3c0vl8739","geo_precision":"city"},"type":"Feature","geometry":{"type":"Point","coordinates":[-73.171578,43.991942]}},{"properties":{"City":"Middlebury","name":"52 Seminary Street","geo_score":0.714,"State":"VT","description":"\n<b>Street:</b> 52 Seminary Street<b>City:</b> Middlebury<b>State:</b> VT<b>Address:</b> 52 Seminary Street  Middlebury , VT\n","id":"ahi3c0m97e1k","geo_precision":"city"},"type":"Feature","geometry":{"type":"Point","coordinates":[-73.171578,43.991942]}},{"properties":{"City":"Middlebury","name":"426 East Main Street Unit A","geo_score":0.714,"State":"VT","description":"\n<b>Street:</b> 426 East Main Street Unit A<b>City:</b> Middlebury<b>State:</b> VT<b>Address:</b> 426 East Main Street Unit A  Middlebury , VT\n","id":"ahi3c0w6bk2z","geo_precision":"city"},"type":"Feature","geometry":{"type":"Point","coordinates":[-73.171578,43.991942]}},{"properties":{"City":"Middlebury","name":"147 Rolling Acres","geo_score":0.714,"State":"VT","description":"\n<b>Street:</b> 147 Rolling Acres<b>City:</b> Middlebury<b>State:</b> VT<b>Address:</b> 147 Rolling Acres  Middlebury , VT\n","id":"ahi3c0plagcg","geo_precision":"city"},"type":"Feature","geometry":{"type":"Point","coordinates":[-73.171578,43.991942]}},{"properties":{"City":"Middlebury","name":"6 Overbrook Drive","geo_score":0.714,"State":"VT","description":"\n<b>Street:</b> 6 Overbrook Drive<b>City:</b> Middlebury<b>State:</b> VT<b>Address:</b> 6 Overbrook Drive  Middlebury , VT\n","id":"ahi3c0r2es9r","geo_precision":"city"},"type":"Feature","geometry":{"type":"Point","coordinates":[-73.171578,43.991942]}},{"properties":{"City":"Middlebury","name":"89 Sarah's Way","geo_score":0.714,"State":"VT","description":"\n<b>Street:</b> 89 Sarah's Way<b>City:</b> Middlebury<b>State:</b> VT<b>Address:</b> 89 Sarah's Way  Middlebury , VT\n","id":"ahi3c0s7u0o4","geo_precision":"city"},"type":"Feature","geometry":{"type":"Point","coordinates":[-73.171578,43.991942]}},{"properties":{"City":"Middlebury","name":"167 Monroe Street","geo_score":0.714,"State":"VT","description":"\n<b>Street:</b> 167 Monroe Street<b>City:</b> Middlebury<b>State:</b> VT<b>Address:</b> 167 Monroe Street  Middlebury , VT\n","id":"ahi3c0tsftq2","geo_precision":"city"},"type":"Feature","geometry":{"type":"Point","coordinates":[-73.171578,43.991942]}},{"properties":{"City":"Middlebury","name":"108 Peterson Terrace","geo_score":0.714,"State":"VT","description":"\n<b>Street:</b> 108 Peterson Terrace<b>City:</b> Middlebury<b>State:</b> VT<b>Address:</b> 108 Peterson Terrace  Middlebury , VT\n","id":"ahi3c0w60iak","geo_precision":"city"},"type":"Feature","geometry":{"type":"Point","coordinates":[-73.171578,43.991942]}},{"properties":{"City":"Middlebury","name":"582 Buttolph Drive","geo_score":0.714,"State":"VT","description":"\n<b>Street:</b> 582 Buttolph Drive<b>City:</b> Middlebury<b>State:</b> VT<b>Address:</b> 582 Buttolph Drive  Middlebury , VT\n","id":"ahi3c0kpyp5n","geo_precision":"city"},"type":"Feature","geometry":{"type":"Point","coordinates":[-73.171578,43.991942]}},{"properties":{"City":"Middlebury","name":"1196 Quarry Road","geo_score":0.714,"State":"VT","description":"\n<b>Street:</b> 1196 Quarry Road<b>City:</b> Middlebury<b>State:</b> VT<b>Address:</b> 1196 Quarry Road  Middlebury , VT\n","id":"ahi3c0z7o89x","geo_precision":"city"},"type":"Feature","geometry":{"type":"Point","coordinates":[-73.171578,43.991942]}},{"properties":{"City":"Middlebury","name":"55 Commodore Way","geo_score":0.714,"State":"VT","description":"\n<b>Street:</b> 55 Commodore Way<b>City:</b> Middlebury<b>State:</b> VT<b>Address:</b> 55 Commodore Way  Middlebury , VT\n","id":"ahi3c0pvfmql","geo_precision":"city"},"type":"Feature","geometry":{"type":"Point","coordinates":[-73.171578,43.991942]}},{"properties":{"City":"Middlebury","name":"131 Skyline Lane","geo_score":0.714,"State":"VT","description":"\n<b>Street:</b> 131 Skyline Lane<b>City:</b> Middlebury<b>State:</b> VT<b>Address:</b> 131 Skyline Lane  Middlebury , VT\n","id":"ahi3c0yi9n2u","geo_precision":"city"},"type":"Feature","geometry":{"type":"Point","coordinates":[-73.171578,43.991942]}},{"properties":{"City":"Middlebury","name":"430 East Main Street","geo_score":0.714,"State":"VT","description":"\n<b>Street:</b> 430 East Main Street<b>City:</b> Middlebury<b>State:</b> VT<b>Address:</b> 430 East Main Street  Middlebury , VT\n","id":"ahi3c0uvwuj7","geo_precision":"city"},"type":"Feature","geometry":{"type":"Point","coordinates":[-73.171578,43.991942]}},{"properties":{"City":"Middlebury","name":"1818 Route 7 South","geo_score":0.714,"State":"VT","description":"\n<b>Street:</b> 1818 Route 7 South<b>City:</b> Middlebury<b>State:</b> VT<b>Address:</b> 1818 Route 7 South  Middlebury , VT\n","id":"ahi3c0u0h0qq","geo_precision":"city"},"type":"Feature","geometry":{"type":"Point","coordinates":[-73.171578,43.991942]}},{"properties":{"City":"Middlebury","name":"88 Charles Avenue","geo_score":0.714,"State":"VT","description":"\n<b>Street:</b> 88 Charles Avenue<b>City:</b> Middlebury<b>State:</b> VT<b>Address:</b> 88 Charles Avenue  Middlebury , VT\n","id":"ahi3c0r6wyvr","geo_precision":"city"},"type":"Feature","geometry":{"type":"Point","coordinates":[-73.171578,43.991942]}},{"properties":{"City":"Middlebury","name":"15 Court Street Apt. 1D","geo_score":0.714,"State":"VT","description":"\n<b>Street:</b> 15 Court Street Apt. 1D<b>City:</b> Middlebury<b>State:</b> VT<b>Address:</b> 15 Court Street Apt. 1D  Middlebury , VT\n","id":"ahi3c0uaox6r","geo_precision":"city"},"type":"Feature","geometry":{"type":"Point","coordinates":[-73.171578,43.991942]}},{"properties":{"City":"Middlebury","name":"108 North Forty Lane","geo_score":0.714,"State":"VT","description":"\n<b>Street:</b> 108 North Forty Lane<b>City:</b> Middlebury<b>State:</b> VT<b>Address:</b> 108 North Forty Lane  Middlebury , VT\n","id":"ahi3c0ktb6hm","geo_precision":"city"},"type":"Feature","geometry":{"type":"Point","coordinates":[-73.171578,43.991942]}},{"properties":{"City":"Middlebury","name":"19 South Street","geo_score":0.714,"State":"VT","description":"\n<b>Street:</b> 19 South Street<b>City:</b> Middlebury<b>State:</b> VT<b>Address:</b> 19 South Street  Middlebury , VT\n","id":"ahi3c0jjhpac","geo_precision":"city"},"type":"Feature","geometry":{"type":"Point","coordinates":[-73.171578,43.991942]}},{"properties":{"City":"Middlebury","name":"285 Airport Road","geo_score":0.714,"State":"VT","description":"\n<b>Street:</b> 285 Airport Road<b>City:</b> Middlebury<b>State:</b> VT<b>Address:</b> 285 Airport Road  Middlebury , VT\n","id":"ahi3c0kwt0wn","geo_precision":"city"},"type":"Feature","geometry":{"type":"Point","coordinates":[-73.171578,43.991942]}},{"properties":{"City":"Middlebury","name":"7 Court Street, Apt. 3","geo_score":0.714,"State":"VT","description":"\n<b>Street:</b> 7 Court Street, Apt. 3<b>City:</b> Middlebury<b>State:</b> VT<b>Address:</b> 7 Court Street, Apt. 3  Middlebury , VT\n","id":"ahi3c0l5mvnh","geo_precision":"city"},"type":"Feature","geometry":{"type":"Point","coordinates":[-73.171578,43.991942]}},{"properties":{"City":"Middlebury","name":"153 Rogers Road","geo_score":0.714,"State":"VT","description":"\n<b>Street:</b> 153 Rogers Road<b>City:</b> Middlebury<b>State:</b> VT<b>Address:</b> 153 Rogers Road  Middlebury , VT\n","id":"ahi3c0sxo0up","geo_precision":"city"},"type":"Feature","geometry":{"type":"Point","coordinates":[-73.171578,43.991942]}},{"properties":{"City":"Middlebury","name":"2020 Case Street","geo_score":0.714,"State":"VT","description":"\n<b>Street:</b> 2020 Case Street<b>City:</b> Middlebury<b>State:</b> VT<b>Address:</b> 2020 Case Street  Middlebury , VT\n","id":"ahi3c0m4zz3w","geo_precision":"city"},"type":"Feature","geometry":{"type":"Point","coordinates":[-73.171578,43.991942]}},{"properties":{"City":"Middlebury","name":"157 Jackson Lane, Apt 30","geo_score":0.714,"State":"VT","description":"\n<b>Street:</b> 157 Jackson Lane, Apt 30<b>City:</b> Middlebury<b>State:</b> VT<b>Address:</b> 157 Jackson Lane, Apt 30  Middlebury , VT\n","id":"ahi3c0jqiqg2","geo_precision":"city"},"type":"Feature","geometry":{"type":"Point","coordinates":[-73.171578,43.991942]}},{"properties":{"City":"Middlebury","name":"210 Valley View Road Unit A5","geo_score":0.714,"State":"VT","description":"\n<b>Street:</b> 210 Valley View Road Unit A5<b>City:</b> Middlebury<b>State:</b> VT<b>Address:</b> 210 Valley View Road Unit A5  Middlebury , VT\n","id":"ahi3c0lk72h8","geo_precision":"city"},"type":"Feature","geometry":{"type":"Point","coordinates":[-73.171578,43.991942]}},{"properties":{"City":"Middlebury","name":"18 Elm Street, Apt. 8","geo_score":0.714,"State":"VT","description":"\n<b>Street:</b> 18 Elm Street, Apt. 8<b>City:</b> Middlebury<b>State:</b> VT<b>Address:</b> 18 Elm Street, Apt. 8  Middlebury , VT\n","id":"ahi3c0uhmsji","geo_precision":"city"},"type":"Feature","geometry":{"type":"Point","coordinates":[-73.171578,43.991942]}},{"properties":{"City":"Middlebury","name":"1283 Case Street","geo_score":0.714,"State":"VT","description":"\n<b>Street:</b> 1283 Case Street<b>City:</b> Middlebury<b>State:</b> VT<b>Address:</b> 1283 Case Street  Middlebury , VT\n","id":"ahi3c0k2ipmg","geo_precision":"city"},"type":"Feature","geometry":{"type":"Point","coordinates":[-73.171578,43.991942]}},{"properties":{"City":"Middlebury","name":"10 Murdock Court","geo_score":0.714,"State":"VT","description":"\n<b>Street:</b> 10 Murdock Court<b>City:</b> Middlebury<b>State:</b> VT<b>Address:</b> 10 Murdock Court  Middlebury , VT\n","id":"ahi3c0qaabmq","geo_precision":"city"},"type":"Feature","geometry":{"type":"Point","coordinates":[-73.171578,43.991942]}},{"properties":{"City":"Middlebury","name":"8 Harrow Way","geo_score":0.714,"State":"VT","description":"\n<b>Street:</b> 8 Harrow Way<b>City:</b> Middlebury<b>State:</b> VT<b>Address:</b> 8 Harrow Way  Middlebury , VT\n","id":"ahi3c0l93nl0","geo_precision":"city"},"type":"Feature","geometry":{"type":"Point","coordinates":[-73.171578,43.991942]}},{"properties":{"City":"Middlebury","name":"310 Chipman Park","geo_score":0.714,"State":"VT","description":"\n<b>Street:</b> 310 Chipman Park<b>City:</b> Middlebury<b>State:</b> VT<b>Address:</b> 310 Chipman Park  Middlebury , VT\n","id":"ahi3c0l1y301","geo_precision":"city"},"type":"Feature","geometry":{"type":"Point","coordinates":[-73.171578,43.991942]}},{"properties":{"City":"Middlebury","name":"64 Sugarwood Court Apt. 10","geo_score":0.714,"State":"VT","description":"\n<b>Street:</b> 64 Sugarwood Court Apt. 10<b>City:</b> Middlebury<b>State:</b> VT<b>Address:</b> 64 Sugarwood Court Apt. 10  Middlebury , VT\n","id":"ahi3c0x4d6q9","geo_precision":"city"},"type":"Feature","geometry":{"type":"Point","coordinates":[-73.171578,43.991942]}},{"properties":{"City":"Middlebury","name":"1 Lower Plains Road","geo_score":0.714,"State":"VT","description":"\n<b>Street:</b> 1 Lower Plains Road<b>City:</b> Middlebury<b>State:</b> VT<b>Address:</b> 1 Lower Plains Road  Middlebury , VT\n","id":"ahi3c0koym7e","geo_precision":"city"},"type":"Feature","geometry":{"type":"Point","coordinates":[-73.171578,43.991942]}},{"properties":{"City":"Middlebury","name":"395 East Main Street","geo_score":0.714,"State":"VT","description":"\n<b>Street:</b> 395 East Main Street<b>City:</b> Middlebury<b>State:</b> VT<b>Address:</b> 395 East Main Street  Middlebury , VT\n","id":"ahi3c0v5xa26","geo_precision":"city"},"type":"Feature","geometry":{"type":"Point","coordinates":[-73.171578,43.991942]}},{"properties":{"City":"Middlebury","name":"6 Overbrook Drive","geo_score":0.714,"State":"VT","description":"\n<b>Street:</b> 6 Overbrook Drive<b>City:</b> Middlebury<b>State:</b> VT<b>Address:</b> 6 Overbrook Drive  Middlebury , VT\n","id":"ahi3c0klu5j8","geo_precision":"city"},"type":"Feature","geometry":{"type":"Point","coordinates":[-73.171578,43.991942]}},{"properties":{"City":"Middlebury","name":"4301 Case Street","geo_score":0.714,"State":"VT","description":"\n<b>Street:</b> 4301 Case Street<b>City:</b> Middlebury<b>State:</b> VT<b>Address:</b> 4301 Case Street  Middlebury , VT\n","id":"ahi3c0vgq240","geo_precision":"city"},"type":"Feature","geometry":{"type":"Point","coordinates":[-73.171578,43.991942]}},{"properties":{"City":"Middlebury","name":"17 High Street","geo_score":0.714,"State":"VT","description":"\n<b>Street:</b> 17 High Street<b>City:</b> Middlebury<b>State:</b> VT<b>Address:</b> 17 High Street  Middlebury , VT\n","id":"ahi3c0xzr3ia","geo_precision":"city"},"type":"Feature","geometry":{"type":"Point","coordinates":[-73.171578,43.991942]}},{"properties":{"City":"Middlebury","name":"3669 Case Street","geo_score":0.714,"State":"VT","description":"\n<b>Street:</b> 3669 Case Street<b>City:</b> Middlebury<b>State:</b> VT<b>Address:</b> 3669 Case Street  Middlebury , VT\n","id":"ahi3c0p2z8k3","geo_precision":"city"},"type":"Feature","geometry":{"type":"Point","coordinates":[-73.171578,43.991942]}},{"properties":{"City":"Middlebury","name":"9 Harrow Way","geo_score":0.714,"State":"VT","description":"\n<b>Street:</b> 9 Harrow Way<b>City:</b> Middlebury<b>State:</b> VT<b>Address:</b> 9 Harrow Way  Middlebury , VT\n","id":"ahi3c0vgm6ha","geo_precision":"city"},"type":"Feature","geometry":{"type":"Point","coordinates":[-73.171578,43.991942]}},{"properties":{"City":"Middlebury","name":"98 Mead Lane","geo_score":0.714,"State":"VT","description":"\n<b>Street:</b> 98 Mead Lane<b>City:</b> Middlebury<b>State:</b> VT<b>Address:</b> 98 Mead Lane  Middlebury , VT\n","id":"ahi3c0r2mzsh","geo_precision":"city"},"type":"Feature","geometry":{"type":"Point","coordinates":[-73.171578,43.991942]}},{"properties":{"City":"Middlebury","name":"10 Chipman Heights","geo_score":0.714,"State":"VT","description":"\n<b>Street:</b> 10 Chipman Heights<b>City:</b> Middlebury<b>State:</b> VT<b>Address:</b> 10 Chipman Heights  Middlebury , VT\n","id":"ahi3c0lpmnsa","geo_precision":"city"},"type":"Feature","geometry":{"type":"Point","coordinates":[-73.171578,43.991942]}},{"properties":{"City":"Middlebury","name":"1190 Halladay Road","geo_score":0.714,"State":"VT","description":"\n<b>Street:</b> 1190 Halladay Road<b>City:</b> Middlebury<b>State:</b> VT<b>Address:</b> 1190 Halladay Road  Middlebury , VT\n","id":"ahi3c0o0t9hb","geo_precision":"city"},"type":"Feature","geometry":{"type":"Point","coordinates":[-73.171578,43.991942]}},{"properties":{"City":"Middlebury","name":"7 Meadow Way","geo_score":0.714,"State":"VT","description":"\n<b>Street:</b> 7 Meadow Way<b>City:</b> Middlebury<b>State:</b> VT<b>Address:</b> 7 Meadow Way  Middlebury , VT\n","id":"ahi3c0sc9q9u","geo_precision":"city"},"type":"Feature","geometry":{"type":"Point","coordinates":[-73.171578,43.991942]}},{"properties":{"City":"Middlebury","name":"30 South Village Green Apt. 105","geo_score":0.714,"State":"VT","description":"\n<b>Street:</b> 30 South Village Green Apt. 105<b>City:</b> Middlebury<b>State:</b> VT<b>Address:</b> 30 South Village Green Apt. 105  Middlebury , VT\n","id":"ahi3c0zpnv9m","geo_precision":"city"},"type":"Feature","geometry":{"type":"Point","coordinates":[-73.171578,43.991942]}},{"properties":{"City":"Middlebury","name":"186 Burnham Drive","geo_score":0.714,"State":"VT","description":"\n<b>Street:</b> 186 Burnham Drive<b>City:</b> Middlebury<b>State:</b> VT<b>Address:</b> 186 Burnham Drive  Middlebury , VT\n","id":"ahi3c0vrhxek","geo_precision":"city"},"type":"Feature","geometry":{"type":"Point","coordinates":[-73.171578,43.991942]}},{"properties":{"City":"Middlebury","name":"24 Seymour Street","geo_score":0.714,"State":"VT","description":"\n<b>Street:</b> 24 Seymour Street<b>City:</b> Middlebury<b>State:</b> VT<b>Address:</b> 24 Seymour Street  Middlebury , VT\n","id":"ahi3c0pm02iv","geo_precision":"city"},"type":"Feature","geometry":{"type":"Point","coordinates":[-73.171578,43.991942]}},{"properties":{"City":"Middlebury","name":"191 Burnham Drive","geo_score":0.714,"State":"VT","description":"\n<b>Street:</b> 191 Burnham Drive<b>City:</b> Middlebury<b>State:</b> VT<b>Address:</b> 191 Burnham Drive  Middlebury , VT\n","id":"ahi3c0w8p6bl","geo_precision":"city"},"type":"Feature","geometry":{"type":"Point","coordinates":[-73.171578,43.991942]}},{"properties":{"City":"Middlebury","name":"91B Munson Road","geo_score":0.714,"State":"VT","description":"\n<b>Street:</b> 91B Munson Road<b>City:</b> Middlebury<b>State:</b> VT<b>Address:</b> 91B Munson Road  Middlebury , VT\n","id":"ahi3c0r5mslb","geo_precision":"city"},"type":"Feature","geometry":{"type":"Point","coordinates":[-73.171578,43.991942]}},{"properties":{"City":"Middlebury","name":"636 Happy Valley Road","geo_score":0.714,"State":"VT","description":"\n<b>Street:</b> 636 Happy Valley Road<b>City:</b> Middlebury<b>State:</b> VT<b>Address:</b> 636 Happy Valley Road  Middlebury , VT\n","id":"ahi3c0kl9z7g","geo_precision":"city"},"type":"Feature","geometry":{"type":"Point","coordinates":[-73.171578,43.991942]}},{"properties":{"City":"Middlebury","name":"123 Juniper Lane","geo_score":0.714,"State":"VT","description":"\n<b>Street:</b> 123 Juniper Lane<b>City:</b> Middlebury<b>State:</b> VT<b>Address:</b> 123 Juniper Lane  Middlebury , VT\n","id":"ahi3c0pu4sdg","geo_precision":"city"},"type":"Feature","geometry":{"type":"Point","coordinates":[-73.171578,43.991942]}},{"properties":{"City":"Middlebury","name":"25 Sugarwood Court, Apt. 4","geo_score":0.714,"State":"VT","description":"\n<b>Street:</b> 25 Sugarwood Court, Apt. 4<b>City:</b> Middlebury<b>State:</b> VT<b>Address:</b> 25 Sugarwood Court, Apt. 4  Middlebury , VT\n","id":"ahi3c0lpn3jc","geo_precision":"city"},"type":"Feature","geometry":{"type":"Point","coordinates":[-73.171578,43.991942]}},{"properties":{"City":"Middlebury","name":"227 Creek Road","geo_score":0.714,"State":"VT","description":"\n<b>Street:</b> 227 Creek Road<b>City:</b> Middlebury<b>State:</b> VT<b>Address:</b> 227 Creek Road  Middlebury , VT\n","id":"ahi3c0y9n15l","geo_precision":"city"},"type":"Feature","geometry":{"type":"Point","coordinates":[-73.171578,43.991942]}},{"properties":{"City":"Middlebury","name":"70 Ossie Road","geo_score":0.714,"State":"VT","description":"\n<b>Street:</b> 70 Ossie Road<b>City:</b> Middlebury<b>State:</b> VT<b>Address:</b> 70 Ossie Road  Middlebury , VT\n","id":"ahi3c0o4tkg6","geo_precision":"city"},"type":"Feature","geometry":{"type":"Point","coordinates":[-73.171578,43.991942]}},{"properties":{"City":"Middlebury","name":"155 Cottage Lane","geo_score":0.714,"State":"VT","description":"\n<b>Street:</b> 155 Cottage Lane<b>City:</b> Middlebury<b>State:</b> VT<b>Address:</b> 155 Cottage Lane  Middlebury , VT\n","id":"ahi3c0npv7ap","geo_precision":"city"},"type":"Feature","geometry":{"type":"Point","coordinates":[-73.171578,43.991942]}},{"properties":{"City":"Middlebury","name":"285 Airport Road","geo_score":0.714,"State":"VT","description":"\n<b>Street:</b> 285 Airport Road<b>City:</b> Middlebury<b>State:</b> VT<b>Address:</b> 285 Airport Road  Middlebury , VT\n","id":"ahi3c0rgh0us","geo_precision":"city"},"type":"Feature","geometry":{"type":"Point","coordinates":[-73.171578,43.991942]}},{"properties":{"City":"Middlebury","name":"39 Sugarwood Court , Apt. 6","geo_score":0.714,"State":"VT","description":"\n<b>Street:</b> 39 Sugarwood Court , Apt. 6<b>City:</b> Middlebury<b>State:</b> VT<b>Address:</b> 39 Sugarwood Court , Apt. 6  Middlebury , VT\n","id":"ahi3c0vg2o89","geo_precision":"city"},"type":"Feature","geometry":{"type":"Point","coordinates":[-73.171578,43.991942]}},{"properties":{"City":"Middlebury","name":"180 Rogers Road","geo_score":0.714,"State":"VT","description":"\n<b>Street:</b> 180 Rogers Road<b>City:</b> Middlebury<b>State:</b> VT<b>Address:</b> 180 Rogers Road  Middlebury , VT\n","id":"ahi3c0si0nqr","geo_precision":"city"},"type":"Feature","geometry":{"type":"Point","coordinates":[-73.171578,43.991942]}},{"properties":{"City":"Middlebury","name":"87 Jackson Lane #18","geo_score":0.714,"State":"VT","description":"\n<b>Street:</b> 87 Jackson Lane #18<b>City:</b> Middlebury<b>State:</b> VT<b>Address:</b> 87 Jackson Lane #18  Middlebury , VT\n","id":"ahi3c0kdrjib","geo_precision":"city"},"type":"Feature","geometry":{"type":"Point","coordinates":[-73.171578,43.991942]}},{"properties":{"City":"Middlebury","name":"573 Munger Street","geo_score":0.714,"State":"VT","description":"\n<b>Street:</b> 573 Munger Street<b>City:</b> Middlebury<b>State:</b> VT<b>Address:</b> 573 Munger Street  Middlebury , VT\n","id":"ahi3c0t8c7bu","geo_precision":"city"},"type":"Feature","geometry":{"type":"Point","coordinates":[-73.171578,43.991942]}},{"properties":{"City":"Middlebury","name":"13 Washington Street Apt. 4","geo_score":0.714,"State":"VT","description":"\n<b>Street:</b> 13 Washington Street Apt. 4<b>City:</b> Middlebury<b>State:</b> VT<b>Address:</b> 13 Washington Street Apt. 4  Middlebury , VT\n","id":"ahi3c0phquhc","geo_precision":"city"},"type":"Feature","geometry":{"type":"Point","coordinates":[-73.171578,43.991942]}},{"properties":{"City":"Middlebury","name":"38 Juniper Lane","geo_score":0.714,"State":"VT","description":"\n<b>Street:</b> 38 Juniper Lane<b>City:</b> Middlebury<b>State:</b> VT<b>Address:</b> 38 Juniper Lane  Middlebury , VT\n","id":"ahi3c0l1dn3h","geo_precision":"city"},"type":"Feature","geometry":{"type":"Point","coordinates":[-73.171578,43.991942]}},{"properties":{"City":"Middlebury","name":"178A Washington Street Ext.","geo_score":0.714,"State":"VT","description":"\n<b>Street:</b> 178A Washington Street Ext.<b>City:</b> Middlebury<b>State:</b> VT<b>Address:</b> 178A Washington Street Ext.  Middlebury , VT\n","id":"ahi3c0soxdxn","geo_precision":"city"},"type":"Feature","geometry":{"type":"Point","coordinates":[-73.171578,43.991942]}},{"properties":{"City":"Middlebury","name":"30 South Village Green #305","geo_score":0.714,"State":"VT","description":"\n<b>Street:</b> 30 South Village Green #305<b>City:</b> Middlebury<b>State:</b> VT<b>Address:</b> 30 South Village Green #305  Middlebury , VT\n","id":"ahi3c0vsav62","geo_precision":"city"},"type":"Feature","geometry":{"type":"Point","coordinates":[-73.171578,43.991942]}},{"properties":{"City":"Middlebury","name":"120 Peterson Terrace","geo_score":0.714,"State":"VT","description":"\n<b>Street:</b> 120 Peterson Terrace<b>City:</b> Middlebury<b>State:</b> VT<b>Address:</b> 120 Peterson Terrace  Middlebury , VT\n","id":"ahi3c0tuqugb","geo_precision":"city"},"type":"Feature","geometry":{"type":"Point","coordinates":[-73.171578,43.991942]}},{"properties":{"City":"Middlebury","name":"415 Mead Lane","geo_score":0.714,"State":"VT","description":"\n<b>Street:</b> 415 Mead Lane<b>City:</b> Middlebury<b>State:</b> VT<b>Address:</b> 415 Mead Lane  Middlebury , VT\n","id":"ahi3c0w9dvbf","geo_precision":"city"},"type":"Feature","geometry":{"type":"Point","coordinates":[-73.171578,43.991942]}},{"properties":{"City":"Middlebury","name":"5 Swanage Court","geo_score":0.714,"State":"VT","description":"\n<b>Street:</b> 5 Swanage Court<b>City:</b> Middlebury<b>State:</b> VT<b>Address:</b> 5 Swanage Court  Middlebury , VT\n","id":"ahi3c0ubt9ww","geo_precision":"city"},"type":"Feature","geometry":{"type":"Point","coordinates":[-73.171578,43.991942]}}],"is_temporal":false,"author":{"url":"","metadata":"","contact_name":"","contact_address":"","source":"","contact_phone":""},"source":"","pagination":{"sort":null,"start":0,"total":403,"limit":1000000},"state":"complete","tags":"","published":"2014-08-16T22:52:19-04:00","id":398144}