{"type":"FeatureCollection","data_type":"Dataset","url_type":null,"permissions":[{"permissions":{"download":true,"view":true},"group_id":"everyone"}],"classification":null,"title":"Tower_Locations_updated_2012","count":120,"stream_id":398215,"contributor":{"url":"http://geocommons.com/users/83124","name":"kljohnso72"},"data_attributes":null,"calculation_params":null,"icon_link":null,"link":"http://geocommons.com/overlays/398215.json","extent":[-101.111,44.2634,-94.9727,48.8635],"geometry_types":["point"],"unique_name":null,"name":"Tower_Locations_updated_2012","feature_count":120,"description":"","next_feature":null,"is_raster":false,"short_classification":"Y","stats":{"lat":{"max":48.8635,"mean":46.686491525,"variance":1.25018932502334,"stdev":1.11811865426856,"min":44.263383,"median":46.791134},"long":{"max":-94.972717,"mean":-97.2935075333333,"variance":1.14325810143102,"stdev":1.0692324824055,"min":-101.111061,"median":-97.085068}},"features":[{"properties":{"tower site name":"Waubun Tower","id":"ahi9rs1kia7f","lat":47.222596,"state":"MN","long":-95.857483},"type":"Feature","geometry":{"type":"Point","coordinates":[-95.857483,47.222596]}},{"properties":{"tower site name":"Pelican Rapids Tower","id":"ahi9rrqdo3wp","lat":46.615513,"state":"MN","long":-96.053323},"type":"Feature","geometry":{"type":"Point","coordinates":[-96.053323,46.615513]}},{"properties":{"tower site name":"Perham Tower","id":"ahi9rrq4j23p","lat":46.601237,"state":"MN","long":-95.573047},"type":"Feature","geometry":{"type":"Point","coordinates":[-95.573047,46.601237]}},{"properties":{"tower site name":"Hope Tower","id":"ahi9rrt3x8zh","lat":47.354423,"state":"ND","long":-97.716212},"type":"Feature","geometry":{"type":"Point","coordinates":[-97.716212,47.354423]}},{"properties":{"tower site name":"Hannaford Tower","id":"ahi9rrmbsmms","lat":47.300179,"state":"ND","long":-98.153578},"type":"Feature","geometry":{"type":"Point","coordinates":[-98.153578,47.300179]}},{"properties":{"tower site name":"Courtenay North Tower","id":"ahi9rrrf8dpm","lat":47.316956,"state":"ND","long":-98.508341},"type":"Feature","geometry":{"type":"Point","coordinates":[-98.508341,47.316956]}},{"properties":{"tower site name":"Sanborn Tower","id":"ahi9rrua17e9","lat":46.892866,"state":"ND","long":-98.098389},"type":"Feature","geometry":{"type":"Point","coordinates":[-98.098389,46.892866]}},{"properties":{"tower site name":"Leal Tower","id":"ahi9rrp8fqp1","lat":47.096365,"state":"ND","long":-98.290961},"type":"Feature","geometry":{"type":"Point","coordinates":[-98.290961,47.096365]}},{"properties":{"tower site name":"Eldridge Tower","id":"ahi9rrr6rah0","lat":46.861293,"state":"ND","long":-98.889054},"type":"Feature","geometry":{"type":"Point","coordinates":[-98.889054,46.861293]}},{"properties":{"tower site name":"Spiritwood Tower","id":"ahi9rs12fmya","lat":46.862559,"state":"ND","long":-98.487688},"type":"Feature","geometry":{"type":"Point","coordinates":[-98.487688,46.862559]}},{"properties":{"tower site name":"Round Top Tower","id":"ahi9rrx7a143","lat":47.081854,"state":"ND","long":-99.050456},"type":"Feature","geometry":{"type":"Point","coordinates":[-99.050456,47.081854]}},{"properties":{"tower site name":"Trail DOT Tower","id":"ahi9rryzkz60","lat":47.767922,"state":"MN","long":-95.665341},"type":"Feature","geometry":{"type":"Point","coordinates":[-95.665341,47.767922]}},{"properties":{"tower site name":"Absaraka Tower","id":"ahi9rrsnbi45","lat":46.992769,"state":"ND","long":-97.440696},"type":"Feature","geometry":{"type":"Point","coordinates":[-97.440696,46.992769]}},{"properties":{"tower site name":"Highmore South","id":"ahi9rs00a1zw","lat":44.511657,"state":"SD","long":-99.437026},"type":"Feature","geometry":{"type":"Point","coordinates":[-99.437026,44.511657]}},{"properties":{"tower site name":"Jamestown North","id":"ahi9rru5c3eh","lat":47.065473,"state":"ND","long":-98.689538},"type":"Feature","geometry":{"type":"Point","coordinates":[-98.689538,47.065473]}},{"properties":{"tower site name":"Watertown","id":"ahi9rs0ya2p9","lat":44.861594,"state":"SD","long":-97.103845},"type":"Feature","geometry":{"type":"Point","coordinates":[-97.103845,44.861594]}},{"properties":{"tower site name":"Oklee Tower","id":"ahi9rrur5j2z","lat":47.913582,"state":"MN","long":-95.88195},"type":"Feature","geometry":{"type":"Point","coordinates":[-95.88195,47.913582]}},{"properties":{"tower site name":"Docter Temp Tower","id":"ahi9rrvsz094","lat":45.717461,"state":"SD","long":-97.957397},"type":"Feature","geometry":{"type":"Point","coordinates":[-97.957397,45.717461]}},{"properties":{"tower site name":"Twin Valley Tower","id":"ahi9rrxf20m9","lat":47.253532,"state":"MN","long":-96.144447},"type":"Feature","geometry":{"type":"Point","coordinates":[-96.144447,47.253532]}},{"properties":{"tower site name":"Spring Prairie Tower","id":"ahi9rrozg0ua","lat":46.934418,"state":"MN","long":-96.455452},"type":"Feature","geometry":{"type":"Point","coordinates":[-96.455452,46.934418]}},{"properties":{"tower site name":"Huber/Allied Agronomy Tower","id":"ahi9rs0zi7rl","lat":46.628819,"state":"ND","long":-98.705765},"type":"Feature","geometry":{"type":"Point","coordinates":[-98.705765,46.628819]}},{"properties":{"tower site name":"Maier Tower","id":"ahi9rryt2wfg","lat":46.615551,"state":"MN","long":-96.547997},"type":"Feature","geometry":{"type":"Point","coordinates":[-96.547997,46.615551]}},{"properties":{"tower site name":"Ulen Tower","id":"ahi9rrq5g3t9","lat":47.054352,"state":"MN","long":-96.172417},"type":"Feature","geometry":{"type":"Point","coordinates":[-96.172417,47.054352]}},{"properties":{"tower site name":"Yaggie Beet Piler Tower","id":"ahi9rrx2taes","lat":46.28624,"state":"MN","long":-96.382751},"type":"Feature","geometry":{"type":"Point","coordinates":[-96.382751,46.28624]}},{"properties":{"tower site name":"Maple Bay Tower","id":"ahi9rrvatcbz","lat":47.619926,"state":"MN","long":-96.22025},"type":"Feature","geometry":{"type":"Point","coordinates":[-96.22025,47.619926]}},{"properties":{"tower site name":"Frankfort Tower","id":"ahi9rrxjr72t","lat":44.849899,"state":"SD","long":-98.224792},"type":"Feature","geometry":{"type":"Point","coordinates":[-98.224792,44.849899]}},{"properties":{"tower site name":"Hayti","id":"ahi9rrv083qw","lat":44.659818,"state":"SD","long":-97.181827},"type":"Feature","geometry":{"type":"Point","coordinates":[-97.181827,44.659818]}},{"properties":{"tower site name":"Kathryn Tower","id":"ahi9rrssfeus","lat":46.623661,"state":"ND","long":-97.909271},"type":"Feature","geometry":{"type":"Point","coordinates":[-97.909271,46.623661]}},{"properties":{"tower site name":"Miller Tower","id":"ahi9rrxauzeh","lat":46.167671,"state":"ND","long":-96.581161},"type":"Feature","geometry":{"type":"Point","coordinates":[-96.581161,46.167671]}},{"properties":{"tower site name":"Kuzel Tower","id":"ahi9rrw5agn9","lat":46.184116,"state":"ND","long":-97.116096},"type":"Feature","geometry":{"type":"Point","coordinates":[-97.116096,46.184116]}},{"properties":{"tower site name":"Florence Tower","id":"ahi9rrprisac","lat":45.064892,"state":"SD","long":-97.250262},"type":"Feature","geometry":{"type":"Point","coordinates":[-97.250262,45.064892]}},{"properties":{"tower site name":"Highmore North","id":"ahi9rrupoln2","lat":44.710599,"state":"SD","long":-99.669562},"type":"Feature","geometry":{"type":"Point","coordinates":[-99.669562,44.710599]}},{"properties":{"tower site name":"Miller South Tower","id":"ahi9rs0i54uc","lat":44.428641,"state":"SD","long":-98.982367},"type":"Feature","geometry":{"type":"Point","coordinates":[-98.982367,44.428641]}},{"properties":{"tower site name":"Hendrem/Borgen Tower","id":"ahi9rrp2rums","lat":47.226765,"state":"MN","long":-96.69068},"type":"Feature","geometry":{"type":"Point","coordinates":[-96.69068,47.226765]}},{"properties":{"tower site name":"Argyle Tower","id":"ahi9rrluf963","lat":48.295535,"state":"MN","long":-96.7153},"type":"Feature","geometry":{"type":"Point","coordinates":[-96.7153,48.295535]}},{"properties":{"tower site name":"LaMoure","id":"ahi9rryzdiv6","lat":46.41445,"state":"ND","long":-98.305344},"type":"Feature","geometry":{"type":"Point","coordinates":[-98.305344,46.41445]}},{"properties":{"tower site name":"Dumont Tower","id":"ahi9rrlulply","lat":45.699997,"state":"MN","long":-96.434219},"type":"Feature","geometry":{"type":"Point","coordinates":[-96.434219,45.699997]}},{"properties":{"tower site name":"Argusville Tower","id":"ahi9rrlp7kcz","lat":47.105633,"state":"ND","long":-97.086014},"type":"Feature","geometry":{"type":"Point","coordinates":[-97.086014,47.105633]}},{"properties":{"tower site name":"Ridge Tower","id":"ahi9rrp5pmgi","lat":46.092098,"state":"MN","long":-96.192551},"type":"Feature","geometry":{"type":"Point","coordinates":[-96.192551,46.092098]}},{"properties":{"tower site name":"Fisher/Nesbit Tower","id":"ahi9rrldboqq","lat":47.890732,"state":"MN","long":-96.80558},"type":"Feature","geometry":{"type":"Point","coordinates":[-96.80558,47.890732]}},{"properties":{"tower site name":"Biewer Tower","id":"ahi9rruylkpm","lat":45.939533,"state":"ND","long":-97.182533},"type":"Feature","geometry":{"type":"Point","coordinates":[-97.182533,45.939533]}},{"properties":{"tower site name":"Casselton Tower","id":"ahi9rrzsez3i","lat":46.934987,"state":"ND","long":-97.139517},"type":"Feature","geometry":{"type":"Point","coordinates":[-97.139517,46.934987]}},{"properties":{"tower site name":"Kub Tower","id":"ahi9rs1fch9t","lat":46.499969,"state":"ND","long":-97.017593},"type":"Feature","geometry":{"type":"Point","coordinates":[-97.017593,46.499969]}},{"properties":{"tower site name":"Siegert Tower","id":"ahi9rry7ljhl","lat":47.435188,"state":"ND","long":-96.978844},"type":"Feature","geometry":{"type":"Point","coordinates":[-96.978844,47.435188]}},{"properties":{"tower site name":"Viking South Tower","id":"ahi9rrpjoeo2","lat":48.123524,"state":"MN","long":-96.438652},"type":"Feature","geometry":{"type":"Point","coordinates":[-96.438652,48.123524]}},{"properties":{"tower site name":"Iroquois","id":"ahi9rrp106uf","lat":44.426816,"state":"SD","long":-97.822903},"type":"Feature","geometry":{"type":"Point","coordinates":[-97.822903,44.426816]}},{"properties":{"tower site name":"Wessington","id":"ahi9rrn858mx","lat":44.400161,"state":"SD","long":-98.601538},"type":"Feature","geometry":{"type":"Point","coordinates":[-98.601538,44.400161]}},{"properties":{"tower site name":"Buxton Tower","id":"ahi9rrw7l19a","lat":47.569664,"state":"ND","long":-97.169579},"type":"Feature","geometry":{"type":"Point","coordinates":[-97.169579,47.569664]}},{"properties":{"tower site name":"Angus Tower","id":"ahi9rrzpqeb1","lat":48.076962,"state":"MN","long":-96.771103},"type":"Feature","geometry":{"type":"Point","coordinates":[-96.771103,48.076962]}},{"properties":{"tower site name":"Page Tower","id":"ahi9rrwkd68x","lat":47.121319,"state":"ND","long":-97.491165},"type":"Feature","geometry":{"type":"Point","coordinates":[-97.491165,47.121319]}},{"properties":{"tower site name":"Fredrick Tower","id":"ahi9rrzbikxy","lat":45.882099,"state":"SD","long":-98.682251},"type":"Feature","geometry":{"type":"Point","coordinates":[-98.682251,45.882099]}},{"properties":{"tower site name":"Nielsville Tower","id":"ahi9rro4shch","lat":47.553001,"state":"MN","long":-96.748932},"type":"Feature","geometry":{"type":"Point","coordinates":[-96.748932,47.553001]}},{"properties":{"tower site name":"Elliott Tower","id":"ahi9rroilgvg","lat":46.369827,"state":"ND","long":-97.85952},"type":"Feature","geometry":{"type":"Point","coordinates":[-97.85952,46.369827]}},{"properties":{"tower site name":"Bollinger Tower","id":"ahi9rrp3kzia","lat":46.270569,"state":"ND","long":-98.708336},"type":"Feature","geometry":{"type":"Point","coordinates":[-98.708336,46.270569]}},{"properties":{"tower site name":"Comstock Tower","id":"ahi9rrpm9m5z","lat":46.683876,"state":"MN","long":-96.719391},"type":"Feature","geometry":{"type":"Point","coordinates":[-96.719391,46.683876]}},{"properties":{"tower site name":"Lake Park Tower","id":"ahi9rrvmzti2","lat":46.904682,"state":"MN","long":-96.058586},"type":"Feature","geometry":{"type":"Point","coordinates":[-96.058586,46.904682]}},{"properties":{"tower site name":"Saewert Tower","id":"ahi9rrorma49","lat":46.758644,"state":"ND","long":-97.18943},"type":"Feature","geometry":{"type":"Point","coordinates":[-97.18943,46.758644]}},{"properties":{"tower site name":"Huron","id":"ahi9rrzvg2d9","lat":44.456911,"state":"SD","long":-98.183828},"type":"Feature","geometry":{"type":"Point","coordinates":[-98.183828,44.456911]}},{"properties":{"tower site name":"Esmond","id":"ahi9rryabuma","lat":44.263383,"state":"SD","long":-97.768432},"type":"Feature","geometry":{"type":"Point","coordinates":[-97.768432,44.263383]}},{"properties":{"tower site name":"Miller North Tower","id":"ahi9rs0m6qnz","lat":44.678246,"state":"SD","long":-98.746021},"type":"Feature","geometry":{"type":"Point","coordinates":[-98.746021,44.678246]}},{"properties":{"tower site name":"Erskine Tower","id":"ahi9rs1lqnr9","lat":47.675873,"state":"MN","long":-95.969955},"type":"Feature","geometry":{"type":"Point","coordinates":[-95.969955,47.675873]}},{"properties":{"tower site name":"Marion Tower","id":"ahi9rrl8il9q","lat":46.64592,"state":"ND","long":-98.337654},"type":"Feature","geometry":{"type":"Point","coordinates":[-98.337654,46.64592]}},{"properties":{"tower site name":"Hecla Tower","id":"ahi9rrvuhcha","lat":45.877708,"state":"SD","long":-98.249382},"type":"Feature","geometry":{"type":"Point","coordinates":[-98.249382,45.877708]}},{"properties":{"tower site name":"Mund/Gwinner Tower","id":"ahi9rrv4qi0s","lat":46.22665,"state":"ND","long":-97.588501},"type":"Feature","geometry":{"type":"Point","coordinates":[-97.588501,46.22665]}},{"properties":{"tower site name":"Lockhart Tower","id":"ahi9rrysy2kr","lat":47.4823,"state":"MN","long":-96.484848},"type":"Feature","geometry":{"type":"Point","coordinates":[-96.484848,47.4823]}},{"properties":{"tower site name":"Eldred Tower","id":"ahi9rrrc8fzc","lat":47.729282,"state":"MN","long":-96.757416},"type":"Feature","geometry":{"type":"Point","coordinates":[-96.757416,47.729282]}},{"properties":{"tower site name":"Thompson Tower","id":"ahi9rrskqm3f","lat":47.787018,"state":"ND","long":-97.069763},"type":"Feature","geometry":{"type":"Point","coordinates":[-97.069763,47.787018]}},{"properties":{"tower site name":"Braaten Tower","id":"ahi9rryd98nv","lat":46.680813,"state":"ND","long":-97.006004},"type":"Feature","geometry":{"type":"Point","coordinates":[-97.006004,46.680813]}},{"properties":{"tower site name":"Geneseo Tower","id":"ahi9rrnyzg6o","lat":46.079815,"state":"ND","long":-97.308846},"type":"Feature","geometry":{"type":"Point","coordinates":[-97.308846,46.079815]}},{"properties":{"tower site name":"Corn Plant/ Nordic Tower","id":"ahi9rru48hnu","lat":46.340801,"state":"ND","long":-96.631134},"type":"Feature","geometry":{"type":"Point","coordinates":[-96.631134,46.340801]}},{"properties":{"tower site name":"Polo Tower","id":"ahi9rrpm9rti","lat":44.693145,"state":"SD","long":-99.180407},"type":"Feature","geometry":{"type":"Point","coordinates":[-99.180407,44.693145]}},{"properties":{"tower site name":"Brampton Tower","id":"ahi9rrlbn1dv","lat":46.006261,"state":"ND","long":-97.796156},"type":"Feature","geometry":{"type":"Point","coordinates":[-97.796156,46.006261]}},{"properties":{"tower site name":"Oakes Tower","id":"ahi9rro9usk9","lat":46.127037,"state":"ND","long":-98.092239},"type":"Feature","geometry":{"type":"Point","coordinates":[-98.092239,46.127037]}},{"properties":{"tower site name":"Casino Tower","id":"ahi9rrufd61m","lat":45.961067,"state":"ND","long":-96.78717},"type":"Feature","geometry":{"type":"Point","coordinates":[-96.78717,45.961067]}},{"properties":{"tower site name":"Crookston Tower","id":"ahi9rrxg7qn4","lat":47.860683,"state":"MN","long":-96.553314},"type":"Feature","geometry":{"type":"Point","coordinates":[-96.553314,47.860683]}},{"properties":{"tower site name":"Benidict Tower","id":"ahi9rro5kku8","lat":46.822369,"state":"MN","long":-96.645836},"type":"Feature","geometry":{"type":"Point","coordinates":[-96.645836,46.822369]}},{"properties":{"tower site name":"Brendemuhl Tower","id":"ahi9rs1inthg","lat":47.009201,"state":"MN","long":-96.733856},"type":"Feature","geometry":{"type":"Point","coordinates":[-96.733856,47.009201]}},{"properties":{"tower site name":"Rieger Tower","id":"ahi9rrz92g7e","lat":46.499611,"state":"ND","long":-96.774506},"type":"Feature","geometry":{"type":"Point","coordinates":[-96.774506,46.499611]}},{"properties":{"tower site name":"Falkirk","id":"ahi9rrznstpf","lat":47.342964,"state":"ND","long":-101.111061},"type":"Feature","geometry":{"type":"Point","coordinates":[-101.111061,47.342964]}},{"properties":{"tower site name":"Groton Tower","id":"ahi9rrn9g0wh","lat":45.445202,"state":"SD","long":-98.01313},"type":"Feature","geometry":{"type":"Point","coordinates":[-98.01313,45.445202]}},{"properties":{"tower site name":"Leonard Tower","id":"ahi9rrzf67aa","lat":46.643467,"state":"ND","long":-97.303703},"type":"Feature","geometry":{"type":"Point","coordinates":[-97.303703,46.643467]}},{"properties":{"tower site name":"Hawley Tower","id":"ahi9rrliqkvm","lat":46.791134,"state":"MN","long":-96.260948},"type":"Feature","geometry":{"type":"Point","coordinates":[-96.260948,46.791134]}},{"properties":{"tower site name":"Gary Tower","id":"ahi9rrq0px7q","lat":47.427952,"state":"MN","long":-96.142097},"type":"Feature","geometry":{"type":"Point","coordinates":[-96.142097,47.427952]}},{"properties":{"tower site name":"Buffalo Tower","id":"ahi9rrvjvmz7","lat":46.846031,"state":"ND","long":-97.566414},"type":"Feature","geometry":{"type":"Point","coordinates":[-97.566414,46.846031]}},{"properties":{"tower site name":"Kinzler Tower","id":"ahi9rrn8h2at","lat":46.154034,"state":"ND","long":-98.524185},"type":"Feature","geometry":{"type":"Point","coordinates":[-98.524185,46.154034]}},{"properties":{"tower site name":"Red Lake Falls Tower","id":"ahi9rrxehwdp","lat":47.853374,"state":"MN","long":-96.222153},"type":"Feature","geometry":{"type":"Point","coordinates":[-96.222153,47.853374]}},{"properties":{"tower site name":"Columbia Tower","id":"ahi9rruji1l5","lat":45.616852,"state":"SD","long":-98.397903},"type":"Feature","geometry":{"type":"Point","coordinates":[-98.397903,45.616852]}},{"properties":{"tower site name":"Mitzel Tower","id":"ahi9rs130qzp","lat":46.4277,"state":"ND","long":-98.76535},"type":"Feature","geometry":{"type":"Point","coordinates":[-98.76535,46.4277]}},{"properties":{"tower site name":"Wefel Tower","id":"ahi9rrprrit3","lat":46.227329,"state":"ND","long":-96.824249},"type":"Feature","geometry":{"type":"Point","coordinates":[-96.824249,46.227329]}},{"properties":{"tower site name":"Clifford Tower","id":"ahi9rrlygssg","lat":47.369568,"state":"ND","long":-97.38765},"type":"Feature","geometry":{"type":"Point","coordinates":[-97.38765,47.369568]}},{"properties":{"tower site name":"Maine Tower","id":"ahi9rrpl1cxo","lat":46.4077,"state":"MN","long":-95.863098},"type":"Feature","geometry":{"type":"Point","coordinates":[-95.863098,46.4077]}},{"properties":{"tower site name":"Hasbargen Tower","id":"ahi9rrtwhu6x","lat":45.949017,"state":"MN","long":-96.448433},"type":"Feature","geometry":{"type":"Point","coordinates":[-96.448433,45.949017]}},{"properties":{"tower site name":"Ada","id":"ahi9rrpdwfmf","lat":47.294918,"state":"MN","long":-96.459877},"type":"Feature","geometry":{"type":"Point","coordinates":[-96.459877,47.294918]}},{"properties":{"tower site name":"Greenview Tower","id":"ahi9rry9gzit","lat":47.672401,"state":"MN","long":-96.50338},"type":"Feature","geometry":{"type":"Point","coordinates":[-96.50338,47.672401]}},{"properties":{"tower site name":"Wyndmere Tower","id":"ahi9rryy7y2m","lat":46.320683,"state":"ND","long":-97.207603},"type":"Feature","geometry":{"type":"Point","coordinates":[-97.207603,46.320683]}},{"properties":{"tower site name":"Butler Tower","id":"ahi9rro1gyvz","lat":46.829151,"state":"ND","long":-96.837318},"type":"Feature","geometry":{"type":"Point","coordinates":[-96.837318,46.829151]}},{"properties":{"tower site name":"Grandin Tower","id":"ahi9rrtbflrd","lat":47.257133,"state":"ND","long":-96.987183},"type":"Feature","geometry":{"type":"Point","coordinates":[-96.987183,47.257133]}},{"properties":{"tower site name":"Erbes Tower","id":"ahi9rrpw5lhx","lat":46.373188,"state":"ND","long":-96.96431},"type":"Feature","geometry":{"type":"Point","coordinates":[-96.96431,46.373188]}},{"properties":{"tower site name":"Yaggie Tower","id":"ahi9rs0ykk7f","lat":46.441345,"state":"MN","long":-96.508232},"type":"Feature","geometry":{"type":"Point","coordinates":[-96.508232,46.441345]}},{"properties":{"tower site name":"Stratford Temp Tower","id":"ahi9rrxelhl4","lat":45.315781,"state":"SD","long":-98.305725},"type":"Feature","geometry":{"type":"Point","coordinates":[-98.305725,45.315781]}},{"properties":{"tower site name":"Oslo Tower","id":"ahi9rrtbl3d0","lat":48.193684,"state":"MN","long":-97.085068},"type":"Feature","geometry":{"type":"Point","coordinates":[-97.085068,48.193684]}},{"properties":{"tower site name":"Grand Forks Tower","id":"ahi9rrm5cv81","lat":47.976212,"state":"ND","long":-97.079857},"type":"Feature","geometry":{"type":"Point","coordinates":[-97.079857,47.976212]}},{"properties":{"tower site name":"Felton Tower","id":"ahi9rrzktxd1","lat":47.107933,"state":"MN","long":-96.5028},"type":"Feature","geometry":{"type":"Point","coordinates":[-96.5028,47.107933]}},{"properties":{"tower site name":"Anslem Tower","id":"ahi9rrwmrley","lat":46.527782,"state":"ND","long":-97.494637},"type":"Feature","geometry":{"type":"Point","coordinates":[-97.494637,46.527782]}},{"properties":{"tower site name":"Roseau Tower","id":"ahi9rrv327va","lat":48.845865,"state":"MN","long":-95.838831},"type":"Feature","geometry":{"type":"Point","coordinates":[-95.838831,48.845865]}},{"properties":{"tower site name":"Greenbush Tower","id":"ahi9rrxi0bc8","lat":48.742215,"state":"MN","long":-96.085248},"type":"Feature","geometry":{"type":"Point","coordinates":[-96.085248,48.742215]}},{"properties":{"tower site name":"Britton South Tower","id":"ahi9rrm98oxl","lat":45.717483,"state":"SD","long":-97.614355},"type":"Feature","geometry":{"type":"Point","coordinates":[-97.614355,45.717483]}},{"properties":{"tower site name":"Britton East Tower","id":"ahi9rrzhhb2t","lat":45.806555,"state":"SD","long":-97.576052},"type":"Feature","geometry":{"type":"Point","coordinates":[-97.576052,45.806555]}},{"properties":{"tower site name":"Edmunds Tower","id":"ahi9rs1duifg","lat":47.269793,"state":"ND","long":-98.895443},"type":"Feature","geometry":{"type":"Point","coordinates":[-98.895443,47.269793]}},{"properties":{"tower site name":"Pierre/ Snake Butte Tower","id":"ahi9rrncz07d","lat":44.425663,"state":"SD","long":-100.359209},"type":"Feature","geometry":{"type":"Point","coordinates":[-100.359209,44.425663]}},{"properties":{"tower site name":"Thief River Falls Tower","id":"ahi9rs16hjm9","lat":48.130834,"state":"MN","long":-96.196273},"type":"Feature","geometry":{"type":"Point","coordinates":[-96.196273,48.130834]}},{"properties":{"tower site name":"Middle River Tower","id":"ahi9rrzmpxyd","lat":48.432032,"state":"MN","long":-96.162308},"type":"Feature","geometry":{"type":"Point","coordinates":[-96.162308,48.432032]}},{"properties":{"tower site name":"Holt Tower","id":"ahi9rrvdual4","lat":48.241126,"state":"MN","long":-95.896535},"type":"Feature","geometry":{"type":"Point","coordinates":[-95.896535,48.241126]}},{"properties":{"tower site name":"Strandquist Tower","id":"ahi9rs1eh74s","lat":48.43437,"state":"MN","long":-96.497831},"type":"Feature","geometry":{"type":"Point","coordinates":[-96.497831,48.43437]}},{"properties":{"tower site name":"Lake Bronson Tower","id":"ahi9rrveh2rv","lat":48.717179,"state":"MN","long":-96.605298},"type":"Feature","geometry":{"type":"Point","coordinates":[-96.605298,48.717179]}},{"properties":{"tower site name":"Donaldson Tower","id":"ahi9rrv634qm","lat":48.543046,"state":"MN","long":-96.830129},"type":"Feature","geometry":{"type":"Point","coordinates":[-96.830129,48.543046]}},{"properties":{"tower site name":"Karlstad","id":"ahi9rrzx07lh","lat":48.587493,"state":"MN","long":-96.495098},"type":"Feature","geometry":{"type":"Point","coordinates":[-96.495098,48.587493]}},{"properties":{"tower site name":"Lake of The Woods Tower","id":"ahi9rrww55a0","lat":48.8635,"state":"MN","long":-94.972717},"type":"Feature","geometry":{"type":"Point","coordinates":[-94.972717,48.8635]}},{"properties":{"tower site name":"Ashton Tower","id":"ahi9rs0g3fiw","lat":45.077929,"state":"SD","long":-98.451412},"type":"Feature","geometry":{"type":"Point","coordinates":[-98.451412,45.077929]}},{"properties":{"tower site name":"Turton Tower","id":"ahi9rrv58ed7","lat":45.032806,"state":"SD","long":-98.10423},"type":"Feature","geometry":{"type":"Point","coordinates":[-98.10423,45.032806]}}],"is_temporal":false,"author":{"url":"","metadata":null,"contact_name":null,"contact_address":null,"source":null,"contact_phone":null},"source":"","pagination":{"sort":null,"start":0,"total":120,"limit":1000000},"state":"complete","tags":"","published":"2014-08-16T23:01:34-04:00","id":398215}