{"type":"FeatureCollection","data_type":"Dataset","url_type":null,"permissions":[{"permissions":{"download":true,"view":true},"group_id":"everyone"}],"classification":null,"title":"usa_only_study_hospitals_for_map_BLIND_var_intst","count":117,"stream_id":398751,"contributor":{"url":"http://geocommons.com/users/78068","name":"gtls23@yahoo.com"},"data_attributes":null,"calculation_params":null,"icon_link":null,"link":"http://geocommons.com/overlays/398751.json","extent":[-157.855,21.3078,-68.75,47.653],"geometry_types":["point"],"unique_name":null,"name":"usa_only_study_hospitals_for_map_BLIND_var_intst","feature_count":117,"description":"","next_feature":null,"is_raster":false,"short_classification":"Y","stats":{"otheraffinst":{"max":1,"variance":0.242949371389739,"mean":0.403669724770642,"stdev":0.492898946427905,"min":0,"median":0},"bed":{"max":2247,"variance":116932.963896257,"mean":468.136752136752,"stdev":341.954622568927,"min":17,"median":371},"assets":{"max":2624104291,"variance":2.68048990321952e+17,"mean":309153525.411765,"stdev":517734478.591055,"min":-154346288,"median":139793242},"sponprograms":{"max":97,"variance":639.130062305295,"mean":11.0277777777778,"stdev":25.2810217812749,"min":0,"median":0},"affil programs":{"max":121,"variance":510.509853890587,"mean":12.5412844036697,"stdev":22.5944651162754,"min":0,"median":4},"univimpact":{"max":1,"variance":0.250959132610509,"mean":0.536363636363636,"stdev":0.500958214435604,"min":0,"median":1},"conferences":{"max":2970382,"variance":348233393524.568,"mean":285614.364705882,"stdev":590113.034532002,"min":0,"median":30696},"residents2012":{"max":864,"variance":55879.4425506905,"mean":196.819277108434,"stdev":236.388329979909,"min":0,"median":69},"gross receipt":{"max":3683523485,"variance":5.92744008840786e+17,"mean":571962067.8,"stdev":769898700.376086,"min":0,"median":312620708},"authors":{"max":16146,"variance":3262893.7768936,"mean":610.401709401709,"stdev":1806.34818816683,"min":0,"median":55},"info tech":{"max":60235510,"variance":97136332000290.5,"mean":4655796.31764706,"stdev":9855776.58027466,"min":0,"median":526873},"urank numb":{"max":900,"variance":100864.836881559,"mean":281.741379310345,"stdev":317.592249404105,"min":1,"median":151},"allpub":{"max":78770,"variance":68500876.9895373,"mean":2233.26495726496,"stdev":8276.52565932936,"min":0,"median":81},"revenue":{"max":2658119211,"variance":3.55912780226642e+17,"mean":479762197.258824,"stdev":596584260.793597,"min":-33742,"median":310877300}},"features":[{"properties":{"city":"Cambridge","bed":213,"otheraffinst":1,"zip":"2238","assets":206302903,"affil programs":6,"sponprograms":3,"geo_score":0.585,"conferences":1541796,"univimpact":1,"gross receipt":319684597,"residents2012":67,"info tech":6691505,"authors":211,"id":"ahk8gf70fhs8","urank numb":1,"address":"330 Mount Auburn Street","geo_precision":"zip","revenue":316188227,"allpub":657,"state":"MA"},"type":"Feature","geometry":{"type":"Point","coordinates":[-71.459405,42.446396]}},{"properties":{"city":"Boston","bed":627,"otheraffinst":1,"zip":"2108","assets":616715731,"affil programs":32,"sponprograms":43,"geo_score":1.0,"conferences":694407,"univimpact":1,"gross receipt":1661691146,"residents2012":504,"info tech":0,"authors":4887,"id":"ahk8gf7rnt8n","urank numb":1,"address":"294 Washington Street","geo_precision":"range","revenue":1386716580,"allpub":25212,"state":"MA"},"type":"Feature","geometry":{"type":"Point","coordinates":[-71.058362,42.357288]}},{"properties":{"city":"Boston","bed":957,"otheraffinst":1,"zip":"2114","assets":2624104291,"affil programs":40,"sponprograms":59,"geo_score":1.0,"conferences":161552,"univimpact":0,"gross receipt":253018726,"residents2012":599,"info tech":1528217,"authors":16146,"id":"ahk8gf2044dg","urank numb":4,"address":"55 Fruit Street","geo_precision":"range","revenue":156503047,"allpub":78770,"state":"MA"},"type":"Feature","geometry":{"type":"Point","coordinates":[-71.069803,42.362495]}},{"properties":{"city":"Winchester","bed":205,"otheraffinst":1,"zip":"1890","assets":169225077,"affil programs":4,"sponprograms":0,"geo_score":0.659,"conferences":297816,"univimpact":0,"gross receipt":278798157,"residents2012":2,"info tech":0,"authors":46,"id":"ahk8gf0t9owz","urank numb":4,"address":"41 Highland Avenue","geo_precision":"range","revenue":278316732,"allpub":64,"state":"MA"},"type":"Feature","geometry":{"type":"Point","coordinates":[-71.103325,42.773339]}},{"properties":{"city":"Stanford","bed":466,"otheraffinst":1,"zip":"94305","assets":1300835176,"affil programs":6,"sponprograms":94,"geo_score":0.805,"conferences":741091,"univimpact":1,"gross receipt":2510897420,"residents2012":443,"info tech":60235510,"authors":3571,"id":"ahk8gezypfxg","urank numb":3,"address":"300 Pasteur Drive","geo_precision":"range","revenue":2510897420,"allpub":13046,"state":"CA"},"type":"Feature","geometry":{"type":"Point","coordinates":[-122.1781,37.43407]}},{"properties":{"city":"San Mateo","bed":509,"otheraffinst":0,"zip":"94403-4364","assets":2944755,"affil programs":2,"sponprograms":0,"geo_score":0.614,"conferences":1744,"univimpact":1,"gross receipt":782686,"residents2012":3,"info tech":4587,"authors":6,"id":"ahk8gf44yo1l","urank numb":3,"address":"222 W. 39th Avenue","geo_precision":"street","revenue":749141,"allpub":14,"state":"CA"},"type":"Feature","geometry":{"type":"Point","coordinates":[-122.292613,37.532907]}},{"properties":{"city":"Princeton","bed":320,"otheraffinst":1,"zip":"8540","assets":292070706,"affil programs":5,"sponprograms":0,"geo_score":0.902,"conferences":0,"univimpact":0,"gross receipt":357469829,"residents2012":39,"info tech":4512958,"authors":68,"id":"ahk8gf1910w6","urank numb":7,"address":"253 Witherspoon Street","geo_precision":"street","revenue":356143563,"allpub":113,"state":"NJ"},"type":"Feature","geometry":{"type":"Point","coordinates":[-74.663061,40.357337]}},{"properties":{"city":"Trenton","bed":204,"otheraffinst":1,"zip":"8638","assets":327785903,"affil programs":2,"sponprograms":1,"geo_score":1.0,"conferences":391389,"univimpact":0,"gross receipt":511021580,"residents2012":43,"info tech":1110898,"authors":6,"id":"ahk8geyhm3t7","urank numb":7,"address":"750 Brunswick Avenue","geo_precision":"range","revenue":509101931,"allpub":15,"state":"NJ"},"type":"Feature","geometry":{"type":"Point","coordinates":[-74.752385,40.236573]}},{"properties":{"city":"New York","bed":868,"otheraffinst":0,"zip":"10025-1716","assets":-21978430,"affil programs":11,"sponprograms":29,"geo_score":1.0,"conferences":814348,"univimpact":1,"gross receipt":1216857602,"residents2012":406,"info tech":4729757,"authors":1931,"id":"ahk8gf07bw2z","urank numb":8,"address":"1111 Amsterdam Avenue","geo_precision":"range","revenue":1216817315,"allpub":5697,"state":"NY"},"type":"Feature","geometry":{"type":"Point","coordinates":[-73.961676,40.805751]}},{"properties":{"city":"New York","bed":286,"otheraffinst":1,"zip":"10037","assets":null,"affil programs":3,"sponprograms":10,"geo_score":0.585,"conferences":null,"univimpact":1,"gross receipt":null,"residents2012":167,"info tech":null,"authors":388,"id":"ahk8gevy4oxd","urank numb":8,"address":"506 Lenox Avenue","geo_precision":"zip","revenue":null,"allpub":703,"state":"NY"},"type":"Feature","geometry":{"type":"Point","coordinates":[-73.938498,40.813884]}},{"properties":{"city":"Bronx","bed":784,"otheraffinst":1,"zip":"10456","assets":21899165,"affil programs":6,"sponprograms":13,"geo_score":0.806,"conferences":854000,"univimpact":0,"gross receipt":627468115,"residents2012":318,"info tech":9518000,"authors":628,"id":"ahk8gf9wg55z","urank numb":8,"address":"1650 Grand Concourse","geo_precision":"street","revenue":627468115,"allpub":944,"state":"NY"},"type":"Feature","geometry":{"type":"Point","coordinates":[-73.913755,40.838743]}},{"properties":{"city":"Chicago","bed":571,"otheraffinst":1,"zip":"60637","assets":1164974823,"affil programs":8,"sponprograms":79,"geo_score":0.602,"conferences":0,"univimpact":1,"gross receipt":1332942470,"residents2012":549,"info tech":8828978,"authors":1214,"id":"ahk8gf21issv","urank numb":9,"address":"5841 S. Maryland Avenue","geo_precision":"street","revenue":1328284997,"allpub":3293,"state":"IL"},"type":"Feature","geometry":{"type":"Point","coordinates":[-87.604984,41.79317]}},{"properties":{"city":"Chicago","bed":210,"otheraffinst":null,"zip":"60621","assets":14504037,"affil programs":0,"sponprograms":0,"geo_score":0.619,"conferences":390,"univimpact":0,"gross receipt":92686822,"residents2012":3,"info tech":304355,"authors":0,"id":"ahk8gf4cs1ga","urank numb":9,"address":"326 W. 64th Street","geo_precision":"street","revenue":92633049,"allpub":0,"state":"IL"},"type":"Feature","geometry":{"type":"Point","coordinates":[-87.630288,41.778159]}},{"properties":{"city":"New Haven","bed":959,"otheraffinst":0,"zip":"6504","assets":674612219,"affil programs":15,"sponprograms":82,"geo_score":1.0,"conferences":0,"univimpact":1,"gross receipt":2010103014,"residents2012":517,"info tech":0,"authors":636,"id":"ahk8gf3w0axb","urank numb":11,"address":"20 York Street","geo_precision":"range","revenue":1517592283,"allpub":1643,"state":"CT"},"type":"Feature","geometry":{"type":"Point","coordinates":[-72.934843,41.303954]}},{"properties":{"city":"New Haven","bed":529,"otheraffinst":1,"zip":"6511","assets":-46504271,"affil programs":1,"sponprograms":0,"geo_score":1.0,"conferences":604722,"univimpact":0,"gross receipt":507729136,"residents2012":127,"info tech":5490464,"authors":391,"id":"ahk8gf6x1ad3","urank numb":11,"address":"1450 Chapel Street","geo_precision":"range","revenue":505923810,"allpub":740,"state":"CT"},"type":"Feature","geometry":{"type":"Point","coordinates":[-72.943597,41.310965]}},{"properties":{"city":"Derby","bed":119,"otheraffinst":0,"zip":"6418","assets":-34662632,"affil programs":1,"sponprograms":3,"geo_score":0.811,"conferences":0,"univimpact":0,"gross receipt":130897070,"residents2012":29,"info tech":991867,"authors":84,"id":"ahk8gf447dhy","urank numb":11,"address":"130 Division Street","geo_precision":"street","revenue":130897070,"allpub":154,"state":"CT"},"type":"Feature","geometry":{"type":"Point","coordinates":[-73.085071,41.333399]}},{"properties":{"city":"Ithaca","bed":182,"otheraffinst":1,"zip":"14850","assets":174274449,"affil programs":null,"sponprograms":null,"geo_score":1.0,"conferences":0,"univimpact":1,"gross receipt":254807522,"residents2012":null,"info tech":1222948,"authors":12,"id":"ahk8gexkpl6z","urank numb":12,"address":"101 Dates Drive","geo_precision":"range","revenue":136963227,"allpub":19,"state":"NY"},"type":"Feature","geometry":{"type":"Point","coordinates":[-76.532428,42.47368]}},{"properties":{"city":"Philadelphia","bed":752,"otheraffinst":1,"zip":"19104-4283","assets":383615966,"affil programs":29,"sponprograms":75,"geo_score":1.0,"conferences":0,"univimpact":1,"gross receipt":521675619,"residents2012":679,"info tech":333733,"authors":5451,"id":"ahk8gexc6sn9","urank numb":15,"address":"3400 Spruce Street","geo_precision":"range","revenue":521623936,"allpub":20924,"state":"PA"},"type":"Feature","geometry":{"type":"Point","coordinates":[-75.195321,39.950781]}},{"properties":{"city":"Philadelphia","bed":820,"otheraffinst":1,"zip":"19152","assets":376459000,"affil programs":9,"sponprograms":21,"geo_score":1.0,"conferences":206502,"univimpact":0,"gross receipt":744747894,"residents2012":355,"info tech":526873,"authors":1218,"id":"ahk8gf5qd4lm","urank numb":15,"address":"8556 Bustleton Avenue","geo_precision":"range","revenue":744499064,"allpub":2611,"state":"PA"},"type":"Feature","geometry":{"type":"Point","coordinates":[-75.047156,40.073696]}},{"properties":{"city":"Seattle","bed":363,"otheraffinst":0,"zip":"98195","assets":null,"affil programs":119,"sponprograms":0,"geo_score":0.604,"conferences":null,"univimpact":1,"gross receipt":null,"residents2012":303,"info tech":null,"authors":929,"id":"ahk8gf0xj7xe","urank numb":16,"address":"1959 N.E. Pacific","geo_precision":"street","revenue":null,"allpub":4046,"state":"WA"},"type":"Feature","geometry":{"type":"Point","coordinates":[-122.312465,47.652983]}},{"properties":{"city":"Seattle","bed":292,"otheraffinst":0,"zip":"98101","assets":307457872,"affil programs":12,"sponprograms":7,"geo_score":0.916,"conferences":498448,"univimpact":1,"gross receipt":941203590,"residents2012":102,"info tech":24072618,"authors":921,"id":"ahk8gf0b44nm","urank numb":16,"address":"1100 9th Avenue","geo_precision":"range","revenue":848551729,"allpub":2873,"state":"WA"},"type":"Feature","geometry":{"type":"Point","coordinates":[-122.328667,47.609834]}},{"properties":{"city":"Madison","bed":302,"otheraffinst":0,"zip":"53715","assets":296743683,"affil programs":26,"sponprograms":0,"geo_score":0.619,"conferences":0,"univimpact":1,"gross receipt":525868083,"residents2012":45,"info tech":0,"authors":86,"id":"ahk8gexsvm53","urank numb":17,"address":"202 S. Park Street","geo_precision":"street","revenue":371069192,"allpub":169,"state":"WI"},"type":"Feature","geometry":{"type":"Point","coordinates":[-89.400953,43.06822]}},{"properties":{"city":"Madison","bed":361,"otheraffinst":0,"zip":"53715","assets":null,"affil programs":10,"sponprograms":0,"geo_score":1.0,"conferences":null,"univimpact":1,"gross receipt":null,"residents2012":44,"info tech":null,"authors":103,"id":"ahk8gf7dtttp","urank numb":17,"address":"700 South Park Street","geo_precision":"range","revenue":null,"allpub":118,"state":"WI"},"type":"Feature","geometry":{"type":"Point","coordinates":[-89.400674,43.059303]}},{"properties":{"city":"Baltimore","bed":957,"otheraffinst":1,"zip":"21287","assets":1209918378,"affil programs":121,"sponprograms":0,"geo_score":0.614,"conferences":975965,"univimpact":1,"gross receipt":3093748685,"residents2012":841,"info tech":0,"authors":4121,"id":"ahk8gewpjarh","urank numb":18,"address":"600 N. Wolfe Street","geo_precision":"street","revenue":1826726232,"allpub":16664,"state":"MD"},"type":"Feature","geometry":{"type":"Point","coordinates":[-76.590618,39.294087]}},{"properties":{"city":"Baltimore","bed":231,"otheraffinst":1,"zip":"21218","assets":139793242,"affil programs":15,"sponprograms":7,"geo_score":0.604,"conferences":0,"univimpact":1,"gross receipt":428030380,"residents2012":82,"info tech":64691,"authors":431,"id":"ahk8getjeg1w","urank numb":18,"address":"201 E. University Parkway","geo_precision":"street","revenue":428030380,"allpub":1073,"state":"MD"},"type":"Feature","geometry":{"type":"Point","coordinates":[-76.61281,39.329429]}},{"properties":{"city":"New York","bed":1221,"otheraffinst":1,"zip":"10029","assets":0,"affil programs":115,"sponprograms":0,"geo_score":0.916,"conferences":0,"univimpact":1,"gross receipt":31502376,"residents2012":733,"info tech":0,"authors":3432,"id":"ahk8gf5vn9q3","urank numb":31,"address":"1190 5th Avenue","geo_precision":"range","revenue":31502376,"allpub":9834,"state":"NY"},"type":"Feature","geometry":{"type":"Point","coordinates":[-73.954492,40.789228]}},{"properties":{"city":"New York","bed":132,"otheraffinst":1,"zip":"10038","assets":49359991,"affil programs":3,"sponprograms":1,"geo_score":1.0,"conferences":235013,"univimpact":0,"gross receipt":217204650,"residents2012":78,"info tech":2599889,"authors":134,"id":"ahk8gf6mwqga","urank numb":31,"address":"170 William Street","geo_precision":"range","revenue":201032513,"allpub":183,"state":"NY"},"type":"Feature","geometry":{"type":"Point","coordinates":[-74.005093,40.710755]}},{"properties":{"city":"Los Angeles","bed":466,"otheraffinst":1,"zip":"90095-8358","assets":4196481,"affil programs":52,"sponprograms":0,"geo_score":1.0,"conferences":255945,"univimpact":1,"gross receipt":16221140,"residents2012":649,"info tech":0,"authors":1480,"id":"ahk8gf3km34a","urank numb":13,"address":"757 Westwood Plaza","geo_precision":"range","revenue":12611577,"allpub":6810,"state":"CA"},"type":"Feature","geometry":{"type":"Point","coordinates":[-118.444988,34.071265]}},{"properties":{"city":"Los Angeles","bed":947,"otheraffinst":1,"zip":"90048","assets":1976756055,"affil programs":27,"sponprograms":43,"geo_score":0.878,"conferences":2970382,"univimpact":1,"gross receipt":2783444852,"residents2012":281,"info tech":48334536,"authors":3907,"id":"ahk8gf4wqd7b","urank numb":13,"address":"8700 Beverly Boulevard","geo_precision":"range","revenue":2658119211,"allpub":12503,"state":"CA"},"type":"Feature","geometry":{"type":"Point","coordinates":[-118.380921,34.076921]}},{"properties":{"city":"Durham","bed":819,"otheraffinst":0,"zip":"27710-4699","assets":2046250326,"affil programs":0,"sponprograms":83,"geo_score":0.805,"conferences":2892090,"univimpact":1,"gross receipt":2609423531,"residents2012":613,"info tech":26824839,"authors":465,"id":"ahk8gf46mpxp","urank numb":35,"address":"2301 Erwin Road","geo_precision":"range","revenue":2368562555,"allpub":920,"state":"NC"},"type":"Feature","geometry":{"type":"Point","coordinates":[-78.942641,36.008818]}},{"properties":{"city":"Durham","bed":322,"otheraffinst":0,"zip":"27704","assets":2046250326,"affil programs":18,"sponprograms":0,"geo_score":0.857,"conferences":2892090,"univimpact":1,"gross receipt":2609423531,"residents2012":31,"info tech":26824839,"authors":465,"id":"ahk8geww2u9z","urank numb":35,"address":"3643 N. Roxboro Road","geo_precision":"zip","revenue":2368562555,"allpub":920,"state":"NC"},"type":"Feature","geometry":{"type":"Point","coordinates":[-78.82334,36.036534]}},{"properties":{"city":"Evanston","bed":676,"otheraffinst":1,"zip":"60201","assets":1368679587,"affil programs":42,"sponprograms":0,"geo_score":1.0,"conferences":979333,"univimpact":0,"gross receipt":1712398615,"residents2012":178,"info tech":1600779,"authors":414,"id":"ahk8gf8nlnvm","urank numb":29,"address":"2650 Ridge Avenue","geo_precision":"range","revenue":1213602177,"allpub":1487,"state":"IL"},"type":"Feature","geometry":{"type":"Point","coordinates":[-87.683174,42.06577]}},{"properties":{"city":"Chicago","bed":236,"otheraffinst":1,"zip":"60640","assets":null,"affil programs":6,"sponprograms":2,"geo_score":0.61,"conferences":null,"univimpact":1,"gross receipt":null,"residents2012":69,"info tech":null,"authors":66,"id":"ahk8gf6zyhjr","urank numb":29,"address":"4646 N. Marine Drive","geo_precision":"street","revenue":null,"allpub":115,"state":"IL"},"type":"Feature","geometry":{"type":"Point","coordinates":[-87.649132,41.967366]}},{"properties":{"city":"Aurora","bed":403,"otheraffinst":1,"zip":"80045","assets":null,"affil programs":1,"sponprograms":4,"geo_score":0.339,"conferences":null,"univimpact":0,"gross receipt":null,"residents2012":71,"info tech":null,"authors":1060,"id":"ahk8gf3ahs2q","urank numb":32,"address":"12605 E. 16th Avenue","geo_precision":"street","revenue":null,"allpub":3432,"state":"CO"},"type":"Feature","geometry":{"type":"Point","coordinates":[-104.788592,39.741001]}},{"properties":{"city":"Boulder","bed":507,"otheraffinst":1,"zip":"80301-9019","assets":null,"affil programs":8,"sponprograms":0,"geo_score":0.902,"conferences":null,"univimpact":0,"gross receipt":null,"residents2012":5,"info tech":null,"authors":7,"id":"ahk8getjyz3m","urank numb":32,"address":"1100 Balsam Avenue","geo_precision":"street","revenue":null,"allpub":11,"state":"CO"},"type":"Feature","geometry":{"type":"Point","coordinates":[-105.283416,40.026723]}},{"properties":{"city":"Ann Arbor","bed":893,"otheraffinst":1,"zip":"48109","assets":null,"affil programs":7,"sponprograms":97,"geo_score":0.594,"conferences":null,"univimpact":1,"gross receipt":null,"residents2012":864,"info tech":null,"authors":4251,"id":"ahk8gf7dby4g","urank numb":22,"address":"1500 E. Medical Center Drive","geo_precision":"street","revenue":null,"allpub":15468,"state":"MI"},"type":"Feature","geometry":{"type":"Point","coordinates":[-83.729871,42.281411]}},{"properties":{"city":"Ann Arbor","bed":198,"otheraffinst":0,"zip":"48109","assets":251093512,"affil programs":3,"sponprograms":0,"geo_score":0.594,"conferences":6498,"univimpact":1,"gross receipt":101235386,"residents2012":null,"info tech":0,"authors":307,"id":"ahk8gf0iascx","urank numb":22,"address":"1500 E. Medical Center Drive","geo_precision":"street","revenue":15672061,"allpub":1000,"state":"MI"},"type":"Feature","geometry":{"type":"Point","coordinates":[-83.729871,42.281411]}},{"properties":{"city":"Pasadena","bed":558,"otheraffinst":1,"zip":"91105","assets":466505,"affil programs":5,"sponprograms":2,"geo_score":0.597,"conferences":0,"univimpact":0,"gross receipt":447664,"residents2012":38,"info tech":0,"authors":274,"id":"ahk8geviu9c3","urank numb":6,"address":"100 W. California Boulevard","geo_precision":"street","revenue":-33742,"allpub":504,"state":"CA"},"type":"Feature","geometry":{"type":"Point","coordinates":[-118.150378,34.135771]}},{"properties":{"city":"Monterey Park","bed":210,"otheraffinst":null,"zip":"91754","assets":77507,"affil programs":null,"sponprograms":null,"geo_score":0.602,"conferences":7735,"univimpact":null,"gross receipt":1107427,"residents2012":null,"info tech":0,"authors":2,"id":"ahk8gf4916ma","urank numb":6,"address":"525 N. Garfield Avenue","geo_precision":"street","revenue":1107427,"allpub":5,"state":"CA"},"type":"Feature","geometry":{"type":"Point","coordinates":[-118.122813,34.06255]}},{"properties":{"city":"Oakland","bed":190,"otheraffinst":null,"zip":"94609","assets":104073053,"affil programs":null,"sponprograms":null,"geo_score":0.916,"conferences":174113,"univimpact":null,"gross receipt":491757841,"residents2012":null,"info tech":4398653,"authors":110,"id":"ahk8gev09jl6","urank numb":2,"address":"747 52nd Street","geo_precision":"range","revenue":490042047,"allpub":212,"state":"CA"},"type":"Feature","geometry":{"type":"Point","coordinates":[-122.266966,37.837377]}},{"properties":{"city":"Lincoln","bed":260,"otheraffinst":1,"zip":"68510-2462","assets":389455405,"affil programs":2,"sponprograms":0,"geo_score":0.619,"conferences":80159,"univimpact":0,"gross receipt":281460940,"residents2012":3,"info tech":0,"authors":66,"id":"ahk8gf10tbk3","urank numb":151,"address":"555 S. 70th Street","geo_precision":"street","revenue":280393829,"allpub":70,"state":"NE"},"type":"Feature","geometry":{"type":"Point","coordinates":[-96.625147,40.813272]}},{"properties":{"city":"Lincoln","bed":530,"otheraffinst":0,"zip":"68506","assets":1996782,"affil programs":1,"sponprograms":0,"geo_score":0.619,"conferences":115337,"univimpact":0,"gross receipt":505547,"residents2012":20,"info tech":2643242,"authors":71,"id":"ahk8gf06vyfh","urank numb":151,"address":"1600 S. 48th Street","geo_precision":"street","revenue":488715,"allpub":108,"state":"NE"},"type":"Feature","geometry":{"type":"Point","coordinates":[-96.653675,40.797894]}},{"properties":{"city":"Newark","bed":913,"otheraffinst":1,"zip":"19718","assets":36420361,"affil programs":14,"sponprograms":11,"geo_score":0.613,"conferences":800,"univimpact":0,"gross receipt":4883911,"residents2012":257,"info tech":46773,"authors":94,"id":"ahk8gf1gzau6","urank numb":151,"address":"4755 Ogletown-Stanton Road","geo_precision":"street","revenue":3903706,"allpub":201,"state":"DE"},"type":"Feature","geometry":{"type":"Point","coordinates":[-75.654797,39.699936]}},{"properties":{"city":"Wilmington","bed":214,"otheraffinst":1,"zip":"19805","assets":-34662889,"affil programs":1,"sponprograms":1,"geo_score":0.614,"conferences":27100,"univimpact":0,"gross receipt":135771416,"residents2012":34,"info tech":2266900,"authors":0,"id":"ahk8gf0l6q79","urank numb":151,"address":"7513 N. Clayton Street","geo_precision":"street","revenue":135171764,"allpub":0,"state":"DE"},"type":"Feature","geometry":{"type":"Point","coordinates":[-75.575531,39.736802]}},{"properties":{"city":"Birmingham","bed":1052,"otheraffinst":0,"zip":"35249","assets":null,"affil programs":4,"sponprograms":83,"geo_score":0.357,"conferences":null,"univimpact":1,"gross receipt":null,"residents2012":537,"info tech":null,"authors":85,"id":"ahk8gf2rift2","urank numb":151,"address":"1802 6th Avenue, S.","geo_precision":"street","revenue":null,"allpub":128,"state":"AL"},"type":"Feature","geometry":{"type":"Point","coordinates":[-86.751066,33.613416]}},{"properties":{"city":"Birmingham","bed":402,"otheraffinst":0,"zip":"35205","assets":266293027,"affil programs":5,"sponprograms":0,"geo_score":0.857,"conferences":30696,"univimpact":1,"gross receipt":370538966,"residents2012":1,"info tech":14655651,"authors":0,"id":"ahk8gf85rxxw","urank numb":151,"address":"810 St. Vincent's Drive","geo_precision":"zip","revenue":369596408,"allpub":0,"state":"AL"},"type":"Feature","geometry":{"type":"Point","coordinates":[-86.782584,33.569398]}},{"properties":{"city":"Ames","bed":193,"otheraffinst":0,"zip":"50010-5792","assets":203936,"affil programs":1,"sponprograms":0,"geo_score":1.0,"conferences":1305,"univimpact":0,"gross receipt":358338,"residents2012":0,"info tech":0,"authors":14,"id":"ahk8gev8xsm5","urank numb":151,"address":"1111 Duff Avenue","geo_precision":"range","revenue":205263,"allpub":24,"state":"IA"},"type":"Feature","geometry":{"type":"Point","coordinates":[-93.610697,42.033083]}},{"properties":{"city":"Nevada","bed":17,"otheraffinst":0,"zip":"50201-2902","assets":null,"affil programs":0,"sponprograms":0,"geo_score":0.633,"conferences":null,"univimpact":0,"gross receipt":null,"residents2012":0,"info tech":null,"authors":0,"id":"ahk8gewkb7e1","urank numb":151,"address":"640 S. 19th Street","geo_precision":"street","revenue":null,"allpub":0,"state":"IA"},"type":"Feature","geometry":{"type":"Point","coordinates":[-93.434905,42.012125]}},{"properties":{"city":"Lebanon","bed":371,"otheraffinst":1,"zip":"3756","assets":3345342,"affil programs":1,"sponprograms":45,"geo_score":0.456,"conferences":27623,"univimpact":1,"gross receipt":6281889,"residents2012":316,"info tech":57905,"authors":2509,"id":"ahk8gf50vvxz","urank numb":151,"address":"1 Medical Center Drive","geo_precision":"street","revenue":6264652,"allpub":6746,"state":"NH"},"type":"Feature","geometry":{"type":"Point","coordinates":[-72.344501,43.475539]}},{"properties":{"city":"Baton Rouge","bed":404,"otheraffinst":1,"zip":"70806-3842","assets":57180401,"affil programs":7,"sponprograms":3,"geo_score":1.0,"conferences":0,"univimpact":1,"gross receipt":312620708,"residents2012":52,"info tech":391391,"authors":73,"id":"ahk8gevaix3o","urank numb":151,"address":"3600 Florida Boulevard","geo_precision":"range","revenue":310877300,"allpub":66,"state":"LA"},"type":"Feature","geometry":{"type":"Point","coordinates":[-91.152419,30.450388]}},{"properties":{"city":"Baton Rouge","bed":1045,"otheraffinst":1,"zip":"70808","assets":777095111,"affil programs":12,"sponprograms":1,"geo_score":0.902,"conferences":107846,"univimpact":1,"gross receipt":901197586,"residents2012":41,"info tech":0,"authors":54,"id":"ahk8gexlfhzt","urank numb":151,"address":"5000 Hennessy Boulevard","geo_precision":"range","revenue":826528466,"allpub":79,"state":"LA"},"type":"Feature","geometry":{"type":"Point","coordinates":[-91.109551,30.40362]}},{"properties":{"city":"Albany","bed":79,"otheraffinst":0,"zip":"97321","assets":72813030,"affil programs":0,"sponprograms":0,"geo_score":0.614,"conferences":220961,"univimpact":0,"gross receipt":119124334,"residents2012":null,"info tech":3281884,"authors":0,"id":"ahk8gf84s1j1","urank numb":101,"address":"1046 6th Avenue, S.W.","geo_precision":"street","revenue":118677305,"allpub":0,"state":"OR"},"type":"Feature","geometry":{"type":"Point","coordinates":[-123.105325,44.633355]}},{"properties":{"city":"Honolulu","bed":495,"otheraffinst":0,"zip":"96813","assets":387469789,"affil programs":20,"sponprograms":0,"geo_score":1.0,"conferences":7883,"univimpact":1,"gross receipt":702295412,"residents2012":98,"info tech":501439,"authors":1,"id":"ahk8gezx4m13","urank numb":101,"address":"1301 Punchbowl Street","geo_precision":"range","revenue":702071397,"allpub":5,"state":"HI"},"type":"Feature","geometry":{"type":"Point","coordinates":[-157.855049,21.307762]}},{"properties":{"city":"Honolulu","bed":106,"otheraffinst":0,"zip":"96817","assets":208531,"affil programs":7,"sponprograms":0,"geo_score":0.607,"conferences":0,"univimpact":1,"gross receipt":1672905,"residents2012":23,"info tech":0,"authors":7,"id":"ahk8gezttd6p","urank numb":101,"address":"347 N. Kuakini Street","geo_precision":"street","revenue":1670638,"allpub":23,"state":"HI"},"type":"Feature","geometry":{"type":"Point","coordinates":[-157.853359,21.319195]}},{"properties":{"city":"Iowa City","bed":234,"otheraffinst":0,"zip":"52245","assets":147306472,"affil programs":0,"sponprograms":0,"geo_score":0.61,"conferences":0,"univimpact":0,"gross receipt":186763232,"residents2012":null,"info tech":2981635,"authors":17,"id":"ahk8getmpbio","urank numb":101,"address":"500 E. Market Street","geo_precision":"street","revenue":149684523,"allpub":35,"state":"IA"},"type":"Feature","geometry":{"type":"Point","coordinates":[-91.533059,41.663573]}},{"properties":{"city":"Iowa City","bed":699,"otheraffinst":0,"zip":"52242","assets":null,"affil programs":0,"sponprograms":73,"geo_score":1.0,"conferences":null,"univimpact":1,"gross receipt":null,"residents2012":522,"info tech":null,"authors":3298,"id":"ahk8gev7fhnv","urank numb":101,"address":"200 Hawkins Drive","geo_precision":"range","revenue":null,"allpub":10621,"state":"IA"},"type":"Feature","geometry":{"type":"Point","coordinates":[-91.54985,41.657227]}},{"properties":{"city":"Knoxville","bed":402,"otheraffinst":0,"zip":"37916-2307","assets":112192631,"affil programs":1,"sponprograms":null,"geo_score":0.607,"conferences":288536,"univimpact":1,"gross receipt":317102716,"residents2012":null,"info tech":0,"authors":24,"id":"ahk8gf8asaty","urank numb":151,"address":"1901 Clinch Avenue, S.W.","geo_precision":"street","revenue":313158970,"allpub":33,"state":"TN"},"type":"Feature","geometry":{"type":"Point","coordinates":[-83.91624,35.964878]}},{"properties":{"city":"Knoxville","bed":507,"otheraffinst":0,"zip":"37920","assets":106476317,"affil programs":6,"sponprograms":0,"geo_score":1.0,"conferences":344378,"univimpact":1,"gross receipt":805852269,"residents2012":168,"info tech":0,"authors":340,"id":"ahk8gexknp8y","urank numb":151,"address":"1924 Alcoa Highway","geo_precision":"range","revenue":556698362,"allpub":755,"state":"TN"},"type":"Feature","geometry":{"type":"Point","coordinates":[-83.953591,35.926193]}},{"properties":{"city":"South Bend","bed":325,"otheraffinst":0,"zip":"46601","assets":418130403,"affil programs":2,"sponprograms":2,"geo_score":0.604,"conferences":211634,"univimpact":1,"gross receipt":419825198,"residents2012":23,"info tech":24426,"authors":76,"id":"ahk8gf57cab1","urank numb":201,"address":"615 N. Michigan Street","geo_precision":"street","revenue":395009854,"allpub":106,"state":"IN"},"type":"Feature","geometry":{"type":"Point","coordinates":[-86.250329,41.675032]}},{"properties":{"city":"Richmond","bed":730,"otheraffinst":1,"zip":"23298","assets":null,"affil programs":0,"sponprograms":69,"geo_score":0.319,"conferences":null,"univimpact":0,"gross receipt":null,"residents2012":475,"info tech":null,"authors":29,"id":"ahk8gezl4k7g","urank numb":151,"address":"1250 E. Marshall Street","geo_precision":"street","revenue":null,"allpub":172,"state":"VA"},"type":"Feature","geometry":{"type":"Point","coordinates":[-77.438431,37.544882]}},{"properties":{"city":"Richmond","bed":762,"otheraffinst":0,"zip":"23225","assets":null,"affil programs":2,"sponprograms":0,"geo_score":1.0,"conferences":null,"univimpact":1,"gross receipt":null,"residents2012":8,"info tech":null,"authors":13,"id":"ahk8gf7gc0dn","urank numb":151,"address":"7101 Jahnke Road","geo_precision":"range","revenue":null,"allpub":18,"state":"VA"},"type":"Feature","geometry":{"type":"Point","coordinates":[-77.526288,37.516055]}},{"properties":{"city":"Orlando","bed":2247,"otheraffinst":0,"zip":"32822","assets":null,"affil programs":1,"sponprograms":0,"geo_score":1.0,"conferences":null,"univimpact":0,"gross receipt":null,"residents2012":109,"info tech":null,"authors":496,"id":"ahk8gf8tocqt","urank numb":201,"address":"7727 Lake Underhill Road","geo_precision":"range","revenue":null,"allpub":765,"state":"FL"},"type":"Feature","geometry":{"type":"Point","coordinates":[-81.281705,28.539217]}},{"properties":{"city":"Miami","bed":1724,"otheraffinst":1,"zip":"33136-1005","assets":null,"affil programs":9,"sponprograms":80,"geo_score":0.614,"conferences":null,"univimpact":1,"gross receipt":null,"residents2012":601,"info tech":null,"authors":632,"id":"ahk8gf627mjp","urank numb":101,"address":"1611 N.W. 12th Avenue","geo_precision":"street","revenue":null,"allpub":1101,"state":"FL"},"type":"Feature","geometry":{"type":"Point","coordinates":[-80.197156,25.785963]}},{"properties":{"city":"Gainesville","bed":870,"otheraffinst":1,"zip":"32610","assets":196464940,"affil programs":67,"sponprograms":0,"geo_score":0.571,"conferences":134574,"univimpact":1,"gross receipt":525330557,"residents2012":532,"info tech":7305400,"authors":347,"id":"ahk8gezt2uh4","urank numb":201,"address":"1600 S.W. Archer Road","geo_precision":"street","revenue":523524831,"allpub":149,"state":"FL"},"type":"Feature","geometry":{"type":"Point","coordinates":[-82.341847,29.639702]}},{"properties":{"city":"Gainesville","bed":349,"otheraffinst":0,"zip":"32605","assets":null,"affil programs":1,"sponprograms":0,"geo_score":0.663,"conferences":null,"univimpact":0,"gross receipt":null,"residents2012":null,"info tech":null,"authors":0,"id":"ahk8gf370n69","urank numb":201,"address":"6500 Newberry Road","geo_precision":"street","revenue":null,"allpub":0,"state":"FL"},"type":"Feature","geometry":{"type":"Point","coordinates":[-82.418787,29.659657]}},{"properties":{"city":"Lawrence","bed":152,"otheraffinst":0,"zip":"66044","assets":6129856,"affil programs":1,"sponprograms":0,"geo_score":1.0,"conferences":0,"univimpact":1,"gross receipt":4666387,"residents2012":null,"info tech":0,"authors":14,"id":"ahk8geu83yl8","urank numb":201,"address":"325 Maine Street","geo_precision":"range","revenue":2535118,"allpub":17,"state":"KS"},"type":"Feature","geometry":{"type":"Point","coordinates":[-95.247668,38.977407]}},{"properties":{"city":"Lexington","bed":224,"otheraffinst":0,"zip":"40508","assets":null,"affil programs":53,"sponprograms":0,"geo_score":0.602,"conferences":null,"univimpact":1,"gross receipt":null,"residents2012":null,"info tech":null,"authors":78,"id":"ahk8gevfglfx","urank numb":201,"address":"310 S. Limestone Street","geo_precision":"street","revenue":null,"allpub":275,"state":"KY"},"type":"Feature","geometry":{"type":"Point","coordinates":[-84.497979,38.045719]}},{"properties":{"city":"Lexington","bed":217,"otheraffinst":0,"zip":"40509","assets":393066988,"affil programs":0,"sponprograms":0,"geo_score":0.598,"conferences":101093,"univimpact":0,"gross receipt":777620731,"residents2012":null,"info tech":0,"authors":27,"id":"ahk8geu4fph1","urank numb":201,"address":"150 N. Eagle Creek Drive","geo_precision":"street","revenue":777611381,"allpub":39,"state":"KY"},"type":"Feature","geometry":{"type":"Point","coordinates":[-84.441362,37.999493]}},{"properties":{"city":"Albuquerque","bed":557,"otheraffinst":0,"zip":"87106","assets":null,"affil programs":39,"sponprograms":0,"geo_score":0.604,"conferences":null,"univimpact":1,"gross receipt":null,"residents2012":364,"info tech":null,"authors":235,"id":"ahk8gf27xkch","urank numb":201,"address":"2211 Lomas Boulevard, N.E.","geo_precision":"street","revenue":null,"allpub":454,"state":"NM"},"type":"Feature","geometry":{"type":"Point","coordinates":[-106.624053,35.089726]}},{"properties":{"city":"Albuquerque","bed":552,"otheraffinst":0,"zip":"87106","assets":19836426,"affil programs":6,"sponprograms":0,"geo_score":0.602,"conferences":0,"univimpact":1,"gross receipt":73667359,"residents2012":3,"info tech":1609710,"authors":48,"id":"ahk8gf2p9lxd","urank numb":201,"address":"1100 Central Avenue, S.E.","geo_precision":"street","revenue":73402178,"allpub":100,"state":"NM"},"type":"Feature","geometry":{"type":"Point","coordinates":[-106.636256,35.082647]}},{"properties":{"city":"Springfield","bed":383,"otheraffinst":0,"zip":"97477","assets":18673592,"affil programs":0,"sponprograms":0,"geo_score":0.565,"conferences":5957,"univimpact":0,"gross receipt":517534294,"residents2012":null,"info tech":4785464,"authors":36,"id":"ahk8gf296anh","urank numb":201,"address":"3333 Riverbend Drive","geo_precision":"street","revenue":467708462,"allpub":61,"state":"OR"},"type":"Feature","geometry":{"type":"Point","coordinates":[-123.378039,43.29602]}},{"properties":{"city":"Springfield","bed":114,"otheraffinst":0,"zip":"97477","assets":70,"affil programs":0,"sponprograms":0,"geo_score":1.0,"conferences":0,"univimpact":0,"gross receipt":0,"residents2012":null,"info tech":0,"authors":3,"id":"ahk8gf0o0lcd","urank numb":201,"address":"1460 G Street","geo_precision":"range","revenue":0,"allpub":5,"state":"OR"},"type":"Feature","geometry":{"type":"Point","coordinates":[-123.002735,44.052476]}},{"properties":{"city":"Columbia","bed":408,"otheraffinst":0,"zip":"29201","assets":null,"affil programs":4,"sponprograms":0,"geo_score":1.0,"conferences":null,"univimpact":1,"gross receipt":null,"residents2012":null,"info tech":null,"authors":2,"id":"ahk8gf1dkt8r","urank numb":201,"address":"1301 Taylor Street","geo_precision":"range","revenue":null,"allpub":4,"state":"SC"},"type":"Feature","geometry":{"type":"Point","coordinates":[-81.032713,34.007633]}},{"properties":{"city":"Columbia","bed":314,"otheraffinst":0,"zip":"29203","assets":198119102,"affil programs":0,"sponprograms":0,"geo_score":1.0,"conferences":0,"univimpact":0,"gross receipt":260535471,"residents2012":null,"info tech":0,"authors":4,"id":"ahk8gf1qd7vc","urank numb":201,"address":"120 Gateway Corporate Blvd","geo_precision":"range","revenue":259900659,"allpub":1,"state":"SC"},"type":"Feature","geometry":{"type":"Point","coordinates":[-80.956421,34.104653]}},{"properties":{"city":"Tampa","bed":745,"otheraffinst":0,"zip":"33613","assets":null,"affil programs":4,"sponprograms":0,"geo_score":0.602,"conferences":null,"univimpact":1,"gross receipt":null,"residents2012":null,"info tech":null,"authors":0,"id":"ahk8gex1mzin","urank numb":201,"address":"3100 E. Fletcher Avenue","geo_precision":"street","revenue":null,"allpub":0,"state":"FL"},"type":"Feature","geometry":{"type":"Point","coordinates":[-82.438633,28.069243]}},{"properties":{"city":"Tampa","bed":940,"otheraffinst":0,"zip":"33606-3571","assets":12723467,"affil programs":49,"sponprograms":0,"geo_score":0.44,"conferences":1856,"univimpact":1,"gross receipt":3759719,"residents2012":284,"info tech":19344,"authors":320,"id":"ahk8gf5c5bzw","urank numb":201,"address":"1 Tampa General Circle","geo_precision":"street","revenue":2578498,"allpub":721,"state":"FL"},"type":"Feature","geometry":{"type":"Point","coordinates":[-82.45813,27.945957]}},{"properties":{"city":"Columbia","bed":463,"otheraffinst":0,"zip":"65212","assets":444525988,"affil programs":37,"sponprograms":0,"geo_score":0.805,"conferences":282598,"univimpact":1,"gross receipt":534940158,"residents2012":278,"info tech":14658379,"authors":226,"id":"ahk8gf3newdp","urank numb":201,"address":"1 Hospital Drive","geo_precision":"range","revenue":534553838,"allpub":626,"state":"MO"},"type":"Feature","geometry":{"type":"Point","coordinates":[-92.3283,38.93759]}},{"properties":{"city":"Marrero","bed":461,"otheraffinst":1,"zip":"70072","assets":910877,"affil programs":20,"sponprograms":0,"geo_score":1.0,"conferences":9900,"univimpact":0,"gross receipt":984976,"residents2012":20,"info tech":0,"authors":38,"id":"ahk8gf7gujv9","urank numb":301,"address":"1101 Medical Center Boulevard","geo_precision":"range","revenue":972978,"allpub":48,"state":"LA"},"type":"Feature","geometry":{"type":"Point","coordinates":[-90.096183,29.894759]}},{"properties":{"city":"New Orleans","bed":359,"otheraffinst":0,"zip":"70112-2600","assets":null,"affil programs":40,"sponprograms":0,"geo_score":1.0,"conferences":null,"univimpact":1,"gross receipt":null,"residents2012":185,"info tech":null,"authors":34,"id":"ahk8gev6uhl6","urank numb":301,"address":"1415 Tulane Avenue","geo_precision":"range","revenue":null,"allpub":167,"state":"LA"},"type":"Feature","geometry":{"type":"Point","coordinates":[-90.076826,29.955679]}},{"properties":{"city":"Metairie","bed":437,"otheraffinst":1,"zip":"70006","assets":296613679,"affil programs":9,"sponprograms":1,"geo_score":1.0,"conferences":0,"univimpact":1,"gross receipt":3683523485,"residents2012":24,"info tech":0,"authors":59,"id":"ahk8geuq96cj","urank numb":301,"address":"4200 Houma Boulevard","geo_precision":"range","revenue":448026051,"allpub":69,"state":"LA"},"type":"Feature","geometry":{"type":"Point","coordinates":[-90.18164,30.015783]}},{"properties":{"city":"New Orleans","bed":83,"otheraffinst":0,"zip":"70115-6914","assets":null,"affil programs":1,"sponprograms":0,"geo_score":1.0,"conferences":null,"univimpact":0,"gross receipt":null,"residents2012":2,"info tech":null,"authors":38,"id":"ahk8geu1wo3r","urank numb":301,"address":"2700 Napoleon Avenue","geo_precision":"range","revenue":null,"allpub":40,"state":"LA"},"type":"Feature","geometry":{"type":"Point","coordinates":[-90.103349,29.938081]}},{"properties":{"city":"Fayetteville","bed":220,"otheraffinst":0,"zip":"72703-4007","assets":157885328,"affil programs":1,"sponprograms":0,"geo_score":0.286,"conferences":190059,"univimpact":0,"gross receipt":233074800,"residents2012":16,"info tech":3851476,"authors":9,"id":"ahk8gf6tmh9k","urank numb":301,"address":"3215 N. North Hills Boulevard","geo_precision":"street","revenue":233062036,"allpub":16,"state":"AR"},"type":"Feature","geometry":{"type":"Point","coordinates":[-94.177027,35.889097]}},{"properties":{"city":"Springdale","bed":366,"otheraffinst":0,"zip":"72764","assets":null,"affil programs":1,"sponprograms":0,"geo_score":0.571,"conferences":null,"univimpact":1,"gross receipt":null,"residents2012":7,"info tech":null,"authors":0,"id":"ahk8geva8c6o","urank numb":301,"address":"609 W. Maple Street","geo_precision":"street","revenue":null,"allpub":0,"state":"AR"},"type":"Feature","geometry":{"type":"Point","coordinates":[-94.12939,36.181236]}},{"properties":{"city":"Norman","bed":377,"otheraffinst":0,"zip":"73071","assets":null,"affil programs":0,"sponprograms":0,"geo_score":0.607,"conferences":null,"univimpact":0,"gross receipt":null,"residents2012":null,"info tech":null,"authors":18,"id":"ahk8gf4jm3qd","urank numb":301,"address":"901 N. Porter Street","geo_precision":"street","revenue":null,"allpub":27,"state":"OK"},"type":"Feature","geometry":{"type":"Point","coordinates":[-97.439743,35.223656]}},{"properties":{"city":"Bozeman","bed":78,"otheraffinst":0,"zip":"59715","assets":207904050,"affil programs":0,"sponprograms":0,"geo_score":0.585,"conferences":247026,"univimpact":0,"gross receipt":203429339,"residents2012":null,"info tech":0,"authors":12,"id":"ahk8gf6li31d","urank numb":401,"address":"915 Highland Boulevard","geo_precision":"zip","revenue":172248588,"allpub":16,"state":"MT"},"type":"Feature","geometry":{"type":"Point","coordinates":[-111.168212,45.809998]}},{"properties":{"city":"Missoula","bed":203,"otheraffinst":0,"zip":"59802-4008","assets":105649204,"affil programs":1,"sponprograms":0,"geo_score":0.604,"conferences":141623,"univimpact":0,"gross receipt":252975164,"residents2012":null,"info tech":1873152,"authors":37,"id":"ahk8gevct4gz","urank numb":900,"address":"500 W. Broadway Street","geo_precision":"street","revenue":234328393,"allpub":61,"state":"MT"},"type":"Feature","geometry":{"type":"Point","coordinates":[-113.99696,46.872979]}},{"properties":{"city":"Missoula","bed":137,"otheraffinst":0,"zip":"59801-7493","assets":80647636,"affil programs":0,"sponprograms":0,"geo_score":0.604,"conferences":7601,"univimpact":0,"gross receipt":150559442,"residents2012":null,"info tech":0,"authors":33,"id":"ahk8gf9pjipe","urank numb":900,"address":"2827 Fort Missoula Road","geo_precision":"street","revenue":150409221,"allpub":34,"state":"MT"},"type":"Feature","geometry":{"type":"Point","coordinates":[-114.000156,46.856539]}},{"properties":{"city":"Boca Raton","bed":366,"otheraffinst":0,"zip":"33486","assets":198285885,"affil programs":1,"sponprograms":0,"geo_score":1.0,"conferences":100289,"univimpact":0,"gross receipt":376905171,"residents2012":null,"info tech":6283037,"authors":30,"id":"ahk8gf9qhp6l","urank numb":900,"address":"800 Meadows Road","geo_precision":"range","revenue":355974034,"allpub":53,"state":"FL"},"type":"Feature","geometry":{"type":"Point","coordinates":[-80.102758,26.359378]}},{"properties":{"city":"Delray Beach","bed":465,"otheraffinst":0,"zip":"33484","assets":null,"affil programs":1,"sponprograms":0,"geo_score":1.0,"conferences":null,"univimpact":0,"gross receipt":null,"residents2012":null,"info tech":null,"authors":2,"id":"ahk8gf9da198","urank numb":900,"address":"5352 Linton Boulevard","geo_precision":"range","revenue":null,"allpub":2,"state":"FL"},"type":"Feature","geometry":{"type":"Point","coordinates":[-80.127595,26.439233]}},{"properties":{"city":"Brookings","bed":128,"otheraffinst":0,"zip":"57006-2480","assets":null,"affil programs":0,"sponprograms":0,"geo_score":0.883,"conferences":null,"univimpact":0,"gross receipt":null,"residents2012":null,"info tech":null,"authors":26,"id":"ahk8gf31zndc","urank numb":900,"address":"300 22nd Avenue","geo_precision":"range","revenue":null,"allpub":27,"state":"SD"},"type":"Feature","geometry":{"type":"Point","coordinates":[-96.768209,44.303661]}},{"properties":{"city":"Bangor","bed":349,"otheraffinst":1,"zip":"04401-6616","assets":239246866,"affil programs":0,"sponprograms":2,"geo_score":1.0,"conferences":1233611,"univimpact":0,"gross receipt":1174585856,"residents2012":26,"info tech":4517313,"authors":0,"id":"ahk8geyvfuzn","urank numb":900,"address":"489 State Street","geo_precision":"range","revenue":1135205406,"allpub":0,"state":"ME"},"type":"Feature","geometry":{"type":"Point","coordinates":[-68.749952,44.809739]}},{"properties":{"city":"Bangor","bed":112,"otheraffinst":null,"zip":"04401-3979","assets":23408138,"affil programs":null,"sponprograms":null,"geo_score":1.0,"conferences":21785,"univimpact":null,"gross receipt":101483799,"residents2012":null,"info tech":1223063,"authors":153,"id":"ahk8gf6w2kt1","urank numb":900,"address":"360 Broadway","geo_precision":"range","revenue":94561208,"allpub":295,"state":"ME"},"type":"Feature","geometry":{"type":"Point","coordinates":[-68.771233,44.814228]}},{"properties":{"city":"Las Vegas","bed":293,"otheraffinst":null,"zip":"89119-5188","assets":165852629,"affil programs":null,"sponprograms":null,"geo_score":0.604,"conferences":508831,"univimpact":null,"gross receipt":449097994,"residents2012":null,"info tech":8130524,"authors":40,"id":"ahk8gf6pzr98","urank numb":900,"address":"2075 E. Flamingo Road","geo_precision":"street","revenue":448431990,"allpub":55,"state":"NV"},"type":"Feature","geometry":{"type":"Point","coordinates":[-115.15399,36.114315]}},{"properties":{"city":"Las Vegas","bed":642,"otheraffinst":0,"zip":"89109-2303","assets":null,"affil programs":5,"sponprograms":0,"geo_score":0.6,"conferences":null,"univimpact":1,"gross receipt":null,"residents2012":19,"info tech":null,"authors":6,"id":"ahk8gexdj1c9","urank numb":900,"address":"3186 S. Maryland Parkway","geo_precision":"street","revenue":null,"allpub":10,"state":"NV"},"type":"Feature","geometry":{"type":"Point","coordinates":[-115.137007,36.144239]}},{"properties":{"city":"Las Vegas","bed":249,"otheraffinst":0,"zip":"89128","assets":5475626,"affil programs":2,"sponprograms":0,"geo_score":0.607,"conferences":0,"univimpact":1,"gross receipt":4238785,"residents2012":null,"info tech":1350,"authors":55,"id":"ahk8getj7w6q","urank numb":900,"address":"3100 N. Tenaya Way","geo_precision":"street","revenue":4238785,"allpub":81,"state":"NV"},"type":"Feature","geometry":{"type":"Point","coordinates":[-115.250862,36.17429]}},{"properties":{"city":"Las Vegas","bed":171,"otheraffinst":0,"zip":"89149-4409","assets":null,"affil programs":1,"sponprograms":0,"geo_score":0.607,"conferences":null,"univimpact":0,"gross receipt":null,"residents2012":null,"info tech":null,"authors":4,"id":"ahk8geyp0q3t","urank numb":900,"address":"6900 N. Durango Drive","geo_precision":"street","revenue":null,"allpub":5,"state":"NV"},"type":"Feature","geometry":{"type":"Point","coordinates":[-115.279102,36.250019]}},{"properties":{"city":"Reno","bed":272,"otheraffinst":0,"zip":"89503-0108","assets":16415144,"affil programs":3,"sponprograms":0,"geo_score":0.625,"conferences":3259,"univimpact":1,"gross receipt":17704275,"residents2012":null,"info tech":0,"authors":177,"id":"ahk8gf49kjk7","urank numb":null,"address":"235 W. 6th Street","geo_precision":"street","revenue":14394730,"allpub":345,"state":"NV"},"type":"Feature","geometry":{"type":"Point","coordinates":[-119.81634,39.532121]}},{"properties":{"city":"Morgantown","bed":189,"otheraffinst":0,"zip":"26505-3494","assets":87107078,"affil programs":2,"sponprograms":0,"geo_score":0.571,"conferences":64444,"univimpact":0,"gross receipt":264198452,"residents2012":null,"info tech":4654519,"authors":11,"id":"ahk8geyjoej1","urank numb":900,"address":"1200 J.D. Anderson Drive","geo_precision":"street","revenue":220911382,"allpub":13,"state":"WV"},"type":"Feature","geometry":{"type":"Point","coordinates":[-79.954222,39.630279]}},{"properties":{"city":"Morgantown","bed":509,"otheraffinst":0,"zip":"26506-1234","assets":null,"affil programs":39,"sponprograms":0,"geo_score":0.805,"conferences":null,"univimpact":1,"gross receipt":null,"residents2012":311,"info tech":null,"authors":4,"id":"ahk8gexy5kte","urank numb":900,"address":"418 Medical Center Drive","geo_precision":"range","revenue":null,"allpub":4,"state":"WV"},"type":"Feature","geometry":{"type":"Point","coordinates":[-79.962709,39.651327]}},{"properties":{"city":"Huntsville","bed":838,"otheraffinst":0,"zip":"35801","assets":21193463,"affil programs":2,"sponprograms":0,"geo_score":0.927,"conferences":5019,"univimpact":1,"gross receipt":9565671,"residents2012":34,"info tech":0,"authors":61,"id":"ahk8gezpyeo2","urank numb":500,"address":"101 Sivley Road","geo_precision":"range","revenue":4503105,"allpub":107,"state":"AL"},"type":"Feature","geometry":{"type":"Point","coordinates":[-86.581505,34.721218]}},{"properties":{"city":"Huntsville","bed":150,"otheraffinst":null,"zip":"35801-3403","assets":null,"affil programs":null,"sponprograms":null,"geo_score":0.937,"conferences":null,"univimpact":null,"gross receipt":null,"residents2012":null,"info tech":null,"authors":0,"id":"ahk8gf9vkhfp","urank numb":500,"address":"1 Hospital Drive","geo_precision":"range","revenue":null,"allpub":0,"state":"AL"},"type":"Feature","geometry":{"type":"Point","coordinates":[-86.57242,34.691217]}},{"properties":{"city":"Fargo","bed":449,"otheraffinst":1,"zip":"58122","assets":267003156,"affil programs":4,"sponprograms":0,"geo_score":0.319,"conferences":347939,"univimpact":0,"gross receipt":455514265,"residents2012":41,"info tech":10543344,"authors":7,"id":"ahk8gf899gj2","urank numb":500,"address":"801 Broadway, N.","geo_precision":"street","revenue":455101312,"allpub":15,"state":"ND"},"type":"Feature","geometry":{"type":"Point","coordinates":[-96.787804,46.875227]}},{"properties":{"city":"Louisville","bed":262,"otheraffinst":0,"zip":"40217","assets":-154346288,"affil programs":2,"sponprograms":0,"geo_score":0.963,"conferences":0,"univimpact":1,"gross receipt":306511917,"residents2012":null,"info tech":0,"authors":18,"id":"ahk8gf6p5jpp","urank numb":500,"address":"1 Audubon Plaza Drive","geo_precision":"range","revenue":184494067,"allpub":26,"state":"KY"},"type":"Feature","geometry":{"type":"Point","coordinates":[-85.717806,38.213268]}},{"properties":{"city":"Louisville","bed":1064,"otheraffinst":0,"zip":"40202-1818","assets":224011899,"affil programs":31,"sponprograms":0,"geo_score":1.0,"conferences":0,"univimpact":1,"gross receipt":1013762763,"residents2012":61,"info tech":24917061,"authors":108,"id":"ahk8geuwagp0","urank numb":500,"address":"200 Abraham Flexner Way","geo_precision":"range","revenue":939296004,"allpub":228,"state":"KY"},"type":"Feature","geometry":{"type":"Point","coordinates":[-85.749039,38.249106]}},{"properties":{"city":"Waco","bed":330,"otheraffinst":1,"zip":"76712","assets":45267718,"affil programs":2,"sponprograms":0,"geo_score":0.526,"conferences":0,"univimpact":0,"gross receipt":236452639,"residents2012":17,"info tech":1503285,"authors":0,"id":"ahk8gf7y1ira","urank numb":500,"address":"100 Hillcrest Boulevard","geo_precision":"street","revenue":236425278,"allpub":0,"state":"TX"},"type":"Feature","geometry":{"type":"Point","coordinates":[-97.178409,31.55696]}},{"properties":{"city":"Waco","bed":508,"otheraffinst":1,"zip":"76712","assets":null,"affil programs":2,"sponprograms":0,"geo_score":0.916,"conferences":null,"univimpact":0,"gross receipt":null,"residents2012":4,"info tech":null,"authors":0,"id":"ahk8gf1lpce8","urank numb":500,"address":"6901 Medical Parkway","geo_precision":"range","revenue":null,"allpub":0,"state":"TX"},"type":"Feature","geometry":{"type":"Point","coordinates":[-97.197643,31.51547]}},{"properties":{"city":"Dayton","bed":794,"otheraffinst":1,"zip":"45409","assets":652177819,"affil programs":18,"sponprograms":0,"geo_score":1.0,"conferences":98649,"univimpact":0,"gross receipt":799106934,"residents2012":107,"info tech":3962623,"authors":245,"id":"ahk8gexqdvbj","urank numb":500,"address":"1 Wyoming Street","geo_precision":"range","revenue":755342328,"allpub":387,"state":"OH"},"type":"Feature","geometry":{"type":"Point","coordinates":[-84.18542,39.744129]}},{"properties":{"city":"Kettering","bed":366,"otheraffinst":1,"zip":"45429-1221","assets":398947625,"affil programs":8,"sponprograms":4,"geo_score":1.0,"conferences":318683,"univimpact":0,"gross receipt":565005639,"residents2012":69,"info tech":8838800,"authors":128,"id":"ahk8gezwhxqf","urank numb":500,"address":"3535 Southern Boulevard","geo_precision":"range","revenue":564065572,"allpub":356,"state":"OH"},"type":"Feature","geometry":{"type":"Point","coordinates":[-84.190858,39.697064]}},{"properties":{"city":"Winston Salem","bed":849,"otheraffinst":0,"zip":"27103","assets":801292625,"affil programs":10,"sponprograms":0,"geo_score":0.797,"conferences":416708,"univimpact":1,"gross receipt":901514392,"residents2012":19,"info tech":7186148,"authors":99,"id":"ahk8gezvac2l","urank numb":500,"address":"3333 Silas Creek Parkway","geo_precision":"street","revenue":901048383,"allpub":178,"state":"NC"},"type":"Feature","geometry":{"type":"Point","coordinates":[-80.25202,36.065869]}},{"properties":{"city":"Winston Salem","bed":854,"otheraffinst":0,"zip":"27157-0001","assets":0,"affil programs":0,"sponprograms":58,"geo_score":0.992,"conferences":0,"univimpact":1,"gross receipt":12836,"residents2012":610,"info tech":0,"authors":759,"id":"ahk8gf2u8m9y","urank numb":500,"address":"1 Medical Center Boulevard","geo_precision":"range","revenue":12836,"allpub":2040,"state":"NC"},"type":"Feature","geometry":{"type":"Point","coordinates":[-80.271501,36.090261]}},{"properties":{"city":"Johnson City","bed":610,"otheraffinst":0,"zip":"37604","assets":219016412,"affil programs":13,"sponprograms":0,"geo_score":0.61,"conferences":284845,"univimpact":1,"gross receipt":701975767,"residents2012":104,"info tech":10269378,"authors":29,"id":"ahk8geto5pzw","urank numb":900,"address":"400 N. State of Franklin Road","geo_precision":"street","revenue":701832636,"allpub":33,"state":"TN"},"type":"Feature","geometry":{"type":"Point","coordinates":[-82.354699,36.303466]}},{"properties":{"city":"Johnson City","bed":114,"otheraffinst":0,"zip":"37604","assets":null,"affil programs":1,"sponprograms":0,"geo_score":0.585,"conferences":null,"univimpact":0,"gross receipt":null,"residents2012":null,"info tech":null,"authors":0,"id":"ahk8gezmmlm7","urank numb":900,"address":"300 MedTech Parkway","geo_precision":"zip","revenue":null,"allpub":0,"state":"TN"},"type":"Feature","geometry":{"type":"Point","coordinates":[-82.387422,36.308229]}},{"properties":{"city":"Terre Haute","bed":200,"otheraffinst":null,"zip":"47802-5709","assets":-3554804,"affil programs":null,"sponprograms":null,"geo_score":0.625,"conferences":0,"univimpact":null,"gross receipt":19054624,"residents2012":null,"info tech":3495,"authors":8,"id":"ahk8gf8rc6fe","urank numb":900,"address":"3901 S. 7th Street","geo_precision":"street","revenue":19054624,"allpub":2,"state":"IN"},"type":"Feature","geometry":{"type":"Point","coordinates":[-87.406949,39.454544]}},{"properties":{"city":"Terre Haute","bed":317,"otheraffinst":null,"zip":"47804","assets":127326344,"affil programs":null,"sponprograms":null,"geo_score":0.625,"conferences":0,"univimpact":null,"gross receipt":424153646,"residents2012":18,"info tech":0,"authors":0,"id":"ahk8gey7nbfn","urank numb":900,"address":"1606 N. 7th Street","geo_precision":"street","revenue":420096578,"allpub":0,"state":"IN"},"type":"Feature","geometry":{"type":"Point","coordinates":[-87.407184,39.484784]}},{"properties":{"city":"Bloomington","bed":149,"otheraffinst":1,"zip":"61701","assets":14551087,"affil programs":17,"sponprograms":0,"geo_score":0.6,"conferences":0,"univimpact":0,"gross receipt":2843175,"residents2012":null,"info tech":16100,"authors":30,"id":"ahk8gf0v3x5t","urank numb":900,"address":"2200 E. Washington Street","geo_precision":"street","revenue":2746924,"allpub":30,"state":"IL"},"type":"Feature","geometry":{"type":"Point","coordinates":[-88.993651,40.479579]}},{"properties":{"city":"Normal","bed":200,"otheraffinst":0,"zip":"61761-2850","assets":0,"affil programs":2,"sponprograms":0,"geo_score":0.764,"conferences":89245,"univimpact":0,"gross receipt":107932758,"residents2012":12,"info tech":1986982,"authors":15,"id":"ahk8geumr2kc","urank numb":900,"address":"1304 Franklin Street","geo_precision":"street","revenue":98308404,"allpub":21,"state":"IL"},"type":"Feature","geometry":{"type":"Point","coordinates":[-88.990972,40.499299]}},{"properties":{"city":"Boynton Beach","bed":388,"otheraffinst":0,"zip":"33435","assets":null,"affil programs":1,"sponprograms":0,"geo_score":1.0,"conferences":null,"univimpact":0,"gross receipt":null,"residents2012":4,"info tech":null,"authors":26,"id":"ahk8gevm6y3l","urank numb":900,"address":"2815 S Seacrest Blvd ","geo_precision":"range","revenue":null,"allpub":27,"state":"fl"},"type":"Feature","geometry":{"type":"Point","coordinates":[-80.070844,26.500586]}}],"is_temporal":false,"author":{"url":"","metadata":null,"contact_name":null,"contact_address":null,"source":null,"contact_phone":null},"source":"","pagination":{"sort":null,"start":0,"total":117,"limit":1000000},"state":"complete","tags":"","published":"2014-08-16T23:43:07-04:00","id":398751}