{"type":"FeatureCollection","data_type":"Dataset","url_type":null,"permissions":[{"permissions":{"download":true,"view":true},"group_id":"everyone"}],"classification":null,"title":"usa_only_study_rnk_numbr_for_map_BLIND","count":62,"stream_id":398748,"contributor":{"url":"http://geocommons.com/users/78068","name":"gtls23@yahoo.com"},"data_attributes":null,"calculation_params":null,"icon_link":null,"link":"http://geocommons.com/overlays/398748.json","extent":[-168.022,24.8598,-68.795,47.4323],"geometry_types":["point"],"unique_name":null,"name":"usa_only_study_rnk_numbr_for_map_BLIND","feature_count":62,"description":"","next_feature":null,"is_raster":false,"short_classification":"Y","stats":{"urank numb":{"max":900,"mean":268.032258064516,"variance":90042.457958752,"stdev":300.070754920822,"min":1,"median":151}},"features":[{"properties":{"city":"Cambridge","zip":"2238","geo_score":0.857,"id":"ahk7zh9aclbq","urank numb":1,"geo_precision":"zip","state":"MA"},"type":"Feature","geometry":{"type":"Point","coordinates":[-71.459405,42.446396]}},{"properties":{"city":"Boston","zip":"2114","geo_score":0.857,"id":"ahk7zhgw76oe","urank numb":4,"geo_precision":"zip","state":"MA"},"type":"Feature","geometry":{"type":"Point","coordinates":[-71.023661,42.362097]}},{"properties":{"city":"Stanford","zip":"94305","geo_score":0.857,"id":"ahk7zhkujdov","urank numb":3,"geo_precision":"zip","state":"CA"},"type":"Feature","geometry":{"type":"Point","coordinates":[-121.705327,37.189396]}},{"properties":{"city":"Princeton","zip":"8540","geo_score":0.857,"id":"ahk7zhh6jkma","urank numb":7,"geo_precision":"zip","state":"NJ"},"type":"Feature","geometry":{"type":"Point","coordinates":[-74.64795,40.363882]}},{"properties":{"city":"New York","zip":"10025-1716","geo_score":0.857,"id":"ahk7zh8zbzo1","urank numb":8,"geo_precision":"zip","state":"NY"},"type":"Feature","geometry":{"type":"Point","coordinates":[-73.967778,40.798664]}},{"properties":{"city":"Chicago","zip":"60637","geo_score":0.857,"id":"ahk7zhl3crop","urank numb":9,"geo_precision":"zip","state":"IL"},"type":"Feature","geometry":{"type":"Point","coordinates":[-87.68732,41.811929]}},{"properties":{"city":"New Haven","zip":"6504","geo_score":0.857,"id":"ahk7zh97279m","urank numb":11,"geo_precision":"zip","state":"CT"},"type":"Feature","geometry":{"type":"Point","coordinates":[-72.927507,41.365709]}},{"properties":{"city":"Ithaca","zip":"14850","geo_score":0.857,"id":"ahk7zheh2kel","urank numb":12,"geo_precision":"zip","state":"NY"},"type":"Feature","geometry":{"type":"Point","coordinates":[-76.437994,42.455073]}},{"properties":{"city":"Philadelphia","zip":"19104-4283","geo_score":0.857,"id":"ahk7zhbw1iju","urank numb":15,"geo_precision":"zip","state":"PA"},"type":"Feature","geometry":{"type":"Point","coordinates":[-75.19668,39.960912]}},{"properties":{"city":"Seattle","zip":"98195","geo_score":0.857,"id":"ahk7zhki3po8","urank numb":16,"geo_precision":"zip","state":"WA"},"type":"Feature","geometry":{"type":"Point","coordinates":[-121.803388,47.432251]}},{"properties":{"city":"Madison","zip":"53715","geo_score":0.857,"id":"ahk7zhhxxhye","urank numb":17,"geo_precision":"zip","state":"WI"},"type":"Feature","geometry":{"type":"Point","coordinates":[-89.394619,43.061839]}},{"properties":{"city":"Baltimore","zip":"21287","geo_score":0.857,"id":"ahk7zhl8tc01","urank numb":18,"geo_precision":"zip","state":"MD"},"type":"Feature","geometry":{"type":"Point","coordinates":[-76.592738,39.297457]}},{"properties":{"city":"New York","zip":"10029","geo_score":0.857,"id":"ahk7zhl0xx0k","urank numb":31,"geo_precision":"zip","state":"NY"},"type":"Feature","geometry":{"type":"Point","coordinates":[-73.943517,40.791884]}},{"properties":{"city":"Los Angeles","zip":"90095-8358","geo_score":0.857,"id":"ahk7zh99h3jw","urank numb":13,"geo_precision":"zip","state":"CA"},"type":"Feature","geometry":{"type":"Point","coordinates":[-118.298662,33.786594]}},{"properties":{"city":"Durham","zip":"27710-4699","geo_score":0.857,"id":"ahk7zheoqtqz","urank numb":35,"geo_precision":"zip","state":"NC"},"type":"Feature","geometry":{"type":"Point","coordinates":[-78.857651,36.051155]}},{"properties":{"city":"Evanston","zip":"60201","geo_score":0.857,"id":"ahk7zhidbein","urank numb":29,"geo_precision":"zip","state":"IL"},"type":"Feature","geometry":{"type":"Point","coordinates":[-87.702155,42.049148]}},{"properties":{"city":"Boulder","zip":"80301-9019","geo_score":0.857,"id":"ahk7zhja15cm","urank numb":32,"geo_precision":"zip","state":"CO"},"type":"Feature","geometry":{"type":"Point","coordinates":[-105.278083,40.094787]}},{"properties":{"city":"Ann Arbor","zip":"48109","geo_score":0.857,"id":"ahk7zhl8z5v1","urank numb":22,"geo_precision":"zip","state":"MI"},"type":"Feature","geometry":{"type":"Point","coordinates":[-83.711228,42.276324]}},{"properties":{"city":"Pasadena","zip":"91105","geo_score":0.857,"id":"ahk7zhnms5g9","urank numb":6,"geo_precision":"zip","state":"CA"},"type":"Feature","geometry":{"type":"Point","coordinates":[-118.298662,33.786594]}},{"properties":{"city":"Oakland","zip":"94609","geo_score":0.857,"id":"ahk7zhmw7ver","urank numb":2,"geo_precision":"zip","state":"CA"},"type":"Feature","geometry":{"type":"Point","coordinates":[-122.26328,37.834776]}},{"properties":{"city":"Lincoln","zip":"68510-2462","geo_score":0.857,"id":"ahk7zhbfzj3a","urank numb":151,"geo_precision":"zip","state":"NE"},"type":"Feature","geometry":{"type":"Point","coordinates":[-96.630741,40.83545]}},{"properties":{"city":"Wilmington","zip":"19805","geo_score":0.857,"id":"ahk7zha00acq","urank numb":151,"geo_precision":"zip","state":"DE"},"type":"Feature","geometry":{"type":"Point","coordinates":[-75.607982,39.737613]}},{"properties":{"city":"Birmingham","zip":"35205","geo_score":0.857,"id":"ahk7zh8ws6iw","urank numb":151,"geo_precision":"zip","state":"AL"},"type":"Feature","geometry":{"type":"Point","coordinates":[-86.782584,33.569398]}},{"properties":{"city":"Nevada","zip":"50201-2902","geo_score":0.857,"id":"ahk7zh9dn3ks","urank numb":151,"geo_precision":"zip","state":"IA"},"type":"Feature","geometry":{"type":"Point","coordinates":[-93.394932,42.07082]}},{"properties":{"city":"Lebanon","zip":"3756","geo_score":0.857,"id":"ahk7zhjn63li","urank numb":151,"geo_precision":"zip","state":"NH"},"type":"Feature","geometry":{"type":"Point","coordinates":[-71.840883,43.967542]}},{"properties":{"city":"Baton Rouge","zip":"70806-3842","geo_score":0.857,"id":"ahk7zhmrr833","urank numb":151,"geo_precision":"zip","state":"LA"},"type":"Feature","geometry":{"type":"Point","coordinates":[-91.138455,30.45104]}},{"properties":{"city":"Albany","zip":"97321","geo_score":0.857,"id":"ahk7zhfn0n9j","urank numb":101,"geo_precision":"zip","state":"OR"},"type":"Feature","geometry":{"type":"Point","coordinates":[-123.101762,44.6529]}},{"properties":{"city":"Honolulu","zip":"96813","geo_score":0.857,"id":"ahk7zhdrx4md","urank numb":101,"geo_precision":"zip","state":"HI"},"type":"Feature","geometry":{"type":"Point","coordinates":[-168.021815,24.859832]}},{"properties":{"city":"Iowa City","zip":"52245","geo_score":0.857,"id":"ahk7zhhqi3on","urank numb":101,"geo_precision":"zip","state":"IA"},"type":"Feature","geometry":{"type":"Point","coordinates":[-91.518388,41.668592]}},{"properties":{"city":"Knoxville","zip":"37916-2307","geo_score":0.857,"id":"ahk7zh8f7v6v","urank numb":151,"geo_precision":"zip","state":"TN"},"type":"Feature","geometry":{"type":"Point","coordinates":[-83.973635,35.933783]}},{"properties":{"city":"South Bend","zip":"46601","geo_score":0.857,"id":"ahk7zhj8zfra","urank numb":201,"geo_precision":"zip","state":"IN"},"type":"Feature","geometry":{"type":"Point","coordinates":[-86.251654,41.673383]}},{"properties":{"city":"Richmond","zip":"23298","geo_score":0.857,"id":"ahk7zha1eaje","urank numb":151,"geo_precision":"zip","state":"VA"},"type":"Feature","geometry":{"type":"Point","coordinates":[-77.431555,37.540646]}},{"properties":{"city":"Orlando","zip":"32822","geo_score":0.857,"id":"ahk7zh9fc38t","urank numb":201,"geo_precision":"zip","state":"FL"},"type":"Feature","geometry":{"type":"Point","coordinates":[-81.29024,28.494385]}},{"properties":{"city":"Miami","zip":"33136-1005","geo_score":0.857,"id":"ahk7zhjjwe9k","urank numb":101,"geo_precision":"zip","state":"FL"},"type":"Feature","geometry":{"type":"Point","coordinates":[-80.204773,25.78718]}},{"properties":{"city":"Gainesville","zip":"32610","geo_score":0.857,"id":"ahk7zhiazrjt","urank numb":201,"geo_precision":"zip","state":"FL"},"type":"Feature","geometry":{"type":"Point","coordinates":[-82.353862,29.681312]}},{"properties":{"city":"Lawrence","zip":"66044","geo_score":0.857,"id":"ahk7zhngcumf","urank numb":201,"geo_precision":"zip","state":"KS"},"type":"Feature","geometry":{"type":"Point","coordinates":[-95.390531,38.91167]}},{"properties":{"city":"Lexington","zip":"40508","geo_score":0.857,"id":"ahk7zhc1jxa6","urank numb":201,"geo_precision":"zip","state":"KY"},"type":"Feature","geometry":{"type":"Point","coordinates":[-84.498954,38.051285]}},{"properties":{"city":"Albuquerque","zip":"87106","geo_score":0.857,"id":"ahk7zha1ntxd","urank numb":201,"geo_precision":"zip","state":"NM"},"type":"Feature","geometry":{"type":"Point","coordinates":[-106.489592,35.04319]}},{"properties":{"city":"Springfield","zip":"97477","geo_score":0.857,"id":"ahk7zhgg8nuy","urank numb":201,"geo_precision":"zip","state":"OR"},"type":"Feature","geometry":{"type":"Point","coordinates":[-122.916194,44.142348]}},{"properties":{"city":"Columbia","zip":"29201","geo_score":0.857,"id":"ahk7zhm6j8my","urank numb":201,"geo_precision":"zip","state":"SC"},"type":"Feature","geometry":{"type":"Point","coordinates":[-81.029814,33.976544]}},{"properties":{"city":"Tampa","zip":"33613","geo_score":0.857,"id":"ahk7zh8teqq9","urank numb":201,"geo_precision":"zip","state":"FL"},"type":"Feature","geometry":{"type":"Point","coordinates":[-82.444209,28.077403]}},{"properties":{"city":"Columbia","zip":"65212","geo_score":0.857,"id":"ahk7zhd365ib","urank numb":201,"geo_precision":"zip","state":"MO"},"type":"Feature","geometry":{"type":"Point","coordinates":[-92.33043,38.937608]}},{"properties":{"city":"New Orleans","zip":"70112-2600","geo_score":0.857,"id":"ahk7zhilxzrj","urank numb":301,"geo_precision":"zip","state":"LA"},"type":"Feature","geometry":{"type":"Point","coordinates":[-90.077,29.958304]}},{"properties":{"city":"New Orleans","zip":"70115-6914","geo_score":0.857,"id":"ahk7zhld8iyw","urank numb":301,"geo_precision":"zip","state":"LA"},"type":"Feature","geometry":{"type":"Point","coordinates":[-90.100773,29.938343]}},{"properties":{"city":"Fayetteville","zip":"72703-4007","geo_score":0.857,"id":"ahk7zhakn6a2","urank numb":301,"geo_precision":"zip","state":"AR"},"type":"Feature","geometry":{"type":"Point","coordinates":[-94.074168,36.126249]}},{"properties":{"city":"Norman","zip":"73071","geo_score":0.857,"id":"ahk7zh7qmngi","urank numb":301,"geo_precision":"zip","state":"OK"},"type":"Feature","geometry":{"type":"Point","coordinates":[-97.300313,35.254049]}},{"properties":{"city":"Bozeman","zip":"59715","geo_score":0.857,"id":"ahk7zhhkk23j","urank numb":401,"geo_precision":"zip","state":"MT"},"type":"Feature","geometry":{"type":"Point","coordinates":[-111.168212,45.809998]}},{"properties":{"city":"Missoula","zip":"59802-4008","geo_score":0.857,"id":"ahk7zh8zecx4","urank numb":900,"geo_precision":"zip","state":"MT"},"type":"Feature","geometry":{"type":"Point","coordinates":[-113.954788,46.989689]}},{"properties":{"city":"Boca Raton","zip":"33486","geo_score":0.857,"id":"ahk7zhmx0vqf","urank numb":900,"geo_precision":"zip","state":"FL"},"type":"Feature","geometry":{"type":"Point","coordinates":[-80.117265,26.348293]}},{"properties":{"city":"Brookings","zip":"57006-2480","geo_score":0.857,"id":"ahk7zhd5gh07","urank numb":900,"geo_precision":"zip","state":"SD"},"type":"Feature","geometry":{"type":"Point","coordinates":[-96.762102,44.355091]}},{"properties":{"city":"Bangor","zip":"04401-3979","geo_score":0.857,"id":"ahk7zhctcbdm","urank numb":900,"geo_precision":"zip","state":"ME"},"type":"Feature","geometry":{"type":"Point","coordinates":[-68.795037,44.770627]}},{"properties":{"city":"Las Vegas","zip":"89109-2303","geo_score":0.857,"id":"ahk7zhd1xgw7","urank numb":900,"geo_precision":"zip","state":"NV"},"type":"Feature","geometry":{"type":"Point","coordinates":[-115.146665,36.097195]}},{"properties":{"city":"Morgantown","zip":"26505-3494","geo_score":0.857,"id":"ahk7zhljkfka","urank numb":900,"geo_precision":"zip","state":"WV"},"type":"Feature","geometry":{"type":"Point","coordinates":[-79.917285,39.605082]}},{"properties":{"city":"Huntsville","zip":"35801","geo_score":0.857,"id":"ahk7zhdcf2v6","urank numb":500,"geo_precision":"zip","state":"AL"},"type":"Feature","geometry":{"type":"Point","coordinates":[-86.556439,34.718428]}},{"properties":{"city":"Fargo","zip":"58122","geo_score":0.857,"id":"ahk7zhitvrvt","urank numb":500,"geo_precision":"zip","state":"ND"},"type":"Feature","geometry":{"type":"Point","coordinates":[-97.229718,46.934596]}},{"properties":{"city":"Louisville","zip":"40217","geo_score":0.857,"id":"ahk7zh7p7lm6","urank numb":500,"geo_precision":"zip","state":"KY"},"type":"Feature","geometry":{"type":"Point","coordinates":[-85.739861,38.21787]}},{"properties":{"city":"Waco","zip":"76712","geo_score":0.857,"id":"ahk7zhanyaap","urank numb":500,"geo_precision":"zip","state":"TX"},"type":"Feature","geometry":{"type":"Point","coordinates":[-97.265089,31.539194]}},{"properties":{"city":"Dayton","zip":"45409","geo_score":0.857,"id":"ahk7zhmm98sf","urank numb":500,"geo_precision":"zip","state":"OH"},"type":"Feature","geometry":{"type":"Point","coordinates":[-84.185439,39.723809]}},{"properties":{"city":"Winston Salem","zip":"27103","geo_score":0.857,"id":"ahk7zhakd8hb","urank numb":500,"geo_precision":"zip","state":"NC"},"type":"Feature","geometry":{"type":"Point","coordinates":[-80.273939,36.08486]}},{"properties":{"city":"Johnson City","zip":"37604","geo_score":0.857,"id":"ahk7zhdaw9jh","urank numb":900,"geo_precision":"zip","state":"TN"},"type":"Feature","geometry":{"type":"Point","coordinates":[-82.387422,36.308229]}},{"properties":{"city":"Terre Haute","zip":"47802-5709","geo_score":0.857,"id":"ahk7zhn8qltr","urank numb":900,"geo_precision":"zip","state":"IN"},"type":"Feature","geometry":{"type":"Point","coordinates":[-87.42014,39.357875]}},{"properties":{"city":"Normal","zip":"61761-2850","geo_score":0.857,"id":"ahk7zhjaxwmn","urank numb":900,"geo_precision":"zip","state":"IL"},"type":"Feature","geometry":{"type":"Point","coordinates":[-88.7989,40.530375]}}],"is_temporal":false,"author":{"url":"","metadata":null,"contact_name":null,"contact_address":null,"source":null,"contact_phone":null},"source":"","pagination":{"sort":null,"start":0,"total":62,"limit":1000000},"state":"complete","tags":"","published":"2014-08-16T23:43:03-04:00","id":398748}