{"type":"FeatureCollection","data_type":"Dataset","url_type":null,"permissions":[{"permissions":{"download":true,"view":true},"group_id":"everyone"}],"classification":null,"title":"map_Select_UShospitals_FTEProg","count":117,"stream_id":398817,"contributor":{"url":"http://geocommons.com/users/83534","name":"stor00z"},"data_attributes":null,"calculation_params":null,"icon_link":null,"link":"http://geocommons.com/overlays/398817.json","extent":[-157.855,21.3078,-68.75,47.653],"geometry_types":["point"],"unique_name":null,"name":"map_Select_UShospitals_FTEProg","feature_count":117,"description":"","next_feature":null,"is_raster":false,"short_classification":"Y","stats":{"fteprog":{"max":52,"variance":256.615763546798,"mean":13.4827586206897,"stdev":16.0192310535431,"min":0,"median":7}},"features":[{"properties":{"city":"Cambridge","zip":"2238","geo_score":0.585,"id":"ahkru0qel9jx","address":"330 Mount Auburn Street","geo_precision":"zip","state":"MA","fteprog":null},"type":"Feature","geometry":{"type":"Point","coordinates":[-71.459405,42.446396]}},{"properties":{"city":"Boston","zip":"2108","geo_score":1.0,"id":"ahkru0k9tcxc","address":"294 Washington Street","geo_precision":"range","state":"MA","fteprog":null},"type":"Feature","geometry":{"type":"Point","coordinates":[-71.058362,42.357288]}},{"properties":{"city":"Boston","zip":"2114","geo_score":1.0,"id":"ahkru0trsz20","address":"55 Fruit Street","geo_precision":"range","state":"MA","fteprog":null},"type":"Feature","geometry":{"type":"Point","coordinates":[-71.069803,42.362495]}},{"properties":{"city":"Winchester","zip":"1890","geo_score":0.659,"id":"ahkru0wvz6rk","address":"41 Highland Avenue","geo_precision":"range","state":"MA","fteprog":null},"type":"Feature","geometry":{"type":"Point","coordinates":[-71.103325,42.773339]}},{"properties":{"city":"Stanford","zip":"94305","geo_score":0.805,"id":"ahkru0kz2zll","address":"300 Pasteur Drive","geo_precision":"range","state":"CA","fteprog":null},"type":"Feature","geometry":{"type":"Point","coordinates":[-122.1781,37.43407]}},{"properties":{"city":"San Mateo","zip":"94403-4364","geo_score":0.614,"id":"ahkru0vmmbqa","address":"222 W. 39th Avenue","geo_precision":"street","state":"CA","fteprog":null},"type":"Feature","geometry":{"type":"Point","coordinates":[-122.292613,37.532907]}},{"properties":{"city":"Princeton","zip":"8540","geo_score":0.902,"id":"ahkru0x925gu","address":"253 Witherspoon Street","geo_precision":"street","state":"NJ","fteprog":15},"type":"Feature","geometry":{"type":"Point","coordinates":[-74.663061,40.357337]}},{"properties":{"city":"Trenton","zip":"8638","geo_score":1.0,"id":"ahkru0s97gkm","address":"750 Brunswick Avenue","geo_precision":"range","state":"NJ","fteprog":null},"type":"Feature","geometry":{"type":"Point","coordinates":[-74.752385,40.236573]}},{"properties":{"city":"New York","zip":"10025-1716","geo_score":1.0,"id":"ahkru0resvmn","address":"1111 Amsterdam Avenue","geo_precision":"range","state":"NY","fteprog":null},"type":"Feature","geometry":{"type":"Point","coordinates":[-73.961676,40.805751]}},{"properties":{"city":"New York","zip":"10037","geo_score":0.585,"id":"ahkru0lsejk4","address":"506 Lenox Avenue","geo_precision":"zip","state":"NY","fteprog":5},"type":"Feature","geometry":{"type":"Point","coordinates":[-73.938498,40.813884]}},{"properties":{"city":"Bronx","zip":"10456","geo_score":0.806,"id":"ahkru0sgd8lf","address":"1650 Grand Concourse","geo_precision":"street","state":"NY","fteprog":null},"type":"Feature","geometry":{"type":"Point","coordinates":[-73.913755,40.838743]}},{"properties":{"city":"Chicago","zip":"60637","geo_score":0.602,"id":"ahkru0rrqvst","address":"5841 S. Maryland Avenue","geo_precision":"street","state":"IL","fteprog":null},"type":"Feature","geometry":{"type":"Point","coordinates":[-87.604984,41.79317]}},{"properties":{"city":"Chicago","zip":"60621","geo_score":0.619,"id":"ahkru0hsipdd","address":"326 W. 64th Street","geo_precision":"street","state":"IL","fteprog":null},"type":"Feature","geometry":{"type":"Point","coordinates":[-87.630288,41.778159]}},{"properties":{"city":"New Haven","zip":"6504","geo_score":1.0,"id":"ahkru0j8yye5","address":"20 York Street","geo_precision":"range","state":"CT","fteprog":null},"type":"Feature","geometry":{"type":"Point","coordinates":[-72.934843,41.303954]}},{"properties":{"city":"New Haven","zip":"6511","geo_score":1.0,"id":"ahkru0s7fuv6","address":"1450 Chapel Street","geo_precision":"range","state":"CT","fteprog":null},"type":"Feature","geometry":{"type":"Point","coordinates":[-72.943597,41.310965]}},{"properties":{"city":"Derby","zip":"6418","geo_score":0.811,"id":"ahkru0y2ib0f","address":"130 Division Street","geo_precision":"street","state":"CT","fteprog":2},"type":"Feature","geometry":{"type":"Point","coordinates":[-73.085071,41.333399]}},{"properties":{"city":"Ithaca","zip":"14850","geo_score":1.0,"id":"ahkru0o73r04","address":"101 Dates Drive","geo_precision":"range","state":"NY","fteprog":7},"type":"Feature","geometry":{"type":"Point","coordinates":[-76.532428,42.47368]}},{"properties":{"city":"Philadelphia","zip":"19104-4283","geo_score":1.0,"id":"ahkru0tot9l0","address":"3400 Spruce Street","geo_precision":"range","state":"PA","fteprog":null},"type":"Feature","geometry":{"type":"Point","coordinates":[-75.195321,39.950781]}},{"properties":{"city":"Philadelphia","zip":"19152","geo_score":1.0,"id":"ahkru0jiigqg","address":"8556 Bustleton Avenue","geo_precision":"range","state":"PA","fteprog":null},"type":"Feature","geometry":{"type":"Point","coordinates":[-75.047156,40.073696]}},{"properties":{"city":"Seattle","zip":"98195","geo_score":0.604,"id":"ahkru0trvja6","address":"1959 N.E. Pacific","geo_precision":"street","state":"WA","fteprog":null},"type":"Feature","geometry":{"type":"Point","coordinates":[-122.312465,47.652983]}},{"properties":{"city":"Seattle","zip":"98101","geo_score":0.916,"id":"ahkru0n2qb4b","address":"1100 9th Avenue","geo_precision":"range","state":"WA","fteprog":52},"type":"Feature","geometry":{"type":"Point","coordinates":[-122.328667,47.609834]}},{"properties":{"city":"Madison","zip":"53715","geo_score":0.619,"id":"ahkru0q7i354","address":"202 S. Park Street","geo_precision":"street","state":"WI","fteprog":null},"type":"Feature","geometry":{"type":"Point","coordinates":[-89.400953,43.06822]}},{"properties":{"city":"Madison","zip":"53715","geo_score":1.0,"id":"ahkru0l5cxxp","address":"700 South Park Street","geo_precision":"range","state":"WI","fteprog":null},"type":"Feature","geometry":{"type":"Point","coordinates":[-89.400674,43.059303]}},{"properties":{"city":"Baltimore","zip":"21287","geo_score":0.614,"id":"ahkru0p337kh","address":"600 N. Wolfe Street","geo_precision":"street","state":"MD","fteprog":null},"type":"Feature","geometry":{"type":"Point","coordinates":[-76.590618,39.294087]}},{"properties":{"city":"Baltimore","zip":"21218","geo_score":0.604,"id":"ahkru0pnse51","address":"201 E. University Parkway","geo_precision":"street","state":"MD","fteprog":1},"type":"Feature","geometry":{"type":"Point","coordinates":[-76.61281,39.329429]}},{"properties":{"city":"New York","zip":"10029","geo_score":0.916,"id":"ahkru0rj6myt","address":"1190 5th Avenue","geo_precision":"range","state":"NY","fteprog":null},"type":"Feature","geometry":{"type":"Point","coordinates":[-73.954492,40.789228]}},{"properties":{"city":"New York","zip":"10038","geo_score":1.0,"id":"ahkru0w6l7ak","address":"170 William Street","geo_precision":"range","state":"NY","fteprog":null},"type":"Feature","geometry":{"type":"Point","coordinates":[-74.005093,40.710755]}},{"properties":{"city":"Los Angeles","zip":"90095-8358","geo_score":1.0,"id":"ahkru0pabu6j","address":"757 Westwood Plaza","geo_precision":"range","state":"CA","fteprog":null},"type":"Feature","geometry":{"type":"Point","coordinates":[-118.444988,34.071265]}},{"properties":{"city":"Los Angeles","zip":"90048","geo_score":0.878,"id":"ahkru0lbd2b2","address":"8700 Beverly Boulevard","geo_precision":"range","state":"CA","fteprog":50},"type":"Feature","geometry":{"type":"Point","coordinates":[-118.380921,34.076921]}},{"properties":{"city":"Durham","zip":"27710-4699","geo_score":0.805,"id":"ahkru0jk958f","address":"2301 Erwin Road","geo_precision":"range","state":"NC","fteprog":null},"type":"Feature","geometry":{"type":"Point","coordinates":[-78.942641,36.008818]}},{"properties":{"city":"Durham","zip":"27704","geo_score":0.857,"id":"ahkru0p05bsa","address":"3643 N. Roxboro Road","geo_precision":"zip","state":"NC","fteprog":null},"type":"Feature","geometry":{"type":"Point","coordinates":[-78.82334,36.036534]}},{"properties":{"city":"Evanston","zip":"60201","geo_score":1.0,"id":"ahkru0hut7ji","address":"2650 Ridge Avenue","geo_precision":"range","state":"IL","fteprog":null},"type":"Feature","geometry":{"type":"Point","coordinates":[-87.683174,42.06577]}},{"properties":{"city":"Chicago","zip":"60640","geo_score":0.61,"id":"ahkru0pvn05c","address":"4646 N. Marine Drive","geo_precision":"street","state":"IL","fteprog":null},"type":"Feature","geometry":{"type":"Point","coordinates":[-87.649132,41.967366]}},{"properties":{"city":"Aurora","zip":"80045","geo_score":0.339,"id":"ahkru0jn9cns","address":"12605 E. 16th Avenue","geo_precision":"street","state":"CO","fteprog":null},"type":"Feature","geometry":{"type":"Point","coordinates":[-104.788592,39.741001]}},{"properties":{"city":"Boulder","zip":"80301-9019","geo_score":0.902,"id":"ahkru0tkhgi6","address":"1100 Balsam Avenue","geo_precision":"street","state":"CO","fteprog":null},"type":"Feature","geometry":{"type":"Point","coordinates":[-105.283416,40.026723]}},{"properties":{"city":"Ann Arbor","zip":"48109","geo_score":0.594,"id":"ahkru0tuou1w","address":"1500 E. Medical Center Drive","geo_precision":"street","state":"MI","fteprog":null},"type":"Feature","geometry":{"type":"Point","coordinates":[-83.729871,42.281411]}},{"properties":{"city":"Ann Arbor","zip":"48109","geo_score":0.594,"id":"ahkru0i0z3m2","address":"1500 E. Medical Center Drive","geo_precision":"street","state":"MI","fteprog":null},"type":"Feature","geometry":{"type":"Point","coordinates":[-83.729871,42.281411]}},{"properties":{"city":"Pasadena","zip":"91105","geo_score":0.597,"id":"ahkru0o5a7j8","address":"100 W. California Boulevard","geo_precision":"street","state":"CA","fteprog":5},"type":"Feature","geometry":{"type":"Point","coordinates":[-118.150378,34.135771]}},{"properties":{"city":"Monterey Park","zip":"91754","geo_score":0.602,"id":"ahkru0pi8abl","address":"525 N. Garfield Avenue","geo_precision":"street","state":"CA","fteprog":null},"type":"Feature","geometry":{"type":"Point","coordinates":[-118.122813,34.06255]}},{"properties":{"city":"Oakland","zip":"94609","geo_score":0.916,"id":"ahkru0l94bxl","address":"747 52nd Street","geo_precision":"range","state":"CA","fteprog":null},"type":"Feature","geometry":{"type":"Point","coordinates":[-122.266966,37.837377]}},{"properties":{"city":"Lincoln","zip":"68510-2462","geo_score":0.619,"id":"ahkru0r9o08p","address":"555 S. 70th Street","geo_precision":"street","state":"NE","fteprog":null},"type":"Feature","geometry":{"type":"Point","coordinates":[-96.625147,40.813272]}},{"properties":{"city":"Lincoln","zip":"68506","geo_score":0.619,"id":"ahkru0ky4y3j","address":"1600 S. 48th Street","geo_precision":"street","state":"NE","fteprog":28},"type":"Feature","geometry":{"type":"Point","coordinates":[-96.653675,40.797894]}},{"properties":{"city":"Newark","zip":"19718","geo_score":0.613,"id":"ahkru0luqzn7","address":"4755 Ogletown-Stanton Road","geo_precision":"street","state":"DE","fteprog":null},"type":"Feature","geometry":{"type":"Point","coordinates":[-75.654797,39.699936]}},{"properties":{"city":"Wilmington","zip":"19805","geo_score":0.614,"id":"ahkru0u94jny","address":"7513 N. Clayton Street","geo_precision":"street","state":"DE","fteprog":1},"type":"Feature","geometry":{"type":"Point","coordinates":[-75.575531,39.736802]}},{"properties":{"city":"Birmingham","zip":"35249","geo_score":0.357,"id":"ahkru0pnk2fw","address":"1802 6th Avenue, S.","geo_precision":"street","state":"AL","fteprog":null},"type":"Feature","geometry":{"type":"Point","coordinates":[-86.751066,33.613416]}},{"properties":{"city":"Birmingham","zip":"35205","geo_score":0.857,"id":"ahkru0saelb2","address":"810 St. Vincent's Drive","geo_precision":"zip","state":"AL","fteprog":null},"type":"Feature","geometry":{"type":"Point","coordinates":[-86.782584,33.569398]}},{"properties":{"city":"Ames","zip":"50010-5792","geo_score":1.0,"id":"ahkru0qav1ga","address":"1111 Duff Avenue","geo_precision":"range","state":"IA","fteprog":3},"type":"Feature","geometry":{"type":"Point","coordinates":[-93.610697,42.033083]}},{"properties":{"city":"Nevada","zip":"50201-2902","geo_score":0.633,"id":"ahkru0htbqql","address":"640 S. 19th Street","geo_precision":"street","state":"IA","fteprog":0},"type":"Feature","geometry":{"type":"Point","coordinates":[-93.434905,42.012125]}},{"properties":{"city":"Lebanon","zip":"3756","geo_score":0.456,"id":"ahkru0xhf9kv","address":"1 Medical Center Drive","geo_precision":"street","state":"NH","fteprog":null},"type":"Feature","geometry":{"type":"Point","coordinates":[-72.344501,43.475539]}},{"properties":{"city":"Baton Rouge","zip":"70806-3842","geo_score":1.0,"id":"ahkru0l7nnrd","address":"3600 Florida Boulevard","geo_precision":"range","state":"LA","fteprog":null},"type":"Feature","geometry":{"type":"Point","coordinates":[-91.152419,30.450388]}},{"properties":{"city":"Baton Rouge","zip":"70808","geo_score":0.902,"id":"ahkru0rubqgd","address":"5000 Hennessy Boulevard","geo_precision":"range","state":"LA","fteprog":36},"type":"Feature","geometry":{"type":"Point","coordinates":[-91.109551,30.40362]}},{"properties":{"city":"Albany","zip":"97321","geo_score":0.614,"id":"ahkru0phzydj","address":"1046 6th Avenue, S.W.","geo_precision":"street","state":"OR","fteprog":null},"type":"Feature","geometry":{"type":"Point","coordinates":[-123.105325,44.633355]}},{"properties":{"city":"Honolulu","zip":"96813","geo_score":1.0,"id":"ahkru0xn5szz","address":"1301 Punchbowl Street","geo_precision":"range","state":"HI","fteprog":null},"type":"Feature","geometry":{"type":"Point","coordinates":[-157.855049,21.307762]}},{"properties":{"city":"Honolulu","zip":"96817","geo_score":0.607,"id":"ahkru0mitf7w","address":"347 N. Kuakini Street","geo_precision":"street","state":"HI","fteprog":null},"type":"Feature","geometry":{"type":"Point","coordinates":[-157.853359,21.319195]}},{"properties":{"city":"Iowa City","zip":"52245","geo_score":0.61,"id":"ahkru0jbwv0q","address":"500 E. Market Street","geo_precision":"street","state":"IA","fteprog":null},"type":"Feature","geometry":{"type":"Point","coordinates":[-91.533059,41.663573]}},{"properties":{"city":"Iowa City","zip":"52242","geo_score":1.0,"id":"ahkru0rquyle","address":"200 Hawkins Drive","geo_precision":"range","state":"IA","fteprog":null},"type":"Feature","geometry":{"type":"Point","coordinates":[-91.54985,41.657227]}},{"properties":{"city":"Knoxville","zip":"37916-2307","geo_score":0.607,"id":"ahkru0nv6ahc","address":"1901 Clinch Avenue, S.W.","geo_precision":"street","state":"TN","fteprog":null},"type":"Feature","geometry":{"type":"Point","coordinates":[-83.91624,35.964878]}},{"properties":{"city":"Knoxville","zip":"37920","geo_score":1.0,"id":"ahkru0j05i31","address":"1924 Alcoa Highway","geo_precision":"range","state":"TN","fteprog":17},"type":"Feature","geometry":{"type":"Point","coordinates":[-83.953591,35.926193]}},{"properties":{"city":"South Bend","zip":"46601","geo_score":0.604,"id":"ahkru0wlv0xk","address":"615 N. Michigan Street","geo_precision":"street","state":"IN","fteprog":null},"type":"Feature","geometry":{"type":"Point","coordinates":[-86.250329,41.675032]}},{"properties":{"city":"Richmond","zip":"23298","geo_score":0.319,"id":"ahkru0tb0mbo","address":"1250 E. Marshall Street","geo_precision":"street","state":"VA","fteprog":null},"type":"Feature","geometry":{"type":"Point","coordinates":[-77.438431,37.544882]}},{"properties":{"city":"Richmond","zip":"23225","geo_score":1.0,"id":"ahkru0y5cga9","address":"7101 Jahnke Road","geo_precision":"range","state":"VA","fteprog":null},"type":"Feature","geometry":{"type":"Point","coordinates":[-77.526288,37.516055]}},{"properties":{"city":"Orlando","zip":"32822","geo_score":1.0,"id":"ahkru0v30srd","address":"7727 Lake Underhill Road","geo_precision":"range","state":"FL","fteprog":null},"type":"Feature","geometry":{"type":"Point","coordinates":[-81.281705,28.539217]}},{"properties":{"city":"Miami","zip":"33136-1005","geo_score":0.614,"id":"ahkru0j89aub","address":"1611 N.W. 12th Avenue","geo_precision":"street","state":"FL","fteprog":null},"type":"Feature","geometry":{"type":"Point","coordinates":[-80.197156,25.785963]}},{"properties":{"city":"Gainesville","zip":"32610","geo_score":0.571,"id":"ahkru0hybcie","address":"1600 S.W. Archer Road","geo_precision":"street","state":"FL","fteprog":null},"type":"Feature","geometry":{"type":"Point","coordinates":[-82.341847,29.639702]}},{"properties":{"city":"Gainesville","zip":"32605","geo_score":0.663,"id":"ahkru0jonp1q","address":"6500 Newberry Road","geo_precision":"street","state":"FL","fteprog":null},"type":"Feature","geometry":{"type":"Point","coordinates":[-82.418787,29.659657]}},{"properties":{"city":"Lawrence","zip":"66044","geo_score":1.0,"id":"ahkru0p4o7ne","address":"325 Maine Street","geo_precision":"range","state":"KS","fteprog":10},"type":"Feature","geometry":{"type":"Point","coordinates":[-95.247668,38.977407]}},{"properties":{"city":"Lexington","zip":"40508","geo_score":0.602,"id":"ahkru0kkakl5","address":"310 S. Limestone Street","geo_precision":"street","state":"KY","fteprog":null},"type":"Feature","geometry":{"type":"Point","coordinates":[-84.497979,38.045719]}},{"properties":{"city":"Lexington","zip":"40509","geo_score":0.598,"id":"ahkru0jtj4q0","address":"150 N. Eagle Creek Drive","geo_precision":"street","state":"KY","fteprog":null},"type":"Feature","geometry":{"type":"Point","coordinates":[-84.441362,37.999493]}},{"properties":{"city":"Albuquerque","zip":"87106","geo_score":0.604,"id":"ahkru0xkk5dj","address":"2211 Lomas Boulevard, N.E.","geo_precision":"street","state":"NM","fteprog":null},"type":"Feature","geometry":{"type":"Point","coordinates":[-106.624053,35.089726]}},{"properties":{"city":"Albuquerque","zip":"87106","geo_score":0.602,"id":"ahkru0lc83iu","address":"1100 Central Avenue, S.E.","geo_precision":"street","state":"NM","fteprog":null},"type":"Feature","geometry":{"type":"Point","coordinates":[-106.636256,35.082647]}},{"properties":{"city":"Springfield","zip":"97477","geo_score":0.565,"id":"ahkru0y6bvjd","address":"3333 Riverbend Drive","geo_precision":"street","state":"OR","fteprog":null},"type":"Feature","geometry":{"type":"Point","coordinates":[-123.378039,43.29602]}},{"properties":{"city":"Springfield","zip":"97477","geo_score":1.0,"id":"ahkru0li674v","address":"1460 G Street","geo_precision":"range","state":"OR","fteprog":null},"type":"Feature","geometry":{"type":"Point","coordinates":[-123.002735,44.052476]}},{"properties":{"city":"Columbia","zip":"29201","geo_score":1.0,"id":"ahkru0taseym","address":"1301 Taylor Street","geo_precision":"range","state":"SC","fteprog":23},"type":"Feature","geometry":{"type":"Point","coordinates":[-81.032713,34.007633]}},{"properties":{"city":"Columbia","zip":"29203","geo_score":1.0,"id":"ahkru0tmmjn4","address":"120 Gateway Corporate Blvd","geo_precision":"range","state":"SC","fteprog":null},"type":"Feature","geometry":{"type":"Point","coordinates":[-80.956421,34.104653]}},{"properties":{"city":"Tampa","zip":"33613","geo_score":0.602,"id":"ahkru0m5adhk","address":"3100 E. Fletcher Avenue","geo_precision":"street","state":"FL","fteprog":null},"type":"Feature","geometry":{"type":"Point","coordinates":[-82.438633,28.069243]}},{"properties":{"city":"Tampa","zip":"33606-3571","geo_score":0.44,"id":"ahkru0l1fynm","address":"1 Tampa General Circle","geo_precision":"street","state":"FL","fteprog":48},"type":"Feature","geometry":{"type":"Point","coordinates":[-82.45813,27.945957]}},{"properties":{"city":"Columbia","zip":"65212","geo_score":0.805,"id":"ahkru0om7czc","address":"1 Hospital Drive","geo_precision":"range","state":"MO","fteprog":null},"type":"Feature","geometry":{"type":"Point","coordinates":[-92.3283,38.93759]}},{"properties":{"city":"Marrero","zip":"70072","geo_score":1.0,"id":"ahkru0j5o7ja","address":"1101 Medical Center Boulevard","geo_precision":"range","state":"LA","fteprog":null},"type":"Feature","geometry":{"type":"Point","coordinates":[-90.096183,29.894759]}},{"properties":{"city":"New Orleans","zip":"70112-2600","geo_score":1.0,"id":"ahkru0j7h2nu","address":"1415 Tulane Avenue","geo_precision":"range","state":"LA","fteprog":9},"type":"Feature","geometry":{"type":"Point","coordinates":[-90.076826,29.955679]}},{"properties":{"city":"Metairie","zip":"70006","geo_score":1.0,"id":"ahkru0nlyycm","address":"4200 Houma Boulevard","geo_precision":"range","state":"LA","fteprog":null},"type":"Feature","geometry":{"type":"Point","coordinates":[-90.18164,30.015783]}},{"properties":{"city":"New Orleans","zip":"70115-6914","geo_score":1.0,"id":"ahkru0ld4z2f","address":"2700 Napoleon Avenue","geo_precision":"range","state":"LA","fteprog":15},"type":"Feature","geometry":{"type":"Point","coordinates":[-90.103349,29.938081]}},{"properties":{"city":"Fayetteville","zip":"72703-4007","geo_score":0.286,"id":"ahkru0vgjqsj","address":"3215 N. North Hills Boulevard","geo_precision":"street","state":"AR","fteprog":null},"type":"Feature","geometry":{"type":"Point","coordinates":[-94.177027,35.889097]}},{"properties":{"city":"Springdale","zip":"72764","geo_score":0.571,"id":"ahkru0nngwps","address":"609 W. Maple Street","geo_precision":"street","state":"AR","fteprog":null},"type":"Feature","geometry":{"type":"Point","coordinates":[-94.12939,36.181236]}},{"properties":{"city":"Norman","zip":"73071","geo_score":0.607,"id":"ahkru0wnp7m6","address":"901 N. Porter Street","geo_precision":"street","state":"OK","fteprog":null},"type":"Feature","geometry":{"type":"Point","coordinates":[-97.439743,35.223656]}},{"properties":{"city":"Bozeman","zip":"59715","geo_score":0.585,"id":"ahkru0o4av1i","address":"915 Highland Boulevard","geo_precision":"zip","state":"MT","fteprog":10},"type":"Feature","geometry":{"type":"Point","coordinates":[-111.168212,45.809998]}},{"properties":{"city":"Missoula","zip":"59802-4008","geo_score":0.604,"id":"ahkru0osgguc","address":"500 W. Broadway Street","geo_precision":"street","state":"MT","fteprog":3},"type":"Feature","geometry":{"type":"Point","coordinates":[-113.99696,46.872979]}},{"properties":{"city":"Missoula","zip":"59801-7493","geo_score":0.604,"id":"ahkru0kndkls","address":"2827 Fort Missoula Road","geo_precision":"street","state":"MT","fteprog":null},"type":"Feature","geometry":{"type":"Point","coordinates":[-114.000156,46.856539]}},{"properties":{"city":"Boca Raton","zip":"33486","geo_score":1.0,"id":"ahkru0rsz4hu","address":"800 Meadows Road","geo_precision":"range","state":"FL","fteprog":0},"type":"Feature","geometry":{"type":"Point","coordinates":[-80.102758,26.359378]}},{"properties":{"city":"Delray Beach","zip":"33484","geo_score":1.0,"id":"ahkru0xr5jma","address":"5352 Linton Boulevard","geo_precision":"range","state":"FL","fteprog":null},"type":"Feature","geometry":{"type":"Point","coordinates":[-80.127595,26.439233]}},{"properties":{"city":"Brookings","zip":"57006-2480","geo_score":0.883,"id":"ahkru0lovj0a","address":"300 22nd Avenue","geo_precision":"range","state":"SD","fteprog":null},"type":"Feature","geometry":{"type":"Point","coordinates":[-96.768209,44.303661]}},{"properties":{"city":"Bangor","zip":"04401-6616","geo_score":1.0,"id":"ahkru0m1ubsd","address":"489 State Street","geo_precision":"range","state":"ME","fteprog":0},"type":"Feature","geometry":{"type":"Point","coordinates":[-68.749952,44.809739]}},{"properties":{"city":"Bangor","zip":"04401-3979","geo_score":1.0,"id":"ahkru0xih45d","address":"360 Broadway","geo_precision":"range","state":"ME","fteprog":12},"type":"Feature","geometry":{"type":"Point","coordinates":[-68.771233,44.814228]}},{"properties":{"city":"Las Vegas","zip":"89119-5188","geo_score":0.604,"id":"ahkru0sh7l8w","address":"2075 E. Flamingo Road","geo_precision":"street","state":"NV","fteprog":0},"type":"Feature","geometry":{"type":"Point","coordinates":[-115.15399,36.114315]}},{"properties":{"city":"Las Vegas","zip":"89109-2303","geo_score":0.6,"id":"ahkru0tavhaz","address":"3186 S. Maryland Parkway","geo_precision":"street","state":"NV","fteprog":null},"type":"Feature","geometry":{"type":"Point","coordinates":[-115.137007,36.144239]}},{"properties":{"city":"Las Vegas","zip":"89128","geo_score":0.607,"id":"ahkru0pwfzd8","address":"3100 N. Tenaya Way","geo_precision":"street","state":"NV","fteprog":null},"type":"Feature","geometry":{"type":"Point","coordinates":[-115.250862,36.17429]}},{"properties":{"city":"Las Vegas","zip":"89149-4409","geo_score":0.607,"id":"ahkru0q0yvvs","address":"6900 N. Durango Drive","geo_precision":"street","state":"NV","fteprog":null},"type":"Feature","geometry":{"type":"Point","coordinates":[-115.279102,36.250019]}},{"properties":{"city":"Reno","zip":"89503-0108","geo_score":0.625,"id":"ahkru0im7vil","address":"235 W. 6th Street","geo_precision":"street","state":"NV","fteprog":null},"type":"Feature","geometry":{"type":"Point","coordinates":[-119.81634,39.532121]}},{"properties":{"city":"Morgantown","zip":"26505-3494","geo_score":0.571,"id":"ahkru0rxzalz","address":"1200 J.D. Anderson Drive","geo_precision":"street","state":"WV","fteprog":null},"type":"Feature","geometry":{"type":"Point","coordinates":[-79.954222,39.630279]}},{"properties":{"city":"Morgantown","zip":"26506-1234","geo_score":0.805,"id":"ahkru0pi091x","address":"418 Medical Center Drive","geo_precision":"range","state":"WV","fteprog":2},"type":"Feature","geometry":{"type":"Point","coordinates":[-79.962709,39.651327]}},{"properties":{"city":"Huntsville","zip":"35801","geo_score":0.927,"id":"ahkru0wsp72s","address":"101 Sivley Road","geo_precision":"range","state":"AL","fteprog":null},"type":"Feature","geometry":{"type":"Point","coordinates":[-86.581505,34.721218]}},{"properties":{"city":"Huntsville","zip":"35801-3403","geo_score":0.937,"id":"ahkru0v06dre","address":"1 Hospital Drive","geo_precision":"range","state":"AL","fteprog":null},"type":"Feature","geometry":{"type":"Point","coordinates":[-86.57242,34.691217]}},{"properties":{"city":"Fargo","zip":"58122","geo_score":0.319,"id":"ahkru0w08s0b","address":"801 Broadway, N.","geo_precision":"street","state":"ND","fteprog":null},"type":"Feature","geometry":{"type":"Point","coordinates":[-96.787804,46.875227]}},{"properties":{"city":"Louisville","zip":"40217","geo_score":0.963,"id":"ahkru0sfz1dl","address":"1 Audubon Plaza Drive","geo_precision":"range","state":"KY","fteprog":null},"type":"Feature","geometry":{"type":"Point","coordinates":[-85.717806,38.213268]}},{"properties":{"city":"Louisville","zip":"40202-1818","geo_score":1.0,"id":"ahkru0rye09t","address":"200 Abraham Flexner Way","geo_precision":"range","state":"KY","fteprog":null},"type":"Feature","geometry":{"type":"Point","coordinates":[-85.749039,38.249106]}},{"properties":{"city":"Waco","zip":"76712","geo_score":0.526,"id":"ahkru0t9wwx6","address":"100 Hillcrest Boulevard","geo_precision":"street","state":"TX","fteprog":null},"type":"Feature","geometry":{"type":"Point","coordinates":[-97.178409,31.55696]}},{"properties":{"city":"Waco","zip":"76712","geo_score":0.916,"id":"ahkru0onlly5","address":"6901 Medical Parkway","geo_precision":"range","state":"TX","fteprog":null},"type":"Feature","geometry":{"type":"Point","coordinates":[-97.197643,31.51547]}},{"properties":{"city":"Dayton","zip":"45409","geo_score":1.0,"id":"ahkru0ivlfse","address":"1 Wyoming Street","geo_precision":"range","state":"OH","fteprog":5},"type":"Feature","geometry":{"type":"Point","coordinates":[-84.18542,39.744129]}},{"properties":{"city":"Kettering","zip":"45429-1221","geo_score":1.0,"id":"ahkru0hylao0","address":"3535 Southern Boulevard","geo_precision":"range","state":"OH","fteprog":0},"type":"Feature","geometry":{"type":"Point","coordinates":[-84.190858,39.697064]}},{"properties":{"city":"Winston Salem","zip":"27103","geo_score":0.797,"id":"ahkru0xixwjp","address":"3333 Silas Creek Parkway","geo_precision":"street","state":"NC","fteprog":32},"type":"Feature","geometry":{"type":"Point","coordinates":[-80.25202,36.065869]}},{"properties":{"city":"Winston Salem","zip":"27157-0001","geo_score":0.992,"id":"ahkru0lfl8gk","address":"1 Medical Center Boulevard","geo_precision":"range","state":"NC","fteprog":null},"type":"Feature","geometry":{"type":"Point","coordinates":[-80.271501,36.090261]}},{"properties":{"city":"Johnson City","zip":"37604","geo_score":0.61,"id":"ahkru0m4c3vy","address":"400 N. State of Franklin Road","geo_precision":"street","state":"TN","fteprog":null},"type":"Feature","geometry":{"type":"Point","coordinates":[-82.354699,36.303466]}},{"properties":{"city":"Johnson City","zip":"37604","geo_score":0.585,"id":"ahkru0wx31cl","address":"300 MedTech Parkway","geo_precision":"zip","state":"TN","fteprog":null},"type":"Feature","geometry":{"type":"Point","coordinates":[-82.387422,36.308229]}},{"properties":{"city":"Terre Haute","zip":"47802-5709","geo_score":0.625,"id":"ahkru0ohoyna","address":"3901 S. 7th Street","geo_precision":"street","state":"IN","fteprog":null},"type":"Feature","geometry":{"type":"Point","coordinates":[-87.406949,39.454544]}},{"properties":{"city":"Terre Haute","zip":"47804","geo_score":0.625,"id":"ahkru0u5wn0i","address":"1606 N. 7th Street","geo_precision":"street","state":"IN","fteprog":null},"type":"Feature","geometry":{"type":"Point","coordinates":[-87.407184,39.484784]}},{"properties":{"city":"Bloomington","zip":"61701","geo_score":0.6,"id":"ahkru0w6tjgh","address":"2200 E. Washington Street","geo_precision":"street","state":"IL","fteprog":null},"type":"Feature","geometry":{"type":"Point","coordinates":[-88.993651,40.479579]}},{"properties":{"city":"Normal","zip":"61761-2850","geo_score":0.764,"id":"ahkru0i7njxb","address":"1304 Franklin Street","geo_precision":"street","state":"IL","fteprog":null},"type":"Feature","geometry":{"type":"Point","coordinates":[-88.990972,40.499299]}},{"properties":{"city":"Boynton Beach","zip":"33435","geo_score":1.0,"id":"ahkru0raf8v6","address":"2815 S Seacrest Blvd ","geo_precision":"range","state":"fl","fteprog":null},"type":"Feature","geometry":{"type":"Point","coordinates":[-80.070844,26.500586]}}],"is_temporal":false,"author":{"url":"","metadata":null,"contact_name":null,"contact_address":null,"source":null,"contact_phone":null},"source":"","pagination":{"sort":null,"start":0,"total":117,"limit":1000000},"state":"complete","tags":"","published":"2014-08-16T23:46:27-04:00","id":398817}