{"type":"FeatureCollection","data_type":"Dataset","url_type":null,"permissions":[{"permissions":{"download":true,"view":true},"group_id":"everyone"}],"classification":null,"title":"map_Select_UShospitals_GrossInc","count":117,"stream_id":398843,"contributor":{"url":"http://geocommons.com/users/83534","name":"stor00z"},"data_attributes":null,"calculation_params":null,"icon_link":null,"link":"http://geocommons.com/overlays/398843.json","extent":[-157.855,21.3078,-68.75,47.653],"geometry_types":["point"],"unique_name":null,"name":"map_Select_UShospitals_GrossInc","feature_count":117,"description":"","next_feature":null,"is_raster":false,"short_classification":"Y","stats":{"grossinc":{"max":3683523485,"variance":5.92744008840786e+17,"mean":571962067.8,"stdev":769898700.376086,"min":0,"median":312620708}},"features":[{"properties":{"city":"Cambridge","zip":"2238","grossinc":319684597,"geo_score":0.585,"id":"ahkvhpb596b5","address":"330 Mount Auburn Street","geo_precision":"zip","state":"MA"},"type":"Feature","geometry":{"type":"Point","coordinates":[-71.459405,42.446396]}},{"properties":{"city":"Boston","zip":"2108","grossinc":1661691146,"geo_score":1.0,"id":"ahkvhp6looj7","address":"294 Washington Street","geo_precision":"range","state":"MA"},"type":"Feature","geometry":{"type":"Point","coordinates":[-71.058362,42.357288]}},{"properties":{"city":"Boston","zip":"2114","grossinc":253018726,"geo_score":1.0,"id":"ahkvhp66fk9h","address":"55 Fruit Street","geo_precision":"range","state":"MA"},"type":"Feature","geometry":{"type":"Point","coordinates":[-71.069803,42.362495]}},{"properties":{"city":"Winchester","zip":"1890","grossinc":278798157,"geo_score":0.659,"id":"ahkvhpd1f1ir","address":"41 Highland Avenue","geo_precision":"range","state":"MA"},"type":"Feature","geometry":{"type":"Point","coordinates":[-71.103325,42.773339]}},{"properties":{"city":"Stanford","zip":"94305","grossinc":2510897420,"geo_score":0.805,"id":"ahkvhp99tmqu","address":"300 Pasteur Drive","geo_precision":"range","state":"CA"},"type":"Feature","geometry":{"type":"Point","coordinates":[-122.1781,37.43407]}},{"properties":{"city":"San Mateo","zip":"94403-4364","grossinc":782686,"geo_score":0.614,"id":"ahkvhp6usinw","address":"222 W. 39th Avenue","geo_precision":"street","state":"CA"},"type":"Feature","geometry":{"type":"Point","coordinates":[-122.292613,37.532907]}},{"properties":{"city":"Princeton","zip":"8540","grossinc":357469829,"geo_score":0.902,"id":"ahkvhpflilg0","address":"253 Witherspoon Street","geo_precision":"street","state":"NJ"},"type":"Feature","geometry":{"type":"Point","coordinates":[-74.663061,40.357337]}},{"properties":{"city":"Trenton","zip":"8638","grossinc":511021580,"geo_score":1.0,"id":"ahkvhp2sv4ya","address":"750 Brunswick Avenue","geo_precision":"range","state":"NJ"},"type":"Feature","geometry":{"type":"Point","coordinates":[-74.752385,40.236573]}},{"properties":{"city":"New York","zip":"10025-1716","grossinc":1216857602,"geo_score":1.0,"id":"ahkvhp48q0uc","address":"1111 Amsterdam Avenue","geo_precision":"range","state":"NY"},"type":"Feature","geometry":{"type":"Point","coordinates":[-73.961676,40.805751]}},{"properties":{"city":"New York","zip":"10037","grossinc":null,"geo_score":0.585,"id":"ahkvhp4e6jze","address":"506 Lenox Avenue","geo_precision":"zip","state":"NY"},"type":"Feature","geometry":{"type":"Point","coordinates":[-73.938498,40.813884]}},{"properties":{"city":"Bronx","zip":"10456","grossinc":627468115,"geo_score":0.806,"id":"ahkvhperwcfd","address":"1650 Grand Concourse","geo_precision":"street","state":"NY"},"type":"Feature","geometry":{"type":"Point","coordinates":[-73.913755,40.838743]}},{"properties":{"city":"Chicago","zip":"60637","grossinc":1332942470,"geo_score":0.602,"id":"ahkvhpejv35e","address":"5841 S. Maryland Avenue","geo_precision":"street","state":"IL"},"type":"Feature","geometry":{"type":"Point","coordinates":[-87.604984,41.79317]}},{"properties":{"city":"Chicago","zip":"60621","grossinc":92686822,"geo_score":0.619,"id":"ahkvhpet4k4d","address":"326 W. 64th Street","geo_precision":"street","state":"IL"},"type":"Feature","geometry":{"type":"Point","coordinates":[-87.630288,41.778159]}},{"properties":{"city":"New Haven","zip":"6504","grossinc":2010103014,"geo_score":1.0,"id":"ahkvhozjxrmd","address":"20 York Street","geo_precision":"range","state":"CT"},"type":"Feature","geometry":{"type":"Point","coordinates":[-72.934843,41.303954]}},{"properties":{"city":"New Haven","zip":"6511","grossinc":507729136,"geo_score":1.0,"id":"ahkvhpegs5jb","address":"1450 Chapel Street","geo_precision":"range","state":"CT"},"type":"Feature","geometry":{"type":"Point","coordinates":[-72.943597,41.310965]}},{"properties":{"city":"Derby","zip":"6418","grossinc":130897070,"geo_score":0.811,"id":"ahkvhp6rulzb","address":"130 Division Street","geo_precision":"street","state":"CT"},"type":"Feature","geometry":{"type":"Point","coordinates":[-73.085071,41.333399]}},{"properties":{"city":"Ithaca","zip":"14850","grossinc":254807522,"geo_score":1.0,"id":"ahkvhp62o2b7","address":"101 Dates Drive","geo_precision":"range","state":"NY"},"type":"Feature","geometry":{"type":"Point","coordinates":[-76.532428,42.47368]}},{"properties":{"city":"Philadelphia","zip":"19104-4283","grossinc":521675619,"geo_score":1.0,"id":"ahkvhp4txwaj","address":"3400 Spruce Street","geo_precision":"range","state":"PA"},"type":"Feature","geometry":{"type":"Point","coordinates":[-75.195321,39.950781]}},{"properties":{"city":"Philadelphia","zip":"19152","grossinc":744747894,"geo_score":1.0,"id":"ahkvhp0tfxvj","address":"8556 Bustleton Avenue","geo_precision":"range","state":"PA"},"type":"Feature","geometry":{"type":"Point","coordinates":[-75.047156,40.073696]}},{"properties":{"city":"Seattle","zip":"98195","grossinc":null,"geo_score":0.604,"id":"ahkvhp3brl31","address":"1959 N.E. Pacific","geo_precision":"street","state":"WA"},"type":"Feature","geometry":{"type":"Point","coordinates":[-122.312465,47.652983]}},{"properties":{"city":"Seattle","zip":"98101","grossinc":941203590,"geo_score":0.916,"id":"ahkvhp2e8nmr","address":"1100 9th Avenue","geo_precision":"range","state":"WA"},"type":"Feature","geometry":{"type":"Point","coordinates":[-122.328667,47.609834]}},{"properties":{"city":"Madison","zip":"53715","grossinc":525868083,"geo_score":0.619,"id":"ahkvhp152zrx","address":"202 S. Park Street","geo_precision":"street","state":"WI"},"type":"Feature","geometry":{"type":"Point","coordinates":[-89.400953,43.06822]}},{"properties":{"city":"Madison","zip":"53715","grossinc":null,"geo_score":1.0,"id":"ahkvhp3lpgys","address":"700 South Park Street","geo_precision":"range","state":"WI"},"type":"Feature","geometry":{"type":"Point","coordinates":[-89.400674,43.059303]}},{"properties":{"city":"Baltimore","zip":"21287","grossinc":3093748685,"geo_score":0.614,"id":"ahkvhp2szgyv","address":"600 N. Wolfe Street","geo_precision":"street","state":"MD"},"type":"Feature","geometry":{"type":"Point","coordinates":[-76.590618,39.294087]}},{"properties":{"city":"Baltimore","zip":"21218","grossinc":428030380,"geo_score":0.604,"id":"ahkvhp72bl6a","address":"201 E. University Parkway","geo_precision":"street","state":"MD"},"type":"Feature","geometry":{"type":"Point","coordinates":[-76.61281,39.329429]}},{"properties":{"city":"New York","zip":"10029","grossinc":31502376,"geo_score":0.916,"id":"ahkvhp3o6dq5","address":"1190 5th Avenue","geo_precision":"range","state":"NY"},"type":"Feature","geometry":{"type":"Point","coordinates":[-73.954492,40.789228]}},{"properties":{"city":"New York","zip":"10038","grossinc":217204650,"geo_score":1.0,"id":"ahkvhpcmjcr0","address":"170 William Street","geo_precision":"range","state":"NY"},"type":"Feature","geometry":{"type":"Point","coordinates":[-74.005093,40.710755]}},{"properties":{"city":"Los Angeles","zip":"90095-8358","grossinc":16221140,"geo_score":1.0,"id":"ahkvhp4xajx2","address":"757 Westwood Plaza","geo_precision":"range","state":"CA"},"type":"Feature","geometry":{"type":"Point","coordinates":[-118.444988,34.071265]}},{"properties":{"city":"Los Angeles","zip":"90048","grossinc":2783444852,"geo_score":0.878,"id":"ahkvhp3ni1f7","address":"8700 Beverly Boulevard","geo_precision":"range","state":"CA"},"type":"Feature","geometry":{"type":"Point","coordinates":[-118.380921,34.076921]}},{"properties":{"city":"Durham","zip":"27710-4699","grossinc":2609423531,"geo_score":0.805,"id":"ahkvhpcj16er","address":"2301 Erwin Road","geo_precision":"range","state":"NC"},"type":"Feature","geometry":{"type":"Point","coordinates":[-78.942641,36.008818]}},{"properties":{"city":"Durham","zip":"27704","grossinc":2609423531,"geo_score":0.857,"id":"ahkvhp2n7qfi","address":"3643 N. Roxboro Road","geo_precision":"zip","state":"NC"},"type":"Feature","geometry":{"type":"Point","coordinates":[-78.82334,36.036534]}},{"properties":{"city":"Evanston","zip":"60201","grossinc":1712398615,"geo_score":1.0,"id":"ahkvhpdsxtwm","address":"2650 Ridge Avenue","geo_precision":"range","state":"IL"},"type":"Feature","geometry":{"type":"Point","coordinates":[-87.683174,42.06577]}},{"properties":{"city":"Chicago","zip":"60640","grossinc":null,"geo_score":0.61,"id":"ahkvhp2nrqyf","address":"4646 N. Marine Drive","geo_precision":"street","state":"IL"},"type":"Feature","geometry":{"type":"Point","coordinates":[-87.649132,41.967366]}},{"properties":{"city":"Aurora","zip":"80045","grossinc":null,"geo_score":0.339,"id":"ahkvhp2jori0","address":"12605 E. 16th Avenue","geo_precision":"street","state":"CO"},"type":"Feature","geometry":{"type":"Point","coordinates":[-104.788592,39.741001]}},{"properties":{"city":"Boulder","zip":"80301-9019","grossinc":null,"geo_score":0.902,"id":"ahkvhp7fkhzm","address":"1100 Balsam Avenue","geo_precision":"street","state":"CO"},"type":"Feature","geometry":{"type":"Point","coordinates":[-105.283416,40.026723]}},{"properties":{"city":"Ann Arbor","zip":"48109","grossinc":null,"geo_score":0.594,"id":"ahkvhozwncfw","address":"1500 E. Medical Center Drive","geo_precision":"street","state":"MI"},"type":"Feature","geometry":{"type":"Point","coordinates":[-83.729871,42.281411]}},{"properties":{"city":"Ann Arbor","zip":"48109","grossinc":101235386,"geo_score":0.594,"id":"ahkvhp6lsrpv","address":"1500 E. Medical Center Drive","geo_precision":"street","state":"MI"},"type":"Feature","geometry":{"type":"Point","coordinates":[-83.729871,42.281411]}},{"properties":{"city":"Pasadena","zip":"91105","grossinc":447664,"geo_score":0.597,"id":"ahkvhpdfgjqk","address":"100 W. California Boulevard","geo_precision":"street","state":"CA"},"type":"Feature","geometry":{"type":"Point","coordinates":[-118.150378,34.135771]}},{"properties":{"city":"Monterey Park","zip":"91754","grossinc":1107427,"geo_score":0.602,"id":"ahkvhozuc4rz","address":"525 N. Garfield Avenue","geo_precision":"street","state":"CA"},"type":"Feature","geometry":{"type":"Point","coordinates":[-118.122813,34.06255]}},{"properties":{"city":"Oakland","zip":"94609","grossinc":491757841,"geo_score":0.916,"id":"ahkvhp20junp","address":"747 52nd Street","geo_precision":"range","state":"CA"},"type":"Feature","geometry":{"type":"Point","coordinates":[-122.266966,37.837377]}},{"properties":{"city":"Lincoln","zip":"68510-2462","grossinc":281460940,"geo_score":0.619,"id":"ahkvhp19uj6b","address":"555 S. 70th Street","geo_precision":"street","state":"NE"},"type":"Feature","geometry":{"type":"Point","coordinates":[-96.625147,40.813272]}},{"properties":{"city":"Lincoln","zip":"68506","grossinc":505547,"geo_score":0.619,"id":"ahkvhp9do05v","address":"1600 S. 48th Street","geo_precision":"street","state":"NE"},"type":"Feature","geometry":{"type":"Point","coordinates":[-96.653675,40.797894]}},{"properties":{"city":"Newark","zip":"19718","grossinc":4883911,"geo_score":0.613,"id":"ahkvhp398u8n","address":"4755 Ogletown-Stanton Road","geo_precision":"street","state":"DE"},"type":"Feature","geometry":{"type":"Point","coordinates":[-75.654797,39.699936]}},{"properties":{"city":"Wilmington","zip":"19805","grossinc":135771416,"geo_score":0.614,"id":"ahkvhp19ix28","address":"7513 N. Clayton Street","geo_precision":"street","state":"DE"},"type":"Feature","geometry":{"type":"Point","coordinates":[-75.575531,39.736802]}},{"properties":{"city":"Birmingham","zip":"35249","grossinc":null,"geo_score":0.357,"id":"ahkvhp31dz6c","address":"1802 6th Avenue, S.","geo_precision":"street","state":"AL"},"type":"Feature","geometry":{"type":"Point","coordinates":[-86.751066,33.613416]}},{"properties":{"city":"Birmingham","zip":"35205","grossinc":370538966,"geo_score":0.857,"id":"ahkvhpb5daxg","address":"810 St. Vincent's Drive","geo_precision":"zip","state":"AL"},"type":"Feature","geometry":{"type":"Point","coordinates":[-86.782584,33.569398]}},{"properties":{"city":"Ames","zip":"50010-5792","grossinc":358338,"geo_score":1.0,"id":"ahkvhp5tegxp","address":"1111 Duff Avenue","geo_precision":"range","state":"IA"},"type":"Feature","geometry":{"type":"Point","coordinates":[-93.610697,42.033083]}},{"properties":{"city":"Nevada","zip":"50201-2902","grossinc":null,"geo_score":0.633,"id":"ahkvhpdidx3z","address":"640 S. 19th Street","geo_precision":"street","state":"IA"},"type":"Feature","geometry":{"type":"Point","coordinates":[-93.434905,42.012125]}},{"properties":{"city":"Lebanon","zip":"3756","grossinc":6281889,"geo_score":0.456,"id":"ahkvhp2douxb","address":"1 Medical Center Drive","geo_precision":"street","state":"NH"},"type":"Feature","geometry":{"type":"Point","coordinates":[-72.344501,43.475539]}},{"properties":{"city":"Baton Rouge","zip":"70806-3842","grossinc":312620708,"geo_score":1.0,"id":"ahkvhp3bhc6p","address":"3600 Florida Boulevard","geo_precision":"range","state":"LA"},"type":"Feature","geometry":{"type":"Point","coordinates":[-91.152419,30.450388]}},{"properties":{"city":"Baton Rouge","zip":"70808","grossinc":901197586,"geo_score":0.902,"id":"ahkvhp0qjg7z","address":"5000 Hennessy Boulevard","geo_precision":"range","state":"LA"},"type":"Feature","geometry":{"type":"Point","coordinates":[-91.109551,30.40362]}},{"properties":{"city":"Albany","zip":"97321","grossinc":119124334,"geo_score":0.614,"id":"ahkvhp5g6qu1","address":"1046 6th Avenue, S.W.","geo_precision":"street","state":"OR"},"type":"Feature","geometry":{"type":"Point","coordinates":[-123.105325,44.633355]}},{"properties":{"city":"Honolulu","zip":"96813","grossinc":702295412,"geo_score":1.0,"id":"ahkvhpdtukx0","address":"1301 Punchbowl Street","geo_precision":"range","state":"HI"},"type":"Feature","geometry":{"type":"Point","coordinates":[-157.855049,21.307762]}},{"properties":{"city":"Honolulu","zip":"96817","grossinc":1672905,"geo_score":0.607,"id":"ahkvhpakymqy","address":"347 N. Kuakini Street","geo_precision":"street","state":"HI"},"type":"Feature","geometry":{"type":"Point","coordinates":[-157.853359,21.319195]}},{"properties":{"city":"Iowa City","zip":"52245","grossinc":186763232,"geo_score":0.61,"id":"ahkvhp5yni1v","address":"500 E. Market Street","geo_precision":"street","state":"IA"},"type":"Feature","geometry":{"type":"Point","coordinates":[-91.533059,41.663573]}},{"properties":{"city":"Iowa City","zip":"52242","grossinc":null,"geo_score":1.0,"id":"ahkvhpes76hi","address":"200 Hawkins Drive","geo_precision":"range","state":"IA"},"type":"Feature","geometry":{"type":"Point","coordinates":[-91.54985,41.657227]}},{"properties":{"city":"Knoxville","zip":"37916-2307","grossinc":317102716,"geo_score":0.607,"id":"ahkvhpdlpm45","address":"1901 Clinch Avenue, S.W.","geo_precision":"street","state":"TN"},"type":"Feature","geometry":{"type":"Point","coordinates":[-83.91624,35.964878]}},{"properties":{"city":"Knoxville","zip":"37920","grossinc":805852269,"geo_score":1.0,"id":"ahkvhpchegm7","address":"1924 Alcoa Highway","geo_precision":"range","state":"TN"},"type":"Feature","geometry":{"type":"Point","coordinates":[-83.953591,35.926193]}},{"properties":{"city":"South Bend","zip":"46601","grossinc":419825198,"geo_score":0.604,"id":"ahkvhp61ce2s","address":"615 N. Michigan Street","geo_precision":"street","state":"IN"},"type":"Feature","geometry":{"type":"Point","coordinates":[-86.250329,41.675032]}},{"properties":{"city":"Richmond","zip":"23298","grossinc":null,"geo_score":0.319,"id":"ahkvhpejyst0","address":"1250 E. Marshall Street","geo_precision":"street","state":"VA"},"type":"Feature","geometry":{"type":"Point","coordinates":[-77.438431,37.544882]}},{"properties":{"city":"Richmond","zip":"23225","grossinc":null,"geo_score":1.0,"id":"ahkvhp6seu68","address":"7101 Jahnke Road","geo_precision":"range","state":"VA"},"type":"Feature","geometry":{"type":"Point","coordinates":[-77.526288,37.516055]}},{"properties":{"city":"Orlando","zip":"32822","grossinc":null,"geo_score":1.0,"id":"ahkvhpf88c09","address":"7727 Lake Underhill Road","geo_precision":"range","state":"FL"},"type":"Feature","geometry":{"type":"Point","coordinates":[-81.281705,28.539217]}},{"properties":{"city":"Miami","zip":"33136-1005","grossinc":null,"geo_score":0.614,"id":"ahkvhpawzs9v","address":"1611 N.W. 12th Avenue","geo_precision":"street","state":"FL"},"type":"Feature","geometry":{"type":"Point","coordinates":[-80.197156,25.785963]}},{"properties":{"city":"Gainesville","zip":"32610","grossinc":525330557,"geo_score":0.571,"id":"ahkvhp1fwp2d","address":"1600 S.W. Archer Road","geo_precision":"street","state":"FL"},"type":"Feature","geometry":{"type":"Point","coordinates":[-82.341847,29.639702]}},{"properties":{"city":"Gainesville","zip":"32605","grossinc":null,"geo_score":0.663,"id":"ahkvhp45d9h3","address":"6500 Newberry Road","geo_precision":"street","state":"FL"},"type":"Feature","geometry":{"type":"Point","coordinates":[-82.418787,29.659657]}},{"properties":{"city":"Lawrence","zip":"66044","grossinc":4666387,"geo_score":1.0,"id":"ahkvhp7nhzrs","address":"325 Maine Street","geo_precision":"range","state":"KS"},"type":"Feature","geometry":{"type":"Point","coordinates":[-95.247668,38.977407]}},{"properties":{"city":"Lexington","zip":"40508","grossinc":null,"geo_score":0.602,"id":"ahkvhpdjlttf","address":"310 S. Limestone Street","geo_precision":"street","state":"KY"},"type":"Feature","geometry":{"type":"Point","coordinates":[-84.497979,38.045719]}},{"properties":{"city":"Lexington","zip":"40509","grossinc":777620731,"geo_score":0.598,"id":"ahkvhp6rnato","address":"150 N. Eagle Creek Drive","geo_precision":"street","state":"KY"},"type":"Feature","geometry":{"type":"Point","coordinates":[-84.441362,37.999493]}},{"properties":{"city":"Albuquerque","zip":"87106","grossinc":null,"geo_score":0.604,"id":"ahkvhp8zce49","address":"2211 Lomas Boulevard, N.E.","geo_precision":"street","state":"NM"},"type":"Feature","geometry":{"type":"Point","coordinates":[-106.624053,35.089726]}},{"properties":{"city":"Albuquerque","zip":"87106","grossinc":73667359,"geo_score":0.602,"id":"ahkvhp19d75y","address":"1100 Central Avenue, S.E.","geo_precision":"street","state":"NM"},"type":"Feature","geometry":{"type":"Point","coordinates":[-106.636256,35.082647]}},{"properties":{"city":"Springfield","zip":"97477","grossinc":517534294,"geo_score":0.565,"id":"ahkvhozor943","address":"3333 Riverbend Drive","geo_precision":"street","state":"OR"},"type":"Feature","geometry":{"type":"Point","coordinates":[-123.378039,43.29602]}},{"properties":{"city":"Springfield","zip":"97477","grossinc":0,"geo_score":1.0,"id":"ahkvhp7681rv","address":"1460 G Street","geo_precision":"range","state":"OR"},"type":"Feature","geometry":{"type":"Point","coordinates":[-123.002735,44.052476]}},{"properties":{"city":"Columbia","zip":"29201","grossinc":null,"geo_score":1.0,"id":"ahkvhp14wlza","address":"1301 Taylor Street","geo_precision":"range","state":"SC"},"type":"Feature","geometry":{"type":"Point","coordinates":[-81.032713,34.007633]}},{"properties":{"city":"Columbia","zip":"29203","grossinc":260535471,"geo_score":1.0,"id":"ahkvhp28bn3f","address":"120 Gateway Corporate Blvd","geo_precision":"range","state":"SC"},"type":"Feature","geometry":{"type":"Point","coordinates":[-80.956421,34.104653]}},{"properties":{"city":"Tampa","zip":"33613","grossinc":null,"geo_score":0.602,"id":"ahkvhpe13udg","address":"3100 E. Fletcher Avenue","geo_precision":"street","state":"FL"},"type":"Feature","geometry":{"type":"Point","coordinates":[-82.438633,28.069243]}},{"properties":{"city":"Tampa","zip":"33606-3571","grossinc":3759719,"geo_score":0.44,"id":"ahkvhp9otn7w","address":"1 Tampa General Circle","geo_precision":"street","state":"FL"},"type":"Feature","geometry":{"type":"Point","coordinates":[-82.45813,27.945957]}},{"properties":{"city":"Columbia","zip":"65212","grossinc":534940158,"geo_score":0.805,"id":"ahkvhp1n1fmz","address":"1 Hospital Drive","geo_precision":"range","state":"MO"},"type":"Feature","geometry":{"type":"Point","coordinates":[-92.3283,38.93759]}},{"properties":{"city":"Marrero","zip":"70072","grossinc":984976,"geo_score":1.0,"id":"ahkvhp848dzq","address":"1101 Medical Center Boulevard","geo_precision":"range","state":"LA"},"type":"Feature","geometry":{"type":"Point","coordinates":[-90.096183,29.894759]}},{"properties":{"city":"New Orleans","zip":"70112-2600","grossinc":null,"geo_score":1.0,"id":"ahkvhpcbe1ur","address":"1415 Tulane Avenue","geo_precision":"range","state":"LA"},"type":"Feature","geometry":{"type":"Point","coordinates":[-90.076826,29.955679]}},{"properties":{"city":"Metairie","zip":"70006","grossinc":3683523485,"geo_score":1.0,"id":"ahkvhp7kk8gk","address":"4200 Houma Boulevard","geo_precision":"range","state":"LA"},"type":"Feature","geometry":{"type":"Point","coordinates":[-90.18164,30.015783]}},{"properties":{"city":"New Orleans","zip":"70115-6914","grossinc":null,"geo_score":1.0,"id":"ahkvhp7ydy2o","address":"2700 Napoleon Avenue","geo_precision":"range","state":"LA"},"type":"Feature","geometry":{"type":"Point","coordinates":[-90.103349,29.938081]}},{"properties":{"city":"Fayetteville","zip":"72703-4007","grossinc":233074800,"geo_score":0.286,"id":"ahkvhp0xd638","address":"3215 N. North Hills Boulevard","geo_precision":"street","state":"AR"},"type":"Feature","geometry":{"type":"Point","coordinates":[-94.177027,35.889097]}},{"properties":{"city":"Springdale","zip":"72764","grossinc":null,"geo_score":0.571,"id":"ahkvhp50u5zu","address":"609 W. Maple Street","geo_precision":"street","state":"AR"},"type":"Feature","geometry":{"type":"Point","coordinates":[-94.12939,36.181236]}},{"properties":{"city":"Norman","zip":"73071","grossinc":null,"geo_score":0.607,"id":"ahkvhp53x9i7","address":"901 N. Porter Street","geo_precision":"street","state":"OK"},"type":"Feature","geometry":{"type":"Point","coordinates":[-97.439743,35.223656]}},{"properties":{"city":"Bozeman","zip":"59715","grossinc":203429339,"geo_score":0.585,"id":"ahkvhpdtbd8k","address":"915 Highland Boulevard","geo_precision":"zip","state":"MT"},"type":"Feature","geometry":{"type":"Point","coordinates":[-111.168212,45.809998]}},{"properties":{"city":"Missoula","zip":"59802-4008","grossinc":252975164,"geo_score":0.604,"id":"ahkvhp2yfjcp","address":"500 W. Broadway Street","geo_precision":"street","state":"MT"},"type":"Feature","geometry":{"type":"Point","coordinates":[-113.99696,46.872979]}},{"properties":{"city":"Missoula","zip":"59801-7493","grossinc":150559442,"geo_score":0.604,"id":"ahkvhp6bslht","address":"2827 Fort Missoula Road","geo_precision":"street","state":"MT"},"type":"Feature","geometry":{"type":"Point","coordinates":[-114.000156,46.856539]}},{"properties":{"city":"Boca Raton","zip":"33486","grossinc":376905171,"geo_score":1.0,"id":"ahkvhp2lpfef","address":"800 Meadows Road","geo_precision":"range","state":"FL"},"type":"Feature","geometry":{"type":"Point","coordinates":[-80.102758,26.359378]}},{"properties":{"city":"Delray Beach","zip":"33484","grossinc":null,"geo_score":1.0,"id":"ahkvhpeb99z3","address":"5352 Linton Boulevard","geo_precision":"range","state":"FL"},"type":"Feature","geometry":{"type":"Point","coordinates":[-80.127595,26.439233]}},{"properties":{"city":"Brookings","zip":"57006-2480","grossinc":null,"geo_score":0.883,"id":"ahkvhp1sw44l","address":"300 22nd Avenue","geo_precision":"range","state":"SD"},"type":"Feature","geometry":{"type":"Point","coordinates":[-96.768209,44.303661]}},{"properties":{"city":"Bangor","zip":"04401-6616","grossinc":1174585856,"geo_score":1.0,"id":"ahkvhp689hu5","address":"489 State Street","geo_precision":"range","state":"ME"},"type":"Feature","geometry":{"type":"Point","coordinates":[-68.749952,44.809739]}},{"properties":{"city":"Bangor","zip":"04401-3979","grossinc":101483799,"geo_score":1.0,"id":"ahkvhpf0uhfe","address":"360 Broadway","geo_precision":"range","state":"ME"},"type":"Feature","geometry":{"type":"Point","coordinates":[-68.771233,44.814228]}},{"properties":{"city":"Las Vegas","zip":"89119-5188","grossinc":449097994,"geo_score":0.604,"id":"ahkvhpauhrk1","address":"2075 E. Flamingo Road","geo_precision":"street","state":"NV"},"type":"Feature","geometry":{"type":"Point","coordinates":[-115.15399,36.114315]}},{"properties":{"city":"Las Vegas","zip":"89109-2303","grossinc":null,"geo_score":0.6,"id":"ahkvhpamv2j9","address":"3186 S. Maryland Parkway","geo_precision":"street","state":"NV"},"type":"Feature","geometry":{"type":"Point","coordinates":[-115.137007,36.144239]}},{"properties":{"city":"Las Vegas","zip":"89128","grossinc":4238785,"geo_score":0.607,"id":"ahkvhp0ffd2p","address":"3100 N. Tenaya Way","geo_precision":"street","state":"NV"},"type":"Feature","geometry":{"type":"Point","coordinates":[-115.250862,36.17429]}},{"properties":{"city":"Las Vegas","zip":"89149-4409","grossinc":null,"geo_score":0.607,"id":"ahkvhpc6kpos","address":"6900 N. Durango Drive","geo_precision":"street","state":"NV"},"type":"Feature","geometry":{"type":"Point","coordinates":[-115.279102,36.250019]}},{"properties":{"city":"Reno","zip":"89503-0108","grossinc":17704275,"geo_score":0.625,"id":"ahkvhpby8w7p","address":"235 W. 6th Street","geo_precision":"street","state":"NV"},"type":"Feature","geometry":{"type":"Point","coordinates":[-119.81634,39.532121]}},{"properties":{"city":"Morgantown","zip":"26505-3494","grossinc":264198452,"geo_score":0.571,"id":"ahkvhpcrp04a","address":"1200 J.D. Anderson Drive","geo_precision":"street","state":"WV"},"type":"Feature","geometry":{"type":"Point","coordinates":[-79.954222,39.630279]}},{"properties":{"city":"Morgantown","zip":"26506-1234","grossinc":null,"geo_score":0.805,"id":"ahkvhp8j2r4u","address":"418 Medical Center Drive","geo_precision":"range","state":"WV"},"type":"Feature","geometry":{"type":"Point","coordinates":[-79.962709,39.651327]}},{"properties":{"city":"Huntsville","zip":"35801","grossinc":9565671,"geo_score":0.927,"id":"ahkvhpammgmt","address":"101 Sivley Road","geo_precision":"range","state":"AL"},"type":"Feature","geometry":{"type":"Point","coordinates":[-86.581505,34.721218]}},{"properties":{"city":"Huntsville","zip":"35801-3403","grossinc":null,"geo_score":0.937,"id":"ahkvhoz8ebmh","address":"1 Hospital Drive","geo_precision":"range","state":"AL"},"type":"Feature","geometry":{"type":"Point","coordinates":[-86.57242,34.691217]}},{"properties":{"city":"Fargo","zip":"58122","grossinc":455514265,"geo_score":0.319,"id":"ahkvhp1qe6am","address":"801 Broadway, N.","geo_precision":"street","state":"ND"},"type":"Feature","geometry":{"type":"Point","coordinates":[-96.787804,46.875227]}},{"properties":{"city":"Louisville","zip":"40217","grossinc":306511917,"geo_score":0.963,"id":"ahkvhpc2z1nk","address":"1 Audubon Plaza Drive","geo_precision":"range","state":"KY"},"type":"Feature","geometry":{"type":"Point","coordinates":[-85.717806,38.213268]}},{"properties":{"city":"Louisville","zip":"40202-1818","grossinc":1013762763,"geo_score":1.0,"id":"ahkvhpcq739d","address":"200 Abraham Flexner Way","geo_precision":"range","state":"KY"},"type":"Feature","geometry":{"type":"Point","coordinates":[-85.749039,38.249106]}},{"properties":{"city":"Waco","zip":"76712","grossinc":236452639,"geo_score":0.526,"id":"ahkvhp5efqel","address":"100 Hillcrest Boulevard","geo_precision":"street","state":"TX"},"type":"Feature","geometry":{"type":"Point","coordinates":[-97.178409,31.55696]}},{"properties":{"city":"Waco","zip":"76712","grossinc":null,"geo_score":0.916,"id":"ahkvhp7v5jpy","address":"6901 Medical Parkway","geo_precision":"range","state":"TX"},"type":"Feature","geometry":{"type":"Point","coordinates":[-97.197643,31.51547]}},{"properties":{"city":"Dayton","zip":"45409","grossinc":799106934,"geo_score":1.0,"id":"ahkvhpbvkdm4","address":"1 Wyoming Street","geo_precision":"range","state":"OH"},"type":"Feature","geometry":{"type":"Point","coordinates":[-84.18542,39.744129]}},{"properties":{"city":"Kettering","zip":"45429-1221","grossinc":565005639,"geo_score":1.0,"id":"ahkvhp9m6lky","address":"3535 Southern Boulevard","geo_precision":"range","state":"OH"},"type":"Feature","geometry":{"type":"Point","coordinates":[-84.190858,39.697064]}},{"properties":{"city":"Winston Salem","zip":"27103","grossinc":901514392,"geo_score":0.797,"id":"ahkvhp9ydr5n","address":"3333 Silas Creek Parkway","geo_precision":"street","state":"NC"},"type":"Feature","geometry":{"type":"Point","coordinates":[-80.25202,36.065869]}},{"properties":{"city":"Winston Salem","zip":"27157-0001","grossinc":12836,"geo_score":0.992,"id":"ahkvhpele18m","address":"1 Medical Center Boulevard","geo_precision":"range","state":"NC"},"type":"Feature","geometry":{"type":"Point","coordinates":[-80.271501,36.090261]}},{"properties":{"city":"Johnson City","zip":"37604","grossinc":701975767,"geo_score":0.61,"id":"ahkvhpabsi3c","address":"400 N. State of Franklin Road","geo_precision":"street","state":"TN"},"type":"Feature","geometry":{"type":"Point","coordinates":[-82.354699,36.303466]}},{"properties":{"city":"Johnson City","zip":"37604","grossinc":null,"geo_score":0.585,"id":"ahkvhpf6admk","address":"300 MedTech Parkway","geo_precision":"zip","state":"TN"},"type":"Feature","geometry":{"type":"Point","coordinates":[-82.387422,36.308229]}},{"properties":{"city":"Terre Haute","zip":"47802-5709","grossinc":19054624,"geo_score":0.625,"id":"ahkvhp996mj6","address":"3901 S. 7th Street","geo_precision":"street","state":"IN"},"type":"Feature","geometry":{"type":"Point","coordinates":[-87.406949,39.454544]}},{"properties":{"city":"Terre Haute","zip":"47804","grossinc":424153646,"geo_score":0.625,"id":"ahkvhp5gggih","address":"1606 N. 7th Street","geo_precision":"street","state":"IN"},"type":"Feature","geometry":{"type":"Point","coordinates":[-87.407184,39.484784]}},{"properties":{"city":"Bloomington","zip":"61701","grossinc":2843175,"geo_score":0.6,"id":"ahkvhp4428te","address":"2200 E. Washington Street","geo_precision":"street","state":"IL"},"type":"Feature","geometry":{"type":"Point","coordinates":[-88.993651,40.479579]}},{"properties":{"city":"Normal","zip":"61761-2850","grossinc":107932758,"geo_score":0.764,"id":"ahkvhp2scffw","address":"1304 Franklin Street","geo_precision":"street","state":"IL"},"type":"Feature","geometry":{"type":"Point","coordinates":[-88.990972,40.499299]}},{"properties":{"city":"Boynton Beach","zip":"33435","grossinc":null,"geo_score":1.0,"id":"ahkvhp3a3r2b","address":"2815 S Seacrest Blvd ","geo_precision":"range","state":"fl"},"type":"Feature","geometry":{"type":"Point","coordinates":[-80.070844,26.500586]}}],"is_temporal":false,"author":{"url":"","metadata":null,"contact_name":null,"contact_address":null,"source":null,"contact_phone":null},"source":"","pagination":{"sort":null,"start":0,"total":117,"limit":1000000},"state":"complete","tags":"","published":"2014-08-16T23:50:09-04:00","id":398843}