{"type":"FeatureCollection","data_type":"Dataset","url_type":null,"permissions":[{"permissions":{"download":true,"view":true},"group_id":"everyone"}],"classification":null,"title":"map_Select_UShospitals_ALLPUB","count":117,"stream_id":398849,"contributor":{"url":"http://geocommons.com/users/83534","name":"stor00z"},"data_attributes":null,"calculation_params":null,"icon_link":null,"link":"http://geocommons.com/overlays/398849.json","extent":[-157.855,21.3078,-68.75,47.653],"geometry_types":["point"],"unique_name":null,"name":"map_Select_UShospitals_ALLPUB","feature_count":117,"description":"","next_feature":null,"is_raster":false,"short_classification":"Y","stats":{"allpub":{"max":78770,"variance":68500876.9895373,"mean":2233.26495726496,"stdev":8276.52565932936,"min":0,"median":81}},"features":[{"properties":{"city":"Cambridge","zip":"02238","geo_score":0.585,"id":"ahkw30oncshg","address":"330 Mount Auburn Street","geo_precision":"zip","allpub":657,"state":"MA"},"type":"Feature","geometry":{"type":"Point","coordinates":[-71.459405,42.446396]}},{"properties":{"city":"Boston","zip":"02108","geo_score":1.0,"id":"ahkw30utzw9i","address":"294 Washington Street","geo_precision":"range","allpub":25212,"state":"MA"},"type":"Feature","geometry":{"type":"Point","coordinates":[-71.058362,42.357288]}},{"properties":{"city":"Boston","zip":"02114","geo_score":1.0,"id":"ahkw312fcrud","address":"55 Fruit Street","geo_precision":"range","allpub":78770,"state":"MA"},"type":"Feature","geometry":{"type":"Point","coordinates":[-71.069803,42.362495]}},{"properties":{"city":"Winchester","zip":"01890","geo_score":0.659,"id":"ahkw30zsn1ch","address":"41 Highland Avenue","geo_precision":"range","allpub":64,"state":"MA"},"type":"Feature","geometry":{"type":"Point","coordinates":[-71.103325,42.773339]}},{"properties":{"city":"Stanford","zip":"94305","geo_score":0.805,"id":"ahkw30zvusn2","address":"300 Pasteur Drive","geo_precision":"range","allpub":13046,"state":"CA"},"type":"Feature","geometry":{"type":"Point","coordinates":[-122.1781,37.43407]}},{"properties":{"city":"San Mateo","zip":"94403-4364","geo_score":0.614,"id":"ahkw30wwn17a","address":"222 W. 39th Avenue","geo_precision":"street","allpub":14,"state":"CA"},"type":"Feature","geometry":{"type":"Point","coordinates":[-122.292613,37.532907]}},{"properties":{"city":"Princeton","zip":"08540","geo_score":0.902,"id":"ahkw312t381h","address":"253 Witherspoon Street","geo_precision":"street","allpub":113,"state":"NJ"},"type":"Feature","geometry":{"type":"Point","coordinates":[-74.663061,40.357337]}},{"properties":{"city":"Trenton","zip":"08638","geo_score":1.0,"id":"ahkw30pka7ix","address":"750 Brunswick Avenue","geo_precision":"range","allpub":15,"state":"NJ"},"type":"Feature","geometry":{"type":"Point","coordinates":[-74.752385,40.236573]}},{"properties":{"city":"New York","zip":"10025-1716","geo_score":1.0,"id":"ahkw30umpov3","address":"1111 Amsterdam Avenue","geo_precision":"range","allpub":5697,"state":"NY"},"type":"Feature","geometry":{"type":"Point","coordinates":[-73.961676,40.805751]}},{"properties":{"city":"New York","zip":"10037","geo_score":0.585,"id":"ahkw30rgwcd5","address":"506 Lenox Avenue","geo_precision":"zip","allpub":703,"state":"NY"},"type":"Feature","geometry":{"type":"Point","coordinates":[-73.938498,40.813884]}},{"properties":{"city":"Bronx","zip":"10456","geo_score":0.806,"id":"ahkw30yafkss","address":"1650 Grand Concourse","geo_precision":"street","allpub":944,"state":"NY"},"type":"Feature","geometry":{"type":"Point","coordinates":[-73.913755,40.838743]}},{"properties":{"city":"Chicago","zip":"60637","geo_score":0.602,"id":"ahkw310rmkor","address":"5841 S. Maryland Avenue","geo_precision":"street","allpub":3293,"state":"IL"},"type":"Feature","geometry":{"type":"Point","coordinates":[-87.604984,41.79317]}},{"properties":{"city":"Chicago","zip":"60621","geo_score":0.619,"id":"ahkw31016f0u","address":"326 W. 64th Street","geo_precision":"street","allpub":0,"state":"IL"},"type":"Feature","geometry":{"type":"Point","coordinates":[-87.630288,41.778159]}},{"properties":{"city":"New Haven","zip":"06504","geo_score":1.0,"id":"ahkw30shl9ze","address":"20 York Street","geo_precision":"range","allpub":1643,"state":"CT"},"type":"Feature","geometry":{"type":"Point","coordinates":[-72.934843,41.303954]}},{"properties":{"city":"New Haven","zip":"06511","geo_score":1.0,"id":"ahkw311zatf2","address":"1450 Chapel Street","geo_precision":"range","allpub":740,"state":"CT"},"type":"Feature","geometry":{"type":"Point","coordinates":[-72.943597,41.310965]}},{"properties":{"city":"Derby","zip":"06418","geo_score":0.811,"id":"ahkw30yrxrjc","address":"130 Division Street","geo_precision":"street","allpub":154,"state":"CT"},"type":"Feature","geometry":{"type":"Point","coordinates":[-73.085071,41.333399]}},{"properties":{"city":"Ithaca","zip":"14850","geo_score":1.0,"id":"ahkw30pw530n","address":"101 Dates Drive","geo_precision":"range","allpub":19,"state":"NY"},"type":"Feature","geometry":{"type":"Point","coordinates":[-76.532428,42.47368]}},{"properties":{"city":"Philadelphia","zip":"19104-4283","geo_score":1.0,"id":"ahkw30uazo4l","address":"3400 Spruce Street","geo_precision":"range","allpub":20924,"state":"PA"},"type":"Feature","geometry":{"type":"Point","coordinates":[-75.195321,39.950781]}},{"properties":{"city":"Philadelphia","zip":"19152","geo_score":1.0,"id":"ahkw30zvbfip","address":"8556 Bustleton Avenue","geo_precision":"range","allpub":2611,"state":"PA"},"type":"Feature","geometry":{"type":"Point","coordinates":[-75.047156,40.073696]}},{"properties":{"city":"Seattle","zip":"98195","geo_score":0.604,"id":"ahkw30y6l6ip","address":"1959 N.E. Pacific","geo_precision":"street","allpub":4046,"state":"WA"},"type":"Feature","geometry":{"type":"Point","coordinates":[-122.312465,47.652983]}},{"properties":{"city":"Seattle","zip":"98101","geo_score":0.916,"id":"ahkw30vvmfrm","address":"1100 9th Avenue","geo_precision":"range","allpub":2873,"state":"WA"},"type":"Feature","geometry":{"type":"Point","coordinates":[-122.328667,47.609834]}},{"properties":{"city":"Madison","zip":"53715","geo_score":0.619,"id":"ahkw30ytgk67","address":"202 S. Park Street","geo_precision":"street","allpub":169,"state":"WI"},"type":"Feature","geometry":{"type":"Point","coordinates":[-89.400953,43.06822]}},{"properties":{"city":"Madison","zip":"53715","geo_score":1.0,"id":"ahkw30yg9tj0","address":"700 South Park Street","geo_precision":"range","allpub":118,"state":"WI"},"type":"Feature","geometry":{"type":"Point","coordinates":[-89.400674,43.059303]}},{"properties":{"city":"Baltimore","zip":"21287","geo_score":0.614,"id":"ahkw311lkyfq","address":"600 N. Wolfe Street","geo_precision":"street","allpub":16664,"state":"MD"},"type":"Feature","geometry":{"type":"Point","coordinates":[-76.590618,39.294087]}},{"properties":{"city":"Baltimore","zip":"21218","geo_score":0.604,"id":"ahkw30zr3u88","address":"201 E. University Parkway","geo_precision":"street","allpub":1073,"state":"MD"},"type":"Feature","geometry":{"type":"Point","coordinates":[-76.61281,39.329429]}},{"properties":{"city":"New York","zip":"10029","geo_score":0.916,"id":"ahkw30wv3oki","address":"1190 5th Avenue","geo_precision":"range","allpub":9834,"state":"NY"},"type":"Feature","geometry":{"type":"Point","coordinates":[-73.954492,40.789228]}},{"properties":{"city":"New York","zip":"10038","geo_score":1.0,"id":"ahkw30q5nwlk","address":"170 William Street","geo_precision":"range","allpub":183,"state":"NY"},"type":"Feature","geometry":{"type":"Point","coordinates":[-74.005093,40.710755]}},{"properties":{"city":"Los Angeles","zip":"90095-8358","geo_score":1.0,"id":"ahkw30nu44kd","address":"757 Westwood Plaza","geo_precision":"range","allpub":6810,"state":"CA"},"type":"Feature","geometry":{"type":"Point","coordinates":[-118.444988,34.071265]}},{"properties":{"city":"Los Angeles","zip":"90048","geo_score":0.878,"id":"ahkw30y0pmgv","address":"8700 Beverly Boulevard","geo_precision":"range","allpub":12503,"state":"CA"},"type":"Feature","geometry":{"type":"Point","coordinates":[-118.380921,34.076921]}},{"properties":{"city":"Durham","zip":"27710-4699","geo_score":0.805,"id":"ahkw30wnmw0z","address":"2301 Erwin Road","geo_precision":"range","allpub":920,"state":"NC"},"type":"Feature","geometry":{"type":"Point","coordinates":[-78.942641,36.008818]}},{"properties":{"city":"Durham","zip":"27704","geo_score":0.857,"id":"ahkw30w0vnoi","address":"3643 N. Roxboro Road","geo_precision":"zip","allpub":920,"state":"NC"},"type":"Feature","geometry":{"type":"Point","coordinates":[-78.82334,36.036534]}},{"properties":{"city":"Evanston","zip":"60201","geo_score":1.0,"id":"ahkw3125lnth","address":"2650 Ridge Avenue","geo_precision":"range","allpub":1487,"state":"IL"},"type":"Feature","geometry":{"type":"Point","coordinates":[-87.683174,42.06577]}},{"properties":{"city":"Chicago","zip":"60640","geo_score":0.61,"id":"ahkw30yxge93","address":"4646 N. Marine Drive","geo_precision":"street","allpub":115,"state":"IL"},"type":"Feature","geometry":{"type":"Point","coordinates":[-87.649132,41.967366]}},{"properties":{"city":"Aurora","zip":"80045","geo_score":0.339,"id":"ahkw30plixdh","address":"12605 E. 16th Avenue","geo_precision":"street","allpub":3432,"state":"CO"},"type":"Feature","geometry":{"type":"Point","coordinates":[-104.788592,39.741001]}},{"properties":{"city":"Boulder","zip":"80301-9019","geo_score":0.902,"id":"ahkw30wcznk3","address":"1100 Balsam Avenue","geo_precision":"street","allpub":11,"state":"CO"},"type":"Feature","geometry":{"type":"Point","coordinates":[-105.283416,40.026723]}},{"properties":{"city":"Ann Arbor","zip":"48109","geo_score":0.594,"id":"ahkw30zip1r4","address":"1500 E. Medical Center Drive","geo_precision":"street","allpub":15468,"state":"MI"},"type":"Feature","geometry":{"type":"Point","coordinates":[-83.729871,42.281411]}},{"properties":{"city":"Ann Arbor","zip":"48109","geo_score":0.594,"id":"ahkw30p46pcx","address":"1500 E. Medical Center Drive","geo_precision":"street","allpub":1000,"state":"MI"},"type":"Feature","geometry":{"type":"Point","coordinates":[-83.729871,42.281411]}},{"properties":{"city":"Pasadena","zip":"91105","geo_score":0.597,"id":"ahkw30n9xj7h","address":"100 W. California Boulevard","geo_precision":"street","allpub":504,"state":"CA"},"type":"Feature","geometry":{"type":"Point","coordinates":[-118.150378,34.135771]}},{"properties":{"city":"Monterey Park","zip":"91754","geo_score":0.602,"id":"ahkw30wjgqnf","address":"525 N. Garfield Avenue","geo_precision":"street","allpub":5,"state":"CA"},"type":"Feature","geometry":{"type":"Point","coordinates":[-118.122813,34.06255]}},{"properties":{"city":"Oakland","zip":"94609","geo_score":0.916,"id":"ahkw30pys7k2","address":"747 52nd Street","geo_precision":"range","allpub":212,"state":"CA"},"type":"Feature","geometry":{"type":"Point","coordinates":[-122.266966,37.837377]}},{"properties":{"city":"Lincoln","zip":"68510-2462","geo_score":0.619,"id":"ahkw30nlvkae","address":"555 S. 70th Street","geo_precision":"street","allpub":70,"state":"NE"},"type":"Feature","geometry":{"type":"Point","coordinates":[-96.625147,40.813272]}},{"properties":{"city":"Lincoln","zip":"68506","geo_score":0.619,"id":"ahkw30xl66ns","address":"1600 S. 48th Street","geo_precision":"street","allpub":108,"state":"NE"},"type":"Feature","geometry":{"type":"Point","coordinates":[-96.653675,40.797894]}},{"properties":{"city":"Newark","zip":"19718","geo_score":0.613,"id":"ahkw30wd9hxn","address":"4755 Ogletown-Stanton Road","geo_precision":"street","allpub":201,"state":"DE"},"type":"Feature","geometry":{"type":"Point","coordinates":[-75.654797,39.699936]}},{"properties":{"city":"Wilmington","zip":"19805","geo_score":0.614,"id":"ahkw30x7yqkb","address":"7513 N. Clayton Street","geo_precision":"street","allpub":0,"state":"DE"},"type":"Feature","geometry":{"type":"Point","coordinates":[-75.575531,39.736802]}},{"properties":{"city":"Birmingham","zip":"35249","geo_score":0.357,"id":"ahkw30xkacyt","address":"1802 6th Avenue, S.","geo_precision":"street","allpub":128,"state":"AL"},"type":"Feature","geometry":{"type":"Point","coordinates":[-86.751066,33.613416]}},{"properties":{"city":"Birmingham","zip":"35205","geo_score":0.857,"id":"ahkw30qs8d6b","address":"810 St. Vincent's Drive","geo_precision":"zip","allpub":0,"state":"AL"},"type":"Feature","geometry":{"type":"Point","coordinates":[-86.782584,33.569398]}},{"properties":{"city":"Ames","zip":"50010-5792","geo_score":1.0,"id":"ahkw30o4hjn8","address":"1111 Duff Avenue","geo_precision":"range","allpub":24,"state":"IA"},"type":"Feature","geometry":{"type":"Point","coordinates":[-93.610697,42.033083]}},{"properties":{"city":"Nevada","zip":"50201-2902","geo_score":0.633,"id":"ahkw30wjxc6t","address":"640 S. 19th Street","geo_precision":"street","allpub":0,"state":"IA"},"type":"Feature","geometry":{"type":"Point","coordinates":[-93.434905,42.012125]}},{"properties":{"city":"Lebanon","zip":"03756","geo_score":0.456,"id":"ahkw30np9lkq","address":"1 Medical Center Drive","geo_precision":"street","allpub":6746,"state":"NH"},"type":"Feature","geometry":{"type":"Point","coordinates":[-72.344501,43.475539]}},{"properties":{"city":"Baton Rouge","zip":"70806-3842","geo_score":1.0,"id":"ahkw30odbgo7","address":"3600 Florida Boulevard","geo_precision":"range","allpub":66,"state":"LA"},"type":"Feature","geometry":{"type":"Point","coordinates":[-91.152419,30.450388]}},{"properties":{"city":"Baton Rouge","zip":"70808","geo_score":0.902,"id":"ahkw30r25myl","address":"5000 Hennessy Boulevard","geo_precision":"range","allpub":79,"state":"LA"},"type":"Feature","geometry":{"type":"Point","coordinates":[-91.109551,30.40362]}},{"properties":{"city":"Albany","zip":"97321","geo_score":0.614,"id":"ahkw30vr50ah","address":"1046 6th Avenue, S.W.","geo_precision":"street","allpub":0,"state":"OR"},"type":"Feature","geometry":{"type":"Point","coordinates":[-123.105325,44.633355]}},{"properties":{"city":"Honolulu","zip":"96813","geo_score":1.0,"id":"ahkw30n3qqpr","address":"1301 Punchbowl Street","geo_precision":"range","allpub":5,"state":"HI"},"type":"Feature","geometry":{"type":"Point","coordinates":[-157.855049,21.307762]}},{"properties":{"city":"Honolulu","zip":"96817","geo_score":0.607,"id":"ahkw30n9ofub","address":"347 N. Kuakini Street","geo_precision":"street","allpub":23,"state":"HI"},"type":"Feature","geometry":{"type":"Point","coordinates":[-157.853359,21.319195]}},{"properties":{"city":"Iowa City","zip":"52245","geo_score":0.61,"id":"ahkw30sdnvzg","address":"500 E. Market Street","geo_precision":"street","allpub":35,"state":"IA"},"type":"Feature","geometry":{"type":"Point","coordinates":[-91.533059,41.663573]}},{"properties":{"city":"Iowa City","zip":"52242","geo_score":1.0,"id":"ahkw30sy8a4t","address":"200 Hawkins Drive","geo_precision":"range","allpub":10621,"state":"IA"},"type":"Feature","geometry":{"type":"Point","coordinates":[-91.54985,41.657227]}},{"properties":{"city":"Knoxville","zip":"37916-2307","geo_score":0.607,"id":"ahkw30z56zlg","address":"1901 Clinch Avenue, S.W.","geo_precision":"street","allpub":33,"state":"TN"},"type":"Feature","geometry":{"type":"Point","coordinates":[-83.91624,35.964878]}},{"properties":{"city":"Knoxville","zip":"37920","geo_score":1.0,"id":"ahkw30mhhp31","address":"1924 Alcoa Highway","geo_precision":"range","allpub":755,"state":"TN"},"type":"Feature","geometry":{"type":"Point","coordinates":[-83.953591,35.926193]}},{"properties":{"city":"South Bend","zip":"46601","geo_score":0.604,"id":"ahkw30t5voo3","address":"615 N. Michigan Street","geo_precision":"street","allpub":106,"state":"IN"},"type":"Feature","geometry":{"type":"Point","coordinates":[-86.250329,41.675032]}},{"properties":{"city":"Richmond","zip":"23298","geo_score":0.319,"id":"ahkw30s8rjks","address":"1250 E. Marshall Street","geo_precision":"street","allpub":172,"state":"VA"},"type":"Feature","geometry":{"type":"Point","coordinates":[-77.438431,37.544882]}},{"properties":{"city":"Richmond","zip":"23225","geo_score":1.0,"id":"ahkw30s7f52t","address":"7101 Jahnke Road","geo_precision":"range","allpub":18,"state":"VA"},"type":"Feature","geometry":{"type":"Point","coordinates":[-77.526288,37.516055]}},{"properties":{"city":"Orlando","zip":"32822","geo_score":1.0,"id":"ahkw30mfy1rm","address":"7727 Lake Underhill Road","geo_precision":"range","allpub":765,"state":"FL"},"type":"Feature","geometry":{"type":"Point","coordinates":[-81.281705,28.539217]}},{"properties":{"city":"Miami","zip":"33136-1005","geo_score":0.614,"id":"ahkw30n4iy3n","address":"1611 N.W. 12th Avenue","geo_precision":"street","allpub":1101,"state":"FL"},"type":"Feature","geometry":{"type":"Point","coordinates":[-80.197156,25.785963]}},{"properties":{"city":"Gainesville","zip":"32610","geo_score":0.571,"id":"ahkw30n281lk","address":"1600 S.W. Archer Road","geo_precision":"street","allpub":149,"state":"FL"},"type":"Feature","geometry":{"type":"Point","coordinates":[-82.341847,29.639702]}},{"properties":{"city":"Gainesville","zip":"32605","geo_score":0.663,"id":"ahkw30taebqt","address":"6500 Newberry Road","geo_precision":"street","allpub":0,"state":"FL"},"type":"Feature","geometry":{"type":"Point","coordinates":[-82.418787,29.659657]}},{"properties":{"city":"Lawrence","zip":"66044","geo_score":1.0,"id":"ahkw30zw1jv5","address":"325 Maine Street","geo_precision":"range","allpub":17,"state":"KS"},"type":"Feature","geometry":{"type":"Point","coordinates":[-95.247668,38.977407]}},{"properties":{"city":"Lexington","zip":"40508","geo_score":0.602,"id":"ahkw30uoeuh6","address":"310 S. Limestone Street","geo_precision":"street","allpub":275,"state":"KY"},"type":"Feature","geometry":{"type":"Point","coordinates":[-84.497979,38.045719]}},{"properties":{"city":"Lexington","zip":"40509","geo_score":0.598,"id":"ahkw30qo491v","address":"150 N. Eagle Creek Drive","geo_precision":"street","allpub":39,"state":"KY"},"type":"Feature","geometry":{"type":"Point","coordinates":[-84.441362,37.999493]}},{"properties":{"city":"Albuquerque","zip":"87106","geo_score":0.604,"id":"ahkw30ud1ght","address":"2211 Lomas Boulevard, N.E.","geo_precision":"street","allpub":454,"state":"NM"},"type":"Feature","geometry":{"type":"Point","coordinates":[-106.624053,35.089726]}},{"properties":{"city":"Albuquerque","zip":"87106","geo_score":0.602,"id":"ahkw30tefxqo","address":"1100 Central Avenue, S.E.","geo_precision":"street","allpub":100,"state":"NM"},"type":"Feature","geometry":{"type":"Point","coordinates":[-106.636256,35.082647]}},{"properties":{"city":"Springfield","zip":"97477","geo_score":0.565,"id":"ahkw30nb3qer","address":"3333 Riverbend Drive","geo_precision":"street","allpub":61,"state":"OR"},"type":"Feature","geometry":{"type":"Point","coordinates":[-123.378039,43.29602]}},{"properties":{"city":"Springfield","zip":"97477","geo_score":1.0,"id":"ahkw30y1hf5z","address":"1460 G Street","geo_precision":"range","allpub":5,"state":"OR"},"type":"Feature","geometry":{"type":"Point","coordinates":[-123.002735,44.052476]}},{"properties":{"city":"Columbia","zip":"29201","geo_score":1.0,"id":"ahkw30wgy5k5","address":"1301 Taylor Street","geo_precision":"range","allpub":4,"state":"SC"},"type":"Feature","geometry":{"type":"Point","coordinates":[-81.032713,34.007633]}},{"properties":{"city":"Columbia","zip":"29203","geo_score":1.0,"id":"ahkw30tegsr6","address":"120 Gateway Corporate Blvd","geo_precision":"range","allpub":1,"state":"SC"},"type":"Feature","geometry":{"type":"Point","coordinates":[-80.956421,34.104653]}},{"properties":{"city":"Tampa","zip":"33613","geo_score":0.602,"id":"ahkw30ojdkei","address":"3100 E. Fletcher Avenue","geo_precision":"street","allpub":0,"state":"FL"},"type":"Feature","geometry":{"type":"Point","coordinates":[-82.438633,28.069243]}},{"properties":{"city":"Tampa","zip":"33606-3571","geo_score":0.44,"id":"ahkw3110zq22","address":"1 Tampa General Circle","geo_precision":"street","allpub":721,"state":"FL"},"type":"Feature","geometry":{"type":"Point","coordinates":[-82.45813,27.945957]}},{"properties":{"city":"Columbia","zip":"65212","geo_score":0.805,"id":"ahkw310ugdav","address":"1 Hospital Drive","geo_precision":"range","allpub":626,"state":"MO"},"type":"Feature","geometry":{"type":"Point","coordinates":[-92.3283,38.93759]}},{"properties":{"city":"Marrero","zip":"70072","geo_score":1.0,"id":"ahkw30rqnzpi","address":"1101 Medical Center Boulevard","geo_precision":"range","allpub":48,"state":"LA"},"type":"Feature","geometry":{"type":"Point","coordinates":[-90.096183,29.894759]}},{"properties":{"city":"New Orleans","zip":"70112-2600","geo_score":1.0,"id":"ahkw30s7np3t","address":"1415 Tulane Avenue","geo_precision":"range","allpub":167,"state":"LA"},"type":"Feature","geometry":{"type":"Point","coordinates":[-90.076826,29.955679]}},{"properties":{"city":"Metairie","zip":"70006","geo_score":1.0,"id":"ahkw30tl4r6y","address":"4200 Houma Boulevard","geo_precision":"range","allpub":69,"state":"LA"},"type":"Feature","geometry":{"type":"Point","coordinates":[-90.18164,30.015783]}},{"properties":{"city":"New Orleans","zip":"70115-6914","geo_score":1.0,"id":"ahkw30ptpuql","address":"2700 Napoleon Avenue","geo_precision":"range","allpub":40,"state":"LA"},"type":"Feature","geometry":{"type":"Point","coordinates":[-90.103349,29.938081]}},{"properties":{"city":"Fayetteville","zip":"72703-4007","geo_score":0.286,"id":"ahkw30qwo814","address":"3215 N. North Hills Boulevard","geo_precision":"street","allpub":16,"state":"AR"},"type":"Feature","geometry":{"type":"Point","coordinates":[-94.177027,35.889097]}},{"properties":{"city":"Springdale","zip":"72764","geo_score":0.571,"id":"ahkw30ngbp7i","address":"609 W. Maple Street","geo_precision":"street","allpub":0,"state":"AR"},"type":"Feature","geometry":{"type":"Point","coordinates":[-94.12939,36.181236]}},{"properties":{"city":"Norman","zip":"73071","geo_score":0.607,"id":"ahkw30wyvrnt","address":"901 N. Porter Street","geo_precision":"street","allpub":27,"state":"OK"},"type":"Feature","geometry":{"type":"Point","coordinates":[-97.439743,35.223656]}},{"properties":{"city":"Bozeman","zip":"59715","geo_score":0.585,"id":"ahkw30y8ssdl","address":"915 Highland Boulevard","geo_precision":"zip","allpub":16,"state":"MT"},"type":"Feature","geometry":{"type":"Point","coordinates":[-111.168212,45.809998]}},{"properties":{"city":"Missoula","zip":"59802-4008","geo_score":0.604,"id":"ahkw30pni1lk","address":"500 W. Broadway Street","geo_precision":"street","allpub":61,"state":"MT"},"type":"Feature","geometry":{"type":"Point","coordinates":[-113.99696,46.872979]}},{"properties":{"city":"Missoula","zip":"59801-7493","geo_score":0.604,"id":"ahkw30nzxayh","address":"2827 Fort Missoula Road","geo_precision":"street","allpub":34,"state":"MT"},"type":"Feature","geometry":{"type":"Point","coordinates":[-114.000156,46.856539]}},{"properties":{"city":"Boca Raton","zip":"33486","geo_score":1.0,"id":"ahkw30qol4ca","address":"800 Meadows Road","geo_precision":"range","allpub":53,"state":"FL"},"type":"Feature","geometry":{"type":"Point","coordinates":[-80.102758,26.359378]}},{"properties":{"city":"Delray Beach","zip":"33484","geo_score":1.0,"id":"ahkw30ssumwh","address":"5352 Linton Boulevard","geo_precision":"range","allpub":2,"state":"FL"},"type":"Feature","geometry":{"type":"Point","coordinates":[-80.127595,26.439233]}},{"properties":{"city":"Brookings","zip":"57006-2480","geo_score":0.883,"id":"ahkw30t2me4f","address":"300 22nd Avenue","geo_precision":"range","allpub":27,"state":"SD"},"type":"Feature","geometry":{"type":"Point","coordinates":[-96.768209,44.303661]}},{"properties":{"city":"Bangor","zip":"04401-6616","geo_score":1.0,"id":"ahkw30s3gag7","address":"489 State Street","geo_precision":"range","allpub":0,"state":"ME"},"type":"Feature","geometry":{"type":"Point","coordinates":[-68.749952,44.809739]}},{"properties":{"city":"Bangor","zip":"04401-3979","geo_score":1.0,"id":"ahkw30usj09e","address":"360 Broadway","geo_precision":"range","allpub":295,"state":"ME"},"type":"Feature","geometry":{"type":"Point","coordinates":[-68.771233,44.814228]}},{"properties":{"city":"Las Vegas","zip":"89119-5188","geo_score":0.604,"id":"ahkw30xmm558","address":"2075 E. Flamingo Road","geo_precision":"street","allpub":55,"state":"NV"},"type":"Feature","geometry":{"type":"Point","coordinates":[-115.15399,36.114315]}},{"properties":{"city":"Las Vegas","zip":"89109-2303","geo_score":0.6,"id":"ahkw30oryqya","address":"3186 S. Maryland Parkway","geo_precision":"street","allpub":10,"state":"NV"},"type":"Feature","geometry":{"type":"Point","coordinates":[-115.137007,36.144239]}},{"properties":{"city":"Las Vegas","zip":"89128","geo_score":0.607,"id":"ahkw30urw8go","address":"3100 N. Tenaya Way","geo_precision":"street","allpub":81,"state":"NV"},"type":"Feature","geometry":{"type":"Point","coordinates":[-115.250862,36.17429]}},{"properties":{"city":"Las Vegas","zip":"89149-4409","geo_score":0.607,"id":"ahkw30vt1da5","address":"6900 N. Durango Drive","geo_precision":"street","allpub":5,"state":"NV"},"type":"Feature","geometry":{"type":"Point","coordinates":[-115.279102,36.250019]}},{"properties":{"city":"Reno","zip":"89503-0108","geo_score":0.625,"id":"ahkw30qpyzt8","address":"235 W. 6th Street","geo_precision":"street","allpub":345,"state":"NV"},"type":"Feature","geometry":{"type":"Point","coordinates":[-119.81634,39.532121]}},{"properties":{"city":"Morgantown","zip":"26505-3494","geo_score":0.571,"id":"ahkw30xjqkxy","address":"1200 J.D. Anderson Drive","geo_precision":"street","allpub":13,"state":"WV"},"type":"Feature","geometry":{"type":"Point","coordinates":[-79.954222,39.630279]}},{"properties":{"city":"Morgantown","zip":"26506-1234","geo_score":0.805,"id":"ahkw30yz7u87","address":"418 Medical Center Drive","geo_precision":"range","allpub":4,"state":"WV"},"type":"Feature","geometry":{"type":"Point","coordinates":[-79.962709,39.651327]}},{"properties":{"city":"Huntsville","zip":"35801","geo_score":0.927,"id":"ahkw30xnro4z","address":"101 Sivley Road","geo_precision":"range","allpub":107,"state":"AL"},"type":"Feature","geometry":{"type":"Point","coordinates":[-86.581505,34.721218]}},{"properties":{"city":"Huntsville","zip":"35801-3403","geo_score":0.937,"id":"ahkw30zort84","address":"1 Hospital Drive","geo_precision":"range","allpub":0,"state":"AL"},"type":"Feature","geometry":{"type":"Point","coordinates":[-86.57242,34.691217]}},{"properties":{"city":"Fargo","zip":"58122","geo_score":0.319,"id":"ahkw30o3enos","address":"801 Broadway, N.","geo_precision":"street","allpub":15,"state":"ND"},"type":"Feature","geometry":{"type":"Point","coordinates":[-96.787804,46.875227]}},{"properties":{"city":"Louisville","zip":"40217","geo_score":0.963,"id":"ahkw30x04nj0","address":"1 Audubon Plaza Drive","geo_precision":"range","allpub":26,"state":"KY"},"type":"Feature","geometry":{"type":"Point","coordinates":[-85.717806,38.213268]}},{"properties":{"city":"Louisville","zip":"40202-1818","geo_score":1.0,"id":"ahkw30rcxgir","address":"200 Abraham Flexner Way","geo_precision":"range","allpub":228,"state":"KY"},"type":"Feature","geometry":{"type":"Point","coordinates":[-85.749039,38.249106]}},{"properties":{"city":"Waco","zip":"76712","geo_score":0.526,"id":"ahkw30su2yri","address":"100 Hillcrest Boulevard","geo_precision":"street","allpub":0,"state":"TX"},"type":"Feature","geometry":{"type":"Point","coordinates":[-97.178409,31.55696]}},{"properties":{"city":"Waco","zip":"76712","geo_score":0.916,"id":"ahkw30qbjq2l","address":"6901 Medical Parkway","geo_precision":"range","allpub":0,"state":"TX"},"type":"Feature","geometry":{"type":"Point","coordinates":[-97.197643,31.51547]}},{"properties":{"city":"Dayton","zip":"45409","geo_score":1.0,"id":"ahkw311szet3","address":"1 Wyoming Street","geo_precision":"range","allpub":387,"state":"OH"},"type":"Feature","geometry":{"type":"Point","coordinates":[-84.18542,39.744129]}},{"properties":{"city":"Kettering","zip":"45429-1221","geo_score":1.0,"id":"ahkw30y11hft","address":"3535 Southern Boulevard","geo_precision":"range","allpub":356,"state":"OH"},"type":"Feature","geometry":{"type":"Point","coordinates":[-84.190858,39.697064]}},{"properties":{"city":"Winston Salem","zip":"27103","geo_score":0.797,"id":"ahkw310v9wuf","address":"3333 Silas Creek Parkway","geo_precision":"street","allpub":178,"state":"NC"},"type":"Feature","geometry":{"type":"Point","coordinates":[-80.25202,36.065869]}},{"properties":{"city":"Winston Salem","zip":"27157-0001","geo_score":0.992,"id":"ahkw30xurs0q","address":"1 Medical Center Boulevard","geo_precision":"range","allpub":2040,"state":"NC"},"type":"Feature","geometry":{"type":"Point","coordinates":[-80.271501,36.090261]}},{"properties":{"city":"Johnson City","zip":"37604","geo_score":0.61,"id":"ahkw30qatgp0","address":"400 N. State of Franklin Road","geo_precision":"street","allpub":33,"state":"TN"},"type":"Feature","geometry":{"type":"Point","coordinates":[-82.354699,36.303466]}},{"properties":{"city":"Johnson City","zip":"37604","geo_score":0.585,"id":"ahkw30znpb3r","address":"300 MedTech Parkway","geo_precision":"zip","allpub":0,"state":"TN"},"type":"Feature","geometry":{"type":"Point","coordinates":[-82.387422,36.308229]}},{"properties":{"city":"Terre Haute","zip":"47802-5709","geo_score":0.625,"id":"ahkw3104ii0j","address":"3901 S. 7th Street","geo_precision":"street","allpub":2,"state":"IN"},"type":"Feature","geometry":{"type":"Point","coordinates":[-87.406949,39.454544]}},{"properties":{"city":"Terre Haute","zip":"47804","geo_score":0.625,"id":"ahkw30tq56d4","address":"1606 N. 7th Street","geo_precision":"street","allpub":0,"state":"IN"},"type":"Feature","geometry":{"type":"Point","coordinates":[-87.407184,39.484784]}},{"properties":{"city":"Bloomington","zip":"61701","geo_score":0.6,"id":"ahkw30rqebbv","address":"2200 E. Washington Street","geo_precision":"street","allpub":30,"state":"IL"},"type":"Feature","geometry":{"type":"Point","coordinates":[-88.993651,40.479579]}},{"properties":{"city":"Normal","zip":"61761-2850","geo_score":0.764,"id":"ahkw30uz8ikv","address":"1304 Franklin Street","geo_precision":"street","allpub":21,"state":"IL"},"type":"Feature","geometry":{"type":"Point","coordinates":[-88.990972,40.499299]}},{"properties":{"city":"Boynton Beach","zip":"33435","geo_score":1.0,"id":"ahkw30ozqgxv","address":"2815 S Seacrest Blvd ","geo_precision":"range","allpub":27,"state":"fl"},"type":"Feature","geometry":{"type":"Point","coordinates":[-80.070844,26.500586]}}],"is_temporal":false,"author":{"url":"","metadata":null,"contact_name":null,"contact_address":null,"source":null,"contact_phone":null},"source":"","pagination":{"sort":null,"start":0,"total":117,"limit":1000000},"state":"complete","tags":"","published":"2014-08-16T23:51:17-04:00","id":398849}