{"type":"FeatureCollection","data_type":"Dataset","url_type":null,"permissions":[{"permissions":{"download":true,"view":true},"group_id":"everyone"}],"classification":null,"title":"Vermont Center for Geographic Information, VTrans maintenance facilities (operational sites), Vermont, 2004","count":68,"stream_id":3994,"contributor":{"url":"http://geocommons.com/users/140","name":"Brendan"},"data_attributes":null,"calculation_params":null,"icon_link":null,"link":"http://geocommons.com/overlays/3994.json","extent":[-73.2958,42.8213,-71.5573,45.0089],"geometry_types":["point"],"unique_name":null,"name":"Vermont Center for Geographic Information, VTrans maintenance facilities (operational sites), Vermont, 2004","feature_count":68,"description":"Please search for Vermont-GIS for more   local level GIS datasets.\nPlease search for Vermont-GIS for more   local level GIS datasets.","next_feature":null,"is_raster":false,"short_classification":"Y","stats":{"LOCMETH":{"max":4,"mean":2.89705882352941,"variance":0.601185250219492,"stdev":0.775361367505173,"min":1,"median":3},"area":{"max":0.0,"mean":0.0,"variance":0.0,"stdev":0.0,"min":0.0,"median":0.0},"DISTRICT":{"max":null,"min":null,"median":null},"len":{"max":0.0,"mean":0.0,"variance":0.0,"stdev":0.0,"min":0.0,"median":0.0}},"features":[{"properties":{"ADDRESS1":"359 Bowen Rd","SITE_ID":"M1-BEN","LOCMETH":3,"ADDRESS2":"Bennington, VT 05201","PHONE":"447-2790","MANAGER":"Gammell, Wayne","area":0.0,"DISTRICT":"1","SITE_NAME":"Bennington","LOCCONF":"H","id":"a666iacu70c7","COUNTY":"010","len":0.0},"type":"Feature","geometry":{"type":"GeometryCollection","geometries":[{"type":"Point","coordinates":[-73.1876661163079,42.8894414011105]}]}},{"properties":{"ADDRESS1":"18 Village St","SITE_ID":"M1-DOR","LOCMETH":3,"ADDRESS2":"E. Dorset, VT 05253","PHONE":"362-6030","MANAGER":"Sargent, Dave","area":0.0,"DISTRICT":"1","SITE_NAME":"Dorset","LOCCONF":"H","id":"a666iagqkwea","COUNTY":"010","len":0.0},"type":"Feature","geometry":{"type":"GeometryCollection","geometries":[{"type":"Point","coordinates":[-73.0103401047958,43.2343177225319]}]}},{"properties":{"ADDRESS1":"1136 VT 100","SITE_ID":"M1-REA","LOCMETH":4,"ADDRESS2":"Readsboro, VT 05350","PHONE":"423-5030","MANAGER":"","area":0.0,"DISTRICT":"1","SITE_NAME":"Readsboro","LOCCONF":"M","id":"a666iaihm47k","COUNTY":"","len":0.0},"type":"Feature","geometry":{"type":"GeometryCollection","geometries":[{"type":"Point","coordinates":[-73.0043269719696,42.821298822895]}]}},{"properties":{"ADDRESS1":"23 Haystack Rd","SITE_ID":"M1-WIL","LOCMETH":3,"ADDRESS2":"Wilmington, VT 05363","PHONE":"464-8032","MANAGER":"Carrier, Russel","area":0.0,"DISTRICT":"1","SITE_NAME":"Wilmington","LOCCONF":"H","id":"a666ia3zxyuh","COUNTY":"025","len":0.0},"type":"Feature","geometry":{"type":"GeometryCollection","geometries":[{"type":"Point","coordinates":[-72.8897005733188,42.8757843542544]}]}},{"properties":{"ADDRESS1":"638 Rt 131","SITE_ID":"M2-ASC","LOCMETH":3,"ADDRESS2":"Ascutney, VT 05030","PHONE":"674-2650","MANAGER":"Pollard, Gary","area":0.0,"DISTRICT":"2","SITE_NAME":"Ascutney","LOCCONF":"H","id":"a666iaab9seh","COUNTY":"027","len":0.0},"type":"Feature","geometry":{"type":"GeometryCollection","geometries":[{"type":"Point","coordinates":[-72.4170826469983,43.4013204044698]}]}},{"properties":{"ADDRESS1":"165 Elm Street","SITE_ID":"M2-CHE","LOCMETH":3,"ADDRESS2":"Chester, VT 05143","PHONE":"875-2718","MANAGER":"Pollard, Gary","area":0.0,"DISTRICT":"2","SITE_NAME":"Chester","LOCCONF":"H","id":"a666ia3mw26c","COUNTY":"027","len":0.0},"type":"Feature","geometry":{"type":"GeometryCollection","geometries":[{"type":"Point","coordinates":[-72.5845760140404,43.2640350757829]}]}},{"properties":{"ADDRESS1":"870 US 5","SITE_ID":"M2-DUM","LOCMETH":3,"ADDRESS2":"Dummerston, VT 05301","PHONE":"254-5011","MANAGER":"Roberts, Floyd","area":0.0,"DISTRICT":"2","SITE_NAME":"Dummerston","LOCCONF":"H","id":"a666iaepnofe","COUNTY":"025","len":0.0},"type":"Feature","geometry":{"type":"GeometryCollection","geometries":[{"type":"Point","coordinates":[-72.5370868991374,42.9182239620648]}]}},{"properties":{"ADDRESS1":"232 Rt 30","SITE_ID":"M2-JAM","LOCMETH":4,"ADDRESS2":"Jamaica, VT 05343","PHONE":"874-4343","MANAGER":"Alexander, John","area":0.0,"DISTRICT":"2","SITE_NAME":"Jamaica","LOCCONF":"M","id":"a666iahws7wh","COUNTY":"025","len":0.0},"type":"Feature","geometry":{"type":"GeometryCollection","geometries":[{"type":"Point","coordinates":[-72.7265204911953,43.0772932754787]}]}},{"properties":{"ADDRESS1":"158 Derry Woods Rd","SITE_ID":"M2-LON","LOCMETH":3,"ADDRESS2":"Londonderry, VT 05148","PHONE":"824-6464","MANAGER":"Alexander, John","area":0.0,"DISTRICT":"2","SITE_NAME":"Londonderry","LOCCONF":"H","id":"a666ia4yuhfd","COUNTY":"025","len":0.0},"type":"Feature","geometry":{"type":"GeometryCollection","geometries":[{"type":"Point","coordinates":[-72.8001368822269,43.2267117000302]}]}},{"properties":{"ADDRESS1":"4952 Rt 9","SITE_ID":"M2-MAR","LOCMETH":3,"ADDRESS2":"Marlboro, VT 05344","PHONE":"464-2962","MANAGER":"Cummings, Tom","area":0.0,"DISTRICT":"2","SITE_NAME":"Marlboro","LOCCONF":"M","id":"a666iadhe4vd","COUNTY":"025","len":0.0},"type":"Feature","geometry":{"type":"GeometryCollection","geometries":[{"type":"Point","coordinates":[-72.7585999862254,42.8631631051686]}]}},{"properties":{"ADDRESS1":"US 5","SITE_ID":"M2-PUT","LOCMETH":3,"ADDRESS2":"Putney, 05346","PHONE":"none","MANAGER":"","area":0.0,"DISTRICT":"2","SITE_NAME":"Putney","LOCCONF":"H","id":"a666iad45szi","COUNTY":"025","len":0.0},"type":"Feature","geometry":{"type":"GeometryCollection","geometries":[{"type":"Point","coordinates":[-72.5232246875626,42.9666234671764]}]}},{"properties":{"ADDRESS1":"991 Rockingham Rd","SITE_ID":"M2-ROC","LOCMETH":4,"ADDRESS2":"Bellows Falls, 05101","PHONE":"463-4304","MANAGER":"Austin, John","area":0.0,"DISTRICT":"2","SITE_NAME":"Rockingham","LOCCONF":"M","id":"a666ia60j0d5","COUNTY":"025","len":0.0},"type":"Feature","geometry":{"type":"GeometryCollection","geometries":[{"type":"Point","coordinates":[-72.4806220962349,43.1864596291133]}]}},{"properties":{"ADDRESS1":"12 Missing Link Rd","SITE_ID":"M2-SPR","LOCMETH":4,"ADDRESS2":"Springfield, 05156","PHONE":"885-3223","MANAGER":"Austin, John","area":0.0,"DISTRICT":"2","SITE_NAME":"Springfield","LOCCONF":"M","id":"a666ia9nqotb","COUNTY":"027","len":0.0},"type":"Feature","geometry":{"type":"GeometryCollection","geometries":[{"type":"Point","coordinates":[-72.4372284474723,43.2646184569315]}]}},{"properties":{"ADDRESS1":"Morse Brk Rd,","SITE_ID":"M2-WES","LOCMETH":3,"ADDRESS2":"Westminster, 05158","PHONE":"none","MANAGER":"","area":0.0,"DISTRICT":"2","SITE_NAME":"Westminster","LOCCONF":"H","id":"a666ia7cq2aw","COUNTY":"025","len":0.0},"type":"Feature","geometry":{"type":"GeometryCollection","geometries":[{"type":"Point","coordinates":[-72.4590096484043,43.0901904297362]}]}},{"properties":{"ADDRESS1":"47 Robert Wood Dr.","SITE_ID":"M3-BRA","LOCMETH":1,"ADDRESS2":"Brandon, 05733","PHONE":"247-3030","MANAGER":"Wetmore, Coval","area":0.0,"DISTRICT":"3","SITE_NAME":"Brandon","LOCCONF":"L","id":"a666iah9y4ko","COUNTY":"021","len":0.0},"type":"Feature","geometry":{"type":"GeometryCollection","geometries":[{"type":"Point","coordinates":[-73.1124593254705,43.8178778971612]}]}},{"properties":{"ADDRESS1":"143 VT 30 South,","SITE_ID":"M3-CAS","LOCMETH":1,"ADDRESS2":"Castleton, 05735","PHONE":"468-5775","MANAGER":"Roberts, Brian","area":0.0,"DISTRICT":"3","SITE_NAME":"Castleton","LOCCONF":"L","id":"a666iaink0yc","COUNTY":"021","len":0.0},"type":"Feature","geometry":{"type":"GeometryCollection","geometries":[{"type":"Point","coordinates":[-73.2088332475101,43.6061499090403]}]}},{"properties":{"ADDRESS1":"1628 VT 7B Central","SITE_ID":"M3-CLA","LOCMETH":4,"ADDRESS2":"N. Clarendon, 05759","PHONE":"773-3055","MANAGER":"McNulty, Robert","area":0.0,"DISTRICT":"3","SITE_NAME":"Clarendon","LOCCONF":"M","id":"a666iaf0i54g","COUNTY":"021","len":0.0},"type":"Feature","geometry":{"type":"GeometryCollection","geometries":[{"type":"Point","coordinates":[-72.9524448405753,43.5359024880271]}]}},{"properties":{"ADDRESS1":"91 VT 100 North,","SITE_ID":"M3-LUD","LOCMETH":1,"ADDRESS2":"Ludlow, 05149","PHONE":"228-2911","MANAGER":"Rickert, Nelson","area":0.0,"DISTRICT":"3","SITE_NAME":"Ludlow","LOCCONF":"L","id":"a666iaa4q2v1","COUNTY":"027","len":0.0},"type":"Feature","geometry":{"type":"GeometryCollection","geometries":[{"type":"Point","coordinates":[-72.705427039853,43.4229205923343]}]}},{"properties":{"ADDRESS1":"84 US 4,","SITE_ID":"M3-MEN","LOCMETH":3,"ADDRESS2":"Mendon, 05701","PHONE":"773-8118","MANAGER":"Rickert, Nelson","area":0.0,"DISTRICT":"3","SITE_NAME":"Mendon","LOCCONF":"H","id":"a666iaiwupw5","COUNTY":"021","len":0.0},"type":"Feature","geometry":{"type":"GeometryCollection","geometries":[{"type":"Point","coordinates":[-72.8682078942684,43.6597333035692]}]}},{"properties":{"ADDRESS1":"122 State Place,","SITE_ID":"M3-RUT","LOCMETH":3,"ADDRESS2":"Rutland, 05701","PHONE":"786-5826","MANAGER":"Lathrop, Dave","area":0.0,"DISTRICT":"3","SITE_NAME":"Rutland","LOCCONF":"M","id":"a666iaeusm3m","COUNTY":"021","len":0.0},"type":"Feature","geometry":{"type":"GeometryCollection","geometries":[{"type":"Point","coordinates":[-72.9776806202375,43.6353628907561]}]}},{"properties":{"ADDRESS1":"3290 VT 30,","SITE_ID":"M3-SUD","LOCMETH":3,"ADDRESS2":"Sudbury, 05733","PHONE":"623-7211","MANAGER":"Wetmore, Coval","area":0.0,"DISTRICT":"3","SITE_NAME":"Sudbury","LOCCONF":"H","id":"a666ia6sbv1z","COUNTY":"021","len":0.0},"type":"Feature","geometry":{"type":"GeometryCollection","geometries":[{"type":"Point","coordinates":[-73.2058128830678,43.7956717391473]}]}},{"properties":{"ADDRESS1":"100 Betttis Road ,","SITE_ID":"M4-RAN","LOCMETH":3,"ADDRESS2":"Randolph VT 05060","PHONE":"728-4534","MANAGER":"Blaisdell, Thom","area":0.0,"DISTRICT":"4","SITE_NAME":"Randolph","LOCCONF":"H","id":"a666iafbhgs4","COUNTY":"017","len":0.0},"type":"Feature","geometry":{"type":"GeometryCollection","geometries":[{"type":"Point","coordinates":[-72.6197643479794,43.9460903008394]}]}},{"properties":{"ADDRESS1":"1961  VT.ROUTE 106","SITE_ID":"M4-REA","LOCMETH":1,"ADDRESS2":"READING , VT 05062","PHONE":"484-3804","MANAGER":"Bowley, John","area":0.0,"DISTRICT":"4","SITE_NAME":"Reading","LOCCONF":"L","id":"a666ia8mw76r","COUNTY":"027","len":0.0},"type":"Feature","geometry":{"type":"GeometryCollection","geometries":[{"type":"Point","coordinates":[-72.5343745065793,43.4713496443314]}]}},{"properties":{"ADDRESS1":"135 State Garage","SITE_ID":"M4-ROC","LOCMETH":3,"ADDRESS2":"Rochester, VT 05767","PHONE":"767-4700","MANAGER":"Childs, Bob","area":0.0,"DISTRICT":"4","SITE_NAME":"Rochester","LOCCONF":"H","id":"a666ia6r4fa0","COUNTY":"027","len":0.0},"type":"Feature","geometry":{"type":"GeometryCollection","geometries":[{"type":"Point","coordinates":[-72.8081905389432,43.8577852711999]}]}},{"properties":{"ADDRESS1":"1953 VT RT 107,","SITE_ID":"M4-ROY","LOCMETH":3,"ADDRESS2":"Royalton, VT 05068","PHONE":"234-5718","MANAGER":"Ketchum, Donald","area":0.0,"DISTRICT":"4","SITE_NAME":"Royalton","LOCCONF":"H","id":"a666iah0eqgt","COUNTY":"027","len":0.0},"type":"Feature","geometry":{"type":"GeometryCollection","geometries":[{"type":"Point","coordinates":[-72.6036302849625,43.8232921806095]}]}},{"properties":{"ADDRESS1":"none","SITE_ID":"M4-SHA","LOCMETH":3,"ADDRESS2":"","PHONE":"none","MANAGER":"","area":0.0,"DISTRICT":"4","SITE_NAME":"Sharon","LOCCONF":"M","id":"a666iaatoh75","COUNTY":"027","len":0.0},"type":"Feature","geometry":{"type":"GeometryCollection","geometries":[{"type":"Point","coordinates":[-72.4675218081662,43.7805554064197]}]}},{"properties":{"ADDRESS1":"1333 RT 113,","SITE_ID":"M4-THE","LOCMETH":3,"ADDRESS2":"Thetford, VT 05075","PHONE":"785-2038","MANAGER":"Paige, Logan","area":0.0,"DISTRICT":"4","SITE_NAME":"Thetford","LOCCONF":"H","id":"a666ia9az2c8","COUNTY":"017","len":0.0},"type":"Feature","geometry":{"type":"GeometryCollection","geometries":[{"type":"Point","coordinates":[-72.2056799514407,43.8123402982763]}]}},{"properties":{"ADDRESS1":"754 VT. RTE.110,","SITE_ID":"M4-TUN","LOCMETH":3,"ADDRESS2":"TUNBRIDGE, VT 05077","PHONE":"889-5675","MANAGER":"Nichols, Bruce","area":0.0,"DISTRICT":"4","SITE_NAME":"Tunbridge","LOCCONF":"H","id":"a666ia94xmyh","COUNTY":"017","len":0.0},"type":"Feature","geometry":{"type":"GeometryCollection","geometries":[{"type":"Point","coordinates":[-72.4602500399852,43.9437247927235]}]}},{"properties":{"ADDRESS1":"221 (office) &amp; 226","SITE_ID":"M4-WHI","LOCMETH":1,"ADDRESS2":"White River Jct., VT 05001","PHONE":"295-8888","MANAGER":"Kreis, Ann","area":0.0,"DISTRICT":"4","SITE_NAME":"White River","LOCCONF":"M","id":"a666iag871a3","COUNTY":"027","len":0.0},"type":"Feature","geometry":{"type":"GeometryCollection","geometries":[{"type":"Point","coordinates":[-72.3362095427074,43.6452274428579]}]}},{"properties":{"ADDRESS1":"1640  US ROUTE 5 N","SITE_ID":"M4-WIN","LOCMETH":3,"ADDRESS2":"WINDSOR, VT 05089","PHONE":"674-6443","MANAGER":"Bowley, John","area":0.0,"DISTRICT":"4","SITE_NAME":"Windsor","LOCCONF":"H","id":"a666iadcmpmz","COUNTY":"027","len":0.0},"type":"Feature","geometry":{"type":"GeometryCollection","geometries":[{"type":"Point","coordinates":[-72.3921486827141,43.5008514067256]}]}},{"properties":{"ADDRESS1":"511  WOODSTOCK RD.","SITE_ID":"M4-WOO","LOCMETH":3,"ADDRESS2":"WOODSTOCK, VT 05091","PHONE":"457-2456","MANAGER":"Darling, Melvin","area":0.0,"DISTRICT":"4","SITE_NAME":"Woodstock","LOCCONF":"H","id":"a666ia9txil7","COUNTY":"027","len":0.0},"type":"Feature","geometry":{"type":"GeometryCollection","geometries":[{"type":"Point","coordinates":[-72.5798947356182,43.6002296424644]}]}},{"properties":{"ADDRESS1":"400 US 7,","SITE_ID":"M5-CHI","LOCMETH":1,"ADDRESS2":"Colchester, 05446","PHONE":"879-5205","MANAGER":"Bissonnette, Ma","area":0.0,"DISTRICT":"5","SITE_NAME":"Chimney Corners","LOCCONF":"L","id":"a666ia76z3rt","COUNTY":"007","len":0.0},"type":"Feature","geometry":{"type":"GeometryCollection","geometries":[{"type":"Point","coordinates":[-73.1660503620627,44.5957950764277]}]}},{"properties":{"ADDRESS1":"5 Barnes Ave,","SITE_ID":"M5-COL","LOCMETH":3,"ADDRESS2":"Colchester, 05446","PHONE":"655-1580","MANAGER":"Hosking, Dick","area":0.0,"DISTRICT":"5","SITE_NAME":"Colchester","LOCCONF":"M","id":"a666iadey1el","COUNTY":"007","len":0.0},"type":"Feature","geometry":{"type":"GeometryCollection","geometries":[{"type":"Point","coordinates":[-73.1551176615572,44.5038140158768]}]}},{"properties":{"ADDRESS1":"","SITE_ID":"M5-FER","LOCMETH":3,"ADDRESS2":"","PHONE":"","MANAGER":"","area":0.0,"DISTRICT":"5","SITE_NAME":"Ferrisburg","LOCCONF":"M","id":"a666iaa90jp1","COUNTY":"","len":0.0},"type":"Feature","geometry":{"type":"GeometryCollection","geometries":[{"type":"Point","coordinates":[-73.2280641120418,44.2560615358559]}]}},{"properties":{"ADDRESS1":"341 Creed Rd,","SITE_ID":"M5-MID","LOCMETH":3,"ADDRESS2":"Middlebury, 05753","PHONE":"388-2033","MANAGER":"Ringey, Marc","area":0.0,"DISTRICT":"5","SITE_NAME":"Middlebury","LOCCONF":"H","id":"a666iad0yphy","COUNTY":"001","len":0.0},"type":"Feature","geometry":{"type":"GeometryCollection","geometries":[{"type":"Point","coordinates":[-73.1607108208243,44.0002977409344]}]}},{"properties":{"ADDRESS1":"490 Main St,","SITE_ID":"M5-NEW","LOCMETH":3,"ADDRESS2":"New Haven, 05472","PHONE":"453-3104","MANAGER":"Bouvier, Peter","area":0.0,"DISTRICT":"5","SITE_NAME":"New Haven","LOCCONF":"H","id":"a666iabkrjpg","COUNTY":"001","len":0.0},"type":"Feature","geometry":{"type":"GeometryCollection","geometries":[{"type":"Point","coordinates":[-73.171775034506,44.1225877936564]}]}},{"properties":{"ADDRESS1":"","SITE_ID":"M5-WIL","LOCMETH":1,"ADDRESS2":"","PHONE":"","MANAGER":"","area":0.0,"DISTRICT":"5","SITE_NAME":"","LOCCONF":"L","id":"a666ia5joppq","COUNTY":"","len":0.0},"type":"Feature","geometry":{"type":"GeometryCollection","geometries":[{"type":"Point","coordinates":[-73.0889277039235,44.46226671935]}]}},{"properties":{"ADDRESS1":"186 Industrial Lan","SITE_ID":"M6-BER","LOCMETH":3,"ADDRESS2":"Barre, 05641","PHONE":"828-2691","MANAGER":"Englehardt, Ern","area":0.0,"DISTRICT":"6","SITE_NAME":"Berlin","LOCCONF":"M","id":"a666iafyag2z","COUNTY":"023","len":0.0},"type":"Feature","geometry":{"type":"GeometryCollection","geometries":[{"type":"Point","coordinates":[-72.5620283657525,44.2086808598462]}]}},{"properties":{"ADDRESS1":"1170 US 2","SITE_ID":"M6-MID","LOCMETH":3,"ADDRESS2":"Middlesex, 05602","PHONE":"828-2697","MANAGER":"Benoit, Shane","area":0.0,"DISTRICT":"6","SITE_NAME":"Middlesex","LOCCONF":"H","id":"a666ia8evp41","COUNTY":"023","len":0.0},"type":"Feature","geometry":{"type":"GeometryCollection","geometries":[{"type":"Point","coordinates":[-72.6950581817654,44.3057468248761]}]}},{"properties":{"ADDRESS1":"1876 VT 214,","SITE_ID":"M6-MON","LOCMETH":3,"ADDRESS2":"N. Montpelier, 05666","PHONE":"454-7117","MANAGER":"Brimblecombe, R","area":0.0,"DISTRICT":"6","SITE_NAME":"Montpelier","LOCCONF":"H","id":"a666ia58dhca","COUNTY":"023","len":0.0},"type":"Feature","geometry":{"type":"GeometryCollection","geometries":[{"type":"Point","coordinates":[-72.4441891386759,44.30210813437]}]}},{"properties":{"ADDRESS1":"643 Brooklyn St,","SITE_ID":"M6-MOR","LOCMETH":3,"ADDRESS2":"Morrisville, 05661","PHONE":"888-2511","MANAGER":"Ross, Robert","area":0.0,"DISTRICT":"6","SITE_NAME":"Morrisville","LOCCONF":"H","id":"a666iah3ezoe","COUNTY":"015","len":0.0},"type":"Feature","geometry":{"type":"GeometryCollection","geometries":[{"type":"Point","coordinates":[-72.5955871007343,44.5716567283476]}]}},{"properties":{"ADDRESS1":"30 Reservoir Rd,","SITE_ID":"M6-ORA","LOCMETH":3,"ADDRESS2":"Orange, 05641","PHONE":"476-6853","MANAGER":"Brimblecombe, R","area":0.0,"DISTRICT":"6","SITE_NAME":"Orange","LOCCONF":"H","id":"a666iaj4fhid","COUNTY":"017","len":0.0},"type":"Feature","geometry":{"type":"GeometryCollection","geometries":[{"type":"Point","coordinates":[-72.4312396832892,44.1542186977651]}]}},{"properties":{"ADDRESS1":"6909 Main St,","SITE_ID":"M6-WAI","LOCMETH":3,"ADDRESS2":"Waitsfield, 05673","PHONE":"828-2697","MANAGER":"Benoit, Shane","area":0.0,"DISTRICT":"6","SITE_NAME":"Waitsfield","LOCCONF":"H","id":"a666ia7ot2rd","COUNTY":"023","len":0.0},"type":"Feature","geometry":{"type":"GeometryCollection","geometries":[{"type":"Point","coordinates":[-72.8313973787785,44.1611578884236]}]}},{"properties":{"ADDRESS1":"3976 VT 64","SITE_ID":"M6-WIL","LOCMETH":3,"ADDRESS2":"Williamstown, 05679","PHONE":"485-8655","MANAGER":"Hall, Frank","area":0.0,"DISTRICT":"6","SITE_NAME":"Williamstown","LOCCONF":"H","id":"a666ia9ew40r","COUNTY":"023","len":0.0},"type":"Feature","geometry":{"type":"GeometryCollection","geometries":[{"type":"Point","coordinates":[-72.6121722721693,44.1150122789525]}]}},{"properties":{"ADDRESS1":"1992 US 302,","SITE_ID":"M7-BOL","LOCMETH":4,"ADDRESS2":"Newbury, 05051","PHONE":"757-3447","MANAGER":"Douse, Timothy","area":0.0,"DISTRICT":"7","SITE_NAME":"Boltonville","LOCCONF":"M","id":"a666ia4eoylz","COUNTY":"017","len":0.0},"type":"Feature","geometry":{"type":"GeometryCollection","geometries":[{"type":"Point","coordinates":[-72.0820199569138,44.1519957104767]}]}},{"properties":{"ADDRESS1":"57 Fairground Rd,","SITE_ID":"M7-BRA","LOCMETH":3,"ADDRESS2":"Bradford, 05033","PHONE":"222-5703","MANAGER":"Petterson, Doug","area":0.0,"DISTRICT":"6","SITE_NAME":"Bradford","LOCCONF":"M","id":"a666iafki66o","COUNTY":"017","len":0.0},"type":"Feature","geometry":{"type":"GeometryCollection","geometries":[{"type":"Point","coordinates":[-72.1217920577916,44.0010506248399]}]}},{"properties":{"ADDRESS1":"1846 US 2 West,","SITE_ID":"M7-DAN","LOCMETH":3,"ADDRESS2":"Danville, 05828","PHONE":"684-2186","MANAGER":"Johnson, Scott","area":0.0,"DISTRICT":"7","SITE_NAME":"Danville","LOCCONF":"H","id":"a666iaghjro5","COUNTY":"005","len":0.0},"type":"Feature","geometry":{"type":"GeometryCollection","geometries":[{"type":"Point","coordinates":[-72.1765697379386,44.4098641781796]}]}},{"properties":{"ADDRESS1":"31 Kimball Rd,","SITE_ID":"M7-LUN","LOCMETH":4,"ADDRESS2":"Lunenburg, 05906","PHONE":"892-5977","MANAGER":"Lewis, Thomas","area":0.0,"DISTRICT":"7","SITE_NAME":"Lunenburg","LOCCONF":"M","id":"a666ia7d90k2","COUNTY":"009","len":0.0},"type":"Feature","geometry":{"type":"GeometryCollection","geometries":[{"type":"Point","coordinates":[-71.6944122722636,44.4622867669711]}]}},{"properties":{"ADDRESS1":"1630 Gilman Rd,","SITE_ID":"M7-LYN","LOCMETH":3,"ADDRESS2":"Lyndon, 05851","PHONE":"626-5130","MANAGER":"Gadapee, Paul","area":0.0,"DISTRICT":"7","SITE_NAME":"Lyndon","LOCCONF":"H","id":"a666ia5trftt","COUNTY":"005","len":0.0},"type":"Feature","geometry":{"type":"GeometryCollection","geometries":[{"type":"Point","coordinates":[-72.0326342300786,44.5576181900975]}]}},{"properties":{"ADDRESS1":"249 Industrial Par","SITE_ID":"M7-NEW","LOCMETH":1,"ADDRESS2":"Newbury, 05051","PHONE":"757-3447","MANAGER":"","area":0.0,"DISTRICT":"7","SITE_NAME":"Newbury","LOCCONF":"L","id":"a666iaa0s14h","COUNTY":"017","len":0.0},"type":"Feature","geometry":{"type":"GeometryCollection","geometries":[{"type":"Point","coordinates":[-72.0867942245676,44.1589402722115]}]}},{"properties":{"ADDRESS1":"1068 (office) &amp; 10","SITE_ID":"M7-STJ","LOCMETH":3,"ADDRESS2":"St. Johnsbury, 05819-8501","PHONE":"748-6670","MANAGER":"Achilles, Sid","area":0.0,"DISTRICT":"7","SITE_NAME":"St. Johnsbury","LOCCONF":"M","id":"a666iajg0t4u","COUNTY":"005","len":0.0},"type":"Feature","geometry":{"type":"GeometryCollection","geometries":[{"type":"Point","coordinates":[-72.0253224782601,44.3983734598443]}]}},{"properties":{"ADDRESS1":"8409 VT 15,","SITE_ID":"M8-CAM","LOCMETH":3,"ADDRESS2":"Cambridge, 05444","PHONE":"644-2023","MANAGER":"Lathrop, Roger","area":0.0,"DISTRICT":"8","SITE_NAME":"Cambridge","LOCCONF":"M","id":"a666iaa11jg9","COUNTY":"015","len":0.0},"type":"Feature","geometry":{"type":"GeometryCollection","geometries":[{"type":"Point","coordinates":[-72.7739842085305,44.6637104341268]}]}},{"properties":{"ADDRESS1":"756 Belvidere Rd,","SITE_ID":"M8-EDE","LOCMETH":3,"ADDRESS2":"Eden, 05652","PHONE":"625-2526","MANAGER":"Lathrop, Roger","area":0.0,"DISTRICT":"8","SITE_NAME":"Eden","LOCCONF":"H","id":"a666ia57fqvv","COUNTY":"015","len":0.0},"type":"Feature","geometry":{"type":"GeometryCollection","geometries":[{"type":"Point","coordinates":[-72.5545985811023,44.71617415206]}]}},{"properties":{"ADDRESS1":"275 Elm St,","SITE_ID":"M8-ENO","LOCMETH":3,"ADDRESS2":"Enosburg, 05450","PHONE":"933-2159","MANAGER":"Deuso, Ed","area":0.0,"DISTRICT":"8","SITE_NAME":"Enosburg","LOCCONF":"L","id":"a666iaaxcvpo","COUNTY":"011","len":0.0},"type":"Feature","geometry":{"type":"GeometryCollection","geometries":[{"type":"Point","coordinates":[-72.7983213228758,44.9137919519023]}]}},{"properties":{"ADDRESS1":"380 Ballard Rd,","SITE_ID":"M8-GEO","LOCMETH":3,"ADDRESS2":"Georgia, 05468","PHONE":"524-6033","MANAGER":"Maskell, Mike","area":0.0,"DISTRICT":"8","SITE_NAME":"Georgia","LOCCONF":"L","id":"a666ia96868s","COUNTY":"011","len":0.0},"type":"Feature","geometry":{"type":"GeometryCollection","geometries":[{"type":"Point","coordinates":[-73.1163073256781,44.6921804619569]}]}},{"properties":{"ADDRESS1":"185 Station Rd,","SITE_ID":"M8-HER","LOCMETH":3,"ADDRESS2":"N. Hero, 05474","PHONE":"372-6966","MANAGER":"Masson, Andrew","area":0.0,"DISTRICT":"8","SITE_NAME":"Hero","LOCCONF":"M","id":"a666ia8otxyt","COUNTY":"013","len":0.0},"type":"Feature","geometry":{"type":"GeometryCollection","geometries":[{"type":"Point","coordinates":[-73.2958329044011,44.8103244044277]}]}},{"properties":{"ADDRESS1":"444 Airport Rd,","SITE_ID":"M8-HIG","LOCMETH":4,"ADDRESS2":"Highgate Ctr, 05459","PHONE":"868-4214","MANAGER":"Masson, Andrew","area":0.0,"DISTRICT":"8","SITE_NAME":"Highgate","LOCCONF":"M","id":"a666iajyth6d","COUNTY":"","len":0.0},"type":"Feature","geometry":{"type":"GeometryCollection","geometries":[{"type":"Point","coordinates":[-73.0934274814371,44.9348875418135]}]}},{"properties":{"ADDRESS1":"706 N. Main St,","SITE_ID":"M8-MON","LOCMETH":3,"ADDRESS2":"Montgomery, 05470","PHONE":"326-4678","MANAGER":"Deuso, Ed","area":0.0,"DISTRICT":"8","SITE_NAME":"Montgomery","LOCCONF":"H","id":"a666iah9qgm8","COUNTY":"011","len":0.0},"type":"Feature","geometry":{"type":"GeometryCollection","geometries":[{"type":"Point","coordinates":[-72.6203045866086,44.8897337036773]}]}},{"properties":{"ADDRESS1":"680 Lower Newton,","SITE_ID":"M8-STA","LOCMETH":3,"ADDRESS2":"St. Albans, 05478","PHONE":"524-5926","MANAGER":"Newbury, Gil","area":0.0,"DISTRICT":"8","SITE_NAME":"St. Albans","LOCCONF":"M","id":"a666ia8q3t6d","COUNTY":"011","len":0.0},"type":"Feature","geometry":{"type":"GeometryCollection","geometries":[{"type":"Point","coordinates":[-73.0902976237124,44.8260615737884]}]}},{"properties":{"ADDRESS1":"1030 VT 14S,","SITE_ID":"M9-ALB","LOCMETH":3,"ADDRESS2":"Albany, 05820","PHONE":"755-6797","MANAGER":"Tetreault, Tom","area":0.0,"DISTRICT":"9","SITE_NAME":"Albany","LOCCONF":"H","id":"a666iadj6w3x","COUNTY":"019","len":0.0},"type":"Feature","geometry":{"type":"GeometryCollection","geometries":[{"type":"Point","coordinates":[-72.3811840000362,44.7283386024968]}]}},{"properties":{"ADDRESS1":"1067 Glover Rd,","SITE_ID":"M9-BAR","LOCMETH":3,"ADDRESS2":"Barton, 05822","PHONE":"525-4432","MANAGER":"Deslandes, Russ","area":0.0,"DISTRICT":"9","SITE_NAME":"Barton","LOCCONF":"M","id":"a666iaeydbaf","COUNTY":"019","len":0.0},"type":"Feature","geometry":{"type":"GeometryCollection","geometries":[{"type":"Point","coordinates":[-72.1841372955683,44.7333242774876]}]}},{"properties":{"ADDRESS1":"2902 VT 102,","SITE_ID":"M9-BLO","LOCMETH":3,"ADDRESS2":"Bloomfield, 05905","PHONE":"962-3377","MANAGER":"Gunn, Robert","area":0.0,"DISTRICT":"9","SITE_NAME":"Bloomfield","LOCCONF":"H","id":"a666ia9v4q68","COUNTY":"009","len":0.0},"type":"Feature","geometry":{"type":"GeometryCollection","geometries":[{"type":"Point","coordinates":[-71.5962410503537,44.7805266178421]}]}},{"properties":{"ADDRESS1":"143 VT 141,","SITE_ID":"M9-CAN","LOCMETH":3,"ADDRESS2":"Canaan, 05903","PHONE":"266-8600","MANAGER":"Gunn, Robert","area":0.0,"DISTRICT":"9","SITE_NAME":"Canaan","LOCCONF":"H","id":"a666iahgptze","COUNTY":"009","len":0.0},"type":"Feature","geometry":{"type":"GeometryCollection","geometries":[{"type":"Point","coordinates":[-71.5573089460074,45.0088747113741]}]}},{"properties":{"ADDRESS1":"4611 US 5,","SITE_ID":"M9-DER","LOCMETH":3,"ADDRESS2":"Newport, 05855","PHONE":"334-7934","MANAGER":"Perron, Dale","area":0.0,"DISTRICT":"9","SITE_NAME":"Derby","LOCCONF":"M","id":"a666iaal3hed","COUNTY":"019","len":0.0},"type":"Feature","geometry":{"type":"GeometryCollection","geometries":[{"type":"Point","coordinates":[-72.1600094984969,44.9515121243403]}]}},{"properties":{"ADDRESS1":"1122 VT 14,","SITE_ID":"M9-IRA","LOCMETH":3,"ADDRESS2":"Irasburg, 05845","PHONE":"754-6436","MANAGER":"Tetreault, Tom","area":0.0,"DISTRICT":"9","SITE_NAME":"Irasburg","LOCCONF":"H","id":"a666iahcar6n","COUNTY":"019","len":0.0},"type":"Feature","geometry":{"type":"GeometryCollection","geometries":[{"type":"Point","coordinates":[-72.2841345954381,44.8467504843564]}]}},{"properties":{"ADDRESS1":"603 Railroad St,","SITE_ID":"M9-ISL","LOCMETH":3,"ADDRESS2":"Island Pond, 05846","PHONE":"723-5966","MANAGER":"Gunn, Robert","area":0.0,"DISTRICT":"9","SITE_NAME":"Island Pond","LOCCONF":"M","id":"a666ia6cc7ib","COUNTY":"009","len":0.0},"type":"Feature","geometry":{"type":"GeometryCollection","geometries":[{"type":"Point","coordinates":[-71.890131868661,44.8202439712754]}]}},{"properties":{"ADDRESS1":"266 Loop Rd,","SITE_ID":"M9-WES","LOCMETH":3,"ADDRESS2":"Westfield, 05874","PHONE":"744-2727","MANAGER":"Donovan, Pat","area":0.0,"DISTRICT":"9","SITE_NAME":"Westfield","LOCCONF":"L","id":"a666iajy15rk","COUNTY":"019","len":0.0},"type":"Feature","geometry":{"type":"GeometryCollection","geometries":[{"type":"Point","coordinates":[-72.4179601502862,44.8904832779375]}]}},{"properties":{"ADDRESS1":"5712 Willoughby La","SITE_ID":"M9-WMR","LOCMETH":4,"ADDRESS2":"Westmore, 05860","PHONE":"525-4494","MANAGER":"Currier, Peter","area":0.0,"DISTRICT":"9","SITE_NAME":"Westmore","LOCCONF":"M","id":"a666ia61nkra","COUNTY":"019","len":0.0},"type":"Feature","geometry":{"type":"GeometryCollection","geometries":[{"type":"Point","coordinates":[-72.0798918498142,44.780676601133]}]}}],"is_temporal":false,"author":{"url":"http://www.vcgi.org/dataware/default.cfm?layer=TransOther_MAINTFAC","metadata":"http://www.vcgi.org/metadata/TransOther_MAINTFAC.txt","contact_name":" Steve Sharp","contact_address":" Address_Type: Mailing and Physical Address\n        Address:\n          58 South Main Street, Suite 2\n        City: Waterbury\n        State_or_Province: VT\n        Postal_Code: 05676\n        Country: USA","source":"Vermont Center for Geographic Information","contact_phone":"(802) 882-3000"},"source":"http://www.vcgi.org/dataware/default.cfm?layer=TransOther_MAINTFAC","pagination":{"sort":null,"start":0,"total":68,"limit":1000000},"state":"complete","tags":"infrastructure,public,transportation,vermont,vermont-gis,vtrans","published":"2004-02-12T12:00:00Z","id":3994}