{"type":"FeatureCollection","data_type":"Dataset","url_type":null,"permissions":[{"permissions":{"download":true,"view":true},"group_id":"everyone"}],"classification":null,"title":"NOAA, Tornadoes reported in parts of US during severe weather event, 22-23 April, 2010, USA","count":48,"stream_id":40806,"contributor":{"url":"http://geocommons.com/users/4","name":"aark"},"data_attributes":null,"calculation_params":null,"icon_link":null,"link":"http://geocommons.com/overlays/40806.json","extent":[-104.16,33.31,-90.43,39.9],"geometry_types":["point"],"unique_name":null,"name":"NOAA, Tornadoes reported in parts of US during severe weather event, 22-23 April, 2010, USA","feature_count":48,"description":"The point shapefile shows locations of tornado reported over the last 48 hours due to a severe weather system affecting parts of Colorado, Kansas, Texas, Oklahoma, Alabama, Arkansas and Georgia. Look elsewhere on Finder! for more up-to-date reports as well data for tornadoes and highwinds. Use key words: &quot;Severe weather&quot;, Hail, Highwind, tornado.","next_feature":null,"is_raster":false,"short_classification":"Y","stats":{"Lon":{"max":-90.43,"mean":-100.195416666667,"variance":15.9651530141844,"stdev":3.99564175248287,"min":-104.16,"median":-101.06},"Time":{"max":2352.0,"mean":1660.10416666667,"variance":842867.074024823,"stdev":918.077923721523,"min":5.0,"median":2140.0},"Lat":{"max":39.9,"mean":37.4147916666667,"variance":3.40614463652482,"stdev":1.84557433784847,"min":33.31,"median":38.21}},"features":[{"properties":{"Lon":-102.46,"Time":5.0,"County":"CHEYENNE","Location":"14 NNE FIRSTVIEW","State":"CO","Type":"Tornado","id":"a62fnzcnrt00","Comments":"TORNADO WAS ON THE GROUND 4 TO 5 MINUTES THEN ROPED OUT. (GLD)","Lat":39.02,"F_Scale":"UNK","Date_":"22Apr10"},"type":"Feature","geometry":{"type":"Point","coordinates":[-102.46,39.02]}},{"properties":{"Lon":-100.91,"Time":10.0,"County":"SCOTT","Location":"4 S SCOTT CITY","State":"KS","Type":"Tornado","id":"a62fnz5ajtb1","Comments":"GRAIN BINS DAMAGED WITH TWO TOTALLY DESTROYED. BARN PARTIALLY COLLAPSED WITH PART OF ROOF TORN OFF. TREES AND POWERLINES DOWN TO THE RESIDENCE. (DDC)","Lat":38.42,"F_Scale":"UNK","Date_":"22Apr10"},"type":"Feature","geometry":{"type":"Point","coordinates":[-100.91,38.42]}},{"properties":{"Lon":-91.19,"Time":25.0,"County":"WARREN","Location":"7 NNW WARRENTON","State":"MO","Type":"Tornado","id":"a62fnz4yl5d1","Comments":"LAW ENFORCEMENT REPORTED TORNADO BETWEEN WARRENTON AND TRUXTON...LOCATION ESTIMATED. (LSX)","Lat":38.91,"F_Scale":"UNK","Date_":"23Apr10"},"type":"Feature","geometry":{"type":"Point","coordinates":[-91.19,38.91]}},{"properties":{"Lon":-91.07,"Time":29.0,"County":"LINCOLN","Location":"4 E HAWK POINT","State":"MO","Type":"Tornado","id":"a62fnz2oep46","Comments":"SMALL TORNADO ON THE GROUND WITH HEAVY ROTATION AND A LARGE WALL CLOUD...ONE MILE WEST OF THIS LOCATION. (LSX)","Lat":38.97,"F_Scale":"UNK","Date_":"23Apr10"},"type":"Feature","geometry":{"type":"Point","coordinates":[-91.07,38.97]}},{"properties":{"Lon":-100.54,"Time":38.0,"County":"MOTLEY","Location":"8 SW CEE VEE","State":"TX","Type":"Tornado","id":"a62fnyzb0vox","Comments":"NUMEROUS REPORTS OF LARGE RAIN WRAPPED TORNADO - MOVING EAST AT 15 MPH (LUB)","Lat":34.15,"F_Scale":"UNK","Date_":"22Apr10"},"type":"Feature","geometry":{"type":"Point","coordinates":[-100.54,34.15]}},{"properties":{"Lon":-91.1,"Time":48.0,"County":"LINCOLN","Location":"3 SW SILEX","State":"MO","Type":"Tornado","id":"a62fnz5ajxzf","Comments":"TORNADO SPOTTED BY CHASER NORTH OF TROY ON HIGHWAY 61. REPORT RELAYED BY WGEM (LSX)","Lat":39.1,"F_Scale":"UNK","Date_":"23Apr10"},"type":"Feature","geometry":{"type":"Point","coordinates":[-91.1,39.1]}},{"properties":{"Lon":-90.99,"Time":114.0,"County":"LINCOLN","Location":"5 NE SILEX","State":"MO","Type":"Tornado","id":"a62fnz8ijta0","Comments":"SPOTTER WAS ON US 61 ABOUT 5 MILES NORTHEAST OF SILEX...LOOKING AT ROPE TORNADO TO HIS WEST...ABOUT TWO MILES NORTH OF SILEX. (LSX)","Lat":39.18,"F_Scale":"UNK","Date_":"23Apr10"},"type":"Feature","geometry":{"type":"Point","coordinates":[-90.99,39.18]}},{"properties":{"Lon":-100.41,"Time":133.0,"County":"COTTLE","Location":"4 SSE CEE VEE","State":"TX","Type":"Tornado","id":"a62fnz8km82i","Comments":"SPOTTER REPORTS LARGE WEDGE TORNADO. SPOTTER IS 2 MILES WEST WNW OF CEE VEE (LUB)","Lat":34.18,"F_Scale":"UNK","Date_":"22Apr10"},"type":"Feature","geometry":{"type":"Point","coordinates":[-100.41,34.18]}},{"properties":{"Lon":-100.25,"Time":205.0,"County":"COTTLE","Location":"6 W SWEARINGEN","State":"TX","Type":"Tornado","id":"a62fnz0ob2no","Comments":"STARTED AT 905 PM. LIFTED BRIEFLY. BUT STILL ON THE GROUND AT 911 PM. (LUB)","Lat":34.15,"F_Scale":"UNK","Date_":"22Apr10"},"type":"Feature","geometry":{"type":"Point","coordinates":[-100.25,34.15]}},{"properties":{"Lon":-100.33,"Time":221.0,"County":"GOVE","Location":"13 SE GOVE","State":"KS","Type":"Tornado","id":"a62fnyytlr9z","Comments":"SHERRIFF REPORTED BRIEF TORNADO 2 MILES SOUTH OF INTERSECTION OF COUNTY ROAD I AND COUNTY ROAD 62. (GLD)","Lat":38.82,"F_Scale":"UNK","Date_":"22Apr10"},"type":"Feature","geometry":{"type":"Point","coordinates":[-100.33,38.82]}},{"properties":{"Lon":-100.17,"Time":225.0,"County":"COTTLE","Location":"2 NW SWEARINGEN","State":"TX","Type":"Tornado","id":"a62fnz0bpif1","Comments":"(LUB)","Lat":34.17,"F_Scale":"UNK","Date_":"22Apr10"},"type":"Feature","geometry":{"type":"Point","coordinates":[-100.17,34.17]}},{"properties":{"Lon":-100.15,"Time":235.0,"County":"COTTLE","Location":"1 N SWEARINGEN","State":"TX","Type":"Tornado","id":"a62fnz8zn7ux","Comments":"REPORTED BY PADUCAH FIRE DEPARTMENT. (LUB)","Lat":34.16,"F_Scale":"UNK","Date_":"22Apr10"},"type":"Feature","geometry":{"type":"Point","coordinates":[-100.15,34.16]}},{"properties":{"Lon":-103.42,"Time":1717.0,"County":"LINCOLN","Location":"6 NE GENOA","State":"CO","Type":"Tornado","id":"a62fnzddec9s","Comments":"(BOU)","Lat":39.34,"F_Scale":"UNK","Date_":"23Apr10"},"type":"Feature","geometry":{"type":"Point","coordinates":[-103.42,39.34]}},{"properties":{"Lon":-103.15,"Time":1908.0,"County":"BENT","Location":"6 SE LAS ANIMAS","State":"CO","Type":"Tornado","id":"a62fnz4ydgr6","Comments":"CORRECTED TIME OF TOUCHDOWN 108 PM MDT. (PUB)","Lat":38.01,"F_Scale":"UNK","Date_":"22Apr10"},"type":"Feature","geometry":{"type":"Point","coordinates":[-103.15,38.01]}},{"properties":{"Lon":-103.16,"Time":1910.0,"County":"BENT","Location":"4 ENE LAS ANIMAS","State":"CO","Type":"Tornado","id":"a62fnyxcr0tk","Comments":"CONDENSATION CONE ON GROUND. (PUB)","Lat":38.09,"F_Scale":"UNK","Date_":"22Apr10"},"type":"Feature","geometry":{"type":"Point","coordinates":[-103.16,38.09]}},{"properties":{"Lon":-103.15,"Time":1913.0,"County":"BENT","Location":"6 SE LAS ANIMAS","State":"CO","Type":"Tornado","id":"a62fnz5udykw","Comments":"(PUB)","Lat":38.01,"F_Scale":"UNK","Date_":"22Apr10"},"type":"Feature","geometry":{"type":"Point","coordinates":[-103.15,38.01]}},{"properties":{"Lon":-103.3,"Time":1915.0,"County":"BENT","Location":"5 WSW LAS ANIMAS","State":"CO","Type":"Tornado","id":"a62fnzcs28o2","Comments":"(PUB)","Lat":38.03,"F_Scale":"UNK","Date_":"22Apr10"},"type":"Feature","geometry":{"type":"Point","coordinates":[-103.3,38.03]}},{"properties":{"Lon":-102.99,"Time":1948.0,"County":"BENT","Location":"7 NNW HASTY","State":"CO","Type":"Tornado","id":"a62fnz342urw","Comments":"(PUB)","Lat":38.21,"F_Scale":"UNK","Date_":"22Apr10"},"type":"Feature","geometry":{"type":"Point","coordinates":[-102.99,38.21]}},{"properties":{"Lon":-102.88,"Time":2032.0,"County":"KIOWA","Location":"7 W SWEETWATER RESERVOI","State":"CO","Type":"Tornado","id":"a62fnz49gr76","Comments":"(PUB)","Lat":38.36,"F_Scale":"UNK","Date_":"22Apr10"},"type":"Feature","geometry":{"type":"Point","coordinates":[-102.88,38.36]}},{"properties":{"Lon":-102.85,"Time":2047.0,"County":"KIOWA","Location":"5 SW EADS","State":"CO","Type":"Tornado","id":"a62fnyywgzfq","Comments":"(PUB)","Lat":38.44,"F_Scale":"UNK","Date_":"22Apr10"},"type":"Feature","geometry":{"type":"Point","coordinates":[-102.85,38.44]}},{"properties":{"Lon":-102.82,"Time":2054.0,"County":"KIOWA","Location":"2 W EADS","State":"CO","Type":"Tornado","id":"a62fnzcxhoid","Comments":"NEAR COUNTY ROAD 36 CROSSING HIGHWAY 96 MOVING NORTH NORTHEAST. (PUB)","Lat":38.48,"F_Scale":"UNK","Date_":"22Apr10"},"type":"Feature","geometry":{"type":"Point","coordinates":[-102.82,38.48]}},{"properties":{"Lon":-90.43,"Time":2055.0,"County":"LEFLORE","Location":"SWIFTOWN","State":"MS","Type":"Tornado","id":"a62fnzaeburi","Comments":"POSSIBLE BRIEF TORNADO TOUCHDOWN. NO DAMAGE REPORTED. (JAN)","Lat":33.31,"F_Scale":"UNK","Date_":"23Apr10"},"type":"Feature","geometry":{"type":"Point","coordinates":[-90.43,33.31]}},{"properties":{"Lon":-104.16,"Time":2128.0,"County":"ELBERT","Location":"9 SW DEER TRAIL","State":"CO","Type":"Tornado","id":"a62fnz6jhshr","Comments":"(BOU)","Lat":39.52,"F_Scale":"UNK","Date_":"22Apr10"},"type":"Feature","geometry":{"type":"Point","coordinates":[-104.16,39.52]}},{"properties":{"Lon":-104.08,"Time":2138.0,"County":"ADAMS","Location":"1 W LEADER","State":"CO","Type":"Tornado","id":"a62fnyz94byi","Comments":"(BOU)","Lat":39.9,"F_Scale":"UNK","Date_":"22Apr10"},"type":"Feature","geometry":{"type":"Point","coordinates":[-104.08,39.9]}},{"properties":{"Lon":-101.42,"Time":2140.0,"County":"KEARNY","Location":"7 ESE KENDALL","State":"KS","Type":"Tornado","id":"a62fnz4yqpa7","Comments":"THE PUBLIC REPORTED TORNADO WAS 1 MILE WIDE. (DDC)","Lat":37.91,"F_Scale":"UNK","Date_":"22Apr10"},"type":"Feature","geometry":{"type":"Point","coordinates":[-101.42,37.91]}},{"properties":{"Lon":-101.12,"Time":2159.0,"County":"ARMSTRONG","Location":"5 NE GOODNIGHT","State":"TX","Type":"Tornado","id":"a62fnz6gdz55","Comments":"ON THE THE GROUND FOR 3 MINUTES (AMA)","Lat":35.09,"F_Scale":"UNK","Date_":"22Apr10"},"type":"Feature","geometry":{"type":"Point","coordinates":[-101.12,35.09]}},{"properties":{"Lon":-101.28,"Time":2210.0,"County":"KEARNY","Location":"2 SW LAKIN","State":"KS","Type":"Tornado","id":"a62fnz29m9zr","Comments":"(DDC)","Lat":37.92,"F_Scale":"UNK","Date_":"22Apr10"},"type":"Feature","geometry":{"type":"Point","coordinates":[-101.28,37.92]}},{"properties":{"Lon":-100.98,"Time":2210.0,"County":"DONLEY","Location":"8 ESE GROOM","State":"TX","Type":"Tornado","id":"a62fnzay1pwp","Comments":"TORNADO BEGAN 4 MILES SE OF GROOM AND ENDED ABOUT 2 MILES ESE OF JERICHO (AMA)","Lat":35.16,"F_Scale":"UNK","Date_":"22Apr10"},"type":"Feature","geometry":{"type":"Point","coordinates":[-100.98,35.16]}},{"properties":{"Lon":-101.15,"Time":2220.0,"County":"ARMSTRONG","Location":"3 NE GOODNIGHT","State":"TX","Type":"Tornado","id":"a62fnz0eijh8","Comments":"TORNADO BEGAN 3 MILES S OF GOODNIGHT AND ENDED ABOUT 8 MILES NE OF GOODNIGHT. TORNADO REPORTED BY MULTIPLE SOURCES. (AMA)","Lat":35.07,"F_Scale":"UNK","Date_":"22Apr10"},"type":"Feature","geometry":{"type":"Point","coordinates":[-101.15,35.07]}},{"properties":{"Lon":-102.73,"Time":2224.0,"County":"CHEYENNE","Location":"5 NE KIT CARSON","State":"CO","Type":"Tornado","id":"a62fnz1gecr1","Comments":"PUBLIC REPORTED TORNADO ON THE GROUND LASTED 3 TO 4 MINUTES. TORNADO ROPING OUT. (GLD)","Lat":38.81,"F_Scale":"UNK","Date_":"22Apr10"},"type":"Feature","geometry":{"type":"Point","coordinates":[-102.73,38.81]}},{"properties":{"Lon":-100.85,"Time":2238.0,"County":"GRAY","Location":"1 E LAKE MCCLELLAN","State":"TX","Type":"Tornado","id":"a62fnz3lxtlw","Comments":"TORNADO BEGAN 1 MILE E OF LAKE MECCLELLAN AND MOVED NE FOR APPROXIMATELY ONE HALF MILE. (AMA)","Lat":35.22,"F_Scale":"UNK","Date_":"22Apr10"},"type":"Feature","geometry":{"type":"Point","coordinates":[-100.85,35.22]}},{"properties":{"Lon":-101.21,"Time":2239.0,"County":"KEARNY","Location":"6 NW DEERFIELD","State":"KS","Type":"Tornado","id":"a62fnyx1dwjf","Comments":"(DDC)","Lat":38.04,"F_Scale":"UNK","Date_":"22Apr10"},"type":"Feature","geometry":{"type":"Point","coordinates":[-101.21,38.04]}},{"properties":{"Lon":-102.82,"Time":2240.0,"County":"CHEYENNE","Location":"2 SW KIT CARSON","State":"CO","Type":"Tornado","id":"a62fnzai6njg","Comments":"LASTED 5 MINUTES (GLD)","Lat":38.74,"F_Scale":"UNK","Date_":"22Apr10"},"type":"Feature","geometry":{"type":"Point","coordinates":[-102.82,38.74]}},{"properties":{"Lon":-100.82,"Time":2251.0,"County":"BEAVER","Location":"8 S BRYANS CORNER","State":"OK","Type":"Tornado","id":"a62fnz0gee2e","Comments":"TORNADO BEGAN 8 MILES S OF BRYANS CORNER AND REMAINED NEARLY STATIONARY. TORNADO LASTED APPROXIMATELY ONE MINUTE. (AMA)","Lat":36.5,"F_Scale":"UNK","Date_":"22Apr10"},"type":"Feature","geometry":{"type":"Point","coordinates":[-100.82,36.5]}},{"properties":{"Lon":-102.83,"Time":2253.0,"County":"CHEYENNE","Location":"2 W KIT CARSON","State":"CO","Type":"Tornado","id":"a62fnz51hsaq","Comments":"LASTED 3 MINUTES (GLD)","Lat":38.76,"F_Scale":"UNK","Date_":"22Apr10"},"type":"Feature","geometry":{"type":"Point","coordinates":[-102.83,38.76]}},{"properties":{"Lon":-100.98,"Time":2307.0,"County":"DONLEY","Location":"8 ESE GROOM","State":"TX","Type":"Tornado","id":"a62fnz9kjq2m","Comments":"TORNADO BAGAN 8 MILES ESE OF GROOM AND MOVED NE FOR APPROXIMATELY ONE HALF MILE. (AMA)","Lat":35.16,"F_Scale":"UNK","Date_":"22Apr10"},"type":"Feature","geometry":{"type":"Point","coordinates":[-100.98,35.16]}},{"properties":{"Lon":-102.68,"Time":2309.0,"County":"CHEYENNE","Location":"8 WNW FIRSTVIEW","State":"CO","Type":"Tornado","id":"a62fnz977ey7","Comments":"RAIN WRAPPED (GLD)","Lat":38.86,"F_Scale":"UNK","Date_":"22Apr10"},"type":"Feature","geometry":{"type":"Point","coordinates":[-102.68,38.86]}},{"properties":{"Lon":-101.09,"Time":2311.0,"County":"FINNEY","Location":"10 WSW FRIEND","State":"KS","Type":"Tornado","id":"a62fnzcii7ox","Comments":"(DDC)","Lat":38.22,"F_Scale":"UNK","Date_":"22Apr10"},"type":"Feature","geometry":{"type":"Point","coordinates":[-101.09,38.22]}},{"properties":{"Lon":-100.99,"Time":2313.0,"County":"FINNEY","Location":"9 SSW FRIEND","State":"KS","Type":"Tornado","id":"a62fnz9goprx","Comments":"STOVEPIPE TORNADO. (DDC)","Lat":38.14,"F_Scale":"UNK","Date_":"22Apr10"},"type":"Feature","geometry":{"type":"Point","coordinates":[-100.99,38.14]}},{"properties":{"Lon":-101.06,"Time":2322.0,"County":"FINNEY","Location":"8 W FRIEND","State":"KS","Type":"Tornado","id":"a62fnz92ibl2","Comments":"LARGE TORNADO WITH POSSIBLE SATELLITE TORNADO. (DDC)","Lat":38.24,"F_Scale":"UNK","Date_":"22Apr10"},"type":"Feature","geometry":{"type":"Point","coordinates":[-101.06,38.24]}},{"properties":{"Lon":-90.95,"Time":2322.0,"County":"CRAIGHEAD","Location":"1 W CASH","State":"AR","Type":"Tornado","id":"a62fnz6b39ll","Comments":"TORNADO REPORTED TO HAVE TOUCHED DOWN A COUPLE TIMES. (MEG)","Lat":35.8,"F_Scale":"UNK","Date_":"23Apr10"},"type":"Feature","geometry":{"type":"Point","coordinates":[-90.95,35.8]}},{"properties":{"Lon":-101.02,"Time":2326.0,"County":"SCOTT","Location":"6 W FRIEND","State":"KS","Type":"Tornado","id":"a62fnyx7j2yn","Comments":"WEDGE TORNADO. (DDC)","Lat":38.26,"F_Scale":"UNK","Date_":"22Apr10"},"type":"Feature","geometry":{"type":"Point","coordinates":[-101.02,38.26]}},{"properties":{"Lon":-100.8,"Time":2330.0,"County":"GRAY","Location":"5 NW ALANREED","State":"TX","Type":"Tornado","id":"a62fnyx0uc6x","Comments":"LARGE INTENSE CIRCULATION... APPROXIMATELY ONE QUARTER OF A MILE WIDE... WITH SEVERAL BRIEF MULTI VORTEX STYLE TOUCHDOWNS. TORNADO BEGAN 1 MILE NORTH OF LAKE MCCLELLAN (AMA)","Lat":35.26,"F_Scale":"UNK","Date_":"22Apr10"},"type":"Feature","geometry":{"type":"Point","coordinates":[-100.8,35.26]}},{"properties":{"Lon":-101.04,"Time":2332.0,"County":"SCOTT","Location":"8 WSW SHALLOW WATER","State":"KS","Type":"Tornado","id":"a62fnzb9nmcn","Comments":"STORM CHASER REPORTED RAIN WRAPPED WEDGE TORNADO. (DDC)","Lat":38.31,"F_Scale":"UNK","Date_":"22Apr10"},"type":"Feature","geometry":{"type":"Point","coordinates":[-101.04,38.31]}},{"properties":{"Lon":-100.59,"Time":2340.0,"County":"GRAY","Location":"13 ENE LEFORS","State":"TX","Type":"Tornado","id":"a62fnzabdf5s","Comments":"TORNADO BEGAN 11 MILES ENE OF LEFORS AND ENDED APPROXIMATELY 7 MILES WSW OF MOBEETIE. (AMA)","Lat":35.51,"F_Scale":"UNK","Date_":"22Apr10"},"type":"Feature","geometry":{"type":"Point","coordinates":[-100.59,35.51]}},{"properties":{"Lon":-91.19,"Time":2340.0,"County":"WARREN","Location":"4 NW WARRENTON","State":"MO","Type":"Tornado","id":"a62fnz3awlya","Comments":"BRIEF TORNADO TOUCHDOWN OBSERVED 4 MILES NORTHWEST OF WARRENTON (LSX)","Lat":38.86,"F_Scale":"UNK","Date_":"23Apr10"},"type":"Feature","geometry":{"type":"Point","coordinates":[-91.19,38.86]}},{"properties":{"Lon":-101.28,"Time":2344.0,"County":"KEARNY","Location":"14 NW DEERFIELD","State":"KS","Type":"Tornado","id":"a62fnz55j8bn","Comments":"STOVEPIPE TORNADO. (DDC)","Lat":38.14,"F_Scale":"UNK","Date_":"22Apr10"},"type":"Feature","geometry":{"type":"Point","coordinates":[-101.28,38.14]}},{"properties":{"Lon":-102.54,"Time":2352.0,"County":"CHEYENNE","Location":"12 N FIRSTVIEW","State":"CO","Type":"Tornado","id":"a62fnyzodvsq","Comments":"TORNADO ON NORTH SIDE OFINTERSECTIO OF COUNTY ROAD DD AND COUNTY ROAD 34 MOVING TO THE NORTHEAST. (GLD)","Lat":39.0,"F_Scale":"UNK","Date_":"22Apr10"},"type":"Feature","geometry":{"type":"Point","coordinates":[-102.54,39.0]}}],"is_temporal":false,"author":{"url":"http://www.spc.noaa.gov","metadata":"http://www.spc.noaa.gov","contact_name":"","contact_address":"","source":"NOAA's Storm Prediction Center website","contact_phone":""},"source":"http://www.spc.noaa.gov","pagination":{"sort":null,"start":0,"total":48,"limit":1000000},"state":"complete","tags":"hail,highwind,storm,tornado,weather","published":"2010-04-24T16:00:00Z","id":40806}