{"type":"FeatureCollection","data_type":"Dataset","url_type":null,"permissions":[{"permissions":{"download":true,"view":true},"group_id":"everyone"}],"classification":null,"title":"FEMA HAZUS, Houston-Galveston fire stations affected by Ike's storm surge, USA, Sep 13 2008  ","count":13,"stream_id":4462,"contributor":{"url":"http://geocommons.com/users/4","name":"aark"},"data_attributes":null,"calculation_params":null,"icon_link":null,"link":"http://geocommons.com/overlays/4462.json","extent":[-95.3735,28.9496,-93.9335,29.8718],"geometry_types":["point"],"unique_name":null,"name":"FEMA HAZUS, Houston-Galveston fire stations affected by Ike's storm surge, USA, Sep 13 2008  ","feature_count":13,"description":"The point shapefile shows location of fire stations affected by Hurricane Ike's storm surge at landfall on Sep 13 2008. The data was extracted from FEMA's HAZUS-MH Hurricane and Flood model.","next_feature":null,"is_raster":false,"short_classification":"Y","stats":{"Longitude":{"max":-93.93352,"mean":-94.8674215384615,"variance":0.117745019597435,"stdev":0.34313994171101,"min":-95.37349,"median":-94.88837},"Latitude":{"max":29.87181,"mean":29.3069230769231,"variance":0.0506305397397437,"stdev":0.225012310196006,"min":28.94962,"median":29.30041},"Tract":{"max":null,"min":null,"median":null}},"features":[{"properties":{"Name":"Galveston Fire Station 5","City":"Galveston","Contact":"Fire Departments","Zipcode":"77551-4419","Longitude":-94.82938,"FireStatio":"TX000136","Latitude":29.28908,"id":"a67khd09j7wi","Tract":"48167725200","Address":"1104 56th St","Statea":"TX"},"type":"Feature","geometry":{"type":"Point","coordinates":[-94.8293799999992,29.2890800000005]}},{"properties":{"Name":"Texas City Fire Dept","City":"Texas City","Contact":"Fire Departments","Zipcode":"77590-4930","Longitude":-94.93071,"FireStatio":"TX000398","Latitude":29.40125,"id":"a67khcyjsfml","Tract":"48167722000","Address":"1725 25th St N","Statea":"TX"},"type":"Feature","geometry":{"type":"Point","coordinates":[-94.9307100000005,29.4012500000008]}},{"properties":{"Name":"Port Bolivar Vol Fire Dept","City":"Port Bolivar","Contact":"Fire Departments","Zipcode":"77650-0000","Longitude":-94.76067,"FireStatio":"TX000409","Latitude":29.38212,"id":"a67khctta9fb","Tract":"48167723900","Address":"1806 Broadway","Statea":"TX"},"type":"Feature","geometry":{"type":"Point","coordinates":[-94.7606699999997,29.3821200000002]}},{"properties":{"Name":"Crystal Beach Fire Rescue","City":"Port Bolivar","Contact":"Fire Departments","Zipcode":"77650-0000","Longitude":-94.75344,"FireStatio":"TX000385","Latitude":29.37356,"id":"a67khd77l1w2","Tract":"48167723900","Address":"1698 Highway 87","Statea":"TX"},"type":"Feature","geometry":{"type":"Point","coordinates":[-94.7534400000004,29.37356]}},{"properties":{"Name":"Texas City Central Fire Dept","City":"Texas City","Contact":"Fire Departments","Zipcode":"77590-4930","Longitude":-94.93071,"FireStatio":"TX000396","Latitude":29.40121,"id":"a67khczoryg9","Tract":"48167722000","Address":"1721 25th St N","Statea":"TX"},"type":"Feature","geometry":{"type":"Point","coordinates":[-94.9307100000005,29.40121]}},{"properties":{"Name":"Galveston Fire Station","City":"Galveston","Contact":"Fire Departments","Zipcode":"77554-0000","Longitude":-94.88837,"FireStatio":"TX000600","Latitude":29.24537,"id":"a67khctvnooh","Tract":"48167726000","Address":"21710 S Shelby St","Statea":"TX"},"type":"Feature","geometry":{"type":"Point","coordinates":[-94.8883700000006,29.2453700000005]}},{"properties":{"Name":"Galveston Fire Station Central","City":"Galveston","Contact":"Fire Departments","Zipcode":"77550-2108","Longitude":-94.79495,"FireStatio":"TX000644","Latitude":29.30041,"id":"a67khcte4fx7","Tract":"48167724500","Address":"2514 Sealy St","Statea":"TX"},"type":"Feature","geometry":{"type":"Point","coordinates":[-94.7949499999995,29.3004099999998]}},{"properties":{"Name":"Bayou Vista Volunteer Fire","City":"Hitchcock","Contact":"Fire Departments","Zipcode":"77563-2723","Longitude":-94.94178,"FireStatio":"TX000678","Latitude":29.33132,"id":"a67khd7s0rzz","Tract":"48167723800","Address":"2929 Highway 6","Statea":"TX"},"type":"Feature","geometry":{"type":"Point","coordinates":[-94.9417799999992,29.3313199999993]}},{"properties":{"Name":"Port Arthur Fire Chief","City":"Port Arthur","Contact":"Fire Departments","Zipcode":"77640-6458","Longitude":-93.93352,"FireStatio":"TX000691","Latitude":29.87181,"id":"a67khcytfig5","Tract":"48245006100","Address":"300 Waco Ave","Statea":"TX"},"type":"Feature","geometry":{"type":"Point","coordinates":[-93.9335200000005,29.8718100000006]}},{"properties":{"Name":"Galveston Fire Station","City":"Galveston","Contact":"Fire Departments","Zipcode":"77554-9367","Longitude":-94.93951,"FireStatio":"TX000797","Latitude":29.21046,"id":"a67khd1w4rj7","Tract":"48167726100","Address":"3902 Buccaneer Blvd","Statea":"TX"},"type":"Feature","geometry":{"type":"Point","coordinates":[-94.9395100000002,29.2104600000002]}},{"properties":{"Name":"Surfside Beach Fire Dept","City":"Freeport","Contact":"Fire Departments","Zipcode":"77541-5609","Longitude":-95.35121,"FireStatio":"TX000829","Latitude":28.94962,"id":"a67khd81qyn3","Tract":"48039664400","Address":"404 W 4th St","Statea":"TX"},"type":"Feature","geometry":{"type":"Point","coordinates":[-95.3512100000007,28.9496199999994]}},{"properties":{"Name":"Freeport Fire Dept","City":"Freeport","Contact":"Fire Departments","Zipcode":"77541-3802","Longitude":-95.37349,"FireStatio":"TX000870","Latitude":28.96417,"id":"a67khd8sw6yn","Tract":"48039664300","Address":"430 N Brazosport Blvd","Statea":"TX"},"type":"Feature","geometry":{"type":"Point","coordinates":[-95.3734899999999,28.9641699999993]}},{"properties":{"Name":"Galveston Fire Station","City":"Galveston","Contact":"Fire Departments","Zipcode":"77554-6212","Longitude":-94.84874,"FireStatio":"TX001060","Latitude":29.26962,"id":"a67khcwqajfj","Tract":"48167725900","Address":"7902 Mustang Dr","Statea":"TX"},"type":"Feature","geometry":{"type":"Point","coordinates":[-94.8487399999995,29.2696199999991]}}],"is_temporal":false,"author":{"url":"http://www.fema.gov/plan/prevent/hazus/","metadata":"http://www.fema.gov/plan/prevent/hazus/index.shtm","contact_name":"","contact_address":"","source":"FEMA's HAZUS software 1.2 and data DVD #3","contact_phone":""},"source":"http://www.fema.gov/plan/prevent/hazus/","pagination":{"sort":null,"start":0,"total":13,"limit":1000000},"state":"complete","tags":"fire,hurricane\",ike,stations,storm,surge","published":"2008-09-13T12:00:00Z","id":4462}