{"type":"FeatureCollection","data_type":"Dataset","url_type":null,"permissions":[{"permissions":{"download":true,"view":true},"group_id":"everyone"}],"classification":null,"title":"Arizona Dept of Corrections, Arizona Adult State Correctional Institutions, Arizona, 3.2008","count":13,"stream_id":450,"contributor":{"url":"http://geocommons.com/users/2","name":"data"},"data_attributes":null,"calculation_params":null,"icon_link":null,"link":"http://geocommons.com/overlays/450.json","extent":[-114.762,31.4607,-109.414,34.9848],"geometry_types":["point"],"unique_name":null,"name":"Arizona Dept of Corrections, Arizona Adult State Correctional Institutions, Arizona, 3.2008","feature_count":13,"description":"This dataset displays the locations of all the Adult Correctional Facilities in the state of Arizona as of 3.2008. This includes both female and male institutions.\n","next_feature":null,"is_raster":false,"short_classification":"Y","stats":{"lon":{"max":-109.413635,"mean":-111.333210846154,"variance":2.07030134908814,"stdev":1.43885417923017,"min":-114.762063,"median":-111.327354},"zip":{"max":86047,"mean":85473.3846153846,"variance":88776.0897435897,"stdev":297.953167030642,"min":85008,"median":85395},"lat":{"max":34.984849,"mean":33.0935582307692,"variance":0.829406453101025,"stdev":0.91071754847539,"min":31.460732,"median":33.036356}},"features":[{"properties":{"city":"St. Johns","lon":-109.413635,"zip":85936,"facility":"ASP - Apache Unit","id":"a64m6yswpw9h","address":"38322 US Hwy 180","lat":34.31303,"state":"AZ"},"type":"Feature","geometry":{"type":"Point","coordinates":[-109.413635,34.31303]}},{"properties":{"city":"Globe","lon":-110.713014,"zip":85501,"facility":"ASP-Globe","id":"a64m6z0q956d","address":"1000 Fairgrounds Rd","lat":33.419244,"state":"AZ"},"type":"Feature","geometry":{"type":"Point","coordinates":[-110.713014,33.419244]}},{"properties":{"city":"Douglas","lon":-109.591738,"zip":85607,"facility":"ASPC - Douglas","id":"a64m6ywhgpk3","address":"6911 N. BDI Blvd","lat":31.460732,"state":"AZ"},"type":"Feature","geometry":{"type":"Point","coordinates":[-109.591738,31.460732]}},{"properties":{"city":"Florence","lon":-111.327354,"zip":85232,"facility":"ASPC - Eyman","id":"a64m6yvf741y","address":"4374 East Butte Avenue","lat":33.036356,"state":"AZ"},"type":"Feature","geometry":{"type":"Point","coordinates":[-111.327354,33.036356]}},{"properties":{"city":"Florence","lon":-111.37155,"zip":85232,"facility":"ASPC - Florence","id":"a64m6yqko0u4","address":"1305 E Butte Ave","lat":33.027481,"state":"AZ"},"type":"Feature","geometry":{"type":"Point","coordinates":[-111.37155,33.027481]}},{"properties":{"city":"Phoenix","lon":-112.028223,"zip":85008,"facility":"ASPC - Phoenix","id":"a64m6ywireuf","address":"2500 E. Van Buren St","lat":33.453178,"state":"AZ"},"type":"Feature","geometry":{"type":"Point","coordinates":[-112.028223,33.453178]}},{"properties":{"city":"Safford","lon":-109.946809,"zip":85546,"facility":"ASPC - Safford","id":"a64m6yufkptz","address":"896 S. Cook Road","lat":32.622878,"state":"AZ"},"type":"Feature","geometry":{"type":"Point","coordinates":[-109.946809,32.622878]}},{"properties":{"city":"Tucson","lon":-110.865491,"zip":85734,"facility":"ASPC - Tucson","id":"a64m6yptwnt6","address":"10000 South Wilmot","lat":32.065929,"state":"AZ"},"type":"Feature","geometry":{"type":"Point","coordinates":[-110.865491,32.065929]}},{"properties":{"city":"Winslow","lon":-110.721896,"zip":86047,"facility":"ASPC - Winslow","id":"a64m6yy95idd","address":"2100 South Highway 87","lat":34.984849,"state":"AZ"},"type":"Feature","geometry":{"type":"Point","coordinates":[-110.721896,34.984849]}},{"properties":{"city":"San Luis","lon":-114.762063,"zip":85349,"facility":"ASPC - Yuma","id":"a64m6yygvuwf","address":"7125 East Juan Sanchez Blvd","lat":32.501962,"state":"AZ"},"type":"Feature","geometry":{"type":"Point","coordinates":[-114.762063,32.501962]}},{"properties":{"city":"Buckeye","lon":-112.652767,"zip":85326,"facility":"ASPC-Lewis","id":"a64m6yz0dcy2","address":"26700 South Highway 85","lat":33.209653,"state":"AZ"},"type":"Feature","geometry":{"type":"Point","coordinates":[-112.652767,33.209653]}},{"properties":{"city":"Goodyear","lon":-112.435855,"zip":85395,"facility":"ASPC-Perryville","id":"a64m6yoxma6f","address":"2014 North Citrus Road","lat":33.470613,"state":"AZ"},"type":"Feature","geometry":{"type":"Point","coordinates":[-112.435855,33.470613]}},{"properties":{"city":"Picacho","lon":-111.501346,"zip":85241,"facility":"ASPC-Picacho Unit","id":"a64m6yq0hnjy","address":"25230 Picacho Boulevard","lat":32.650352,"state":"AZ"},"type":"Feature","geometry":{"type":"Point","coordinates":[-111.501346,32.650352]}}],"is_temporal":false,"author":{"url":"http://www.adc.state.az.us/","metadata":"","contact_name":"","contact_address":"","source":"Arizona Dept of Corrections","contact_phone":""},"source":"http://www.adc.state.az.us/","pagination":{"sort":null,"start":0,"total":13,"limit":1000000},"state":"complete","tags":"arizona,correctional,corrections,enforcement,institution,law,prisons","published":"2008-05-07T12:00:00Z","id":450}