{"type":"FeatureCollection","data_type":"Dataset","url_type":null,"permissions":[{"permissions":{"download":true,"view":true},"group_id":"everyone"}],"classification":null,"title":"gsg inv","count":528,"stream_id":4515,"contributor":{"url":"http://geocommons.com/users/993","name":"joetremble"},"data_attributes":null,"calculation_params":null,"icon_link":null,"link":"http://geocommons.com/overlays/4515.json","extent":[-122.676,25.9805,-71.3869,45.5118],"geometry_types":["point"],"unique_name":null,"name":"gsg inv","feature_count":528,"description":"","next_feature":null,"is_raster":false,"short_classification":"Y","stats":{"amount":{"max":152763.66,"mean":9639.72598484848,"variance":352540134.076463,"stdev":18776.0521429949,"min":0,"median":3363.4},"lat":{"max":45.511795,"mean":38.9092358806819,"variance":2.46299156096989,"stdev":1.56939209918041,"min":25.980505,"median":39.015962},"long":{"max":-71.386871,"mean":-77.4116724848485,"variance":15.0559921225057,"stdev":3.88020516500168,"min":-122.675629,"median":-76.93784}},"features":[{"properties":{"city":"Portland","name":"Aeroterm US","zip":"OR","amount":505,"id":"a6of25kknis5","address":"","lat":45.511795,"state":"","long":-122.675629},"type":"Feature","geometry":{"type":"Point","coordinates":[-122.675629,45.511795]}},{"properties":{"city":"Alexandria","name":"Federal Realty Inv. Trust","zip":57311,"amount":1495,"id":"a6of25khpvpl","address":"","lat":43.646471,"state":"Alexandria","long":-97.770618},"type":"Feature","geometry":{"type":"Point","coordinates":[-97.770618,43.646471]}},{"properties":{"city":"Arlington","name":"Federal Realty/ The Crest","zip":"","amount":3645,"id":"a6of25kn6lzq","address":"","lat":38.89051,"state":"VA","long":-77.086294},"type":"Feature","geometry":{"type":"Point","coordinates":[-77.086294,38.89051]}},{"properties":{"city":"BWI Airport","name":"Fire &amp; Ice","zip":"","amount":1172,"id":"a6of25gk4x5l","address":"","lat":39.184052,"state":"md","long":-76.674477},"type":"Feature","geometry":{"type":"Point","coordinates":[-76.674477,39.184052]}},{"properties":{"city":"Lanham","name":"Advance Realty","zip":"","amount":7805,"id":"a6of25kbl5qm","address":"","lat":38.96191,"state":"MD","long":-76.862339},"type":"Feature","geometry":{"type":"Point","coordinates":[-76.862339,38.96191]}},{"properties":{"city":"Baltimore","name":"Struever Bros. Eccles &amp; Rouse","zip":21202,"amount":817,"id":"a6of25chmm8g","address":"","lat":39.290555,"state":"MD","long":-76.609604},"type":"Feature","geometry":{"type":"Point","coordinates":[-76.609604,39.290555]}},{"properties":{"city":"Arlington","name":"Federal Realty Inv. Trust","zip":"","amount":18015.5,"id":"a6of25rs31ro","address":"","lat":38.89051,"state":"VA","long":-77.086294},"type":"Feature","geometry":{"type":"Point","coordinates":[-77.086294,38.89051]}},{"properties":{"city":"Arlington","name":"Federal Realty/ The Crest","zip":"","amount":3013.61,"id":"a6of25kd6d8o","address":"","lat":38.89051,"state":"VA","long":-77.086294},"type":"Feature","geometry":{"type":"Point","coordinates":[-77.086294,38.89051]}},{"properties":{"city":"Annapolis","name":"Everything But Water","zip":21401,"amount":7603,"id":"a6of25h786x8","address":"(ANH) Annapolis Harbor Center","lat":38.9767,"state":"MD","long":-76.489934},"type":"Feature","geometry":{"type":"Point","coordinates":[-76.489934,38.9767]}},{"properties":{"city":"Columbia","name":"Everything But Water","zip":21044,"amount":7556,"id":"a6of25er34zv","address":"(COL) The Mall in Columbia","lat":39.200405,"state":"MD","long":-76.863614},"type":"Feature","geometry":{"type":"Point","coordinates":[-76.863614,39.200405]}},{"properties":{"city":"Columbia","name":"Everything But Water","zip":21044,"amount":0,"id":"a6of25oynraq","address":"(COL) The Mall in Columbia","lat":39.200405,"state":"MD","long":-76.863614},"type":"Feature","geometry":{"type":"Point","coordinates":[-76.863614,39.200405]}},{"properties":{"city":"Dulles","name":"Everything But Water","zip":20166,"amount":3701,"id":"a6of25ggyjqi","address":"(DUL) Dulles Town Center","lat":38.983417,"state":"VA","long":-77.404824},"type":"Feature","geometry":{"type":"Point","coordinates":[-77.404824,38.983417]}},{"properties":{"city":"Fairfax","name":"Everything But Water","zip":22033,"amount":3573,"id":"a6of25eqapsc","address":"(FOM) Fair Oaks Mall","lat":38.864337,"state":"VA","long":-77.362593},"type":"Feature","geometry":{"type":"Point","coordinates":[-77.362593,38.864337]}},{"properties":{"city":"Nashville","name":"Everything But Water","zip":37215,"amount":4195.25,"id":"a6of25e2zzk2","address":"(GHM) The Mall at Green Hills","lat":36.1035,"state":"TN","long":-86.802664},"type":"Feature","geometry":{"type":"Point","coordinates":[-86.802664,36.1035]}},{"properties":{"city":"Bethesda","name":"Everything But Water","zip":20817,"amount":3259,"id":"a6of25hsoyb5","address":"(MTM) Westfield Montgomery Mall","lat":39.005309,"state":"MD","long":-77.119577},"type":"Feature","geometry":{"type":"Point","coordinates":[-77.119577,39.005309]}},{"properties":{"city":"Bethesda","name":"Everything But Water","zip":20817,"amount":0,"id":"a6of25hgb5kr","address":"(MTM) Westfield Montgomery Mall","lat":39.005309,"state":"MD","long":-77.119577},"type":"Feature","geometry":{"type":"Point","coordinates":[-77.119577,39.005309]}},{"properties":{"city":"Natick","name":"Everything But Water","zip":1760,"amount":4322,"id":"a6of25efsdk6","address":"(NAT) Natick Mall","lat":42.299179,"state":"MA","long":-71.386871},"type":"Feature","geometry":{"type":"Point","coordinates":[-71.386871,42.299179]}},{"properties":{"city":"Providence","name":"Everything But Water","zip":2903,"amount":7885,"id":"a6of25ko7cwl","address":"(PRP) Providence Place","lat":41.826679,"state":"RI","long":-71.415504},"type":"Feature","geometry":{"type":"Point","coordinates":[-71.415504,41.826679]}},{"properties":{"city":"Providence","name":"Everything But Water","zip":2903,"amount":0,"id":"a6of25cz1ary","address":"(PRP) Providence Place","lat":41.826679,"state":"RI","long":-71.415504},"type":"Feature","geometry":{"type":"Point","coordinates":[-71.415504,41.826679]}},{"properties":{"city":"Richmond","name":"Everything But Water","zip":23233,"amount":2877,"id":"a6of25ocef1j","address":"(SHP) Short Pump Town Center","lat":37.637779,"state":"VA","long":-77.620315},"type":"Feature","geometry":{"type":"Point","coordinates":[-77.620315,37.637779]}},{"properties":{"city":"Charlotte","name":"Everything But Water","zip":28211,"amount":4015.25,"id":"a6of25f6mhgz","address":"(SPM) Southpark Mall","lat":35.168106,"state":"NC","long":-80.779223},"type":"Feature","geometry":{"type":"Point","coordinates":[-80.779223,35.168106]}},{"properties":{"city":"Durham","name":"Everything But Water","zip":27713,"amount":4034,"id":"a6of25rblf46","address":"(SSP) Streets at Southpoint","lat":35.888245,"state":"NC","long":-78.982399},"type":"Feature","geometry":{"type":"Point","coordinates":[-78.982399,35.888245]}},{"properties":{"city":"Raleigh","name":"Everything But Water","zip":27616,"amount":80,"id":"a6of25p4m0fb","address":"(TRI) Triangle Town Center","lat":35.894867,"state":"NC","long":-78.563703},"type":"Feature","geometry":{"type":"Point","coordinates":[-78.563703,35.894867]}},{"properties":{"city":"Raleigh","name":"Everything But Water","zip":27616,"amount":4249,"id":"a6of25hpa62s","address":"(TRI) Triangle Town Center","lat":35.894867,"state":"NC","long":-78.563703},"type":"Feature","geometry":{"type":"Point","coordinates":[-78.563703,35.894867]}},{"properties":{"city":"Towson","name":"Everything But Water","zip":21204,"amount":7389,"id":"a6of25ham3eg","address":"(TTC) Towson Town Center","lat":39.399935,"state":"MD","long":-76.605364},"type":"Feature","geometry":{"type":"Point","coordinates":[-76.605364,39.399935]}},{"properties":{"city":"Mc Lean","name":"Everything But Water","zip":22102,"amount":2235,"id":"a6of25l9q7ou","address":"(TYS) Tysons Corner Center","lat":38.960614,"state":"VA","long":-77.240654},"type":"Feature","geometry":{"type":"Point","coordinates":[-77.240654,38.960614]}},{"properties":{"city":"Mc Lean","name":"Everything But Water","zip":22102,"amount":7302,"id":"a6of25i97pvm","address":"(TYS) Tysons Corner Center","lat":38.960614,"state":"VA","long":-77.240654},"type":"Feature","geometry":{"type":"Point","coordinates":[-77.240654,38.960614]}},{"properties":{"city":"Saint Louis","name":"Everything But Water","zip":63131,"amount":4269,"id":"a6of25llqnit","address":"(WCM) Westfield West County","lat":38.622437,"state":"MO","long":-90.456153},"type":"Feature","geometry":{"type":"Point","coordinates":[-90.456153,38.622437]}},{"properties":{"city":"White Plains","name":"Everything But Water","zip":10602,"amount":4230.25,"id":"a6of25p4qk3s","address":"(WSC) The Westchester","lat":41.033545,"state":"NY","long":-73.76414},"type":"Feature","geometry":{"type":"Point","coordinates":[-73.76414,41.033545]}},{"properties":{"city":"Washington","name":"JPI","zip":20024,"amount":6117,"id":"a6of25ra5816","address":"100 Eye St Apartements","lat":38.879168,"state":"DC","long":-77.011481},"type":"Feature","geometry":{"type":"Point","coordinates":[-77.011481,38.879168]}},{"properties":{"city":"Baltimore","name":"Struever Bros. Eccles &amp; Rouse","zip":21231,"amount":2175.5,"id":"a6of25iwu090","address":"1000 Wills St.","lat":39.280355,"state":"MD","long":-76.597742},"type":"Feature","geometry":{"type":"Point","coordinates":[-76.597742,39.280355]}},{"properties":{"city":"Falling Waters","name":"H &amp; H Rock Incorporated","zip":25419,"amount":950,"id":"a6of25i0xk30","address":"10000 Williamsport Pike","lat":39.591228,"state":"WV","long":-77.853814},"type":"Feature","geometry":{"type":"Point","coordinates":[-77.853814,39.591228]}},{"properties":{"city":"Vienna","name":"Navy Federal Credit Union","zip":22180,"amount":2422,"id":"a6of25jv8k92","address":"1007 Electric Avenue","lat":38.900216,"state":"VA","long":-77.244273},"type":"Feature","geometry":{"type":"Point","coordinates":[-77.244273,38.900216]}},{"properties":{"city":"Vienna","name":"Navy Federal Credit Union","zip":22180,"amount":2659,"id":"a6of25ngyho7","address":"1007 Electric Avenue","lat":38.900216,"state":"VA","long":-77.244273},"type":"Feature","geometry":{"type":"Point","coordinates":[-77.244273,38.900216]}},{"properties":{"city":"Columbia","name":"Community Realty Co.","zip":21044,"amount":4984,"id":"a6of25iq8s0l","address":"10101 Governor Warfield Pkwy","lat":39.219894,"state":"MD","long":-76.861764},"type":"Feature","geometry":{"type":"Point","coordinates":[-76.861764,39.219894]}},{"properties":{"city":"Behesda","name":"Lace Silhouettes Lingerie,Inc.","zip":"20814-1907","amount":350,"id":"a6of25h6uh4f","address":"10217 Old Georgetown Rd","lat":39.022923,"state":"MD","long":-77.123578},"type":"Feature","geometry":{"type":"Point","coordinates":[-77.123578,39.022923]}},{"properties":{"city":"Bethesda","name":"Lace Silhouettes Lingerie,Inc.","zip":"20814-1907","amount":2803,"id":"a6of25mwp3kk","address":"10217 Old Georgetown Rd.","lat":39.022923,"state":"MD","long":-77.123578},"type":"Feature","geometry":{"type":"Point","coordinates":[-77.123578,39.022923]}},{"properties":{"city":"Owings Mills","name":"Sticks-N-Stuff","zip":21117,"amount":7448,"id":"a6of25pamt9q","address":"10300 Mill Run Circle","lat":39.404556,"state":"MD","long":-76.787412},"type":"Feature","geometry":{"type":"Point","coordinates":[-76.787412,39.404556]}},{"properties":{"city":"Fredericksburg","name":"Hazel Land Companies, Inc.","zip":22408,"amount":1491.26,"id":"a6of25oabwi1","address":"10300 Spotsylvania Ave.","lat":38.241128,"state":"VA","long":-77.49739},"type":"Feature","geometry":{"type":"Point","coordinates":[-77.49739,38.241128]}},{"properties":{"city":"Jessup","name":"Nationwide Insurance","zip":20794,"amount":13031,"id":"a6of25jrn31i","address":"1035 Dorchester Blvd","lat":39.148748,"state":"MD","long":-76.792483},"type":"Feature","geometry":{"type":"Point","coordinates":[-76.792483,39.148748]}},{"properties":{"city":"Bristow","name":"Rappaport Company","zip":20136,"amount":25033.31,"id":"a6of25pl7kqi","address":"10501 Bristow Center Dr","lat":38.747679,"state":"VA","long":-77.567798},"type":"Feature","geometry":{"type":"Point","coordinates":[-77.567798,38.747679]}},{"properties":{"city":"North Bethesda","name":"Mitchell &amp; Co.","zip":20852,"amount":2000,"id":"a6of25r4jyq2","address":"10701 Rockville Pike","lat":39.031027,"state":"MD","long":-77.105034},"type":"Feature","geometry":{"type":"Point","coordinates":[-77.105034,39.031027]}},{"properties":{"city":"Gambrills","name":"Gambrills Veterinary Center","zip":21054,"amount":15949.5,"id":"a6of25klakec","address":"1078 MD RT 3 S. (Crain Hwy)","lat":39.026659,"state":"MD","long":-76.690691},"type":"Feature","geometry":{"type":"Point","coordinates":[-76.690691,39.026659]}},{"properties":{"city":"Rockville","name":"Federal Realty/ The Crest","zip":20852,"amount":5500,"id":"a6of25g5hg33","address":"110 N. Washington St.","lat":39.085144,"state":"MD","long":-77.153067},"type":"Feature","geometry":{"type":"Point","coordinates":[-77.153067,39.085144]}},{"properties":{"city":"Beltsville","name":"St. Joseph Catholic Church","zip":20705,"amount":10381,"id":"a6of25lvfg9l","address":"11007 Montgomery Rd","lat":39.035623,"state":"MD","long":-76.921278},"type":"Feature","geometry":{"type":"Point","coordinates":[-76.921278,39.035623]}},{"properties":{"city":"Baltimore","name":"Round 2 Communications, LLC","zip":21202,"amount":682,"id":"a6of25hl2l0j","address":"111 Water Street","lat":39.288293,"state":"MD","long":-76.61296},"type":"Feature","geometry":{"type":"Point","coordinates":[-76.61296,39.288293]}},{"properties":{"city":"Baltimore","name":"Good Care Medical Services","zip":21202,"amount":17343.35,"id":"a6of25ft80m5","address":"1119 East Monument","lat":39.298007,"state":"MD","long":-76.602474},"type":"Feature","geometry":{"type":"Point","coordinates":[-76.602474,39.298007]}},{"properties":{"city":"Potomac","name":"Mitchell &amp; Co.","zip":"20854-1565","amount":6567,"id":"a6of25kpl00r","address":"11221 River View Drive","lat":39.026332,"state":"MD","long":-77.232914},"type":"Feature","geometry":{"type":"Point","coordinates":[-77.232914,39.026332]}},{"properties":{"city":"Towson","name":"Colliers Pinkard","zip":21204,"amount":1613,"id":"a6of25p6ynfh","address":"1147 Donnington Circle","lat":39.411679,"state":"MD","long":-76.624231},"type":"Feature","geometry":{"type":"Point","coordinates":[-76.624231,39.411679]}},{"properties":{"city":"Glen Burnie","name":"O.T. Neighoff &amp; Sons, Inc.","zip":21060,"amount":2396,"id":"a6of25mfys32","address":"117 Holsum Way","lat":39.18867,"state":"MD","long":-76.611284},"type":"Feature","geometry":{"type":"Point","coordinates":[-76.611284,39.18867]}},{"properties":{"city":"Reston","name":"A.J. Properties","zip":20190,"amount":3210,"id":"a6of25qw7vnz","address":"11960 Market Street","lat":38.958847,"state":"VA","long":-77.359092},"type":"Feature","geometry":{"type":"Point","coordinates":[-77.359092,38.958847]}},{"properties":{"city":"Baltimore","name":"Rail Plan International","zip":21223,"amount":1415,"id":"a6of25k46bih","address":"1200 Bernard Drive","lat":39.272856,"state":"MD","long":-76.658995},"type":"Feature","geometry":{"type":"Point","coordinates":[-76.658995,39.272856]}},{"properties":{"city":"Wheaton","name":"Community Realty Co.","zip":"MD","amount":0,"id":"a6of25qxlpzp","address":"12000-12018 Veirs Mill Road","lat":39.053303,"state":20906,"long":-77.077766},"type":"Feature","geometry":{"type":"Point","coordinates":[-77.077766,39.053303]}},{"properties":{"city":"Baltimore","name":"Queen Anne Belvedere","zip":21201,"amount":516,"id":"a6of25hwtfmj","address":"1212 N. Charles St.","lat":39.303647,"state":"MD","long":-76.616251},"type":"Feature","geometry":{"type":"Point","coordinates":[-76.616251,39.303647]}},{"properties":{"city":"Silver Springs","name":"Bozzuto","zip":14550,"amount":11597.5,"id":"a6of25retcs7","address":"1215 E. West Hwy.","lat":38.990509,"state":"MD","long":-77.029241},"type":"Feature","geometry":{"type":"Point","coordinates":[-77.029241,38.990509]}},{"properties":{"city":"Silver Spring","name":"Bozzuto","zip":20910,"amount":1352.96,"id":"a6of25k1ubdn","address":"1215 East West Hwy","lat":38.990509,"state":"MD","long":-77.029241},"type":"Feature","geometry":{"type":"Point","coordinates":[-77.029241,38.990509]}},{"properties":{"city":"Silver Spring","name":"Bozzuto","zip":20910,"amount":23700.89,"id":"a6of25elunug","address":"1215 East West Hwy.","lat":38.990509,"state":"MD","long":-77.029241},"type":"Feature","geometry":{"type":"Point","coordinates":[-77.029241,38.990509]}},{"properties":{"city":"Fulton","name":"Temple Isaiah","zip":"","amount":550,"id":"a6of25f3wzg8","address":"12200 Scaggsville Rd","lat":39.16382,"state":"MD","long":-76.936782},"type":"Feature","geometry":{"type":"Point","coordinates":[-76.936782,39.16382]}},{"properties":{"city":"Fulton","name":"Temple Isaiah","zip":20759,"amount":403,"id":"a6of25gyy61e","address":"12200 Scaggsville Rd","lat":39.16382,"state":"MD","long":-76.936782},"type":"Feature","geometry":{"type":"Point","coordinates":[-76.936782,39.16382]}},{"properties":{"city":"Fulton","name":"Temple Isaiah","zip":20759,"amount":720,"id":"a6of25q38kc3","address":"12200 Scaggsville Rd","lat":39.16382,"state":"MD","long":-76.936782},"type":"Feature","geometry":{"type":"Point","coordinates":[-76.936782,39.16382]}},{"properties":{"city":"Fulton","name":"Temple Isaiah","zip":20759,"amount":2823.22,"id":"a6of25m6ctn8","address":"12200 Scaggsville Rd.","lat":39.16382,"state":"MD","long":-76.936782},"type":"Feature","geometry":{"type":"Point","coordinates":[-76.936782,39.16382]}},{"properties":{"city":"Fulton","name":"Temple Isaiah","zip":20759,"amount":455,"id":"a6of25gatw7u","address":"12230 Scaggssville Road","lat":39.164309,"state":"MD","long":-76.93784},"type":"Feature","geometry":{"type":"Point","coordinates":[-76.93784,39.164309]}},{"properties":{"city":"Fulton","name":"Temple Isaiah","zip":20759,"amount":3411,"id":"a6of25kw1q7v","address":"12230 Scaggsville Dr.","lat":39.164309,"state":"MD","long":-76.93784},"type":"Feature","geometry":{"type":"Point","coordinates":[-76.93784,39.164309]}},{"properties":{"city":"Fulton","name":"Temple Isaiah","zip":20759,"amount":2698,"id":"a6of25qrrl0w","address":"12230 Scaggsville Road","lat":39.164309,"state":"MD","long":-76.93784},"type":"Feature","geometry":{"type":"Point","coordinates":[-76.93784,39.164309]}},{"properties":{"city":"Fulton","name":"Temple Isaiah","zip":20759,"amount":4735,"id":"a6of25q4aboz","address":"12230 Scaggsville Road","lat":39.164309,"state":"MD","long":-76.93784},"type":"Feature","geometry":{"type":"Point","coordinates":[-76.93784,39.164309]}},{"properties":{"city":"Fulton","name":"Temple Isaiah","zip":20759,"amount":2185,"id":"a6of25edb8sp","address":"12230 Scaggsville Road","lat":39.164309,"state":"MD","long":-76.93784},"type":"Feature","geometry":{"type":"Point","coordinates":[-76.93784,39.164309]}},{"properties":{"city":"Fulton","name":"Temple Isaiah","zip":20759,"amount":4405,"id":"a6of25pwkkoa","address":"12230 Scaggsville Road","lat":39.164309,"state":"MD","long":-76.93784},"type":"Feature","geometry":{"type":"Point","coordinates":[-76.93784,39.164309]}},{"properties":{"city":"Fulton","name":"Temple Isaiah","zip":20759,"amount":32865,"id":"a6of25qacbgu","address":"12230 Scaggsville Road","lat":39.164309,"state":"MD","long":-76.93784},"type":"Feature","geometry":{"type":"Point","coordinates":[-76.93784,39.164309]}},{"properties":{"city":"Fulton","name":"Temple Isaiah","zip":20759,"amount":14387,"id":"a6of25mxjtql","address":"12230 Scaggsville Road","lat":39.164309,"state":"MD","long":-76.93784},"type":"Feature","geometry":{"type":"Point","coordinates":[-76.93784,39.164309]}},{"properties":{"city":"Washington","name":"T-Mobile (USI)","zip":20010,"amount":0,"id":"a6of25f8hlq4","address":"1275 Kenyon Street","lat":38.929786,"state":"DC","long":-77.029312},"type":"Feature","geometry":{"type":"Point","coordinates":[-77.029312,38.929786]}},{"properties":{"city":"Washington","name":"T-Mobile (USI)","zip":20010,"amount":16308,"id":"a6of25ijbx6y","address":"1275 Kenyon Street","lat":38.929786,"state":"DC","long":-77.029312},"type":"Feature","geometry":{"type":"Point","coordinates":[-77.029312,38.929786]}},{"properties":{"city":"Bowie","name":"Rappaport Company","zip":20716,"amount":4284,"id":"a6of25gnmski","address":"1300 NW Crain Hwy","lat":38.907041,"state":"MD","long":-76.718617},"type":"Feature","geometry":{"type":"Point","coordinates":[-76.718617,38.907041]}},{"properties":{"city":"Herndon","name":"First Watch Restaurants, Inc.","zip":20170,"amount":2515.6,"id":"a6of25nmkgtt","address":"13007 Worldgate Center Drive","lat":38.954939,"state":"VA","long":-77.396027},"type":"Feature","geometry":{"type":"Point","coordinates":[-77.396027,38.954939]}},{"properties":{"city":"Frederick","name":"JBG Rosenfeld","zip":21702,"amount":398,"id":"a6of25r8pfiy","address":"1305 W. Seventh St.","lat":39.429503,"state":"MD","long":-77.420142},"type":"Feature","geometry":{"type":"Point","coordinates":[-77.420142,39.429503]}},{"properties":{"city":"Frederick","name":"JBG Rosenfeld","zip":21702,"amount":1006,"id":"a6of25s2xou4","address":"1305 West 7th Street","lat":39.429503,"state":"MD","long":-77.420142},"type":"Feature","geometry":{"type":"Point","coordinates":[-77.420142,39.429503]}},{"properties":{"city":"Fredericksburg","name":"Rappaport Company","zip":22401,"amount":329.8,"id":"a6of25d60axh","address":"1320 Central Park Blvd.","lat":38.302114,"state":"VA","long":-77.51305},"type":"Feature","geometry":{"type":"Point","coordinates":[-77.51305,38.302114]}},{"properties":{"city":"Odenton","name":"H &amp; H Rock Incorporated","zip":21113,"amount":292,"id":"a6of25gud2t5","address":"1330 Annapolis Rd.","lat":39.089225,"state":"MD","long":-76.702258},"type":"Feature","geometry":{"type":"Point","coordinates":[-76.702258,39.089225]}},{"properties":{"city":"Fredericksburg","name":"Rappaport Company","zip":22401,"amount":103932.5,"id":"a6of25dx987v","address":"1340 Central Park Blvd.","lat":38.302298,"state":"VA","long":-77.512859},"type":"Feature","geometry":{"type":"Point","coordinates":[-77.512859,38.302298]}},{"properties":{"city":"Fredericksburg","name":"Rappaport Company","zip":22401,"amount":0,"id":"a6of25mwv83c","address":"1340 Central Park Blvd.","lat":38.302298,"state":"VA","long":-77.512859},"type":"Feature","geometry":{"type":"Point","coordinates":[-77.512859,38.302298]}},{"properties":{"city":"Phoenix","name":"Pizans/Johnny Kosmakos","zip":21131,"amount":4256.74,"id":"a6of25c00fod","address":"13716 Jarrettsville Pike","lat":39.500928,"state":"MD","long":-76.571012},"type":"Feature","geometry":{"type":"Point","coordinates":[-76.571012,39.500928]}},{"properties":{"city":"Woodbridge","name":"Rappaport Company","zip":22192,"amount":335,"id":"a6of25f0m3w5","address":"13720 Smoketown Rd","lat":38.655058,"state":"VA","long":-77.306775},"type":"Feature","geometry":{"type":"Point","coordinates":[-77.306775,38.655058]}},{"properties":{"city":"Woodbridge","name":"Rappaport Company","zip":22192,"amount":1294,"id":"a6of25ibnmp8","address":"13720 Smoketown Rd","lat":38.655058,"state":"VA","long":-77.306775},"type":"Feature","geometry":{"type":"Point","coordinates":[-77.306775,38.655058]}},{"properties":{"city":"Woodbridge","name":"Rappaport Company","zip":22192,"amount":1900,"id":"a6of25cr551i","address":"13720 Smoketown Rd","lat":38.655058,"state":"VA","long":-77.306775},"type":"Feature","geometry":{"type":"Point","coordinates":[-77.306775,38.655058]}},{"properties":{"city":"Washington","name":"Allstate - Park Triangle","zip":20010,"amount":6537,"id":"a6of25ljp46x","address":"1375 Kenyon Ave","lat":38.929872,"state":"DC","long":-77.031922},"type":"Feature","geometry":{"type":"Point","coordinates":[-77.031922,38.929872]}},{"properties":{"city":"Washington","name":"Maizel Construction","zip":20010,"amount":14700.5,"id":"a6of25ehu2rr","address":"1375 Kenyon Ave NW","lat":38.929872,"state":"DC","long":-77.031922},"type":"Feature","geometry":{"type":"Point","coordinates":[-77.031922,38.929872]}},{"properties":{"city":"Washington","name":"Donatelli Development","zip":20010,"amount":46578,"id":"a6of25lrm9mw","address":"1390 Kenyon Street, N.W.","lat":38.929855,"state":"DC","long":-77.032472},"type":"Feature","geometry":{"type":"Point","coordinates":[-77.032472,38.929855]}},{"properties":{"city":"Washington","name":"Donatelli Development","zip":20010,"amount":125832,"id":"a6of25r2fzwj","address":"1390 Kenyon Street, N.W.","lat":38.929855,"state":"DC","long":-77.032472},"type":"Feature","geometry":{"type":"Point","coordinates":[-77.032472,38.929855]}},{"properties":{"city":"Winchester","name":"Navy Federal Credit Union","zip":22601,"amount":6501.53,"id":"a6of25nsx6gz","address":"141 Security Drive","lat":39.178153,"state":"VA","long":-78.170362},"type":"Feature","geometry":{"type":"Point","coordinates":[-78.170362,39.178153]}},{"properties":{"city":"Woodbridge","name":"Bozzuto","zip":22191,"amount":195.52,"id":"a6of25i4dpqf","address":"14120 Big Crest Lane","lat":38.611424,"state":"VA","long":-77.257125},"type":"Feature","geometry":{"type":"Point","coordinates":[-77.257125,38.611424]}},{"properties":{"city":"Washington","name":"Triangle Dev. / Marcus Asset","zip":20015,"amount":3945,"id":"a6of25m8dz0t","address":"14th Street &amp; Park Road","lat":38.93029,"state":"D.C.","long":-77.032729},"type":"Feature","geometry":{"type":"Point","coordinates":[-77.032729,38.93029]}},{"properties":{"city":"Washington","name":"Triangle Dev. / Marcus Asset","zip":20015,"amount":3019,"id":"a6of25fggyrn","address":"14th Street &amp; Park Road","lat":38.93029,"state":"D.C.","long":-77.032729},"type":"Feature","geometry":{"type":"Point","coordinates":[-77.032729,38.93029]}},{"properties":{"city":"Washington","name":"Maryland Crossing Realty LLC","zip":20002,"amount":5742,"id":"a6of25fyvi82","address":"1500 Benning Rd NE","lat":38.900066,"state":"DC","long":-76.982443},"type":"Feature","geometry":{"type":"Point","coordinates":[-76.982443,38.900066]}},{"properties":{"city":"Baltimore","name":"Struever Bros. Eccles &amp; Rouse","zip":21230,"amount":2082,"id":"a6of25q7uwg9","address":"1500 Thames Street","lat":39.280247,"state":"Maryland","long":-76.59589},"type":"Feature","geometry":{"type":"Point","coordinates":[-76.59589,39.280247]}},{"properties":{"city":"Arlington","name":"James G. Davis","zip":22201,"amount":19196,"id":"a6of25lx0qxp","address":"1515 N. Courthouse Road","lat":38.890983,"state":"VA","long":-77.083711},"type":"Feature","geometry":{"type":"Point","coordinates":[-77.083711,38.890983]}},{"properties":{"city":"Syracuse","name":"Aeroterm US","zip":13212,"amount":12093.51,"id":"a6of25rekxc7","address":"152 Air Cargo Road","lat":43.11253,"state":"NY","long":-76.119329},"type":"Feature","geometry":{"type":"Point","coordinates":[-76.119329,43.11253]}},{"properties":{"city":"Syracuse","name":"Aeroterm US","zip":13212,"amount":12093.51,"id":"a6of25it7vom","address":"152 Air Crgo Rd.","lat":43.129206,"state":"NY","long":-76.103167},"type":"Feature","geometry":{"type":"Point","coordinates":[-76.103167,43.129206]}},{"properties":{"city":"Washington","name":"Eye Site/Gregory Optometrics","zip":20002,"amount":500,"id":"a6of25g360et","address":"1536 Benning Rd NE","lat":38.900057,"state":"DC","long":-76.982131},"type":"Feature","geometry":{"type":"Point","coordinates":[-76.982131,38.900057]}},{"properties":{"city":"Bowie","name":"JBG Rosenfeld","zip":20715,"amount":25906,"id":"a6of25jz7614","address":"15500 Annapolis Rd.","lat":38.979484,"state":"MD","long":-76.735129},"type":"Feature","geometry":{"type":"Point","coordinates":[-76.735129,38.979484]}},{"properties":{"city":"Bowie","name":"JBG Rosenfeld","zip":20715,"amount":1683.6,"id":"a6of25h87lw6","address":"15500 Annapolis Rd.","lat":38.979484,"state":"MD","long":-76.735129},"type":"Feature","geometry":{"type":"Point","coordinates":[-76.735129,38.979484]}},{"properties":{"city":"Upperco","name":"H &amp; H Rock Incorporated","zip":21155,"amount":292,"id":"a6of25hir41x","address":"15500 Hanover Pike","lat":39.548402,"state":"MD","long":-76.838606},"type":"Feature","geometry":{"type":"Point","coordinates":[-76.838606,39.548402]}},{"properties":{"city":"Washington","name":"William C. Smith &amp; Co., Inc.","zip":20032,"amount":11913,"id":"a6of25pwe7wg","address":"1553 Alabama Ave SE","lat":38.84626,"state":"DC","long":-76.981985},"type":"Feature","geometry":{"type":"Point","coordinates":[-76.981985,38.84626]}},{"properties":{"city":"Washington","name":"William C. Smith &amp; Co., Inc.","zip":20032,"amount":760,"id":"a6of25gbdf13","address":"1553 Alabama Ave SE","lat":38.84626,"state":"DC","long":-76.981985},"type":"Feature","geometry":{"type":"Point","coordinates":[-76.981985,38.84626]}},{"properties":{"city":"Washington","name":"William C. Smith &amp; Co., Inc.","zip":20032,"amount":0,"id":"a6of25hz1kin","address":"1553 Alabama Ave SE","lat":38.84626,"state":"DC","long":-76.981985},"type":"Feature","geometry":{"type":"Point","coordinates":[-76.981985,38.84626]}},{"properties":{"city":"Washington","name":"William C. Smith &amp; Co., Inc.","zip":20032,"amount":1000,"id":"a6of25j0wpjs","address":"1553 Alabama Ave SE","lat":38.84626,"state":"DC","long":-76.981985},"type":"Feature","geometry":{"type":"Point","coordinates":[-76.981985,38.84626]}},{"properties":{"city":"Washington","name":"William C. Smith &amp; Co., Inc.","zip":20032,"amount":0,"id":"a6of25ic4zq5","address":"1553 Alabama Ave SE","lat":38.84626,"state":"DC","long":-76.981985},"type":"Feature","geometry":{"type":"Point","coordinates":[-76.981985,38.84626]}},{"properties":{"city":"Washington","name":"William C. Smith &amp; Co., Inc.","zip":20032,"amount":32886.85,"id":"a6of25rysv2w","address":"1553 Alabama Ave SE","lat":38.84626,"state":"DC","long":-76.981985},"type":"Feature","geometry":{"type":"Point","coordinates":[-76.981985,38.84626]}},{"properties":{"city":"Fort Myers","name":"Aeroterm US","zip":33907,"amount":16533.69,"id":"a6of25hm28rx","address":"15960 Chaberlin Pkwy.","lat":26.56554,"state":"FL","long":-81.873586},"type":"Feature","geometry":{"type":"Point","coordinates":[-81.873586,26.56554]}},{"properties":{"city":"Crownsville","name":"Indian Creek School","zip":21032,"amount":17982.7,"id":"a6of25dmumv9","address":"1599 Crownsville Rd.","lat":39.017231,"state":"MD","long":-76.59587},"type":"Feature","geometry":{"type":"Point","coordinates":[-76.59587,39.017231]}},{"properties":{"city":"Crownsville","name":"Indian Creek School","zip":21032,"amount":17982.7,"id":"a6of25jyg70h","address":"1599 Crownsville Rd.","lat":39.017231,"state":"MD","long":-76.59587},"type":"Feature","geometry":{"type":"Point","coordinates":[-76.59587,39.017231]}},{"properties":{"city":"Washington","name":"JBG Rosenfeld","zip":20002,"amount":71065,"id":"a6of25mnl4zp","address":"1600 Benning Road","lat":38.899949,"state":"DC","long":-76.981182},"type":"Feature","geometry":{"type":"Point","coordinates":[-76.981182,38.899949]}},{"properties":{"city":"Washington","name":"JBG Rosenfeld","zip":20002,"amount":48951,"id":"a6of25h4bh2v","address":"1600 Benning Road","lat":38.899949,"state":"DC","long":-76.981182},"type":"Feature","geometry":{"type":"Point","coordinates":[-76.981182,38.899949]}},{"properties":{"city":"Washington","name":"JBG Rosenfeld","zip":20002,"amount":10046,"id":"a6of25obfz6l","address":"1600 Benning Road","lat":38.899949,"state":"DC","long":-76.981182},"type":"Feature","geometry":{"type":"Point","coordinates":[-76.981182,38.899949]}},{"properties":{"city":"Washington","name":"JBG Rosenfeld","zip":20002,"amount":68396,"id":"a6of25esg0bg","address":"1600 Benning Road","lat":38.899949,"state":"DC","long":-76.981182},"type":"Feature","geometry":{"type":"Point","coordinates":[-76.981182,38.899949]}},{"properties":{"city":"Washington","name":"JBG Rosenfeld","zip":20002,"amount":71065,"id":"a6of25epecj9","address":"1600 Benning Road","lat":38.899949,"state":"DC","long":-76.981182},"type":"Feature","geometry":{"type":"Point","coordinates":[-76.981182,38.899949]}},{"properties":{"city":"Washington","name":"JBG Rosenfeld","zip":20002,"amount":842,"id":"a6of25ic8kxy","address":"1600 Benning Road","lat":38.899949,"state":"DC","long":-76.981182},"type":"Feature","geometry":{"type":"Point","coordinates":[-76.981182,38.899949]}},{"properties":{"city":"Richmond","name":"Federal Realty Inv. Trust","zip":23230,"amount":2182.76,"id":"a6of25hy9o81","address":"1601 Willow Lawn Drive","lat":37.582743,"state":"VA","long":-77.498653},"type":"Feature","geometry":{"type":"Point","coordinates":[-77.498653,37.582743]}},{"properties":{"city":"Annapolis","name":"Montessori Intl Childrens Hous","zip":21401,"amount":3115,"id":"a6of25rnh09j","address":"1641 Winchester Road","lat":39.015962,"state":"MD","long":-76.495923},"type":"Feature","geometry":{"type":"Point","coordinates":[-76.495923,39.015962]}},{"properties":{"city":"Annapolis","name":"Montessori Intl Childrens Hous","zip":21401,"amount":692,"id":"a6of25huphg3","address":"1641 winchester Road","lat":39.015962,"state":"MD","long":-76.495923},"type":"Feature","geometry":{"type":"Point","coordinates":[-76.495923,39.015962]}},{"properties":{"city":"Mc Lean","name":"Lerner Enterprises","zip":22102,"amount":10399,"id":"a6of25lxtacu","address":"1650 Tysons Boulevard","lat":38.92614,"state":"VA","long":-77.224007},"type":"Feature","geometry":{"type":"Point","coordinates":[-77.224007,38.92614]}},{"properties":{"city":"Baltimore","name":"Just Partners, Inc.","zip":21202,"amount":2206,"id":"a6of25kp9owl","address":"1701 St. Paul St.","lat":39.30891,"state":"MD","long":-76.614677},"type":"Feature","geometry":{"type":"Point","coordinates":[-76.614677,39.30891]}},{"properties":{"city":"Baltimore","name":"Community Realty Co.","zip":21217,"amount":206,"id":"a6of25keakfx","address":"1714 Park Avenue","lat":39.309427,"state":"MD","long":-76.627608},"type":"Feature","geometry":{"type":"Point","coordinates":[-76.627608,39.309427]}},{"properties":{"city":"Washington","name":"Lafayette Federal Credit Union","zip":20009,"amount":2175,"id":"a6of25n12qnd","address":"1736 Columbia Rd. NW","lat":38.924262,"state":"DC","long":-77.040157},"type":"Feature","geometry":{"type":"Point","coordinates":[-77.040157,38.924262]}},{"properties":{"city":"Washington","name":"Lafayette Federal Credit Union","zip":20009,"amount":0,"id":"a6of25iyifev","address":"1736 Columbia Rd. NW","lat":38.924262,"state":"DC","long":-77.040157},"type":"Feature","geometry":{"type":"Point","coordinates":[-77.040157,38.924262]}},{"properties":{"city":"Gaithersburg","name":"Community Realty Co.","zip":20877,"amount":620,"id":"a6of25hmhliy","address":"17500 Towne Crest Dr. #B","lat":39.144067,"state":"MD","long":-77.173573},"type":"Feature","geometry":{"type":"Point","coordinates":[-77.173573,39.144067]}},{"properties":{"city":"Gaithersburg","name":"Community Realty Co.","zip":20877,"amount":190,"id":"a6of25ozbwox","address":"17500 Towne Crest Dr. #B","lat":39.144067,"state":"MD","long":-77.173573},"type":"Feature","geometry":{"type":"Point","coordinates":[-77.173573,39.144067]}},{"properties":{"city":"Gaithersburg","name":"Community Realty Co.","zip":20877,"amount":180,"id":"a6of25js33o4","address":"17500 Towne Crest Dr. #B","lat":39.144067,"state":"MD","long":-77.173573},"type":"Feature","geometry":{"type":"Point","coordinates":[-77.173573,39.144067]}},{"properties":{"city":"McLean","name":"PriceWaterhouseCooper","zip":22101,"amount":14500,"id":"a6of25byl1ko","address":"1751 Pinnacle Dr.","lat":38.920947,"state":"VA","long":-77.229035},"type":"Feature","geometry":{"type":"Point","coordinates":[-77.229035,38.920947]}},{"properties":{"city":"Rockville","name":"DESI Living Innovations","zip":20852,"amount":0,"id":"a6of25o7dp1j","address":"1800 D Rockville Pike","lat":39.06025,"state":"MD","long":-77.122379},"type":"Feature","geometry":{"type":"Point","coordinates":[-77.122379,39.06025]}},{"properties":{"city":"Rockville","name":"DESI Living Innovations","zip":20852,"amount":8991,"id":"a6of25keahhx","address":"1800 D Rockville Pike","lat":39.06025,"state":"MD","long":-77.122379},"type":"Feature","geometry":{"type":"Point","coordinates":[-77.122379,39.06025]}},{"properties":{"city":"Washington","name":"Civilian Board of Cont.Appeals","zip":20036,"amount":250,"id":"a6of25rb22st","address":"1800 M St NW","lat":38.905532,"state":"DC","long":-77.041871},"type":"Feature","geometry":{"type":"Point","coordinates":[-77.041871,38.905532]}},{"properties":{"city":"Washington","name":"Lerner Enterprises","zip":20036,"amount":3203.7,"id":"a6of25lmzwqi","address":"1800 M Street, NW","lat":38.905532,"state":"DC","long":-77.041871},"type":"Feature","geometry":{"type":"Point","coordinates":[-77.041871,38.905532]}},{"properties":{"city":"Washington","name":"Lerner Enterprises","zip":20036,"amount":10532.37,"id":"a6of25lgx1ds","address":"1800 M Street, NW","lat":38.905532,"state":"DC","long":-77.041871},"type":"Feature","geometry":{"type":"Point","coordinates":[-77.041871,38.905532]}},{"properties":{"city":"Washington","name":"Lerner Enterprises","zip":20036,"amount":0,"id":"a6of25r9vo1e","address":"1800 M Street, NW","lat":38.905532,"state":"DC","long":-77.041871},"type":"Feature","geometry":{"type":"Point","coordinates":[-77.041871,38.905532]}},{"properties":{"city":"Mc Lean","name":"TYF Development LLC","zip":22102,"amount":2213,"id":"a6of25h836yb","address":"1800 Tysons Blvd","lat":38.923318,"state":"VA","long":-77.222262},"type":"Feature","geometry":{"type":"Point","coordinates":[-77.222262,38.923318]}},{"properties":{"city":"Gaithersburg","name":"Navy Federal Credit Union","zip":20877,"amount":8950,"id":"a6of25mh09x1","address":"18206 Contour Road","lat":39.154563,"state":"MD","long":-77.197088},"type":"Feature","geometry":{"type":"Point","coordinates":[-77.197088,39.154563]}},{"properties":{"city":"Gaithersburg","name":"JBG Rosenfeld","zip":20879,"amount":1092,"id":"a6of25cznn3t","address":"18300 Contour Road","lat":39.155536,"state":"MD","long":-77.199787},"type":"Feature","geometry":{"type":"Point","coordinates":[-77.199787,39.155536]}},{"properties":{"city":"Gaithersburg","name":"JBG Rosenfeld","zip":20879,"amount":45052.2,"id":"a6of25kzg65f","address":"18300 Contour Road","lat":39.155536,"state":"MD","long":-77.199787},"type":"Feature","geometry":{"type":"Point","coordinates":[-77.199787,39.155536]}},{"properties":{"city":"Gaithersburg","name":"JBG Rosenfeld","zip":20879,"amount":79094,"id":"a6of25r2tqrn","address":"18300 Contour Road","lat":39.155536,"state":"MD","long":-77.199787},"type":"Feature","geometry":{"type":"Point","coordinates":[-77.199787,39.155536]}},{"properties":{"city":"Gaithersburg","name":"JBG Rosenfeld","zip":20879,"amount":12469,"id":"a6of25lx4hph","address":"18300 Contour Road","lat":39.155536,"state":"MD","long":-77.199787},"type":"Feature","geometry":{"type":"Point","coordinates":[-77.199787,39.155536]}},{"properties":{"city":"Gaithersburg","name":"JBG Rosenfeld","zip":20879,"amount":10696,"id":"a6of25peeofn","address":"18300 Contour Road","lat":39.155536,"state":"MD","long":-77.199787},"type":"Feature","geometry":{"type":"Point","coordinates":[-77.199787,39.155536]}},{"properties":{"city":"Baltimore","name":"Whiting-Turner Contracting","zip":21217,"amount":3695,"id":"a6of25q7cryf","address":"1901 Elgin Avenue","lat":39.314087,"state":"MD","long":-76.64895},"type":"Feature","geometry":{"type":"Point","coordinates":[-76.64895,39.314087]}},{"properties":{"city":"Mc Lean","name":"Fire &amp; Ice","zip":22102,"amount":400,"id":"a6of25dhmglx","address":"1961 Chain Bridge Road","lat":38.919659,"state":"VA","long":-77.225937},"type":"Feature","geometry":{"type":"Point","coordinates":[-77.225937,38.919659]}},{"properties":{"city":"Mc Lean","name":"Tommy Hilfiger USA, Inc.","zip":22101,"amount":12341,"id":"a6of25cw8ijs","address":"1961 Chain Bridge Road","lat":38.919659,"state":"VA","long":-77.225937},"type":"Feature","geometry":{"type":"Point","coordinates":[-77.225937,38.919659]}},{"properties":{"city":"Washington","name":"Pound, Inc.","zip":20002,"amount":1860,"id":"a6of25efd8eo","address":"200 Florida Ave NE","lat":38.908392,"state":"DC","long":-77.002996},"type":"Feature","geometry":{"type":"Point","coordinates":[-77.002996,38.908392]}},{"properties":{"city":"Arlington","name":"Solarus Salon &amp; Spa","zip":22201,"amount":10289.61,"id":"a6of25h387s6","address":"2001 15th St","lat":38.891066,"state":"VA","long":-77.082034},"type":"Feature","geometry":{"type":"Point","coordinates":[-77.082034,38.891066]}},{"properties":{"city":"Annapolis","name":"Aeroterm Properties, LLC","zip":21401,"amount":5180,"id":"a6of25chz2i2","address":"201 West St","lat":38.976991,"state":"MD","long":-76.500507},"type":"Feature","geometry":{"type":"Point","coordinates":[-76.500507,38.976991]}},{"properties":{"city":"Annapolis","name":"Aeroterm US","zip":21401,"amount":3365.51,"id":"a6of25o517hi","address":"201 West Street","lat":38.976991,"state":"MD","long":-76.500507},"type":"Feature","geometry":{"type":"Point","coordinates":[-76.500507,38.976991]}},{"properties":{"city":"Annapolis","name":"Aeroterm US","zip":21401,"amount":15741.56,"id":"a6of25r66jxv","address":"201 West Street","lat":38.976991,"state":"MD","long":-76.500507},"type":"Feature","geometry":{"type":"Point","coordinates":[-76.500507,38.976991]}},{"properties":{"city":"Pasadena","name":"Kurtz's Beach LTD.","zip":21122,"amount":25050,"id":"a6of25m4oi3v","address":"2070 Kurtz Ave.","lat":39.147704,"state":"MD","long":-76.461501},"type":"Feature","geometry":{"type":"Point","coordinates":[-76.461501,39.147704]}},{"properties":{"city":"Annapolis","name":"Radisson Hotel","zip":21401,"amount":1662,"id":"a6of25nqxj23","address":"210 Holiday Court","lat":38.981791,"state":"MD","long":-76.545874},"type":"Feature","geometry":{"type":"Point","coordinates":[-76.545874,38.981791]}},{"properties":{"city":"Washington","name":"PM Realty","zip":20037,"amount":16173.3,"id":"a6of25d3zbrq","address":"2100 M Street, NW","lat":38.905519,"state":"DC","long":-77.046694},"type":"Feature","geometry":{"type":"Point","coordinates":[-77.046694,38.905519]}},{"properties":{"city":"Washington","name":"PM Realty","zip":20037,"amount":0,"id":"a6of25jqo5c4","address":"2100 M Street, NW","lat":38.905519,"state":"DC","long":-77.046694},"type":"Feature","geometry":{"type":"Point","coordinates":[-77.046694,38.905519]}},{"properties":{"city":"Washington","name":"PM Realty","zip":20037,"amount":3872.91,"id":"a6of25d52wtj","address":"2100 M Street, NW","lat":38.905519,"state":"DC","long":-77.046694},"type":"Feature","geometry":{"type":"Point","coordinates":[-77.046694,38.905519]}},{"properties":{"city":"Dulles","name":"Lerner Enterprises","zip":20166,"amount":3522,"id":"a6of25rk05pj","address":"21000 Stanford Square","lat":39.034616,"state":"VA","long":-77.419658},"type":"Feature","geometry":{"type":"Point","coordinates":[-77.419658,39.034616]}},{"properties":{"city":"Hanover","name":"Bozzuto","zip":21076,"amount":6317,"id":"a6of25huf3nk","address":"2109 Piney Branch Circle","lat":39.154608,"state":"MD","long":-76.741444},"type":"Feature","geometry":{"type":"Point","coordinates":[-76.741444,39.154608]}},{"properties":{"city":"Jessup","name":"H &amp; H Rock Incorporated","zip":20794,"amount":292,"id":"a6of25s0qss6","address":"2115 Montevideo Rd.","lat":39.161709,"state":"MD","long":-76.765558},"type":"Feature","geometry":{"type":"Point","coordinates":[-76.765558,39.161709]}},{"properties":{"city":"Sterling","name":"Orbital Sciences Corp.","zip":20166,"amount":8218,"id":"a6of25c74ejx","address":"21819 Orbital Sciences","lat":38.996047,"state":"VA","long":-77.433992},"type":"Feature","geometry":{"type":"Point","coordinates":[-77.433992,38.996047]}},{"properties":{"city":"Sterling","name":"Orbital Sciences Corp.","zip":20166,"amount":14336.3,"id":"a6of25fazxz1","address":"21839 Atlantic Blvd.","lat":39.012991,"state":"VA","long":-77.42939},"type":"Feature","geometry":{"type":"Point","coordinates":[-77.42939,39.012991]}},{"properties":{"city":"Washington","name":"Community Realty Co.","zip":20037,"amount":5679,"id":"a6of25lsa4ta","address":"2400 Pennsylvania Ave.","lat":38.902919,"state":"DC","long":-77.051672},"type":"Feature","geometry":{"type":"Point","coordinates":[-77.051672,38.902919]}},{"properties":{"city":"Washington","name":"Community Realty Co.","zip":20037,"amount":70,"id":"a6of25mctyov","address":"2400 Pennsylvania Ave. NW","lat":38.902919,"state":"DC","long":-77.051672},"type":"Feature","geometry":{"type":"Point","coordinates":[-77.051672,38.902919]}},{"properties":{"city":"Washington","name":"Community Realty Co.","zip":20037,"amount":1544,"id":"a6of25ijmjgn","address":"2400 Pennsylvania Ave. NW","lat":38.902919,"state":"DC","long":-77.051672},"type":"Feature","geometry":{"type":"Point","coordinates":[-77.051672,38.902919]}},{"properties":{"city":"Washington","name":"Community Realty Co.","zip":20003,"amount":615,"id":"a6of25f5sl8k","address":"2400 Pennsylvania Avenue","lat":38.902919,"state":"DC","long":-77.051672},"type":"Feature","geometry":{"type":"Point","coordinates":[-77.051672,38.902919]}},{"properties":{"city":"Marriottsville","name":"Peak Performance Fitness","zip":21104,"amount":6440.88,"id":"a6of25sd75f6","address":"2470 Long Stone Lane","lat":39.342959,"state":"MD","long":-76.920627},"type":"Feature","geometry":{"type":"Point","coordinates":[-76.920627,39.342959]}},{"properties":{"city":"Woodstock","name":"Sport &amp; Family Physical Therap","zip":21163,"amount":6994.7,"id":"a6of25mgu3po","address":"2470 Longstone Lane","lat":39.32583,"state":"MD","long":-76.868998},"type":"Feature","geometry":{"type":"Point","coordinates":[-76.868998,39.32583]}},{"properties":{"city":"Woodstock","name":"Infinity Medical Spa","zip":21163,"amount":4174,"id":"a6of25s609ls","address":"2470 Longstone Lane","lat":39.32583,"state":"MD","long":-76.868998},"type":"Feature","geometry":{"type":"Point","coordinates":[-76.868998,39.32583]}},{"properties":{"city":"Woodstock","name":"Sport &amp; Family Physical Therap","zip":21163,"amount":401,"id":"a6of25efh1jw","address":"2470 Longstone Lane","lat":39.32583,"state":"MD","long":-76.868998},"type":"Feature","geometry":{"type":"Point","coordinates":[-76.868998,39.32583]}},{"properties":{"city":"Marriottsville","name":"Eagle Pharmacy","zip":21104,"amount":4687,"id":"a6of25cqye60","address":"2470 Longstone Lane","lat":39.342959,"state":"MD","long":-76.920627},"type":"Feature","geometry":{"type":"Point","coordinates":[-76.920627,39.342959]}},{"properties":{"city":"Marriottsville","name":"Cyber Sell-It, Inc.","zip":21104,"amount":4159.38,"id":"a6of25f9u72u","address":"2470 Longstone Lane","lat":39.342959,"state":"MD","long":-76.920627},"type":"Feature","geometry":{"type":"Point","coordinates":[-76.920627,39.342959]}},{"properties":{"city":"Woodstock","name":"Art Flooring &amp; Carpet Center","zip":21163,"amount":0,"id":"a6of25n8rvz3","address":"2470 Longstone Lane","lat":39.32583,"state":"MD","long":-76.868998},"type":"Feature","geometry":{"type":"Point","coordinates":[-76.868998,39.32583]}},{"properties":{"city":"Marriottsville","name":"Studio Dans","zip":21104,"amount":4207.75,"id":"a6of25rx2m7t","address":"2470 Longstone Lane, Suite M","lat":39.342959,"state":"MD","long":-76.920627},"type":"Feature","geometry":{"type":"Point","coordinates":[-76.920627,39.342959]}},{"properties":{"city":"Phoenix","name":"Hydro Alum./Linthicum","zip":85005,"amount":7891,"id":"a6of25jof6uh","address":"249 S. 51st Ave.","lat":33.445283,"state":"AZ","long":-112.168993},"type":"Feature","geometry":{"type":"Point","coordinates":[-112.168993,33.445283]}},{"properties":{"city":"Phoenix","name":"Hydro Alum. North America","zip":85005,"amount":561,"id":"a6of25isr5qd","address":"249 S. 51st Ave.","lat":33.445283,"state":"AZ","long":-112.168993},"type":"Feature","geometry":{"type":"Point","coordinates":[-112.168993,33.445283]}},{"properties":{"city":"Reisterstown","name":"Rock Realty","zip":21136,"amount":7413,"id":"a6of25guuf3v","address":"25 Main Street","lat":39.469088,"state":"MD","long":-76.829451},"type":"Feature","geometry":{"type":"Point","coordinates":[-76.829451,39.469088]}},{"properties":{"city":"Reisterstown","name":"Rock Reality","zip":21136,"amount":2378.6,"id":"a6of25mx35y0","address":"25 Main Street","lat":39.469088,"state":"MD","long":-76.829451},"type":"Feature","geometry":{"type":"Point","coordinates":[-76.829451,39.469088]}},{"properties":{"city":"Washington","name":"William C. Smith &amp; Co., Inc.","zip":20003,"amount":9026.4,"id":"a6of25enql5y","address":"250 M St.","lat":38.876643,"state":"D.C.","long":-77.002581},"type":"Feature","geometry":{"type":"Point","coordinates":[-77.002581,38.876643]}},{"properties":{"city":"Annapolis","name":"USi, an AT&amp;T Company","zip":21401,"amount":20947,"id":"a6of25n19gk8","address":"2500 Riva Rd","lat":38.980496,"state":"MD","long":-76.546837},"type":"Feature","geometry":{"type":"Point","coordinates":[-76.546837,38.980496]}},{"properties":{"city":"Annapolis","name":"USi, an AT&amp;T Company","zip":21401,"amount":1720,"id":"a6of25m5voon","address":"2500 Riva Rd","lat":38.980496,"state":"MD","long":-76.546837},"type":"Feature","geometry":{"type":"Point","coordinates":[-76.546837,38.980496]}},{"properties":{"city":"Annapolis","name":"USi, an AT&amp;T Company","zip":21401,"amount":2872,"id":"a6of25f0l2rg","address":"2500 Riva Rd","lat":38.980496,"state":"MD","long":-76.546837},"type":"Feature","geometry":{"type":"Point","coordinates":[-76.546837,38.980496]}},{"properties":{"city":"Pasadena","name":"Ed Blake","zip":21122,"amount":17670,"id":"a6of25cs1tj0","address":"2528 Mountain Rd.","lat":39.128582,"state":"MD","long":-76.545694},"type":"Feature","geometry":{"type":"Point","coordinates":[-76.545694,39.128582]}},{"properties":{"city":"Baltimore","name":"Bon Secours Shiloh Ltd Ptshp","zip":21223,"amount":2944,"id":"a6of25fehvfs","address":"26 N. Fulton Ave","lat":39.28901,"state":"MD","long":-76.645299},"type":"Feature","geometry":{"type":"Point","coordinates":[-76.645299,39.28901]}},{"properties":{"city":"Washington","name":"Cyphers Agency, The","zip":20008,"amount":14590,"id":"a6of25l6hhcg","address":"2660 Woodley Rd. NW","lat":38.924763,"state":"DC","long":-77.05453},"type":"Feature","geometry":{"type":"Point","coordinates":[-77.05453,38.924763]}},{"properties":{"city":"Washington","name":"The Cyphers Agency","zip":20008,"amount":3991,"id":"a6of25rku5vm","address":"2660 Woodley Rd. NW","lat":38.924763,"state":"DC","long":-77.05453},"type":"Feature","geometry":{"type":"Point","coordinates":[-77.05453,38.924763]}},{"properties":{"city":"Arlington","name":"Transwestern Commercial Servc","zip":2474,"amount":145,"id":"a6of25rnpjsc","address":"2701 S. Taylor/2800 S. Randolf","lat":38.842167,"state":"VA","long":-77.09256},"type":"Feature","geometry":{"type":"Point","coordinates":[-77.09256,38.842167]}},{"properties":{"city":"Arlington","name":"Federal Realty Inv. Trust","zip":22206,"amount":1321,"id":"a6of25p667zi","address":"2775 S. Quincy St.","lat":38.841159,"state":"VA","long":-77.08647},"type":"Feature","geometry":{"type":"Point","coordinates":[-77.08647,38.841159]}},{"properties":{"city":"Arlington","name":"Federal Realty Inv. Trust","zip":22206,"amount":25187.86,"id":"a6of25m9uujz","address":"2775 S. Quincy St.","lat":38.841159,"state":"VA","long":-77.08647},"type":"Feature","geometry":{"type":"Point","coordinates":[-77.08647,38.841159]}},{"properties":{"city":"Arlington","name":"Federal Realty Inv. Trust","zip":22206,"amount":3945,"id":"a6of25jw27a7","address":"2775 S. Quincy St.","lat":38.841159,"state":"VA","long":-77.08647},"type":"Feature","geometry":{"type":"Point","coordinates":[-77.08647,38.841159]}},{"properties":{"city":"Arlington","name":"Federal Realty Inv. Trust","zip":22206,"amount":25270.3,"id":"a6of25padyn1","address":"2775 S. Quincy St.","lat":38.841159,"state":"VA","long":-77.08647},"type":"Feature","geometry":{"type":"Point","coordinates":[-77.08647,38.841159]}},{"properties":{"city":"Arlington","name":"Federal Realty Inv. Trust","zip":22206,"amount":28617.77,"id":"a6of25s82ayc","address":"2775 S. Quincy St.","lat":38.841159,"state":"VA","long":-77.08647},"type":"Feature","geometry":{"type":"Point","coordinates":[-77.08647,38.841159]}},{"properties":{"city":"Arlington","name":"Federal Realty Inv. Trust","zip":22206,"amount":1231,"id":"a6of25hg9pg2","address":"2775 S. Quincy St.","lat":38.841159,"state":"VA","long":-77.08647},"type":"Feature","geometry":{"type":"Point","coordinates":[-77.08647,38.841159]}},{"properties":{"city":"Arlington","name":"Federal Realty Inv. Trust","zip":22206,"amount":926,"id":"a6of25cx14x7","address":"2775 S. Quincy St.","lat":38.841159,"state":"VA","long":-77.08647},"type":"Feature","geometry":{"type":"Point","coordinates":[-77.08647,38.841159]}},{"properties":{"city":"Arlington","name":"Federal Realty Inv. Trust","zip":22206,"amount":95410.22,"id":"a6of25dfunuz","address":"2775 S. Quincy St.","lat":38.841159,"state":"VA","long":-77.08647},"type":"Feature","geometry":{"type":"Point","coordinates":[-77.08647,38.841159]}},{"properties":{"city":"Arlington","name":"Federal Realty Inv. Trust","zip":22206,"amount":152763.66,"id":"a6of25p4wl0t","address":"2775 S. Quincy St.","lat":38.841159,"state":"VA","long":-77.08647},"type":"Feature","geometry":{"type":"Point","coordinates":[-77.08647,38.841159]}},{"properties":{"city":"Arlington","name":"McShay Homes","zip":22201,"amount":6658.74,"id":"a6of25pjkpyw","address":"2801 Lee Highway","lat":38.89499,"state":"VA","long":-77.094299},"type":"Feature","geometry":{"type":"Point","coordinates":[-77.094299,38.89499]}},{"properties":{"city":"Arlington","name":"McShay Homes","zip":22201,"amount":565.64,"id":"a6of25ddkn15","address":"2801 Lee Highway","lat":38.89499,"state":"VA","long":-77.094299},"type":"Feature","geometry":{"type":"Point","coordinates":[-77.094299,38.89499]}},{"properties":{"city":"Arlington","name":"McShay Homes","zip":22201,"amount":11440.68,"id":"a6of25k9bu6f","address":"2801 Lee Highway","lat":38.89499,"state":"VA","long":-77.094299},"type":"Feature","geometry":{"type":"Point","coordinates":[-77.094299,38.89499]}},{"properties":{"city":"Arlington","name":"Federal Realty/Shirlington","zip":22206,"amount":1188.5,"id":"a6of25js0ay6","address":"2900 S. Quincy St.","lat":38.840568,"state":"MD","long":-77.086849},"type":"Feature","geometry":{"type":"Point","coordinates":[-77.086849,38.840568]}},{"properties":{"city":"Crofton","name":"Peak Performance Fitness","zip":21114,"amount":4312,"id":"a6of25kkaw3m","address":"2906 Coldspring Way","lat":39.01515,"state":"MD","long":-76.691649},"type":"Feature","geometry":{"type":"Point","coordinates":[-76.691649,39.01515]}},{"properties":{"city":"Baltimore","name":"Bozzuto","zip":"","amount":2990,"id":"a6of25cgz7l9","address":"300 S. Fayette","lat":39.290501,"state":"MD","long":-76.610957},"type":"Feature","geometry":{"type":"Point","coordinates":[-76.610957,39.290501]}},{"properties":{"city":"Baltimore","name":"Bozzuto","zip":"","amount":1359.6,"id":"a6of25o13k6g","address":"300 S. Fayette St.","lat":39.290501,"state":"MD","long":-76.610957},"type":"Feature","geometry":{"type":"Point","coordinates":[-76.610957,39.290501]}},{"properties":{"city":"Baltimore","name":"Bozzuto","zip":21226,"amount":162.5,"id":"a6of25csxcwk","address":"300 W. Fayette St","lat":39.290543,"state":"MD","long":-76.619669},"type":"Feature","geometry":{"type":"Point","coordinates":[-76.619669,39.290543]}},{"properties":{"city":"Baltimore","name":"Bozzuto","zip":21201,"amount":257.5,"id":"a6of25ln64hh","address":"302 W. Fayete Street","lat":39.290556,"state":"MD","long":-76.619694},"type":"Feature","geometry":{"type":"Point","coordinates":[-76.619694,39.290556]}},{"properties":{"city":"Baltimore","name":"Bozzuto","zip":21202,"amount":0,"id":"a6of25fss1vl","address":"302 W. Fayette St.","lat":39.290556,"state":"MD","long":-76.619694},"type":"Feature","geometry":{"type":"Point","coordinates":[-76.619694,39.290556]}},{"properties":{"city":"Baltimore","name":"Bozzuto","zip":"","amount":5700,"id":"a6of25qv939t","address":"306 S. Fayette","lat":39.290529,"state":"MD","long":-76.610921},"type":"Feature","geometry":{"type":"Point","coordinates":[-76.610921,39.290529]}},{"properties":{"city":"Alexandria","name":"JBG Rosenfeld","zip":22314,"amount":6570.88,"id":"a6of25l3jj82","address":"3103-3231 Duke Street","lat":38.807801,"state":"VA","long":-77.083107},"type":"Feature","geometry":{"type":"Point","coordinates":[-77.083107,38.807801]}},{"properties":{"city":"Alexandria","name":"JBG Rosenfeld","zip":22314,"amount":409,"id":"a6of25mqlwnn","address":"3103-3231 Duke Street","lat":38.807801,"state":"VA","long":-77.083107},"type":"Feature","geometry":{"type":"Point","coordinates":[-77.083107,38.807801]}},{"properties":{"city":"Alexandria","name":"JBG Rosenfeld","zip":22314,"amount":61605.6,"id":"a6of25m2vxwl","address":"3103-3231 Duke Street","lat":38.807801,"state":"VA","long":-77.083107},"type":"Feature","geometry":{"type":"Point","coordinates":[-77.083107,38.807801]}},{"properties":{"city":"Alexandria","name":"JBG Rosenfeld","zip":22314,"amount":2651,"id":"a6of25lfxgtv","address":"3103-3231 Duke Street","lat":38.807801,"state":"VA","long":-77.083107},"type":"Feature","geometry":{"type":"Point","coordinates":[-77.083107,38.807801]}},{"properties":{"city":"Alexandria","name":"JBG Rosenfeld","zip":22314,"amount":29363.2,"id":"a6of25mvo24l","address":"3103-3231 Duke Street","lat":38.807801,"state":"VA","long":-77.083107},"type":"Feature","geometry":{"type":"Point","coordinates":[-77.083107,38.807801]}},{"properties":{"city":"Alexandria","name":"JBG Rosenfeld","zip":22314,"amount":422,"id":"a6of25ow6sct","address":"3103-3231 Duke Street","lat":38.807801,"state":"VA","long":-77.083107},"type":"Feature","geometry":{"type":"Point","coordinates":[-77.083107,38.807801]}},{"properties":{"city":"Alexandria","name":"JBG Rosenfeld","zip":22314,"amount":970,"id":"a6of25fqkrlu","address":"3103-3231 Duke Street","lat":38.807801,"state":"VA","long":-77.083107},"type":"Feature","geometry":{"type":"Point","coordinates":[-77.083107,38.807801]}},{"properties":{"city":"Alexandria","name":"JBG Rosenfeld","zip":22314,"amount":43953.12,"id":"a6of25s56t0l","address":"3103-3231 Duke Street","lat":38.807801,"state":"VA","long":-77.083107},"type":"Feature","geometry":{"type":"Point","coordinates":[-77.083107,38.807801]}},{"properties":{"city":"Baltimore","name":"Bozzuto Management Company","zip":21201,"amount":157,"id":"a6of25elfw35","address":"312 Martin Luther King Jr. Blv","lat":39.292881,"state":"MD","long":-76.628065},"type":"Feature","geometry":{"type":"Point","coordinates":[-76.628065,39.292881]}},{"properties":{"city":"Alexandria","name":"Sports Her Way","zip":22314,"amount":130,"id":"a6of25nwezkf","address":"3137 Duke Street","lat":38.807999,"state":"VA","long":-77.084521},"type":"Feature","geometry":{"type":"Point","coordinates":[-77.084521,38.807999]}},{"properties":{"city":"Alexandria","name":"Sports Her Way","zip":22314,"amount":1847,"id":"a6of25o0smij","address":"3137 Duke Street","lat":38.807999,"state":"VA","long":-77.084521},"type":"Feature","geometry":{"type":"Point","coordinates":[-77.084521,38.807999]}},{"properties":{"city":"Denton","name":"Stanley Halle Communities","zip":21629,"amount":14446,"id":"a6of25q3b33a","address":"320 Sydney Lane","lat":38.876161,"state":"MD","long":-75.833101},"type":"Feature","geometry":{"type":"Point","coordinates":[-75.833101,38.876161]}},{"properties":{"city":"Baltimore","name":"Vitamin","zip":21224,"amount":472,"id":"a6of25dq4jmz","address":"3237 Eastern Avenue","lat":39.286356,"state":"MD","long":-76.570517},"type":"Feature","geometry":{"type":"Point","coordinates":[-76.570517,39.286356]}},{"properties":{"city":"Baltimore","name":"Vitamin","zip":21224,"amount":0,"id":"a6of25cfi5gs","address":"3237 Eastern Avenue","lat":39.286356,"state":"MD","long":-76.570517},"type":"Feature","geometry":{"type":"Point","coordinates":[-76.570517,39.286356]}},{"properties":{"city":"Washington","name":"William C. Smith &amp; Co., Inc.","zip":20032,"amount":7738.9,"id":"a6of25m2omw9","address":"3301 Stanton Rd SE","lat":38.846739,"state":"DC","long":-76.980407},"type":"Feature","geometry":{"type":"Point","coordinates":[-76.980407,38.846739]}},{"properties":{"city":"Mount Rainier","name":"Beltsville IndustriesGroup,Inc","zip":20712,"amount":9817,"id":"a6of25gpy7aq","address":"3307 Rhode Island Ave","lat":38.935646,"state":"MD","long":-76.961973},"type":"Feature","geometry":{"type":"Point","coordinates":[-76.961973,38.935646]}},{"properties":{"city":"Baltimore","name":"Whiz Car Wash","zip":21215,"amount":15744.5,"id":"a6of25mm7i9u","address":"3321 W. Cold Spring Lane","lat":39.336356,"state":"MD","long":-76.674164},"type":"Feature","geometry":{"type":"Point","coordinates":[-76.674164,39.336356]}},{"properties":{"city":"Laurel","name":"Ourisman Hyundai / Mazda","zip":20724,"amount":262.38,"id":"a6of25n3nu4w","address":"3516 Fort Meade Road","lat":39.101137,"state":"MD","long":-76.822265},"type":"Feature","geometry":{"type":"Point","coordinates":[-76.822265,39.101137]}},{"properties":{"city":"Laurel","name":"Ourisman Hyundai / Mazda","zip":20724,"amount":1327,"id":"a6of25ir6x27","address":"3516 Fort Meade Road","lat":39.101137,"state":"MD","long":-76.822265},"type":"Feature","geometry":{"type":"Point","coordinates":[-76.822265,39.101137]}},{"properties":{"city":"Laurel","name":"Ourisman Hyundai / Mazda","zip":20724,"amount":0,"id":"a6of25jh66ck","address":"3516 Fort Meade Road","lat":39.101137,"state":"MD","long":-76.822265},"type":"Feature","geometry":{"type":"Point","coordinates":[-76.822265,39.101137]}},{"properties":{"city":"Laurel","name":"Ourisman Hyundai / Mazda","zip":20724,"amount":39435.75,"id":"a6of25oknt8k","address":"3516 Fort Meade Road","lat":39.101137,"state":"MD","long":-76.822265},"type":"Feature","geometry":{"type":"Point","coordinates":[-76.822265,39.101137]}},{"properties":{"city":"Kensington","name":"Lafayette Federal Credit Union","zip":20895,"amount":1100,"id":"a6of25hn8y61","address":"3535 University Blvd. West","lat":39.034137,"state":"MD","long":-77.072147},"type":"Feature","geometry":{"type":"Point","coordinates":[-77.072147,39.034137]}},{"properties":{"city":"Baltimore","name":"James F. Knott Realty Group","zip":21220,"amount":6353,"id":"a6of25cjjpeg","address":"37 Alberg Lane","lat":39.347423,"state":"MD","long":-76.383065},"type":"Feature","geometry":{"type":"Point","coordinates":[-76.383065,39.347423]}},{"properties":{"city":"Baltimore","name":"James F. Knott Realty Group","zip":21220,"amount":14805,"id":"a6of25ku4cz4","address":"37 Alberg Lane","lat":39.347423,"state":"MD","long":-76.383065},"type":"Feature","geometry":{"type":"Point","coordinates":[-76.383065,39.347423]}},{"properties":{"city":"Baltimore","name":"James F. Knott Realty Group","zip":21220,"amount":855,"id":"a6of25lzgw7q","address":"37 Alberg Lane","lat":39.347423,"state":"MD","long":-76.383065},"type":"Feature","geometry":{"type":"Point","coordinates":[-76.383065,39.347423]}},{"properties":{"city":"Alexandria","name":"Sports Her Way","zip":22314,"amount":4389.4,"id":"a6of25irokhb","address":"3731 Duke Street","lat":38.810114,"state":"VA","long":-77.095616},"type":"Feature","geometry":{"type":"Point","coordinates":[-77.095616,38.810114]}},{"properties":{"city":"Washington","name":"Yes! Organic Market","zip":20017,"amount":21372.5,"id":"a6of25gt9ztb","address":"3809 12th St., NE","lat":38.936314,"state":"D.C.","long":-76.99073},"type":"Feature","geometry":{"type":"Point","coordinates":[-76.99073,38.936314]}},{"properties":{"city":"Baltimore","name":"County National Bank","zip":21122,"amount":5322,"id":"a6of25ltrej1","address":"4001 Mountain Road","lat":39.123103,"state":"MD","long":-76.519367},"type":"Feature","geometry":{"type":"Point","coordinates":[-76.519367,39.123103]}},{"properties":{"city":"Washington","name":"S.E. Foster Construction","zip":"","amount":24429.07,"id":"a6of25s8xhih","address":"4101 Albemarle , NW","lat":38.948083,"state":"DC","long":-77.079932},"type":"Feature","geometry":{"type":"Point","coordinates":[-77.079932,38.948083]}},{"properties":{"city":"Washington","name":"S.E. Foster Construction","zip":"","amount":7879.18,"id":"a6of25i6438r","address":"4101 Albemarle , NW","lat":38.948083,"state":"DC","long":-77.079932},"type":"Feature","geometry":{"type":"Point","coordinates":[-77.079932,38.948083]}},{"properties":{"city":"Washington","name":"S.E. Foster Construction","zip":"","amount":4874.31,"id":"a6of25p77wzn","address":"4101 Albemarle , NW","lat":38.948083,"state":"DC","long":-77.079932},"type":"Feature","geometry":{"type":"Point","coordinates":[-77.079932,38.948083]}},{"properties":{"city":"Washington","name":"S.E. Foster Construction","zip":"","amount":3808.67,"id":"a6of25nagacy","address":"4101 Albemarle , NW","lat":38.948083,"state":"DC","long":-77.079932},"type":"Feature","geometry":{"type":"Point","coordinates":[-77.079932,38.948083]}},{"properties":{"city":"Washington","name":"S.E. Foster Construction","zip":"","amount":1728.37,"id":"a6of25s1t3h0","address":"4101 Albemarle , NW","lat":38.948083,"state":"DC","long":-77.079932},"type":"Feature","geometry":{"type":"Point","coordinates":[-77.079932,38.948083]}},{"properties":{"city":"Washington","name":"S.E. Foster Construction","zip":"","amount":0,"id":"a6of25esb693","address":"4101 Albemarle , NW","lat":38.948083,"state":"DC","long":-77.079932},"type":"Feature","geometry":{"type":"Point","coordinates":[-77.079932,38.948083]}},{"properties":{"city":"Washington","name":"S.E. Foster Construction","zip":"","amount":6582.5,"id":"a6of25h6c3qx","address":"4101 Albemarle , NW","lat":38.948083,"state":"DC","long":-77.079932},"type":"Feature","geometry":{"type":"Point","coordinates":[-77.079932,38.948083]}},{"properties":{"city":"Washington","name":"Roadside Development","zip":20016,"amount":0,"id":"a6of25e162yx","address":"4101 Albemarle Ave NW","lat":38.948083,"state":"D.C.","long":-77.079932},"type":"Feature","geometry":{"type":"Point","coordinates":[-77.079932,38.948083]}},{"properties":{"city":"Montgomeryville","name":"Bozzuto","zip":18936,"amount":935,"id":"a6of25g0kwol","address":"430 DeKalb Pike","lat":40.235265,"state":"PA","long":-75.24027},"type":"Feature","geometry":{"type":"Point","coordinates":[-75.24027,40.235265]}},{"properties":{"city":"Montgomeryville","name":"Bozzuto","zip":18936,"amount":210,"id":"a6of25e7h6m4","address":"430 DeKalb Pike","lat":40.235265,"state":"PA","long":-75.24027},"type":"Feature","geometry":{"type":"Point","coordinates":[-75.24027,40.235265]}},{"properties":{"city":"Montgomeryville","name":"Bozzuto","zip":18936,"amount":554.26,"id":"a6of25qkoqd2","address":"430 DeKalb Pike","lat":40.235265,"state":"PA","long":-75.24027},"type":"Feature","geometry":{"type":"Point","coordinates":[-75.24027,40.235265]}},{"properties":{"city":"Marlow Heights","name":"Ourisman Mitsubishi","zip":20748,"amount":6345,"id":"a6of25ibxo18","address":"4404 Branch Avenue","lat":38.830969,"state":"MD","long":-76.933549},"type":"Feature","geometry":{"type":"Point","coordinates":[-76.933549,38.830969]}},{"properties":{"city":"Marlow Heights","name":"Ourisman Chevrolet","zip":20748,"amount":0,"id":"a6of25ik64s0","address":"4404 Branch Avenue","lat":38.830969,"state":"MD","long":-76.933549},"type":"Feature","geometry":{"type":"Point","coordinates":[-76.933549,38.830969]}},{"properties":{"city":"Marlow Heights","name":"Ourisman Chevrolet","zip":20748,"amount":35084,"id":"a6of25dnyzdx","address":"4404 Branch Avenue","lat":38.830969,"state":"MD","long":-76.933549},"type":"Feature","geometry":{"type":"Point","coordinates":[-76.933549,38.830969]}},{"properties":{"city":"Marlow Heights","name":"Ourisman Chevrolet","zip":20748,"amount":313.3,"id":"a6of25r2s8p5","address":"4404 Branch Avenue","lat":38.830969,"state":"MD","long":-76.933549},"type":"Feature","geometry":{"type":"Point","coordinates":[-76.933549,38.830969]}},{"properties":{"city":"Marlow Heights","name":"Ourisman Chevrolet","zip":20748,"amount":887.7,"id":"a6of25qu31ln","address":"4404 Branch Avenue","lat":38.830969,"state":"MD","long":-76.933549},"type":"Feature","geometry":{"type":"Point","coordinates":[-76.933549,38.830969]}},{"properties":{"city":"Marlow Heights","name":"Ourisman Chevrolet","zip":20748,"amount":1845,"id":"a6of25cr01pf","address":"4404 Branch Avenue","lat":38.830969,"state":"MD","long":-76.933549},"type":"Feature","geometry":{"type":"Point","coordinates":[-76.933549,38.830969]}},{"properties":{"city":"College Park","name":"Arretta, Inc","zip":20740,"amount":2337,"id":"a6of25iqxao9","address":"4431 Lehigh Road # 237","lat":38.981634,"state":"MD","long":-76.938576},"type":"Feature","geometry":{"type":"Point","coordinates":[-76.938576,38.981634]}},{"properties":{"city":"Annapolis","name":"eTelemetry","zip":21401,"amount":1406,"id":"a6of25ols080","address":"45 Old Solomons Island Road","lat":38.979581,"state":"MD","long":-76.535501},"type":"Feature","geometry":{"type":"Point","coordinates":[-76.535501,38.979581]}},{"properties":{"city":"Annapolis","name":"Sigma Engineering Inc.","zip":21401,"amount":385,"id":"a6of25p2mhuo","address":"45 Old Solomons Island Road","lat":38.979581,"state":"MD","long":-76.535501},"type":"Feature","geometry":{"type":"Point","coordinates":[-76.535501,38.979581]}},{"properties":{"city":"Washington","name":"The Container Store","zip":20002,"amount":20204,"id":"a6of25qr4o28","address":"4500 Wisconsin Ave","lat":38.947979,"state":"DC","long":-77.079844},"type":"Feature","geometry":{"type":"Point","coordinates":[-77.079844,38.947979]}},{"properties":{"city":"Washington","name":"The Container Store","zip":20002,"amount":67410,"id":"a6of25dvnh37","address":"4500 Wisconsin Ave.","lat":38.947979,"state":"DC","long":-77.079844},"type":"Feature","geometry":{"type":"Point","coordinates":[-77.079844,38.947979]}},{"properties":{"city":"Washington","name":"Roadside Development","zip":20007,"amount":20078.23,"id":"a6of25onxw6d","address":"4500 Wisconsin Ave., NW","lat":38.947979,"state":"DC","long":-77.079844},"type":"Feature","geometry":{"type":"Point","coordinates":[-77.079844,38.947979]}},{"properties":{"city":"Washington","name":"Fantom Comics","zip":20016,"amount":1848,"id":"a6of25rhnwlf","address":"4500 Wisconsin NW","lat":38.947979,"state":"D.C.","long":-77.079844},"type":"Feature","geometry":{"type":"Point","coordinates":[-77.079844,38.947979]}},{"properties":{"city":"Washington","name":"Tenleytown Hardware, LLC (ACE)","zip":20016,"amount":3509,"id":"a6of25f26ukp","address":"4500 Wisconsin NW","lat":38.947979,"state":"DC","long":-77.079844},"type":"Feature","geometry":{"type":"Point","coordinates":[-77.079844,38.947979]}},{"properties":{"city":"Washington","name":"Parimist Funding Corp.","zip":20016,"amount":11152,"id":"a6of25q9cdcc","address":"4500 Wisconsin NW","lat":38.947979,"state":"DC","long":-77.079844},"type":"Feature","geometry":{"type":"Point","coordinates":[-77.079844,38.947979]}},{"properties":{"city":"Dulles","name":"Lerner Enterprises","zip":20166,"amount":18570,"id":"a6of25ibvn75","address":"45215 Towlern Place","lat":39.00957,"state":"VA","long":-77.436205},"type":"Feature","geometry":{"type":"Point","coordinates":[-77.436205,39.00957]}},{"properties":{"city":"Pasadena","name":"The Helfenbein Company","zip":21122,"amount":31216,"id":"a6of25e2fbkx","address":"4681 Mountain Rd","lat":39.103852,"state":"MD","long":-76.472983},"type":"Feature","geometry":{"type":"Point","coordinates":[-76.472983,39.103852]}},{"properties":{"city":"Pasadena","name":"The Bank of Glen Burnie","zip":21122,"amount":780,"id":"a6of25ku944c","address":"4681 Mountain Rd","lat":39.103852,"state":"MD","long":-76.472983},"type":"Feature","geometry":{"type":"Point","coordinates":[-76.472983,39.103852]}},{"properties":{"city":"Washington","name":"Pete's Apizza","zip":20011,"amount":148,"id":"a6of25e3293g","address":"4708 8th St, NW","lat":38.94744,"state":"DC","long":-77.023762},"type":"Feature","geometry":{"type":"Point","coordinates":[-77.023762,38.94744]}},{"properties":{"city":"Baltimore","name":"O'Malley Antiques","zip":21210,"amount":686,"id":"a6of25d0xuhn","address":"4800 Roland Ave.","lat":39.350117,"state":"MD","long":-76.635351},"type":"Feature","geometry":{"type":"Point","coordinates":[-76.635351,39.350117]}},{"properties":{"city":"Bel Air","name":"JBG Rosenfeld","zip":21015,"amount":14948,"id":"a6of25rfhj4l","address":"5 Bel Air South Parkway","lat":39.497569,"state":"MD","long":-76.326143},"type":"Feature","geometry":{"type":"Point","coordinates":[-76.326143,39.497569]}},{"properties":{"city":"Bel Air","name":"JBG Rosenfeld","zip":21015,"amount":290,"id":"a6of25j09l7d","address":"5 Bel Air South Parkway","lat":39.497569,"state":"MD","long":-76.326143},"type":"Feature","geometry":{"type":"Point","coordinates":[-76.326143,39.497569]}},{"properties":{"city":"Rockville","name":"Bozzuto","zip":20852,"amount":1323.2,"id":"a6of25lpefjk","address":"5440 Marinelli Rd","lat":39.047442,"state":"MD","long":-77.108914},"type":"Feature","geometry":{"type":"Point","coordinates":[-77.108914,39.047442]}},{"properties":{"city":"Rockville","name":"Bozzuto","zip":20852,"amount":15950.9,"id":"a6of25hlb43m","address":"5440 Marinelli Rd","lat":39.047442,"state":"MD","long":-77.108914},"type":"Feature","geometry":{"type":"Point","coordinates":[-77.108914,39.047442]}},{"properties":{"city":"Rockville","name":"Bozzuto","zip":20852,"amount":5635,"id":"a6of25nk5sl3","address":"5440 Marinelli Rd","lat":39.047442,"state":"MD","long":-77.108914},"type":"Feature","geometry":{"type":"Point","coordinates":[-77.108914,39.047442]}},{"properties":{"city":"Washington","name":"Whiting Turner/Georgetown Law","zip":20001,"amount":13106.53,"id":"a6of25c91wcj","address":"550 1ST Street NW","lat":38.897051,"state":"DC","long":-77.01232},"type":"Feature","geometry":{"type":"Point","coordinates":[-77.01232,38.897051]}},{"properties":{"city":"Washington","name":"Whiting Turner/Georgetown Law","zip":20001,"amount":0,"id":"a6of25qm1vel","address":"550 1ST Street NW","lat":38.897051,"state":"DC","long":-77.01232},"type":"Feature","geometry":{"type":"Point","coordinates":[-77.01232,38.897051]}},{"properties":{"city":"Kalamazoo","name":"Hydro Alum./Linthicum","zip":49004,"amount":19225.5,"id":"a6of25obqwip","address":"5575 Riverview Drive","lat":42.340612,"state":"MI","long":-85.557698},"type":"Feature","geometry":{"type":"Point","coordinates":[-85.557698,42.340612]}},{"properties":{"city":"Alexandria","name":"JPI","zip":22312,"amount":1040,"id":"a6of25md4sp4","address":"5575 Vincent Gate Terrace","lat":38.818614,"state":"VA","long":-77.153402},"type":"Feature","geometry":{"type":"Point","coordinates":[-77.153402,38.818614]}},{"properties":{"city":"Alexandria","name":"Lerner Enterprises","zip":22312,"amount":2617,"id":"a6of25qswe2c","address":"5800 Quantrell Ave","lat":38.819322,"state":"VA","long":-77.136295},"type":"Feature","geometry":{"type":"Point","coordinates":[-77.136295,38.819322]}},{"properties":{"city":"Alexandria","name":"Somerset Const. Co.","zip":22304,"amount":18240,"id":"a6of25oj8nm3","address":"5803 Edsall Rd","lat":38.80772,"state":"VA","long":-77.134133},"type":"Feature","geometry":{"type":"Point","coordinates":[-77.134133,38.80772]}},{"properties":{"city":"Columbia","name":"Temple Isaiah","zip":21045,"amount":344,"id":"a6of25mf4stv","address":"5885 Robert Oliver Pl.","lat":39.209363,"state":"MD","long":-76.847188},"type":"Feature","geometry":{"type":"Point","coordinates":[-76.847188,39.209363]}},{"properties":{"city":"Alexandria","name":"Ourisman Dodge","zip":22303,"amount":650,"id":"a6of25c7o98z","address":"5900 Richmond Hwy","lat":38.791879,"state":"VA","long":-77.059588},"type":"Feature","geometry":{"type":"Point","coordinates":[-77.059588,38.791879]}},{"properties":{"city":"Alexandria","name":"Ourisman Dodge","zip":22303,"amount":1350,"id":"a6of25ja1xa5","address":"5900 Richmond Hwy","lat":38.791879,"state":"VA","long":-77.059588},"type":"Feature","geometry":{"type":"Point","coordinates":[-77.059588,38.791879]}},{"properties":{"city":"Alexandria","name":"Ourisman Dodge","zip":22303,"amount":625,"id":"a6of25rmf8c2","address":"5900 Richmond Hwy","lat":38.791879,"state":"VA","long":-77.059588},"type":"Feature","geometry":{"type":"Point","coordinates":[-77.059588,38.791879]}},{"properties":{"city":"Alexandria","name":"Ourisman Dodge","zip":22303,"amount":1652,"id":"a6of25ihsb4z","address":"5900 Richmond Hwy","lat":38.791879,"state":"VA","long":-77.059588},"type":"Feature","geometry":{"type":"Point","coordinates":[-77.059588,38.791879]}},{"properties":{"city":"Kansas City","name":"Aeroterm US","zip":64153,"amount":2020,"id":"a6of25m2zqdj","address":"594 New Mexico City Avenue","lat":39.306729,"state":"MO","long":-94.71816},"type":"Feature","geometry":{"type":"Point","coordinates":[-94.71816,39.306729]}},{"properties":{"city":"Millersville","name":"Old Mill Senior High School","zip":21108,"amount":5797,"id":"a6of25mqfv6o","address":"600 Patriot Ln","lat":39.11828,"state":"MD","long":-76.626838},"type":"Feature","geometry":{"type":"Point","coordinates":[-76.626838,39.11828]}},{"properties":{"city":"Bel Air","name":"Atwood Dev. Llc","zip":21014,"amount":6905.5,"id":"a6of25eeu46a","address":"602 S. Atwood Road","lat":39.526083,"state":"MD","long":-76.347675},"type":"Feature","geometry":{"type":"Point","coordinates":[-76.347675,39.526083]}},{"properties":{"city":"Bel Air","name":"Atwood Dev. Llc","zip":21014,"amount":7963.5,"id":"a6of25enmbqn","address":"602 S. Atwood Road","lat":39.526083,"state":"MD","long":-76.347675},"type":"Feature","geometry":{"type":"Point","coordinates":[-76.347675,39.526083]}},{"properties":{"city":"Bel Air","name":"Atwood Dev. Llc","zip":21014,"amount":7165.5,"id":"a6of25cgj6tr","address":"602 S. Atwood Road","lat":39.526083,"state":"MD","long":-76.347675},"type":"Feature","geometry":{"type":"Point","coordinates":[-76.347675,39.526083]}},{"properties":{"city":"White Marsh","name":"Phoenix Metals Contractors","zip":21162,"amount":657,"id":"a6of25gjd8sc","address":"6100 Days Cove Rd.","lat":39.399199,"state":"MD","long":-76.400478},"type":"Feature","geometry":{"type":"Point","coordinates":[-76.400478,39.399199]}},{"properties":{"city":"White Marsh","name":"H &amp; H Rock Incorporated","zip":21162,"amount":292,"id":"a6of25pfo3i1","address":"6100 Days Cove Rd.","lat":39.399199,"state":"MD","long":-76.400478},"type":"Feature","geometry":{"type":"Point","coordinates":[-76.400478,39.399199]}},{"properties":{"city":"Alexandria","name":"Lerner Enterprises","zip":22312,"amount":14769.52,"id":"a6of25j610lo","address":"6200 Lachine Lane","lat":38.815228,"state":"VA","long":-77.143139},"type":"Feature","geometry":{"type":"Point","coordinates":[-77.143139,38.815228]}},{"properties":{"city":"Alexandria","name":"Lerner Enterprises","zip":22312,"amount":0,"id":"a6of25f0w35d","address":"6200 Lachine Lane","lat":38.815228,"state":"VA","long":-77.143139},"type":"Feature","geometry":{"type":"Point","coordinates":[-77.143139,38.815228]}},{"properties":{"city":"Baltimore","name":"Bozzuto","zip":21202,"amount":5033,"id":"a6of25jbgm3i","address":"625 President St.","lat":39.283931,"state":"MD","long":-76.602434},"type":"Feature","geometry":{"type":"Point","coordinates":[-76.602434,39.283931]}},{"properties":{"city":"Columbia","name":"Windemere","zip":21046,"amount":0,"id":"a6of25j16y8s","address":"6250 Old Dobbin Lane","lat":39.20098,"state":"MD","long":-76.813655},"type":"Feature","geometry":{"type":"Point","coordinates":[-76.813655,39.20098]}},{"properties":{"city":"Greenbelt","name":"Community Realty Co.","zip":"20770-1496","amount":4146,"id":"a6of25d55pz1","address":"6305 Ivy Lane, Ste 202/210","lat":39.009404,"state":"MD","long":-76.89763},"type":"Feature","geometry":{"type":"Point","coordinates":[-76.89763,39.009404]}},{"properties":{"city":"Elkridge","name":"H &amp; H Rock Incorporated","zip":21075,"amount":912,"id":"a6of25r8l6py","address":"6329 Montgomery Road","lat":39.21271,"state":"MD","long":-76.761967},"type":"Feature","geometry":{"type":"Point","coordinates":[-76.761967,39.21271]}},{"properties":{"city":"Alexandria","name":"JPI","zip":22312,"amount":3335,"id":"a6of25hsquz3","address":"6461 Edsall Rd.","lat":38.802119,"state":"VA","long":-77.160645},"type":"Feature","geometry":{"type":"Point","coordinates":[-77.160645,38.802119]}},{"properties":{"city":"Alexandria","name":"JPI","zip":22312,"amount":2472,"id":"a6of25ilc50f","address":"6461 Edsall Rd.","lat":38.802119,"state":"VA","long":-77.160645},"type":"Feature","geometry":{"type":"Point","coordinates":[-77.160645,38.802119]}},{"properties":{"city":"Severna Park","name":"Bowie Crofton Pregnany Clinic","zip":21146,"amount":0,"id":"a6of25cvd4d2","address":"650 Ritchie Highway","lat":39.07183,"state":"MD","long":-76.541029},"type":"Feature","geometry":{"type":"Point","coordinates":[-76.541029,39.07183]}},{"properties":{"city":"Elkridge","name":"H &amp; H Rock Incorporated","zip":21075,"amount":1150,"id":"a6of25oc3doc","address":"6525 Meadowridge Rd.","lat":39.190602,"state":"MD","long":-76.770903},"type":"Feature","geometry":{"type":"Point","coordinates":[-76.770903,39.190602]}},{"properties":{"city":"Elkridge","name":"H &amp; H Rock Incorporated","zip":21075,"amount":292,"id":"a6of25sa8ovi","address":"6716 Dorsey Rd.","lat":39.182664,"state":"MD","long":-76.762461},"type":"Feature","geometry":{"type":"Point","coordinates":[-76.762461,39.182664]}},{"properties":{"city":"Elkridge","name":"H &amp; H Rock Incorporated","zip":21075,"amount":292,"id":"a6of25o893z7","address":"6771 Dorsey Rd.","lat":39.184325,"state":"MD","long":-76.755636},"type":"Feature","geometry":{"type":"Point","coordinates":[-76.755636,39.184325]}},{"properties":{"city":"Elkridge","name":"H &amp; H Rock Incorporated","zip":21075,"amount":292,"id":"a6of25euiyf4","address":"6800 Deerpath Rd.","lat":39.185224,"state":"MD","long":-76.754427},"type":"Feature","geometry":{"type":"Point","coordinates":[-76.754427,39.185224]}},{"properties":{"city":"Glen Burnie","name":"Dave's Ice Cream/ H Q Mgmt","zip":21061,"amount":8923,"id":"a6of25ivquzx","address":"6938 Aviation Blvd","lat":39.175767,"state":"MD","long":-76.64846},"type":"Feature","geometry":{"type":"Point","coordinates":[-76.64846,39.175767]}},{"properties":{"city":"Glen Burnie","name":"Dave's Ice Cream/ H Q Mgmt","zip":21061,"amount":150,"id":"a6of25dsftmy","address":"6938 Aviation Blvd","lat":39.175767,"state":"MD","long":-76.64846},"type":"Feature","geometry":{"type":"Point","coordinates":[-76.64846,39.175767]}},{"properties":{"city":"Elkridge","name":"H &amp; H Rock Incorporated","zip":21075,"amount":292,"id":"a6of25oipekk","address":"6959 Linden Ave.","lat":39.178835,"state":"MD","long":-76.751823},"type":"Feature","geometry":{"type":"Point","coordinates":[-76.751823,39.178835]}},{"properties":{"city":"Elkridge","name":"H &amp; H Rock Incorporated","zip":21075,"amount":292,"id":"a6of25mx5cbw","address":"6985 Dorsey Rd.","lat":39.178675,"state":"MD","long":-76.748088},"type":"Feature","geometry":{"type":"Point","coordinates":[-76.748088,39.178675]}},{"properties":{"city":"Washington","name":"JPI","zip":20024,"amount":6117,"id":"a6of25f25p80","address":"70 Eye Street Apartments","lat":38.879171,"state":"DC","long":-77.011109},"type":"Feature","geometry":{"type":"Point","coordinates":[-77.011109,38.879171]}},{"properties":{"city":"Washington","name":"JPI","zip":20024,"amount":0,"id":"a6of25mjnsss","address":"70 Eye Street Apartments","lat":38.879171,"state":"DC","long":-77.011109},"type":"Feature","geometry":{"type":"Point","coordinates":[-77.011109,38.879171]}},{"properties":{"city":"Washington","name":"Foundation/National Archives","zip":20408,"amount":2310,"id":"a6of25easb7k","address":"700 Pennsylvania Ave., NW","lat":38.893205,"state":"DC","long":-77.022081},"type":"Feature","geometry":{"type":"Point","coordinates":[-77.022081,38.893205]}},{"properties":{"city":"Elkridge","name":"H &amp; H Rock Incorporated","zip":21075,"amount":292,"id":"a6of25lck68i","address":"7000 Dorsey Run Rd.","lat":39.175739,"state":"MD","long":-76.755403},"type":"Feature","geometry":{"type":"Point","coordinates":[-76.755403,39.175739]}},{"properties":{"city":"Elkridge","name":"Rock Realty","zip":21075,"amount":21667,"id":"a6of25qil7zu","address":"7000 Dorsey Run Road","lat":39.175739,"state":"MD","long":-76.755403},"type":"Feature","geometry":{"type":"Point","coordinates":[-76.755403,39.175739]}},{"properties":{"city":"Elkridge","name":"H &amp; H Rock Incorporated","zip":21075,"amount":1737,"id":"a6of25qizsyl","address":"7000 Dorsey Run Road","lat":39.175739,"state":"MD","long":-76.755403},"type":"Feature","geometry":{"type":"Point","coordinates":[-76.755403,39.175739]}},{"properties":{"city":"Gaithersburg","name":"Mercantile Potomac Bank","zip":20877,"amount":980,"id":"a6of25lmkdwy","address":"702 Russell Ave","lat":39.150822,"state":"MD","long":-77.206108},"type":"Feature","geometry":{"type":"Point","coordinates":[-77.206108,39.150822]}},{"properties":{"city":"Glen Burnie","name":"The Bank of Glen Burnie","zip":21061,"amount":10966.5,"id":"a6of25l2hhxm","address":"7063 Baltiomre -Annapolis Blvd","lat":39.200086,"state":"MD","long":-76.641581},"type":"Feature","geometry":{"type":"Point","coordinates":[-76.641581,39.200086]}},{"properties":{"city":"Baltimore","name":"Bozzuto","zip":21202,"amount":8780,"id":"a6of25lqrxjy","address":"707 President St.","lat":39.283563,"state":"MD","long":-76.602382},"type":"Feature","geometry":{"type":"Point","coordinates":[-76.602382,39.283563]}},{"properties":{"city":"Baltimore","name":"Bozzuto","zip":21202,"amount":3501,"id":"a6of25f0bkym","address":"707 President St.","lat":39.283563,"state":"MD","long":-76.602382},"type":"Feature","geometry":{"type":"Point","coordinates":[-76.602382,39.283563]}},{"properties":{"city":"Baltimore","name":"Bozzuto","zip":21201,"amount":4022,"id":"a6of25lkibod","address":"707 President St.","lat":39.283563,"state":"MD","long":-76.602382},"type":"Feature","geometry":{"type":"Point","coordinates":[-76.602382,39.283563]}},{"properties":{"city":"Baltimore","name":"Bozzuto","zip":21202,"amount":840,"id":"a6of25hrsc6r","address":"707 President St.","lat":39.283563,"state":"","long":-76.602382},"type":"Feature","geometry":{"type":"Point","coordinates":[-76.602382,39.283563]}},{"properties":{"city":"Baltimore","name":"Bozzuto","zip":21202,"amount":22474,"id":"a6of25h24j3t","address":"707 President St.","lat":39.283563,"state":"MD","long":-76.602382},"type":"Feature","geometry":{"type":"Point","coordinates":[-76.602382,39.283563]}},{"properties":{"city":"Baltimore","name":"Bozzuto","zip":21202,"amount":750,"id":"a6of25hg1fkb","address":"707 President St.","lat":39.283563,"state":"MD","long":-76.602382},"type":"Feature","geometry":{"type":"Point","coordinates":[-76.602382,39.283563]}},{"properties":{"city":"Baltimore","name":"Bozzuto","zip":21202,"amount":794,"id":"a6of25k4xpq2","address":"707 President St.","lat":39.283563,"state":"","long":-76.602382},"type":"Feature","geometry":{"type":"Point","coordinates":[-76.602382,39.283563]}},{"properties":{"city":"Baltimore","name":"Bozzuto","zip":21202,"amount":299,"id":"a6of25q1rvbp","address":"707 President St.","lat":39.283563,"state":"MD","long":-76.602382},"type":"Feature","geometry":{"type":"Point","coordinates":[-76.602382,39.283563]}},{"properties":{"city":"Baltimore","name":"Bozzuto","zip":21202,"amount":0,"id":"a6of25j471me","address":"707 President St.","lat":39.283563,"state":"","long":-76.602382},"type":"Feature","geometry":{"type":"Point","coordinates":[-76.602382,39.283563]}},{"properties":{"city":"Baltimore","name":"Bozzuto","zip":21202,"amount":4225.62,"id":"a6of25cve07z","address":"707 President St.","lat":39.283563,"state":"","long":-76.602382},"type":"Feature","geometry":{"type":"Point","coordinates":[-76.602382,39.283563]}},{"properties":{"city":"Baltimore","name":"Bozzuto","zip":21202,"amount":13041.8,"id":"a6of25g5fxsa","address":"707 President St.","lat":39.283563,"state":"MD","long":-76.602382},"type":"Feature","geometry":{"type":"Point","coordinates":[-76.602382,39.283563]}},{"properties":{"city":"Annapolis","name":"Annapolis Lighting","zip":21401,"amount":10088.5,"id":"a6of25iqmxj3","address":"71 Forest Plaza","lat":38.979068,"state":"MD","long":-76.540608},"type":"Feature","geometry":{"type":"Point","coordinates":[-76.540608,38.979068]}},{"properties":{"city":"Hanover","name":"H &amp; H Rock Incorporated","zip":21076,"amount":292,"id":"a6of25jtg89e","address":"7100 Dorsey Rd.","lat":39.16893,"state":"MD","long":-76.727049},"type":"Feature","geometry":{"type":"Point","coordinates":[-76.727049,39.16893]}},{"properties":{"city":"Elkridge","name":"H &amp; H Rock Incorporated","zip":21075,"amount":572,"id":"a6of25ilrs4c","address":"7100 Maiden Point Pl.","lat":39.176582,"state":"MD","long":-76.784505},"type":"Feature","geometry":{"type":"Point","coordinates":[-76.784505,39.176582]}},{"properties":{"city":"Bethesda","name":"JBG Rosenfeld","zip":20814,"amount":68396,"id":"a6of25q0iibs","address":"7101 Wisconsin Ave., Ste 1100","lat":38.980161,"state":"MD","long":-77.092007},"type":"Feature","geometry":{"type":"Point","coordinates":[-77.092007,38.980161]}},{"properties":{"city":"Elkridge","name":"Rock Realty","zip":21075,"amount":360,"id":"a6of25iyqazk","address":"7111 Dorsey Run Rd","lat":39.178189,"state":"MD","long":-76.755217},"type":"Feature","geometry":{"type":"Point","coordinates":[-76.755217,39.178189]}},{"properties":{"city":"Elkridge","name":"H &amp; H Rock Incorporated","zip":21075,"amount":572,"id":"a6of25kvcf7j","address":"7111 Dorsey Run Rd.","lat":39.178189,"state":"MD","long":-76.755217},"type":"Feature","geometry":{"type":"Point","coordinates":[-76.755217,39.178189]}},{"properties":{"city":"Baltimore","name":"Bozzuto","zip":21202,"amount":2390,"id":"a6of25mkq2yx","address":"720 Aliceanna Street","lat":39.283151,"state":"MD","long":-76.602346},"type":"Feature","geometry":{"type":"Point","coordinates":[-76.602346,39.283151]}},{"properties":{"city":"Baltimore","name":"Bozzuto","zip":21202,"amount":467,"id":"a6of25olfewj","address":"720 Aliceanna Street","lat":39.283151,"state":"MD","long":-76.602346},"type":"Feature","geometry":{"type":"Point","coordinates":[-76.602346,39.283151]}},{"properties":{"city":"Baltimore","name":"Bozzuto","zip":21202,"amount":2534,"id":"a6of25ewot4f","address":"720 Aliceanna Street","lat":39.283151,"state":"MD","long":-76.602346},"type":"Feature","geometry":{"type":"Point","coordinates":[-76.602346,39.283151]}},{"properties":{"city":"Baltimore","name":"Bozzuto","zip":21202,"amount":98,"id":"a6of25kmaxw4","address":"720 Aliceanna Street","lat":39.283151,"state":"MD","long":-76.602346},"type":"Feature","geometry":{"type":"Point","coordinates":[-76.602346,39.283151]}},{"properties":{"city":"Rosedale","name":"H &amp; H Rock Incorporated","zip":21237,"amount":292,"id":"a6of25gzvuuf","address":"7200 Pulaksi Hwy.","lat":39.310018,"state":"MD","long":-76.53047},"type":"Feature","geometry":{"type":"Point","coordinates":[-76.53047,39.310018]}},{"properties":{"city":"Rosedale","name":"Rock Realty","zip":21237,"amount":470,"id":"a6of25jzijov","address":"7200 Pulaski Highway","lat":39.310018,"state":"MD","long":-76.53047},"type":"Feature","geometry":{"type":"Point","coordinates":[-76.53047,39.310018]}},{"properties":{"city":"Rosedale","name":"H &amp; H Rock Incorporated","zip":21237,"amount":9950,"id":"a6of25qdjij5","address":"7200 Pulaski Highway","lat":39.310018,"state":"MD","long":-76.53047},"type":"Feature","geometry":{"type":"Point","coordinates":[-76.53047,39.310018]}},{"properties":{"city":"Woodlawn","name":"Rock Realty","zip":24381,"amount":1166,"id":"a6of25p4xaeq","address":"7200 Rutherford Green Circle","lat":36.726594,"state":"MD","long":-80.833606},"type":"Feature","geometry":{"type":"Point","coordinates":[-80.833606,36.726594]}},{"properties":{"city":"Woodlawn","name":"Rock Realty","zip":24381,"amount":18502,"id":"a6of25c4r349","address":"7200 Rutherford Green Circle","lat":36.726594,"state":"MD","long":-80.833606},"type":"Feature","geometry":{"type":"Point","coordinates":[-80.833606,36.726594]}},{"properties":{"city":"Glen Burnie","name":"Pasadena Physical Therapy &amp; Sp","zip":21061,"amount":4123.75,"id":"a6of25c8xi7t","address":"7310 Ritchie Hwy","lat":39.171093,"state":"md","long":-76.620169},"type":"Feature","geometry":{"type":"Point","coordinates":[-76.620169,39.171093]}},{"properties":{"city":"Millersville","name":"County National Bank","zip":"","amount":58314.28,"id":"a6of25pvqbmi","address":"7310 Veterans Hwy","lat":39.12597,"state":"MD","long":-76.640049},"type":"Feature","geometry":{"type":"Point","coordinates":[-76.640049,39.12597]}},{"properties":{"city":"College Park","name":"JBG Rosenfeld Retail","zip":20740,"amount":6475.4,"id":"a6of25jq74qz","address":"7338 Baltimore Ave. (Route 1)","lat":38.980129,"state":"MD","long":-76.93814},"type":"Feature","geometry":{"type":"Point","coordinates":[-76.93814,38.980129]}},{"properties":{"city":"Elkridge","name":"New Colony Village HOA","zip":21075,"amount":779,"id":"a6of25ffjy2q","address":"7400 New Colony Blvd","lat":39.179383,"state":"MD","long":-76.781223},"type":"Feature","geometry":{"type":"Point","coordinates":[-76.781223,39.179383]}},{"properties":{"city":"Glen Burnie","name":"County National Bank","zip":21060,"amount":17818,"id":"a6of25q2sywx","address":"7405 Ritchie Highway","lat":39.166466,"state":"MD","long":-76.621974},"type":"Feature","geometry":{"type":"Point","coordinates":[-76.621974,39.166466]}},{"properties":{"city":"Gambrills","name":"Franklins Garden Center","zip":21054,"amount":14397.5,"id":"a6of25km3wo1","address":"747 Rt. 3","lat":39.049685,"state":"MD","long":-76.661394},"type":"Feature","geometry":{"type":"Point","coordinates":[-76.661394,39.049685]}},{"properties":{"city":"Bethesda","name":"Whiting Turner/Georgetown Law","zip":"20841-3412","amount":46070.99,"id":"a6of25cfzbte","address":"7475 Wisconsin Ave","lat":38.984363,"state":"MD","long":-77.093847},"type":"Feature","geometry":{"type":"Point","coordinates":[-77.093847,38.984363]}},{"properties":{"city":"Bethesda","name":"Whiting Turner/Georgetown Mall","zip":"20841-3412","amount":8122.65,"id":"a6of25otkx9f","address":"7475 Wisconsin Ave","lat":38.984363,"state":"MD","long":-77.093847},"type":"Feature","geometry":{"type":"Point","coordinates":[-77.093847,38.984363]}},{"properties":{"city":"Bethesda","name":"Whiting Turner/Georgetown Mall","zip":"20841-3412","amount":20885.4,"id":"a6of25pe6bmz","address":"7475 Wisconsin Ave","lat":38.984363,"state":"MD","long":-77.093847},"type":"Feature","geometry":{"type":"Point","coordinates":[-77.093847,38.984363]}},{"properties":{"city":"Bethesda","name":"Whiting Turner/Georgetown Law","zip":"20841-3412","amount":43149.43,"id":"a6of25frumo0","address":"7475 Wisconsin Ave","lat":38.984363,"state":"MD","long":-77.093847},"type":"Feature","geometry":{"type":"Point","coordinates":[-77.093847,38.984363]}},{"properties":{"city":"Jessup","name":"H &amp; H Rock Incorporated","zip":20794,"amount":942,"id":"a6of25n8v0ge","address":"7525 Montevideo Road","lat":39.164867,"state":"MD","long":-76.770257},"type":"Feature","geometry":{"type":"Point","coordinates":[-76.770257,39.164867]}},{"properties":{"city":"Severna Park","name":"DRI-CMC Properties","zip":21146,"amount":3459,"id":"a6of25scx65v","address":"760 - 790 Ritchie Highway","lat":39.081668,"state":"","long":-76.556686},"type":"Feature","geometry":{"type":"Point","coordinates":[-76.556686,39.081668]}},{"properties":{"city":"Severna Park","name":"Bank Of Glen Burnie","zip":21146,"amount":775,"id":"a6of25o2eu6i","address":"760-790 Ritchie Hwy.","lat":39.066853,"state":"MD","long":-76.536568},"type":"Feature","geometry":{"type":"Point","coordinates":[-76.536568,39.066853]}},{"properties":{"city":"Bethesda","name":"Bozzuto","zip":20814,"amount":5855,"id":"a6of25j2yl0h","address":"7620 Old Georgetown Road","lat":38.985957,"state":"MD","long":-77.096512},"type":"Feature","geometry":{"type":"Point","coordinates":[-77.096512,38.985957]}},{"properties":{"city":"Hanover","name":"Chesapeake Real Estate Group","zip":21076,"amount":1558.5,"id":"a6of25oaidkt","address":"7690-7698 Dorchester","lat":39.162043,"state":"MD","long":-76.721467},"type":"Feature","geometry":{"type":"Point","coordinates":[-76.721467,39.162043]}},{"properties":{"city":"Hanover","name":"Chesapeake Real Estate Group","zip":21076,"amount":2477,"id":"a6of25m7jjjx","address":"7694 Dorchester Blvd.","lat":39.162043,"state":"MD","long":-76.721467},"type":"Feature","geometry":{"type":"Point","coordinates":[-76.721467,39.162043]}},{"properties":{"city":"Bethesda","name":"Veria, Natural Wellness USA","zip":20814,"amount":21808.62,"id":"a6of25jiba33","address":"7710 Woodmont Ave","lat":38.986559,"state":"MD","long":-77.096625},"type":"Feature","geometry":{"type":"Point","coordinates":[-77.096625,38.986559]}},{"properties":{"city":"Bethesda","name":"Veria, Natural Wellness USA","zip":20814,"amount":0,"id":"a6of25h1ue4v","address":"7710 Woodmont Ave","lat":38.986559,"state":"MD","long":-77.096625},"type":"Feature","geometry":{"type":"Point","coordinates":[-77.096625,38.986559]}},{"properties":{"city":"Bethesda","name":"Duball Woodmont, LLC","zip":20814,"amount":9542,"id":"a6of25lsrqyz","address":"7710 Woodmont Avenue","lat":38.986559,"state":"MD","long":-77.096625},"type":"Feature","geometry":{"type":"Point","coordinates":[-77.096625,38.986559]}},{"properties":{"city":"Bethesda","name":"Duball, LLC","zip":20814,"amount":5916.5,"id":"a6of25dk9f3h","address":"7710 Woodmont Avenue","lat":38.986559,"state":"MD","long":-77.096625},"type":"Feature","geometry":{"type":"Point","coordinates":[-77.096625,38.986559]}},{"properties":{"city":"Elkridge","name":"H &amp; H Rock Incorporated","zip":21075,"amount":572,"id":"a6of25gbdc8u","address":"7734 Washington Blvd.","lat":39.172868,"state":"MD","long":-76.783354},"type":"Feature","geometry":{"type":"Point","coordinates":[-76.783354,39.172868]}},{"properties":{"city":"Elkridge","name":"H &amp; H Rock Incorporated","zip":21075,"amount":535,"id":"a6of25pgz0h6","address":"7734 Washington Blvd.","lat":39.172868,"state":"MD","long":-76.783354},"type":"Feature","geometry":{"type":"Point","coordinates":[-76.783354,39.172868]}},{"properties":{"city":"Greenbelt","name":"Bozzuto","zip":20770,"amount":1835,"id":"a6of25oxziny","address":"7850 Walker Drive","lat":38.997982,"state":"MD","long":-76.895227},"type":"Feature","geometry":{"type":"Point","coordinates":[-76.895227,38.997982]}},{"properties":{"city":"Greenbelt","name":"Bozzuto","zip":20770,"amount":3910,"id":"a6of25grrlf4","address":"7850 Walker Drive","lat":38.997982,"state":"MD","long":-76.895227},"type":"Feature","geometry":{"type":"Point","coordinates":[-76.895227,38.997982]}},{"properties":{"city":"Greenbelt","name":"Bozzuto","zip":20770,"amount":16347.5,"id":"a6of25qctqyo","address":"7850 Walker Drive","lat":38.997982,"state":"MD","long":-76.895227},"type":"Feature","geometry":{"type":"Point","coordinates":[-76.895227,38.997982]}},{"properties":{"city":"Greenbelt","name":"Bozzuto","zip":20770,"amount":1460,"id":"a6of25fwa2nx","address":"7850 Walker Drive","lat":38.997982,"state":"MD","long":-76.895227},"type":"Feature","geometry":{"type":"Point","coordinates":[-76.895227,38.997982]}},{"properties":{"city":"Greenbelt","name":"Bozzuto","zip":20770,"amount":860,"id":"a6of25jv2q2w","address":"7850 Walker Drive","lat":38.997982,"state":"MD","long":-76.895227},"type":"Feature","geometry":{"type":"Point","coordinates":[-76.895227,38.997982]}},{"properties":{"city":"Greenbelt","name":"Bozzuto","zip":20770,"amount":4380,"id":"a6of25jxvqd2","address":"7850 Walker Drive","lat":38.997982,"state":"MD","long":-76.895227},"type":"Feature","geometry":{"type":"Point","coordinates":[-76.895227,38.997982]}},{"properties":{"city":"Greenbelt","name":"Bozzuto","zip":20770,"amount":4950,"id":"a6of25ogivvm","address":"7850 Walker Drive","lat":38.997982,"state":"MD","long":-76.895227},"type":"Feature","geometry":{"type":"Point","coordinates":[-76.895227,38.997982]}},{"properties":{"city":"Baltimore","name":"Bozzuto","zip":21201,"amount":634,"id":"a6of25kkuj4x","address":"8 N. Howard St.","lat":39.289555,"state":"MD","long":-76.61961},"type":"Feature","geometry":{"type":"Point","coordinates":[-76.61961,39.289555]}},{"properties":{"city":"Baltimore","name":"Bozzuto","zip":21202,"amount":3250,"id":"a6of25huvle1","address":"8 N. Howard St.","lat":39.289555,"state":"MD","long":-76.61961},"type":"Feature","geometry":{"type":"Point","coordinates":[-76.61961,39.289555]}},{"properties":{"city":"Baltimore","name":"Bozzuto","zip":21202,"amount":1925,"id":"a6of25q77hyt","address":"8 N. Howard Street","lat":39.289555,"state":"MD","long":-76.61961},"type":"Feature","geometry":{"type":"Point","coordinates":[-76.61961,39.289555]}},{"properties":{"city":"Ellicott City","name":"Waverly Real Estate Group","zip":21041,"amount":11475,"id":"a6of25byk780","address":"8001 Hillsboro Dr","lat":39.250168,"state":"MD","long":-76.789518},"type":"Feature","geometry":{"type":"Point","coordinates":[-76.789518,39.250168]}},{"properties":{"city":"Ellicott City","name":"AeroFitness","zip":21043,"amount":4496.5,"id":"a6of25lf4j59","address":"8001 Hillsborough Rd","lat":39.250168,"state":"MD","long":-76.789518},"type":"Feature","geometry":{"type":"Point","coordinates":[-76.789518,39.250168]}},{"properties":{"city":"Ellicott City","name":"Soto's Grill Inc.","zip":21043,"amount":3834,"id":"a6of25d43vdf","address":"8001 Hillsborough Rd.","lat":39.250168,"state":"MD","long":-76.789518},"type":"Feature","geometry":{"type":"Point","coordinates":[-76.789518,39.250168]}},{"properties":{"city":"Ellicott City","name":"Waverly Real Estate Group","zip":21043,"amount":4372.5,"id":"a6of25o5c01r","address":"8001 Hillsborough Road","lat":39.250168,"state":"MD","long":-76.789518},"type":"Feature","geometry":{"type":"Point","coordinates":[-76.789518,39.250168]}},{"properties":{"city":"Baltimore","name":"Struever Bros. Eccles &amp; Rouse","zip":"","amount":520,"id":"a6of25k8tp2c","address":"801 Aliceanna","lat":39.283131,"state":"MD","long":-76.601227},"type":"Feature","geometry":{"type":"Point","coordinates":[-76.601227,39.283131]}},{"properties":{"city":"Baltimore","name":"Help II c/o Struever Bros. E&amp;R","zip":"","amount":557,"id":"a6of25iku5m0","address":"801 Aliceanna","lat":39.283131,"state":"MD","long":-76.601227},"type":"Feature","geometry":{"type":"Point","coordinates":[-76.601227,39.283131]}},{"properties":{"city":"Linthicum","name":"Hydro Alum./Linthicum","zip":21090,"amount":600,"id":"a6of25mlyrsl","address":"801 International Drive","lat":39.206046,"state":"MD","long":-76.672764},"type":"Feature","geometry":{"type":"Point","coordinates":[-76.672764,39.206046]}},{"properties":{"city":"Jessup","name":"H &amp; H Rock Incorporated","zip":20794,"amount":3411,"id":"a6of25kxvfk1","address":"8015 Jenmar","lat":39.148748,"state":"MD","long":-76.792483},"type":"Feature","geometry":{"type":"Point","coordinates":[-76.792483,39.148748]}},{"properties":{"city":"Baltimore","name":"Rappaport Company","zip":21244,"amount":35109,"id":"a6of25mq199c","address":"8035-8067 Liberty Road","lat":39.353452,"state":"MD","long":-76.757662},"type":"Feature","geometry":{"type":"Point","coordinates":[-76.757662,39.353452]}},{"properties":{"city":"Gainesville","name":"Community Realty Co.","zip":20155,"amount":9993,"id":"a6of25jtk15i","address":"8078 Crescent Park Drive","lat":38.783656,"state":"VA","long":-77.664487},"type":"Feature","geometry":{"type":"Point","coordinates":[-77.664487,38.783656]}},{"properties":{"city":"Gainesville","name":"RMJ Development Group, LLC","zip":20155,"amount":24183,"id":"a6of25hky8kz","address":"8078 Crescent Park Drive","lat":38.783656,"state":"VA","long":-77.664487},"type":"Feature","geometry":{"type":"Point","coordinates":[-77.664487,38.783656]}},{"properties":{"city":"Gainesville","name":"RMJ Development Group, LLC","zip":20155,"amount":0,"id":"a6of25mp7fpx","address":"8078 Crescent Park Drive","lat":38.783656,"state":"VA","long":-77.664487},"type":"Feature","geometry":{"type":"Point","coordinates":[-77.664487,38.783656]}},{"properties":{"city":"Gainesville","name":"RMJ Development Group, LLC","zip":20155,"amount":6135,"id":"a6of25mpyo6c","address":"8078 Crescent Park Drive","lat":38.783656,"state":"VA","long":-77.664487},"type":"Feature","geometry":{"type":"Point","coordinates":[-77.664487,38.783656]}},{"properties":{"city":"Gainesville","name":"Casco Signs, Inc.","zip":20155,"amount":1580,"id":"a6of25s2x2t5","address":"8078 Crescent Park Drive","lat":38.783656,"state":"VA","long":-77.664487},"type":"Feature","geometry":{"type":"Point","coordinates":[-77.664487,38.783656]}},{"properties":{"city":"Gainesville","name":"RMJ Development Group, LLC","zip":20155,"amount":11172.43,"id":"a6of25hhzqpc","address":"8078 Crescent Park Drive","lat":38.783656,"state":"VA","long":-77.664487},"type":"Feature","geometry":{"type":"Point","coordinates":[-77.664487,38.783656]}},{"properties":{"city":"Baltimore","name":"City Sports","zip":21201,"amount":16458,"id":"a6of25llu2ot","address":"809 Aliceanna","lat":39.28311,"state":"MD","long":-76.60119},"type":"Feature","geometry":{"type":"Point","coordinates":[-76.60119,39.28311]}},{"properties":{"city":"Severn","name":"Bank Of Glen Burnie","zip":21144,"amount":706,"id":"a6of25m0eziv","address":"811 Reece Rd.","lat":39.136722,"state":"MD","long":-76.687936},"type":"Feature","geometry":{"type":"Point","coordinates":[-76.687936,39.136722]}},{"properties":{"city":"Odenton","name":"Carpet Creations, Inc.","zip":21113,"amount":487,"id":"a6of25fn3m7x","address":"8175 Telegraph road","lat":39.09866,"state":"MD","long":-76.694269},"type":"Feature","geometry":{"type":"Point","coordinates":[-76.694269,39.09866]}},{"properties":{"city":"Jessup","name":"H &amp; H Rock Incorporated","zip":20794,"amount":292,"id":"a6of25d1dei6","address":"8193 Washington Blvd.","lat":39.162042,"state":"MD","long":-76.793483},"type":"Feature","geometry":{"type":"Point","coordinates":[-76.793483,39.162042]}},{"properties":{"city":"Manassas Park","name":"JBG Rosenfeld","zip":22110,"amount":74,"id":"a6of25qxrkm5","address":"8193-B Euclid Court","lat":38.779804,"state":"VA","long":-77.439412},"type":"Feature","geometry":{"type":"Point","coordinates":[-77.439412,38.779804]}},{"properties":{"city":"Vienna","name":"Navy Federal Credit Union","zip":22180,"amount":1847,"id":"a6of25ni2ygw","address":"820 Follin Lane","lat":38.904223,"state":"VA","long":-77.246242},"type":"Feature","geometry":{"type":"Point","coordinates":[-77.246242,38.904223]}},{"properties":{"city":"Vienna","name":"Navy Federal Credit Union","zip":22180,"amount":12188,"id":"a6of25q9edu4","address":"820 Follin Lane","lat":38.904223,"state":"VA","long":-77.246242},"type":"Feature","geometry":{"type":"Point","coordinates":[-77.246242,38.904223]}},{"properties":{"city":"Columbia","name":"Victoria Restaurant Group, LLC","zip":21045,"amount":44114,"id":"a6of25jme07g","address":"8201 Snowden River Rd","lat":39.210256,"state":"MD","long":-76.80055},"type":"Feature","geometry":{"type":"Point","coordinates":[-76.80055,39.210256]}},{"properties":{"city":"Pikesville","name":"Rock Realty","zip":21208,"amount":136,"id":"a6of25kzrj1l","address":"8209 Stevenson Rd.","lat":39.394697,"state":"MD","long":-76.712116},"type":"Feature","geometry":{"type":"Point","coordinates":[-76.712116,39.394697]}},{"properties":{"city":"Odenton","name":"Koch Homes, Inc.","zip":21113,"amount":14580.75,"id":"a6of25f5s9vr","address":"8251 Telegraph Rd.","lat":39.096246,"state":"MD","long":-76.694567},"type":"Feature","geometry":{"type":"Point","coordinates":[-76.694567,39.096246]}},{"properties":{"city":"Odenton","name":"Carpet Creations, Inc.","zip":21113,"amount":6546,"id":"a6of25ndq545","address":"8251 Telegraph Rd.","lat":39.096246,"state":"MD","long":-76.694567},"type":"Feature","geometry":{"type":"Point","coordinates":[-76.694567,39.096246]}},{"properties":{"city":"Odenton","name":"Carpet Creations, Inc.","zip":21113,"amount":22351,"id":"a6of25lldnzu","address":"8251 Telegraph Rd.","lat":39.096246,"state":"MD","long":-76.694567},"type":"Feature","geometry":{"type":"Point","coordinates":[-76.694567,39.096246]}},{"properties":{"city":"Lanham","name":"Advance Realty","zip":"","amount":0,"id":"a6of25o71a2w","address":"8301 Proffessional Place - E.","lat":38.96191,"state":"MD","long":-76.862339},"type":"Feature","geometry":{"type":"Point","coordinates":[-76.862339,38.96191]}},{"properties":{"city":"Millersville","name":"County National Bank","zip":21108,"amount":585,"id":"a6of25k8yrrt","address":"8310 Veteran's Highway","lat":39.110373,"state":"MD","long":-76.6308},"type":"Feature","geometry":{"type":"Point","coordinates":[-76.6308,39.110373]}},{"properties":{"city":"Vienna","name":"Merlin Technical Solutions","zip":22182,"amount":7018.44,"id":"a6of25pq05z3","address":"8381 Old Courthouse","lat":38.914585,"state":"VA","long":-77.233898},"type":"Feature","geometry":{"type":"Point","coordinates":[-77.233898,38.914585]}},{"properties":{"city":"Baltimore","name":"Handbags in the City","zip":21202,"amount":10759,"id":"a6of25ig3asn","address":"840 Aliceanna St.","lat":39.283345,"state":"MD","long":-76.601059},"type":"Feature","geometry":{"type":"Point","coordinates":[-76.601059,39.283345]}},{"properties":{"city":"Mc Lean","name":"Rappaport Company","zip":22102,"amount":885,"id":"a6of25l969mq","address":"8405 Greensboro Drive","lat":38.927258,"state":"VA","long":-77.235067},"type":"Feature","geometry":{"type":"Point","coordinates":[-77.235067,38.927258]}},{"properties":{"city":"Annapolis","name":"Christian Book Shop","zip":21401,"amount":9592.6,"id":"a6of25kwyihq","address":"89 Forest Plaza","lat":38.979215,"state":"MD","long":-76.540605},"type":"Feature","geometry":{"type":"Point","coordinates":[-76.540605,38.979215]}},{"properties":{"city":"Baltimore","name":"North Plaza Mall","zip":21234,"amount":20644,"id":"a6of25cnr1c7","address":"8966 Waltham Woods Road","lat":39.402946,"state":"MD","long":-76.53987},"type":"Feature","geometry":{"type":"Point","coordinates":[-76.53987,39.402946]}},{"properties":{"city":"Columbia","name":"H &amp; H Rock Incorporated","zip":21046,"amount":292,"id":"a6of25pa6y6i","address":"9625 Snowden River Way","lat":39.17675,"state":"MD","long":-76.845366},"type":"Feature","geometry":{"type":"Point","coordinates":[-76.845366,39.17675]}},{"properties":{"city":"Washington","name":"I-Doc Optical","zip":20004,"amount":7379,"id":"a6of25hopipt","address":"975 F St. NW","lat":38.897492,"state":"DC","long":-77.025374},"type":"Feature","geometry":{"type":"Point","coordinates":[-77.025374,38.897492]}},{"properties":{"city":"Washington","name":"William C. Smith &amp; Co., Inc.","zip":20001,"amount":4727,"id":"a6of25fbfhe8","address":"Alabama Ave SE","lat":38.917005,"state":"DC","long":-77.011889},"type":"Feature","geometry":{"type":"Point","coordinates":[-77.011889,38.917005]}},{"properties":{"city":"Washington","name":"William C. Smith &amp; Co., Inc.","zip":20001,"amount":0,"id":"a6of25ejwioa","address":"Alabama Ave SE","lat":38.917005,"state":"DC","long":-77.011889},"type":"Feature","geometry":{"type":"Point","coordinates":[-77.011889,38.917005]}},{"properties":{"city":"Hanover","name":"Chesapeake Real Estate Group","zip":21076,"amount":29187,"id":"a6of25cc9om5","address":"Arundel Mills Blvd","lat":39.152973,"state":"MD","long":-76.723849},"type":"Feature","geometry":{"type":"Point","coordinates":[-76.723849,39.152973]}},{"properties":{"city":"Hanover","name":"Somerset Const. Co.","zip":21076,"amount":8081,"id":"a6of25ir802g","address":"Arundel Mills Circle","lat":39.154063,"state":"MD","long":-76.728025},"type":"Feature","geometry":{"type":"Point","coordinates":[-76.728025,39.154063]}},{"properties":{"city":"Washington","name":"William C. Smith &amp; Co., Inc.","zip":20032,"amount":0,"id":"a6of25otyj20","address":"Ashford Court","lat":38.83331,"state":"DC","long":-76.989244},"type":"Feature","geometry":{"type":"Point","coordinates":[-76.989244,38.83331]}},{"properties":{"city":"Washington","name":"William C. Smith &amp; Co., Inc.","zip":20032,"amount":3520,"id":"a6of25ikl7ie","address":"Ashford Court","lat":38.83331,"state":"DC","long":-76.989244},"type":"Feature","geometry":{"type":"Point","coordinates":[-76.989244,38.83331]}},{"properties":{"city":"Washington","name":"William C. Smith &amp; Co., Inc.","zip":20032,"amount":4124,"id":"a6of25m6xs3d","address":"Ashford Court","lat":38.83331,"state":"DC","long":-76.989244},"type":"Feature","geometry":{"type":"Point","coordinates":[-76.989244,38.83331]}},{"properties":{"city":"Washington","name":"William C. Smith &amp; Co., Inc.","zip":20032,"amount":180,"id":"a6of25c91n7f","address":"Ashford Court","lat":38.83331,"state":"DC","long":-76.989244},"type":"Feature","geometry":{"type":"Point","coordinates":[-76.989244,38.83331]}},{"properties":{"city":"Washington","name":"William C. Smith &amp; Co., Inc.","zip":20032,"amount":1086,"id":"a6of25qi1hbd","address":"Ashford Court","lat":38.83331,"state":"DC","long":-76.989244},"type":"Feature","geometry":{"type":"Point","coordinates":[-76.989244,38.83331]}},{"properties":{"city":"","name":"H &amp; H Rock Incorporated","zip":"MD","amount":12600,"id":"a6of25ezfbe5","address":"Assorted locations","lat":38.823399,"state":"","long":-75.923759},"type":"Feature","geometry":{"type":"Point","coordinates":[-75.923759,38.823399]}},{"properties":{"city":"Washington","name":"Edigna's Tailoring","zip":20002,"amount":1000,"id":"a6of25hwpwpi","address":"Attn: Chung Cha Lee","lat":38.910873,"state":"DC","long":-76.985293},"type":"Feature","geometry":{"type":"Point","coordinates":[-76.985293,38.910873]}},{"properties":{"city":"Washington","name":"Scott's Beauty Supply","zip":20002,"amount":1000,"id":"a6of25eoqjal","address":"Attn: Moon L. Lim","lat":38.910873,"state":"DC","long":-76.985293},"type":"Feature","geometry":{"type":"Point","coordinates":[-76.985293,38.910873]}},{"properties":{"city":"Baltimore","name":"BAA Maryland","zip":21240,"amount":36960,"id":"a6of25le0zq2","address":"BWI Airport","lat":39.18776,"state":"MD","long":-76.677489},"type":"Feature","geometry":{"type":"Point","coordinates":[-76.677489,39.18776]}},{"properties":{"city":"Baltimore","name":"Fire &amp; Ice","zip":21240,"amount":4155,"id":"a6of25dmy2k0","address":"BWI Airport","lat":39.18776,"state":"MD","long":-76.677489},"type":"Feature","geometry":{"type":"Point","coordinates":[-76.677489,39.18776]}},{"properties":{"city":"Baltimore","name":"Fire &amp; Ice","zip":"","amount":300,"id":"a6of25g0zdra","address":"BWI Airport S3A:AB core","lat":39.290555,"state":"MD","long":-76.609604},"type":"Feature","geometry":{"type":"Point","coordinates":[-76.609604,39.290555]}},{"properties":{"city":"","name":"Rock Realty","zip":"","amount":2823,"id":"a6of25gzrzfh","address":"Balt/Howard Co, MD","lat":39.236149,"state":"","long":-76.941719},"type":"Feature","geometry":{"type":"Point","coordinates":[-76.941719,39.236149]}},{"properties":{"city":"Washington","name":"William C. Smith &amp; Co., Inc.","zip":20032,"amount":9866.5,"id":"a6of25fviv51","address":"Between Mississippi and Alabam","lat":38.83331,"state":"D.C.","long":-76.989244},"type":"Feature","geometry":{"type":"Point","coordinates":[-76.989244,38.83331]}},{"properties":{"city":"Woodridge","name":"Hazel Land Companies, Inc.","zip":"","amount":94326.5,"id":"a6of25myx7za","address":"Bobolink Dr.","lat":37.898284,"state":"VA","long":-78.436566},"type":"Feature","geometry":{"type":"Point","coordinates":[-78.436566,37.898284]}},{"properties":{"city":"Woodridge","name":"Hazel Land Companies, Inc.","zip":"","amount":11005,"id":"a6of25nc7869","address":"Bobolink Dr.","lat":37.898284,"state":"VA","long":-78.436566},"type":"Feature","geometry":{"type":"Point","coordinates":[-78.436566,37.898284]}},{"properties":{"city":"Burke","name":"JBG Rosenfeld","zip":22015,"amount":880,"id":"a6of25qso7yb","address":"Burke Centre Shopping Center","lat":38.793234,"state":"VA","long":-77.272279},"type":"Feature","geometry":{"type":"Point","coordinates":[-77.272279,38.793234]}},{"properties":{"city":"Potomac","name":"Lafayette Federal Credit Union","zip":20854,"amount":0,"id":"a6of25qjhmg5","address":"Cabin John Financial Serv.Cent","lat":39.017653,"state":"MD","long":-77.208337},"type":"Feature","geometry":{"type":"Point","coordinates":[-77.208337,39.017653]}},{"properties":{"city":"Prince Georges","name":"Street Sense","zip":"","amount":4960,"id":"a6of25lfrdh3","address":"Capital Beltway &amp;","lat":39.695699,"state":"MD","long":-78.853019},"type":"Feature","geometry":{"type":"Point","coordinates":[-78.853019,39.695699]}},{"properties":{"city":"Fredericksburg","name":"Rappaport Company","zip":22401,"amount":6301,"id":"a6of25i40q4y","address":"Central Park Town Center","lat":38.30089,"state":"VA","long":-77.459144},"type":"Feature","geometry":{"type":"Point","coordinates":[-77.459144,38.30089]}},{"properties":{"city":"Pasadena","name":"Koch Homes, Inc.","zip":21122,"amount":85,"id":"a6of25mwi8wl","address":"Cobblestone","lat":39.109661,"state":"MD","long":-76.573268},"type":"Feature","geometry":{"type":"Point","coordinates":[-76.573268,39.109661]}},{"properties":{"city":"Pasadena","name":"Koch Homes, Inc.","zip":21122,"amount":382,"id":"a6of25k0fi6s","address":"Cobblestone","lat":39.109661,"state":"MD","long":-76.573268},"type":"Feature","geometry":{"type":"Point","coordinates":[-76.573268,39.109661]}},{"properties":{"city":"Annapolis","name":"Koch Homes, Inc.","zip":21411,"amount":430.01,"id":"a6of25h0i3ib","address":"Colonial Manor","lat":39.03191,"state":"MD","long":-76.465353},"type":"Feature","geometry":{"type":"Point","coordinates":[-76.465353,39.03191]}},{"properties":{"city":"Hanover","name":"Great Foods, LLC","zip":21076,"amount":2116,"id":"a6of25qc80wy","address":"Concourse A","lat":39.15507,"state":"MD","long":-76.720465},"type":"Feature","geometry":{"type":"Point","coordinates":[-76.720465,39.15507]}},{"properties":{"city":"Hanover","name":"Airport 2000 Concessions, LLC","zip":21076,"amount":5970,"id":"a6of25e6cqfy","address":"Concourse D","lat":39.15507,"state":"MD","long":-76.720465},"type":"Feature","geometry":{"type":"Point","coordinates":[-76.720465,39.15507]}},{"properties":{"city":"Ellicoott City","name":"Dunteachin HOA","zip":21043,"amount":17730,"id":"a6of25rd2le1","address":"Corners of Kerger &amp; Briar Oak","lat":39.257011,"state":"MD","long":-76.791771},"type":"Feature","geometry":{"type":"Point","coordinates":[-76.791771,39.257011]}},{"properties":{"city":"Columbia","name":"Street Retail, Inc.","zip":21044,"amount":14301.1,"id":"a6of25ow24pf","address":"Development Management Group","lat":39.209161,"state":"MD","long":-76.867313},"type":"Feature","geometry":{"type":"Point","coordinates":[-76.867313,39.209161]}},{"properties":{"city":"Columbia","name":"Street Retail, Inc.","zip":21044,"amount":1219,"id":"a6of25m4297c","address":"Development Management Group","lat":39.209161,"state":"MD","long":-76.867313},"type":"Feature","geometry":{"type":"Point","coordinates":[-76.867313,39.209161]}},{"properties":{"city":"Laurel","name":"Pattison Sign Group","zip":11948,"amount":3978.5,"id":"a6of25efokm7","address":"Fort Meade - Laurel Rd.","lat":40.96604,"state":"MD","long":-72.550129},"type":"Feature","geometry":{"type":"Point","coordinates":[-72.550129,40.96604]}},{"properties":{"city":"Baltimore","name":"Harborview Contractors, Inc.","zip":21136,"amount":10991,"id":"a6of25nbvld8","address":"Franklin Fire Dept.","lat":39.464791,"state":"MD","long":-76.829198},"type":"Feature","geometry":{"type":"Point","coordinates":[-76.829198,39.464791]}},{"properties":{"city":"Frederick","name":"AAA Mid-Atlantic","zip":21702,"amount":785,"id":"a6of25d6pxjs","address":"Frederick Shopping Center","lat":39.499536,"state":"MD","long":-77.444274},"type":"Feature","geometry":{"type":"Point","coordinates":[-77.444274,39.499536]}},{"properties":{"city":"Washington","name":"Smithsonian Inst-Freer Gallery","zip":"20013-7012","amount":10984.33,"id":"a6of25kst6hu","address":"Freer Gallery of Art-","lat":38.887901,"state":"DC","long":-77.027267},"type":"Feature","geometry":{"type":"Point","coordinates":[-77.027267,38.887901]}},{"properties":{"city":"Arlington","name":"Transwestern Monument Randolph","zip":22206,"amount":16160.69,"id":"a6of25k66bjm","address":"Gary Brennan","lat":38.844128,"state":"VA","long":-77.076542},"type":"Feature","geometry":{"type":"Point","coordinates":[-77.076542,38.844128]}},{"properties":{"city":"Arlington","name":"Transwestern Monument Randolph","zip":22206,"amount":114916,"id":"a6of25fsyqh8","address":"Gary Brennan","lat":38.844128,"state":"VA","long":-77.076542},"type":"Feature","geometry":{"type":"Point","coordinates":[-77.076542,38.844128]}},{"properties":{"city":"Gaithersburg","name":"Mitchell &amp; Company","zip":"20878-5727","amount":2000,"id":"a6of25jvkinm","address":"Graphic Design Inc","lat":39.110688,"state":"MD","long":-77.273153},"type":"Feature","geometry":{"type":"Point","coordinates":[-77.273153,39.110688]}},{"properties":{"city":"Elkridge","name":"NVR, Inc.","zip":21075,"amount":0,"id":"a6of25mmb64u","address":"Holly Springs Ln &amp;","lat":39.20608,"state":"MD","long":-76.728359},"type":"Feature","geometry":{"type":"Point","coordinates":[-76.728359,39.20608]}},{"properties":{"city":"Linthicum Heights","name":"REJ &amp; Associates","zip":21090,"amount":35374.17,"id":"a6of25q9rscl","address":"Hourly, Daily &amp; Long","lat":39.2015,"state":"MD","long":-76.659988},"type":"Feature","geometry":{"type":"Point","coordinates":[-76.659988,39.2015]}},{"properties":{"city":"Woodbridge","name":"The Mills Corporation","zip":22192,"amount":46973,"id":"a6of25dvg3yj","address":"IKEA","lat":38.674916,"state":"VA","long":-77.307612},"type":"Feature","geometry":{"type":"Point","coordinates":[-77.307612,38.674916]}},{"properties":{"city":"Fort Myers","name":"Aeroterm US","zip":33901,"amount":850,"id":"a6of25i0ot2v","address":"International Airport","lat":26.640845,"state":"FL","long":-81.868194},"type":"Feature","geometry":{"type":"Point","coordinates":[-81.868194,26.640845]}},{"properties":{"city":"Fort Myers","name":"Aeroterm US","zip":33907,"amount":285,"id":"a6of25mm5dnp","address":"International Airport","lat":26.56406,"state":"FL","long":-81.868059},"type":"Feature","geometry":{"type":"Point","coordinates":[-81.868059,26.56406]}},{"properties":{"city":"Kensington","name":"Lafayette Federal Credit Union","zip":20895,"amount":1390,"id":"a6of25cflequ","address":"Kensington Financial Serv.Cent","lat":39.020665,"state":"MD","long":-77.076934},"type":"Feature","geometry":{"type":"Point","coordinates":[-77.076934,39.020665]}},{"properties":{"city":"Kensington","name":"Lafayette Federal Credit Union","zip":20895,"amount":3710,"id":"a6of25phwc1h","address":"Kensington Financial Serv.Cent","lat":39.020665,"state":"MD","long":-77.076934},"type":"Feature","geometry":{"type":"Point","coordinates":[-77.076934,39.020665]}},{"properties":{"city":"Kensington","name":"Lafayette Federal Credit Union","zip":20895,"amount":483.5,"id":"a6of25pw4f1w","address":"Kensington Financial Serv.Cent","lat":39.020665,"state":"MD","long":-77.076934},"type":"Feature","geometry":{"type":"Point","coordinates":[-77.076934,39.020665]}},{"properties":{"city":"Alpharetta","name":"UPS/Atlanta","zip":30328,"amount":14731.5,"id":"a6of25iu3sx5","address":"Lance Hale","lat":33.92463,"state":"GA","long":-84.379089},"type":"Feature","geometry":{"type":"Point","coordinates":[-84.379089,33.92463]}},{"properties":{"city":"Silfer Spring","name":"Modern Nails","zip":20904,"amount":3363.4,"id":"a6of25lgd95v","address":"Lee, Tran, Nguyen","lat":39.069889,"state":"MD","long":-76.997527},"type":"Feature","geometry":{"type":"Point","coordinates":[-76.997527,39.069889]}},{"properties":{"city":"District Heights","name":"Rappaport Company","zip":20747,"amount":1500,"id":"a6of25oixxwf","address":"MD Rt 4. &amp; MD Rt 458","lat":38.85314,"state":"MD","long":-76.909949},"type":"Feature","geometry":{"type":"Point","coordinates":[-76.909949,38.85314]}},{"properties":{"city":"Chesapeake Beach","name":"Rod N Reel Marina West, LLC","zip":20732,"amount":30544,"id":"a6of25c7xm63","address":"Marina West","lat":38.673359,"state":"MD","long":-76.533632},"type":"Feature","geometry":{"type":"Point","coordinates":[-76.533632,38.673359]}},{"properties":{"city":"Chesapeake Beach","name":"Rod N Reel Marina West, LLC","zip":20732,"amount":8060,"id":"a6of25f6173m","address":"Marina West","lat":38.673359,"state":"MD","long":-76.533632},"type":"Feature","geometry":{"type":"Point","coordinates":[-76.533632,38.673359]}},{"properties":{"city":"Chesapeake Beach","name":"Rod N Reel Marina West, LLC","zip":20732,"amount":2920,"id":"a6of25c5yd8p","address":"Marina West","lat":38.673359,"state":"MD","long":-76.533632},"type":"Feature","geometry":{"type":"Point","coordinates":[-76.533632,38.673359]}},{"properties":{"city":"Chesapeake Beach","name":"Rod &amp; Reel Marina West, LLC","zip":20732,"amount":10955,"id":"a6of25k8s28u","address":"Marina West","lat":38.673359,"state":"MD","long":-76.533632},"type":"Feature","geometry":{"type":"Point","coordinates":[-76.533632,38.673359]}},{"properties":{"city":"Elkridge","name":"H &amp; H Rock Incorporated","zip":21075,"amount":312,"id":"a6of25mrmyy0","address":"Meadowridge Center","lat":39.20608,"state":"MD","long":-76.728359},"type":"Feature","geometry":{"type":"Point","coordinates":[-76.728359,39.20608]}},{"properties":{"city":"Elkridge","name":"H &amp; H Rock Incorporated","zip":21075,"amount":786,"id":"a6of25pyo5ge","address":"Meadowridge Center","lat":39.20608,"state":"MD","long":-76.728359},"type":"Feature","geometry":{"type":"Point","coordinates":[-76.728359,39.20608]}},{"properties":{"city":"Elkridge","name":"Rock Realty, Inc.","zip":21075,"amount":4338,"id":"a6of25ciuypz","address":"Oak Grove Way,near Holly Sprin","lat":39.19542,"state":"MD","long":-76.764359},"type":"Feature","geometry":{"type":"Point","coordinates":[-76.764359,39.19542]}},{"properties":{"city":"Elkridge","name":"H &amp; H Rock Incorporated","zip":21075,"amount":1332,"id":"a6of25ih48dq","address":"Oak Grove Way,near Holly Sprin","lat":39.19542,"state":"MD","long":-76.764359},"type":"Feature","geometry":{"type":"Point","coordinates":[-76.764359,39.19542]}},{"properties":{"city":"Elkridge","name":"Rock Realty","zip":21075,"amount":1204,"id":"a6of25q8z6v4","address":"Oak Grove Way,near Holly Sprin","lat":39.19542,"state":"MD","long":-76.764359},"type":"Feature","geometry":{"type":"Point","coordinates":[-76.764359,39.19542]}},{"properties":{"city":"Elkridge","name":"Rock Realty","zip":21075,"amount":1369,"id":"a6of25desjpf","address":"Oak Grove Way,near Holly Sprin","lat":39.19542,"state":"MD","long":-76.764359},"type":"Feature","geometry":{"type":"Point","coordinates":[-76.764359,39.19542]}},{"properties":{"city":"Elkridge","name":"H &amp; H Rock Incorporated","zip":21075,"amount":292,"id":"a6of25k7ddwj","address":"Oakgrove &amp; Holly Spring","lat":39.20608,"state":"MD","long":-76.728359},"type":"Feature","geometry":{"type":"Point","coordinates":[-76.728359,39.20608]}},{"properties":{"city":"Baltimore","name":"Rock Realty","zip":21117,"amount":2202,"id":"a6of25dhx9v0","address":"Olde Court Rd.","lat":39.413494,"state":"MD","long":-76.775946},"type":"Feature","geometry":{"type":"Point","coordinates":[-76.775946,39.413494]}},{"properties":{"city":"Pasadena","name":"The Container Store","zip":"","amount":16077,"id":"a6of25leuqiz","address":"One East Union","lat":34.147235,"state":"CA","long":-118.144264},"type":"Feature","geometry":{"type":"Point","coordinates":[-118.144264,34.147235]}},{"properties":{"city":"Orlando","name":"Aeroterm US","zip":32827,"amount":476,"id":"a6of25lrimqq","address":"Orlando International Airport","lat":28.441759,"state":"FL","long":-81.31147},"type":"Feature","geometry":{"type":"Point","coordinates":[-81.31147,28.441759]}},{"properties":{"city":"Minneapolis","name":"Best Buy  Purchasing Llc","zip":"55440-9331","amount":28568.24,"id":"a6of25otovoa","address":"P.O. Box 9312","lat":44.979031,"state":"MN","long":-93.264932},"type":"Feature","geometry":{"type":"Point","coordinates":[-93.264932,44.979031]}},{"properties":{"city":"Chesapeake Beach","name":"Chesapeake Amusements","zip":20732,"amount":44419.36,"id":"a6of25c4xlg3","address":"PO Box 99","lat":38.673359,"state":"MD","long":-76.533632},"type":"Feature","geometry":{"type":"Point","coordinates":[-76.533632,38.673359]}},{"properties":{"city":"Chesapeake Beach","name":"Chesapeake Amusements","zip":20732,"amount":16369.64,"id":"a6of25g7zm2c","address":"PO Box 99","lat":38.673359,"state":"MD","long":-76.533632},"type":"Feature","geometry":{"type":"Point","coordinates":[-76.533632,38.673359]}},{"properties":{"city":"Baltimore","name":"Rock Realty","zip":21117,"amount":5008,"id":"a6of25kd2u3a","address":"Paladia Way off Olde Court Rd.","lat":39.413494,"state":"MD","long":-76.775946},"type":"Feature","geometry":{"type":"Point","coordinates":[-76.775946,39.413494]}},{"properties":{"city":"Fairfax","name":"3D Contracting","zip":22031,"amount":330,"id":"a6of25mb6a3s","address":"Pan Am S/C","lat":38.859237,"state":"VA","long":-77.263781},"type":"Feature","geometry":{"type":"Point","coordinates":[-77.263781,38.859237]}},{"properties":{"city":"Baltimore","name":"Redhead / The Stern Agency","zip":21202,"amount":512,"id":"a6of25pa6stg","address":"Parcel P","lat":39.225305,"state":"MD","long":-76.590804},"type":"Feature","geometry":{"type":"Point","coordinates":[-76.590804,39.225305]}},{"properties":{"city":"Baltimore","name":"Redhead / The Stern Agency","zip":21202,"amount":1008,"id":"a6of25oyzvwm","address":"Parcel P","lat":39.225305,"state":"MD","long":-76.590804},"type":"Feature","geometry":{"type":"Point","coordinates":[-76.590804,39.225305]}},{"properties":{"city":"Baltimore","name":"Redhead / The Stern Agency","zip":21202,"amount":12784,"id":"a6of25jz5m6e","address":"Parcel P","lat":39.225305,"state":"MD","long":-76.590804},"type":"Feature","geometry":{"type":"Point","coordinates":[-76.590804,39.225305]}},{"properties":{"city":"Washington","name":"Lafayette Federal Credit Union","zip":20012,"amount":390,"id":"a6of25mm6nnc","address":"Park Triangle","lat":38.97798,"state":"DC","long":-77.028729},"type":"Feature","geometry":{"type":"Point","coordinates":[-77.028729,38.97798]}},{"properties":{"city":"Washington","name":"Lafayette Federal Credit Union","zip":20012,"amount":779,"id":"a6of25guqbgt","address":"Park Triangle","lat":38.97798,"state":"DC","long":-77.028729},"type":"Feature","geometry":{"type":"Point","coordinates":[-77.028729,38.97798]}},{"properties":{"city":"Washington","name":"William C. Smith &amp; Co., Inc.","zip":20032,"amount":4741,"id":"a6of25ft0nii","address":"Park Vista","lat":38.9313,"state":"DC","long":-76.961909},"type":"Feature","geometry":{"type":"Point","coordinates":[-76.961909,38.9313]}},{"properties":{"city":"Washington","name":"William C. Smith &amp; Co., Inc.","zip":20032,"amount":3837,"id":"a6of25d0cftk","address":"Park Vista","lat":38.9313,"state":"DC","long":-76.961909},"type":"Feature","geometry":{"type":"Point","coordinates":[-76.961909,38.9313]}},{"properties":{"city":"Arlington","name":"DESI Living Innovations","zip":22202,"amount":2852,"id":"a6of25ekrymv","address":"Pentagon Row","lat":38.855595,"state":"VA","long":-77.060449},"type":"Feature","geometry":{"type":"Point","coordinates":[-77.060449,38.855595]}},{"properties":{"city":"Arlington","name":"DESI Living Innovations","zip":22202,"amount":17550.23,"id":"a6of25lm26vw","address":"Pentagon Row","lat":38.855595,"state":"VA","long":-77.060449},"type":"Feature","geometry":{"type":"Point","coordinates":[-77.060449,38.855595]}},{"properties":{"city":"Baltimore","name":"Colliers Pinkard","zip":"","amount":3325,"id":"a6of25oxvaur","address":"Perring Pkwy &amp; Joppa Rd","lat":39.37071,"state":"MD","long":-76.571219},"type":"Feature","geometry":{"type":"Point","coordinates":[-76.571219,39.37071]}},{"properties":{"city":"Philadelphia","name":"Aeroterm US","zip":19153,"amount":15942.02,"id":"a6of25j17j5k","address":"Philadelphia Int'l Airport","lat":39.909085,"state":"PA","long":-75.232754},"type":"Feature","geometry":{"type":"Point","coordinates":[-75.232754,39.909085]}},{"properties":{"city":"Philadelphia","name":"Aeroterm US","zip":"","amount":3024,"id":"a6of25n244r8","address":"Philadelphia Intl. Airport","lat":39.95227,"state":"PA","long":-75.162369},"type":"Feature","geometry":{"type":"Point","coordinates":[-75.162369,39.95227]}},{"properties":{"city":"Mc Lean","name":"PriceWaterhouseCooper","zip":22102,"amount":124852.67,"id":"a6of25emfztu","address":"PwC/Tysons Corner","lat":38.919268,"state":"VA","long":-77.220731},"type":"Feature","geometry":{"type":"Point","coordinates":[-77.220731,38.919268]}},{"properties":{"city":"Mc Lean","name":"PriceWaterhouseCooper","zip":22102,"amount":128637.33,"id":"a6of25dojx57","address":"PwC/Tysons Corner","lat":38.919268,"state":"VA","long":-77.220731},"type":"Feature","geometry":{"type":"Point","coordinates":[-77.220731,38.919268]}},{"properties":{"city":"Baltimore","name":"Great Foods BWI, LLC","zip":21240,"amount":9809,"id":"a6of25rrjodp","address":"Quiznos Sub","lat":39.18776,"state":"MD","long":-76.677489},"type":"Feature","geometry":{"type":"Point","coordinates":[-76.677489,39.18776]}},{"properties":{"city":"Arlington","name":"Transwestern Monument Randolph","zip":22206,"amount":2852,"id":"a6of25plfowg","address":"Randolph Square","lat":38.844128,"state":"VA","long":-77.076542},"type":"Feature","geometry":{"type":"Point","coordinates":[-77.076542,38.844128]}},{"properties":{"city":"Arlington","name":"Transwestern Monument Realty","zip":22206,"amount":1000,"id":"a6of25pkszhy","address":"Randolph Square","lat":38.844128,"state":"VA","long":-77.076542},"type":"Feature","geometry":{"type":"Point","coordinates":[-77.076542,38.844128]}},{"properties":{"city":"Arlington","name":"Transwestern Monument Randolph","zip":22206,"amount":707,"id":"a6of25nbc22y","address":"Randolph Square","lat":38.844128,"state":"VA","long":-77.076542},"type":"Feature","geometry":{"type":"Point","coordinates":[-77.076542,38.844128]}},{"properties":{"city":"Woodbridge","name":"Hazel Land Companies, Inc.","zip":22191,"amount":4165,"id":"a6of25deqe5x","address":"Riverside Station","lat":38.660595,"state":"VA","long":-77.247875},"type":"Feature","geometry":{"type":"Point","coordinates":[-77.247875,38.660595]}},{"properties":{"city":"Baltimore","name":"Yerman Witman Gaines &amp; Garceau","zip":21117,"amount":426,"id":"a6of25i9df58","address":"Rock Realty - Greenspring Wood","lat":39.420789,"state":"MD","long":-76.784572},"type":"Feature","geometry":{"type":"Point","coordinates":[-76.784572,39.420789]}},{"properties":{"city":"Baltimore","name":"Yerman Berman Witman &amp; Gaines","zip":21117,"amount":2296,"id":"a6of25cv0km5","address":"Rock Realty - Greenspring Wood","lat":39.420789,"state":"MD","long":-76.784572},"type":"Feature","geometry":{"type":"Point","coordinates":[-76.784572,39.420789]}},{"properties":{"city":"Chesapeake Beach","name":"Chesapeake Amusements","zip":20732,"amount":28478,"id":"a6of25e29j06","address":"Route 261 &amp; Mears Ave.","lat":38.68978,"state":"MD","long":-76.536029},"type":"Feature","geometry":{"type":"Point","coordinates":[-76.536029,38.68978]}},{"properties":{"city":"Chesapeake Beach","name":"Chesapeake Amusements","zip":20732,"amount":3604,"id":"a6of25mkrgth","address":"Route 261 &amp; Mears Ave.","lat":38.68978,"state":"MD","long":-76.536029},"type":"Feature","geometry":{"type":"Point","coordinates":[-76.536029,38.68978]}},{"properties":{"city":"Chesapeake Beach","name":"Chesapeake Amusements","zip":20732,"amount":0,"id":"a6of25p0wehl","address":"Route 261 &amp; Mears Ave.","lat":38.68978,"state":"MD","long":-76.536029},"type":"Feature","geometry":{"type":"Point","coordinates":[-76.536029,38.68978]}},{"properties":{"city":"Chesapeake Beach","name":"Chesapeake Amusements","zip":20732,"amount":65731,"id":"a6of25dsrcks","address":"Route 261 and Mears Ave.","lat":38.68978,"state":"MD","long":-76.536029},"type":"Feature","geometry":{"type":"Point","coordinates":[-76.536029,38.68978]}},{"properties":{"city":"Hollywood","name":"Aeroterm US","zip":20636,"amount":11874.2,"id":"a6of25k00bj6","address":"South West 34th St.","lat":25.980505,"state":"FL","long":-80.196789},"type":"Feature","geometry":{"type":"Point","coordinates":[-80.196789,25.980505]}},{"properties":{"city":"Hollywood","name":"Aeroterm US","zip":20636,"amount":9012,"id":"a6of25e0zx0f","address":"South West 34th St.","lat":25.980505,"state":"FL","long":-80.196789},"type":"Feature","geometry":{"type":"Point","coordinates":[-80.196789,25.980505]}},{"properties":{"city":"Dulles","name":"Hitt Contracting","zip":20166,"amount":17891,"id":"a6of25pwyw96","address":"Sterling Park Technology Cente","lat":38.989727,"state":"VA","long":-77.428699},"type":"Feature","geometry":{"type":"Point","coordinates":[-77.428699,38.989727]}},{"properties":{"city":"Dulles","name":"Hitt Contracting","zip":20166,"amount":546.5,"id":"a6of25dqeazl","address":"Sterling Park Technology Cente","lat":38.989727,"state":"VA","long":-77.428699},"type":"Feature","geometry":{"type":"Point","coordinates":[-77.428699,38.989727]}},{"properties":{"city":"Washington","name":"Tenleytown Hardware, LLC (ACE)","zip":20016,"amount":663,"id":"a6of25l1qel1","address":"Suite C","lat":38.9398,"state":"DC","long":-77.088479},"type":"Feature","geometry":{"type":"Point","coordinates":[-77.088479,38.9398]}},{"properties":{"city":"Ellicott City","name":"Messenger Corporation","zip":21041,"amount":0,"id":"a6of25lcbdim","address":"Suites I &amp; J","lat":39.268768,"state":"MD","long":-76.799469},"type":"Feature","geometry":{"type":"Point","coordinates":[-76.799469,39.268768]}},{"properties":{"city":"Ellicott City","name":"Messenger Corporation","zip":21041,"amount":8366.5,"id":"a6of25exqi7p","address":"Suites I &amp; J","lat":39.268768,"state":"MD","long":-76.799469},"type":"Feature","geometry":{"type":"Point","coordinates":[-76.799469,39.268768]}},{"properties":{"city":"Arlington","name":"M R Wilson, LLC","zip":22201,"amount":37534.45,"id":"a6of25iyipko","address":"The Hawthorn","lat":38.89051,"state":"VA","long":-77.086294},"type":"Feature","geometry":{"type":"Point","coordinates":[-77.086294,38.89051]}},{"properties":{"city":"Arlington","name":"Monument Realty","zip":22201,"amount":5210,"id":"a6of25jhyuvk","address":"The Hawthorn","lat":38.89051,"state":"VA","long":-77.086294},"type":"Feature","geometry":{"type":"Point","coordinates":[-77.086294,38.89051]}},{"properties":{"city":"Arlington","name":"McShay Homes","zip":22201,"amount":1092,"id":"a6of25epqtng","address":"The Residences at Lyon Hil","lat":38.89051,"state":"VA","long":-77.086294},"type":"Feature","geometry":{"type":"Point","coordinates":[-77.086294,38.89051]}},{"properties":{"city":"Tysons","name":"Fire &amp; Ice","zip":21093,"amount":5268,"id":"a6of25jvy2fk","address":"Tysons Corner Mall","lat":39.437886,"state":"VA","long":-76.633977},"type":"Feature","geometry":{"type":"Point","coordinates":[-76.633977,39.437886]}},{"properties":{"city":"Millersville","name":"Carpet Creations, Inc.","zip":21108,"amount":4890,"id":"a6of25d1z11b","address":"Veteran's Hwy","lat":39.104808,"state":"MD","long":-76.627852},"type":"Feature","geometry":{"type":"Point","coordinates":[-76.627852,39.104808]}},{"properties":{"city":"Baltimore","name":"Great Foods, LLC","zip":21240,"amount":9071,"id":"a6of25n45feh","address":"Villa Pronto","lat":39.18776,"state":"MD","long":-76.677489},"type":"Feature","geometry":{"type":"Point","coordinates":[-76.677489,39.18776]}},{"properties":{"city":"Arlington","name":"Trammel Crow Co.","zip":"","amount":438.75,"id":"a6of25bxrp68","address":"Village @ Shirlington","lat":38.849617,"state":"VA","long":-77.097458},"type":"Feature","geometry":{"type":"Point","coordinates":[-77.097458,38.849617]}},{"properties":{"city":"Glen Burnie","name":"Cookies-N-Cream","zip":21060,"amount":2425,"id":"a6of25nqcifw","address":"Wal-Mart Shopping Ctr","lat":39.16504,"state":"MD","long":-76.614709},"type":"Feature","geometry":{"type":"Point","coordinates":[-76.614709,39.16504]}},{"properties":{"city":"Woodstock","name":"Princess Dry Cleaners","zip":21163,"amount":3515.25,"id":"a6of25iqpt96","address":"Waverly Park","lat":39.32526,"state":"MD","long":-76.881801},"type":"Feature","geometry":{"type":"Point","coordinates":[-76.881801,39.32526]}},{"properties":{"city":"Woodstock","name":"Northwest Savings Bank","zip":21163,"amount":13204,"id":"a6of25frpqmg","address":"Waverly Park","lat":39.32526,"state":"MD","long":-76.881801},"type":"Feature","geometry":{"type":"Point","coordinates":[-76.881801,39.32526]}},{"properties":{"city":"Woodstock","name":"Waverly Real Estate Group","zip":21163,"amount":10607.92,"id":"a6of25nbbz93","address":"Waverly Park","lat":39.32526,"state":"MD","long":-76.881801},"type":"Feature","geometry":{"type":"Point","coordinates":[-76.881801,39.32526]}},{"properties":{"city":"Woodstock","name":"Northwest Savings Bank","zip":21163,"amount":46015.2,"id":"a6of25cgmuvm","address":"Waverly Park","lat":39.32526,"state":"MD","long":-76.881801},"type":"Feature","geometry":{"type":"Point","coordinates":[-76.881801,39.32526]}},{"properties":{"city":"Woodstock","name":"Waverly Real Estate Group","zip":21163,"amount":3831.26,"id":"a6of25hswgmp","address":"Waverly Park","lat":39.32526,"state":"MD","long":-76.881801},"type":"Feature","geometry":{"type":"Point","coordinates":[-76.881801,39.32526]}},{"properties":{"city":"Woodstock","name":"Waverly Real Estate Group","zip":21163,"amount":0,"id":"a6of25dqxc3z","address":"Waverly Park","lat":39.32526,"state":"MD","long":-76.881801},"type":"Feature","geometry":{"type":"Point","coordinates":[-76.881801,39.32526]}},{"properties":{"city":"Woodstock","name":"Waverly Real Estate Group","zip":21163,"amount":2146.25,"id":"a6of25lptl7s","address":"Waverly Park/Silo Building","lat":39.325699,"state":"MD","long":-76.868959},"type":"Feature","geometry":{"type":"Point","coordinates":[-76.868959,39.325699]}},{"properties":{"city":"Rockville","name":"Gymboree Play &amp; Music","zip":"","amount":0,"id":"a6of25p66kyi","address":"White Flint Plaza","lat":39.068148,"state":"MD","long":-77.165026},"type":"Feature","geometry":{"type":"Point","coordinates":[-77.165026,39.068148]}},{"properties":{"city":"Rockville","name":"Court Square","zip":"","amount":13140,"id":"a6of25dfy5ow","address":"White Flint Plaza","lat":39.068148,"state":"MD","long":-77.165026},"type":"Feature","geometry":{"type":"Point","coordinates":[-77.165026,39.068148]}},{"properties":{"city":"Rockville","name":"Gymboree Play &amp; Music","zip":"","amount":0,"id":"a6of25laqacf","address":"White Flint Plaza","lat":39.068148,"state":"MD","long":-77.165026},"type":"Feature","geometry":{"type":"Point","coordinates":[-77.165026,39.068148]}},{"properties":{"city":"White Marsh","name":"H &amp; H Rock Incorporated","zip":21162,"amount":1227,"id":"a6of25s1km7w","address":"White Marsh Business Park","lat":39.39234,"state":"MD","long":-76.411819},"type":"Feature","geometry":{"type":"Point","coordinates":[-76.411819,39.39234]}},{"properties":{"city":"White Marsh","name":"H &amp; H Rock Incorporated","zip":21162,"amount":527,"id":"a6of25i88thu","address":"White Marsh Business Park","lat":39.39234,"state":"MD","long":-76.411819},"type":"Feature","geometry":{"type":"Point","coordinates":[-76.411819,39.39234]}},{"properties":{"city":"White Marsh","name":"H &amp; H Rock Incorporated","zip":21162,"amount":32264.5,"id":"a6of25q3za6y","address":"White Marsh Business Park","lat":39.39234,"state":"MD","long":-76.411819},"type":"Feature","geometry":{"type":"Point","coordinates":[-76.411819,39.39234]}},{"properties":{"city":"Herndon","name":"Rappaport Company","zip":20170,"amount":108808.72,"id":"a6of25je8veu","address":"Worldgate","lat":38.954958,"state":"VA","long":-77.394197},"type":"Feature","geometry":{"type":"Point","coordinates":[-77.394197,38.954958]}},{"properties":{"city":"Washington","name":"14th &amp; Park Road, LLC","zip":20010,"amount":0,"id":"a6of25nf5yn4","address":"dba OXXO Care Cleaners","lat":38.930562,"state":"DC","long":-77.040059},"type":"Feature","geometry":{"type":"Point","coordinates":[-77.040059,38.930562]}},{"properties":{"city":"Washington","name":"Vermont Triangle, LLC","zip":20003,"amount":6733,"id":"a6of25il7shl","address":"dba OXXO CareCleaners","lat":38.87647,"state":"DC","long":-76.993199},"type":"Feature","geometry":{"type":"Point","coordinates":[-76.993199,38.87647]}}],"is_temporal":false,"author":{"url":"","metadata":"","contact_name":"","contact_address":"","source":"","contact_phone":""},"source":"","pagination":{"sort":null,"start":0,"total":528,"limit":1000000},"state":"complete","tags":"","published":"2014-08-11T04:22:51-04:00","id":4515}