{"type":"FeatureCollection","data_type":"Dataset","url_type":null,"permissions":[{"permissions":{"download":true,"view":true},"group_id":"everyone"}],"classification":null,"title":"Georgia Dept of Corrections, Georgia State Adult Correctional Institutions, Georgia, 3.2008 ","count":37,"stream_id":457,"contributor":{"url":"http://geocommons.com/users/2","name":"data"},"data_attributes":null,"calculation_params":null,"icon_link":null,"link":"http://geocommons.com/overlays/457.json","extent":[-85.3119,30.8553,-81.187,34.8094],"geometry_types":["point"],"unique_name":null,"name":"Georgia Dept of Corrections, Georgia State Adult Correctional Institutions, Georgia, 3.2008 ","feature_count":37,"description":"This dataset displays the locations of all the Adult Correctional Facilities in the state of Georgia as of 3.2008. This includes both female and male institutions.\n","next_feature":null,"is_raster":false,"short_classification":"Y","stats":{"lon":{"max":-81.186953,"mean":-83.2829215405405,"variance":0.813557986128144,"stdev":0.901974493058503,"min":-85.311873,"median":-83.221105},"lat":{"max":34.809359,"mean":32.5445772972973,"variance":1.00482543995805,"stdev":1.00240981637155,"min":30.855326,"median":32.311456}},"features":[{"properties":{"city":"ALTO","lon":-83.595767,"zip":"30510-0709","facility":"Arrendale State Prison","id":"a62u02n1if3f","address":"POST OFFICE BOX 709","lat":34.451202,"state":"GA"},"type":"Feature","geometry":{"type":"Point","coordinates":[-83.595767,34.451202]}},{"properties":{"city":"GROVETOWN","lon":-82.187793,"zip":30813,"facility":"Augusta State Medical Prison","id":"a62u02vnscgj","address":"3001 GORDON HIGHWAY","lat":33.432066,"state":"GA"},"type":"Feature","geometry":{"type":"Point","coordinates":[-82.187793,33.432066]}},{"properties":{"city":"HARDWICK","lon":-83.221105,"zip":31034,"facility":"BALDWIN STATE PRISON","id":"a62u02n8eiwo","address":"POST OFFICE BOX 218","lat":33.025314,"state":"GA"},"type":"Feature","geometry":{"type":"Point","coordinates":[-83.221105,33.025314]}},{"properties":{"city":"HARDWICK","lon":-83.2198,"zip":31034,"facility":"BOSTICK STATE PRISON","id":"a62u030w18d8","address":"P.O. BOX 1700","lat":33.042047,"state":"GA"},"type":"Feature","geometry":{"type":"Point","coordinates":[-83.2198,33.042047]}},{"properties":{"city":"MORGAN","lon":-84.61688,"zip":39866,"facility":"CALHOUN STATE PRISON","id":"a62u02scsfdl","address":"HIGHWAY 45","lat":31.53967,"state":"GA"},"type":"Feature","geometry":{"type":"Point","coordinates":[-84.61688,31.53967]}},{"properties":{"city":"MACON","lon":-83.751613,"zip":31208,"facility":"CENTRAL STATE PRISON","id":"a62u02ssuwjh","address":"4600 FULTON MILL RD","lat":32.777236,"state":"GA"},"type":"Feature","geometry":{"type":"Point","coordinates":[-83.751613,32.777236]}},{"properties":{"city":"BUFORD","lon":-83.911212,"zip":30519,"facility":"CLYDE N. PHILLIPS STATE PRISON","id":"a62u02n1qpp5","address":"2989 W. ROCK QUARRY ROAD","lat":34.094048,"state":"GA"},"type":"Feature","geometry":{"type":"Point","coordinates":[-83.911212,34.094048]}},{"properties":{"city":"GARDEN CITY","lon":-81.186953,"zip":"31418-7150","facility":"COASTAL STATE PRISON","id":"a62u03333snz","address":"POST OFFICE BOX 7150","lat":32.13757,"state":"GA"},"type":"Feature","geometry":{"type":"Point","coordinates":[-81.186953,32.13757]}},{"properties":{"city":"CHESTER","lon":-83.167354,"zip":31012,"facility":"DODGE STATE PRISON","id":"a62u02wlw556","address":"POST OFFICE BOX 276","lat":32.394067,"state":"GA"},"type":"Feature","geometry":{"type":"Point","coordinates":[-83.167354,32.394067]}},{"properties":{"city":"UNADILLA","lon":-83.715836,"zip":31091,"facility":"DOOLY STATE PRISON","id":"a62u02uf74by","address":"P. O. BOX 750","lat":32.280918,"state":"GA"},"type":"Feature","geometry":{"type":"Point","coordinates":[-83.715836,32.280918]}},{"properties":{"city":"TRION","lon":-85.311873,"zip":30753,"facility":"FOREST HAYS, JR. STATE PRISON","id":"a62u02zjtxwt","address":"POST OFFICE BOX 668","lat":34.507904,"state":"GA"},"type":"Feature","geometry":{"type":"Point","coordinates":[-85.311873,34.507904]}},{"properties":{"city":"HARDWICK","lon":-83.22277,"zip":31034,"facility":"FRANK C. SCOTT, JR STATE PRISON","id":"a62u02ujpl7k","address":"POST OFFICE BOX 417","lat":33.044276,"state":"GA"},"type":"Feature","geometry":{"type":"Point","coordinates":[-83.22277,33.044276]}},{"properties":{"city":"JACKSON","lon":-84.061076,"zip":30233,"facility":"GA DIAG &amp; CLASS PRIS-PERM","id":"a62u02zpsfoh","address":"POST OFFICE BOX 3877","lat":33.220908,"state":"GA"},"type":"Feature","geometry":{"type":"Point","coordinates":[-84.061076,33.220908]}},{"properties":{"city":"JACKSON","lon":-84.061076,"zip":30233,"facility":"GEORGIA DIAGNOSTIC AND CLASSIFICATION PRISON","id":"a62u02rnbv8r","address":"POST OFFICE BOX 3877","lat":33.220908,"state":"GA"},"type":"Feature","geometry":{"type":"Point","coordinates":[-84.061076,33.220908]}},{"properties":{"city":"REIDSVILLE","lon":-82.164422,"zip":30453,"facility":"GEORGIA STATE PRISON","id":"a62u02q5lbmc","address":"HCO1","lat":32.003869,"state":"GA"},"type":"Feature","geometry":{"type":"Point","coordinates":[-82.164422,32.003869]}},{"properties":{"city":"SPARTA","lon":-82.950857,"zip":31087,"facility":"HANCOCK STATE PRISON","id":"a62u02vwrydk","address":"POST OFFICE BOX 339","lat":33.245344,"state":"GA"},"type":"Feature","geometry":{"type":"Point","coordinates":[-82.950857,33.245344]}},{"properties":{"city":"HOMERVILLE","lon":-82.773325,"zip":31634,"facility":"HOMERVILLE STATE PRISON","id":"a62u02y0cof7","address":"POST OFFICE BOX 337","lat":31.02045,"state":"GA"},"type":"Feature","geometry":{"type":"Point","coordinates":[-82.773325,31.02045]}},{"properties":{"city":"WRIGHTSVILLE","lon":-82.70234,"zip":31096,"facility":"JOHNSON STATE PRISON","id":"a62u03294iz9","address":"POST OFFICE BOX 344","lat":32.743356,"state":"GA"},"type":"Feature","geometry":{"type":"Point","coordinates":[-82.70234,32.743356]}},{"properties":{"city":"PELHAM","lon":-84.14496,"zip":31779,"facility":"Jimmy Autry State Prison","id":"a62u02qxnewy","address":"POST OFFICE BOX 648","lat":31.189376,"state":"GA"},"type":"Feature","geometry":{"type":"Point","coordinates":[-84.14496,31.189376]}},{"properties":{"city":"LEESBURG","lon":-84.19354,"zip":31763,"facility":"LEE STATE PRISON","id":"a62u02okvd2d","address":"153 PINEWOOD ROAD","lat":31.763934,"state":"GA"},"type":"Feature","geometry":{"type":"Point","coordinates":[-84.19354,31.763934]}},{"properties":{"city":"VALDOSTA","lon":-83.345418,"zip":31603,"facility":"LOWNDES STATE PRISON","id":"a62u02v4qzpu","address":"3259 VALTECH RD","lat":30.859895,"state":"GA"},"type":"Feature","geometry":{"type":"Point","coordinates":[-83.345418,30.859895]}},{"properties":{"city":"OGLETHORPE","lon":-84.091043,"zip":31068,"facility":"MACON STATE PRISON","id":"a62u02n6ao96","address":"POST OFFICE BOX 426","lat":32.259336,"state":"GA"},"type":"Feature","geometry":{"type":"Point","coordinates":[-84.091043,32.259336]}},{"properties":{"city":"HARDWICK","lon":-83.217813,"zip":31034,"facility":"MEN'S STATE PRISON","id":"a62u02t5kxhy","address":"POST OFFICE BOX 396","lat":33.038355,"state":"GA"},"type":"Feature","geometry":{"type":"Point","coordinates":[-83.217813,33.038355]}},{"properties":{"city":"ATLANTA","lon":-84.336128,"zip":30316,"facility":"METRO STATE PRISON","id":"a62u02n3e8k4","address":"1301 CONSTITUTION ROAD, SE","lat":33.689941,"state":"GA"},"type":"Feature","geometry":{"type":"Point","coordinates":[-84.336128,33.689941]}},{"properties":{"city":"MILAN","lon":-83.059944,"zip":31060,"facility":"MILAN STATE PRISON","id":"a62u02oc78r7","address":"POST OFFICE BOX 410","lat":32.020479,"state":"GA"},"type":"Feature","geometry":{"type":"Point","coordinates":[-83.059944,32.020479]}},{"properties":{"city":"MT. VERNON","lon":-82.566188,"zip":30445,"facility":"MONTGOMERY STATE PRISON","id":"a62u02s17krw","address":"POST OFFICE BOX 256","lat":32.161862,"state":"GA"},"type":"Feature","geometry":{"type":"Point","coordinates":[-82.566188,32.161862]}},{"properties":{"city":"HAWKINSVILLE","lon":-83.45707,"zip":31036,"facility":"PULASKI STATE PRISON (W)","id":"a62u02pzbhw1","address":"PO BOX 839","lat":32.311456,"state":"GA"},"type":"Feature","geometry":{"type":"Point","coordinates":[-83.45707,32.311456]}},{"properties":{"city":"HARDWICK","lon":-83.214212,"zip":31034,"facility":"RIVERS STATE PRISON","id":"a62u030waim1","address":"POST OFFICE BOX 47","lat":33.042668,"state":"GA"},"type":"Feature","geometry":{"type":"Point","coordinates":[-83.214212,33.042668]}},{"properties":{"city":"REIDSVILLE","lon":-82.179189,"zip":30453,"facility":"ROGERS STATE PRISON","id":"a62u02tmhe3n","address":"1978 GA HWY 147","lat":32.000774,"state":"GA"},"type":"Feature","geometry":{"type":"Point","coordinates":[-82.179189,32.000774]}},{"properties":{"city":"GLENNVILLE","lon":-81.915674,"zip":30427,"facility":"SMITH STATE PRISON","id":"a62u02r1lzrc","address":"PO BOX 726","lat":31.973103,"state":"GA"},"type":"Feature","geometry":{"type":"Point","coordinates":[-81.915674,31.973103]}},{"properties":{"city":"HELENA","lon":-82.90915,"zip":31037,"facility":"TELFAIR STATE PRISON","id":"a62u031zm3a5","address":"POST OFFICE BOX 549","lat":32.087879,"state":"GA"},"type":"Feature","geometry":{"type":"Point","coordinates":[-82.90915,32.087879]}},{"properties":{"city":"VALDOSTA","lon":-83.344478,"zip":31603,"facility":"VALDOSTA STATE PRISON/LOWNDES UNIT","id":"a62u0309gy8r","address":"POST OFFICE BOX 310 /","lat":30.855326,"state":"GA"},"type":"Feature","geometry":{"type":"Point","coordinates":[-83.344478,30.855326]}},{"properties":{"city":"ROCK SPRING","lon":-85.262264,"zip":30739,"facility":"WALKER STATE PRISON","id":"a62u02sytwtg","address":"POST OFFICE BOX 98","lat":34.809359,"state":"GA"},"type":"Feature","geometry":{"type":"Point","coordinates":[-85.262264,34.809359]}},{"properties":{"city":"WAYCROSS","lon":-82.393662,"zip":31501,"facility":"WARE STATE PRISON","id":"a62u02vprn3v","address":"3620 HARRIS ROAD","lat":31.256928,"state":"GA"},"type":"Feature","geometry":{"type":"Point","coordinates":[-82.393662,31.256928]}},{"properties":{"city":"DAVISBORO","lon":-82.594925,"zip":31018,"facility":"WASHINGTON SP","id":"a62u02y2h64s","address":"PO BOX 206","lat":32.988515,"state":"GA"},"type":"Feature","geometry":{"type":"Point","coordinates":[-82.594925,32.988515]}},{"properties":{"city":"ODUM","lon":-82.120405,"zip":31555,"facility":"WAYNE STATE PRISON","id":"a62u032b1mkj","address":"1007 SHED ROAD","lat":31.674093,"state":"GA"},"type":"Feature","geometry":{"type":"Point","coordinates":[-82.120405,31.674093]}},{"properties":{"city":"ABBEVILLE","lon":-83.299982,"zip":31001,"facility":"WILCOX STATE PRISON","id":"a62u02vno5gv","address":"472 SOUTH BROAD STREET","lat":31.984928,"state":"GA"},"type":"Feature","geometry":{"type":"Point","coordinates":[-83.299982,31.984928]}}],"is_temporal":false,"author":{"url":"http://www.dcor.state.ga.us/","metadata":"","contact_name":"","contact_address":"","source":"Georgia Dept of Corrections","contact_phone":""},"source":"http://www.dcor.state.ga.us/","pagination":{"sort":null,"start":0,"total":37,"limit":1000000},"state":"complete","tags":"correctional,corrections,enforcement,georgia,institution,law,prisons","published":"2008-05-07T12:00:00Z","id":457}