{"type":"FeatureCollection","data_type":"Dataset","url_type":null,"permissions":[{"permissions":{"download":true,"view":true},"group_id":"everyone"}],"classification":null,"title":"ANN historical class list","count":44,"stream_id":460077,"contributor":{"url":"http://geocommons.com/users/91174","name":"bpringnitz"},"data_attributes":null,"calculation_params":null,"icon_link":null,"link":"http://geocommons.com/overlays/460077.json","extent":[-95.5743,40.6316,-90.8721,43.3074],"geometry_types":["point"],"unique_name":null,"name":"ANN historical class list","feature_count":44,"description":"","next_feature":null,"is_raster":false,"short_classification":"Y","stats":{},"features":[{"properties":{"city":"Oskaloosa","region":"14","facility":null,"county":"Mahaska","geo_score":0.714,"year":"2013","id":"amf11gv4v9al","course":"Women Managing Cattle","address":null,"geo_precision":"city","state":"Iowa"},"type":"Feature","geometry":{"type":"Point","coordinates":[-92.662675,41.283366]}},{"properties":{"city":"Ames","region":"8","facility":null,"county":"Story","geo_score":0.714,"year":"2012","id":"amf11gvi4k0m","course":"Managing for Today and Tomorrow","address":null,"geo_precision":"city","state":"Iowa"},"type":"Feature","geometry":{"type":"Point","coordinates":[-93.600254,42.037879]}},{"properties":{"city":"Burlington","region":"20","facility":"SCC River Park Place","county":"Des Moines","geo_score":0.829,"year":"2014","id":"amf11gvns6pr","course":"Managing for Today and Tomorrow","address":"610 N 4th Street","geo_precision":"range","state":"Iowa"},"type":"Feature","geometry":{"type":"Point","coordinates":[-91.102583,40.813621]}},{"properties":{"city":"Carroll","region":"12","facility":null,"county":"Carroll","geo_score":0.714,"year":"2012","id":"amf11gtx81gg","course":"Managing for Today and Tomorrow","address":null,"geo_precision":"city","state":"Iowa"},"type":"Feature","geometry":{"type":"Point","coordinates":[-94.663027,41.119987]}},{"properties":{"city":"Hampton","region":"3","facility":null,"county":"Franklin","geo_score":0.714,"year":"2013","id":"amf11h06pio5","course":"Managing for Today and Tomorrow","address":null,"geo_precision":"city","state":"Iowa"},"type":"Feature","geometry":{"type":"Point","coordinates":[-93.230657,42.731454]}},{"properties":{"city":"Iowa City","region":"15","facility":null,"county":"Johnson","geo_score":0.714,"year":"2013","id":"amf11gwisvo0","course":"Managing for Today and Tomorrow","address":null,"geo_precision":"city","state":"Iowa"},"type":"Feature","geometry":{"type":"Point","coordinates":[-92.161281,43.198027]}},{"properties":{"city":"Jefferson","region":"12","facility":null,"county":"Greene","geo_score":0.714,"year":"2013","id":"amf11gyopr16","course":"Managing for Today and Tomorrow","address":null,"geo_precision":"city","state":"Iowa"},"type":"Feature","geometry":{"type":"Point","coordinates":[-94.372586,42.007323]}},{"properties":{"city":"Monticello","region":"10","facility":"Jones County Extension Office","county":"Jones","geo_score":0.772,"year":"2014","id":"amf11gyid6ou","course":"Managing for Today and Tomorrow","address":"800 North Maple St Suite 2","geo_precision":"range","state":"Iowa"},"type":"Feature","geometry":{"type":"Point","coordinates":[-91.189791,42.247704]}},{"properties":{"city":"Mt Pleasant","region":"20","facility":null,"county":"Henry","geo_score":0.714,"year":"2013","id":"amf11gvqfbsi","course":"Managing for Today and Tomorrow","address":null,"geo_precision":"city","state":"Iowa"},"type":"Feature","geometry":{"type":"Point","coordinates":[-90.872091,41.524474]}},{"properties":{"city":"Shenandoah","region":"17","facility":null,"county":"Page","geo_score":0.714,"year":"2012","id":"amf11gluwv2o","course":"Managing for Today and Tomorrow","address":null,"geo_precision":"city","state":"Iowa"},"type":"Feature","geometry":{"type":"Point","coordinates":[-95.16372,40.718258]}},{"properties":{"city":"Van Horne","region":"10","facility":"Van Horne Community Center","county":"Benton","geo_score":0.819,"year":"2014","id":"amf11gl4ck4w","course":"Managing for Today and Tomorrow","address":"508 1st Ave","geo_precision":"range","state":"Iowa"},"type":"Feature","geometry":{"type":"Point","coordinates":[-92.091708,42.007491]}},{"properties":{"city":"Webster City","region":"7","facility":"Hamilton Co Extension Office","county":"Hamilton","geo_score":0.902,"year":"2014","id":"amf11gp299vv","course":"Managing for Today and Tomorrow","address":"311 Bank St","geo_precision":"range","state":"Iowa"},"type":"Feature","geometry":{"type":"Point","coordinates":[-93.815771,42.466647]}},{"properties":{"city":"Wiliamsburg","region":"15","facility":null,"county":"Iowa","geo_score":0.714,"year":"2013","id":"amf11gxyibmw","course":"Managing for Today and Tomorrow","address":null,"geo_precision":"city","state":"Iowa"},"type":"Feature","geometry":{"type":"Point","coordinates":[-92.065181,41.649999]}},{"properties":{"city":"Algona","region":"2","facility":null,"county":"Kossuth","geo_score":0.714,"year":"2013","id":"amf11gohqf9v","course":"Annies Project","address":null,"geo_precision":"city","state":"Iowa"},"type":"Feature","geometry":{"type":"Point","coordinates":[-94.166994,43.109313]}},{"properties":{"city":"Atlantic","region":"18","facility":null,"county":"Cass","geo_score":0.714,"year":"2012","id":"amf11gkszpat","course":"Annies Project","address":null,"geo_precision":"city","state":"Iowa"},"type":"Feature","geometry":{"type":"Point","coordinates":[-94.960765,41.381871]}},{"properties":{"city":"Boone","region":"8","facility":null,"county":"Boone","geo_score":0.714,"year":"2012","id":"amf11gspw1ny","course":"Annies Project","address":null,"geo_precision":"city","state":"Iowa"},"type":"Feature","geometry":{"type":"Point","coordinates":[-93.904897,42.0425]}},{"properties":{"city":"Calmar","region":"4","facility":null,"county":"Winneshiek","geo_score":0.714,"year":"2012","id":"amf11gw3cvlk","course":"Annies Project","address":null,"geo_precision":"city","state":"Iowa"},"type":"Feature","geometry":{"type":"Point","coordinates":[-91.867666,43.168758]}},{"properties":{"city":"Caroll","region":"12","facility":null,"county":"Carroll","geo_score":0.714,"year":"2013","id":"amf11glvdws2","course":"Annies Project","address":null,"geo_precision":"city","state":"Iowa"},"type":"Feature","geometry":{"type":"Point","coordinates":[-94.663027,41.119987]}},{"properties":{"city":"Cherokee","region":"6","facility":"Cherokee Co. Extension office","county":"Cherokee","geo_score":0.902,"year":"2014","id":"amf11go7lqsx","course":"Annies Project","address":"209 Centennial Drive","geo_precision":"range","state":"Iowa"},"type":"Feature","geometry":{"type":"Point","coordinates":[-95.552588,42.7647]}},{"properties":{"city":"Cherokee","region":"6","facility":null,"county":"Cherokee","geo_score":0.714,"year":"2013","id":"amf11grg22q8","course":"Annies Project","address":null,"geo_precision":"city","state":"Iowa"},"type":"Feature","geometry":{"type":"Point","coordinates":[-95.574297,42.721535]}},{"properties":{"city":"Denison","region":"12","facility":"Crawford Co. Extension Office","county":"Crawford","geo_score":0.902,"year":"2014","id":"amf11gvis5w9","course":"Annies Project","address":"35 S Main Street","geo_precision":"range","state":"Iowa"},"type":"Feature","geometry":{"type":"Point","coordinates":[-95.355371,42.016333]}},{"properties":{"city":"Donnellson","region":"20","facility":null,"county":"Lee","geo_score":0.714,"year":"2012","id":"amf11gw2ck0o","course":"Annies Project","address":null,"geo_precision":"city","state":"Iowa"},"type":"Feature","geometry":{"type":"Point","coordinates":[-91.56008,40.631583]}},{"properties":{"city":"Dyersville","region":"11","facility":"James Kennedy Public Library","county":"Dubuque","geo_score":0.837,"year":"2014","id":"amf11gqtnv1z","course":"Annies Project","address":"320 1st Ave East","geo_precision":"range","state":"Iowa"},"type":"Feature","geometry":{"type":"Point","coordinates":[-91.120574,42.484728]}},{"properties":{"city":"Emmetsburg","region":"2","facility":null,"county":"Palo Alto","geo_score":0.714,"year":"2012","id":"amf11h0izvxk","course":"Annies Project","address":null,"geo_precision":"city","state":"Iowa"},"type":"Feature","geometry":{"type":"Point","coordinates":[-94.690755,43.118345]}},{"properties":{"city":"Fairfield","region":"19","facility":null,"county":"Jefferson","geo_score":0.714,"year":"2012","id":"amf11gqg380m","course":"Annies Project","address":null,"geo_precision":"city","state":"Iowa"},"type":"Feature","geometry":{"type":"Point","coordinates":[-91.957527,41.030998]}},{"properties":{"city":"Fairfield","region":"19","facility":null,"county":"Jefferson","geo_score":0.714,"year":"2011","id":"amf11grrbpxj","course":"Annies Project","address":null,"geo_precision":"city","state":"Iowa"},"type":"Feature","geometry":{"type":"Point","coordinates":[-91.957527,41.030998]}},{"properties":{"city":"Farnhamville","region":"6","facility":null,"county":"Calhoun","geo_score":0.714,"year":"2011","id":"amf11gwq2ao1","course":"Annies Project","address":null,"geo_precision":"city","state":"Iowa"},"type":"Feature","geometry":{"type":"Point","coordinates":[-94.465144,42.279298]}},{"properties":{"city":"Fort Dodge","region":"7","facility":null,"county":"Webster","geo_score":0.714,"year":"2013","id":"amf11gtxbt0j","course":"Annies Project","address":null,"geo_precision":"city","state":"Iowa"},"type":"Feature","geometry":{"type":"Point","coordinates":[-94.166587,42.438596]}},{"properties":{"city":"Gilbert","region":"8","facility":"Gilbert High School","county":"Story","geo_score":0.902,"year":"2014","id":"amf11gydtdj1","course":"Annies Project","address":"312 Gretten St","geo_precision":"range","state":"Iowa"},"type":"Feature","geometry":{"type":"Point","coordinates":[-93.639808,42.102612]}},{"properties":{"city":"Greenfield","region":"18","facility":"Greenfield City Hall Meeting Room","county":"Adair","geo_score":0.829,"year":"2014","id":"amf11gmo1sti","course":"Annies Project","address":"202 S 1st Street","geo_precision":"range","state":"Iowa"},"type":"Feature","geometry":{"type":"Point","coordinates":[-94.461091,41.304138]}},{"properties":{"city":"Grinnell","region":"14","facility":null,"county":"Poweshiek","geo_score":0.714,"year":"2012","id":"amf11h10cy7a","course":"Annies Project","address":null,"geo_precision":"city","state":"Iowa"},"type":"Feature","geometry":{"type":"Point","coordinates":[-95.139993,42.944419]}},{"properties":{"city":"Guthrie Center","region":"12","facility":null,"county":"Guthrie","geo_score":0.714,"year":"2013","id":"amf11gz5q5jk","course":"Annies Project","address":null,"geo_precision":"city","state":"Iowa"},"type":"Feature","geometry":{"type":"Point","coordinates":[-94.559702,41.683516]}},{"properties":{"city":"Marshalltown","region":"8","facility":null,"county":"Marshall","geo_score":0.714,"year":"2013","id":"amf11gqm8ggl","course":"Annies Project","address":null,"geo_precision":"city","state":"Iowa"},"type":"Feature","geometry":{"type":"Point","coordinates":[-92.998867,42.036096]}},{"properties":{"city":"Mason City","region":"3","facility":null,"county":"Cerro Gordo","geo_score":0.714,"year":"2012","id":"amf11gt1uwur","course":"Annies Project","address":null,"geo_precision":"city","state":"Iowa"},"type":"Feature","geometry":{"type":"Point","coordinates":[-92.161281,43.198027]}},{"properties":{"city":"Mt Ayr","region":"18","facility":null,"county":"Ringgold","geo_score":0.714,"year":"2011","id":"amf11gkq48gc","course":"Annies Project","address":null,"geo_precision":"city","state":"Iowa"},"type":"Feature","geometry":{"type":"Point","coordinates":[-93.602716,41.18694]}},{"properties":{"city":"New Hampton","region":"4","facility":null,"county":"Chickasaw","geo_score":0.714,"year":"2013","id":"amf11h0n0ucg","course":"Annies Project","address":null,"geo_precision":"city","state":"Iowa"},"type":"Feature","geometry":{"type":"Point","coordinates":[-93.230657,42.731454]}},{"properties":{"city":"Oskaloosa","region":"14","facility":null,"county":"Mahaska","geo_score":0.714,"year":"2013","id":"amf11gyffkjn","course":"Annies Project","address":null,"geo_precision":"city","state":"Iowa"},"type":"Feature","geometry":{"type":"Point","coordinates":[-92.662675,41.283366]}},{"properties":{"city":"Ralston","region":"12","facility":null,"county":"Carroll","geo_score":0.714,"year":"2012","id":"amf11gz20haf","course":"Annies Project","address":null,"geo_precision":"city","state":"Iowa"},"type":"Feature","geometry":{"type":"Point","coordinates":[-94.632143,42.041412]}},{"properties":{"city":"Red Oak","region":"17","facility":null,"county":"Montgomery","geo_score":0.714,"year":"2013","id":"amf11gysv39l","course":"Annies Project","address":null,"geo_precision":"city","state":"Iowa"},"type":"Feature","geometry":{"type":"Point","coordinates":[-92.887374,43.128382]}},{"properties":{"city":"Rockwell City","region":"6","facility":"Calhoun County Extension Office","county":"Calhoun","geo_score":0.521,"year":"2014","id":"amf11gt8yz0y","course":"Annies Project","address":"521 4th Street","geo_precision":"street","state":"Iowa"},"type":"Feature","geometry":{"type":"Point","coordinates":[-91.778431,43.307418]}},{"properties":{"city":"Sioux Ctr","region":"1","facility":null,"county":"Sioux","geo_score":0.714,"year":"2012","id":"amf11gngible","course":"Annies Project","address":null,"geo_precision":"city","state":"Iowa"},"type":"Feature","geometry":{"type":"Point","coordinates":[-91.461547,41.291968]}},{"properties":{"city":"Sioux City","region":"1","facility":null,"county":"Sioux","geo_score":0.714,"year":"2012","id":"amf11gme7t3j","course":"Annies Project","address":null,"geo_precision":"city","state":"Iowa"},"type":"Feature","geometry":{"type":"Point","coordinates":[-92.161281,43.198027]}},{"properties":{"city":"Waukon","region":"4","facility":null,"county":"Allamakee","geo_score":0.714,"year":"2013","id":"amf11gtvavav","course":"Annies Project","address":null,"geo_precision":"city","state":"Iowa"},"type":"Feature","geometry":{"type":"Point","coordinates":[-91.445754,43.290026]}},{"properties":{"city":"West Des Moines","region":"13","facility":null,"county":"Polk","geo_score":0.714,"year":"2012","id":"amf11gw4ai41","course":"Annies Project","address":null,"geo_precision":"city","state":"Iowa"},"type":"Feature","geometry":{"type":"Point","coordinates":[-93.572173,41.672687]}}],"is_temporal":false,"author":{"url":"","metadata":"","contact_name":"","contact_address":"","source":"","contact_phone":""},"source":"","pagination":{"sort":null,"start":0,"total":44,"limit":1000000},"state":"complete","tags":"","published":"2014-08-17T22:43:31-04:00","id":460077}