{"type":"FeatureCollection","data_type":"Dataset","url_type":null,"permissions":[{"permissions":{"download":true,"view":true},"group_id":"everyone"}],"classification":null,"title":"Red Cross Blood Service Regions, USA, 2008","count":34,"stream_id":4603,"contributor":{"url":"http://geocommons.com/users/789","name":"Trowbridge"},"data_attributes":null,"calculation_params":null,"icon_link":null,"link":"http://geocommons.com/overlays/4603.json","extent":[-122.676,32.2216,-71.1738,45.5118],"geometry_types":["point"],"unique_name":null,"name":"Red Cross Blood Service Regions, USA, 2008","feature_count":34,"description":"This is the list of the local Red Cross Blood Services Regions. It includes the lat/longs of the region's main center as well as the name of the region.","next_feature":null,"is_raster":false,"short_classification":"Y","stats":{"latitude":{"max":45.511795,"mean":39.1119729411765,"variance":12.1906354211995,"stdev":3.49150904641524,"min":32.221553,"median":39.962},"longitude":{"max":-71.173771,"mean":-88.8359921176471,"variance":187.856609303148,"stdev":13.7060792826814,"min":-122.675629,"median":-84.552279}},"features":[{"properties":{"city":"Atlanta","latitude":33.748315,"regionname":"Southern Blood Services Region","longitude":-84.391109,"id":"a6751j1ucdzb","state":"GA"},"type":"Feature","geometry":{"type":"Point","coordinates":[-84.391109,33.748315]}},{"properties":{"city":"Baltimore","latitude":39.290555,"regionname":"Greater Chesapeake and Potomac Blood Services Region","longitude":-76.609604,"id":"a6751j94uue0","state":"MD"},"type":"Feature","geometry":{"type":"Point","coordinates":[-76.609604,39.290555]}},{"properties":{"city":"Birmingham","latitude":33.653333,"regionname":"Alabama and Gulf Coast Blood Services Region","longitude":-86.808889,"id":"a6751j5jo8p5","state":"AL"},"type":"Feature","geometry":{"type":"Point","coordinates":[-86.808889,33.653333]}},{"properties":{"city":"Charlotte","latitude":35.2225,"regionname":"Carolinas Blood Services Region","longitude":-80.837539,"id":"a6751j285dh9","state":"NC"},"type":"Feature","geometry":{"type":"Point","coordinates":[-80.837539,35.2225]}},{"properties":{"city":"Cleveland","latitude":41.504365,"regionname":"Northern Ohio Blood Services Region","longitude":-81.690459,"id":"a6751j1ckkgo","state":"OH"},"type":"Feature","geometry":{"type":"Point","coordinates":[-81.690459,41.504365]}},{"properties":{"city":"Columbia","latitude":33.99855,"regionname":"South Carolina Blood Services Region","longitude":-81.045249,"id":"a6751jbatlxm","state":"SC"},"type":"Feature","geometry":{"type":"Point","coordinates":[-81.045249,33.99855]}},{"properties":{"city":"Columbus","latitude":39.962,"regionname":"Central Ohio Blood Services Region","longitude":-83.003014,"id":"a6751j0gtfo8","state":"OH"},"type":"Feature","geometry":{"type":"Point","coordinates":[-83.003014,39.962]}},{"properties":{"city":"Dedham","latitude":42.246602,"regionname":"New England Blood Services Region","longitude":-71.173771,"id":"a6751jcbpopy","state":"MA"},"type":"Feature","geometry":{"type":"Point","coordinates":[-71.173771,42.246602]}},{"properties":{"city":"Detroit","latitude":42.331685,"regionname":"Southeastern Michigan Blood Services Region","longitude":-83.047924,"id":"a6751j4zv52p","state":"MI"},"type":"Feature","geometry":{"type":"Point","coordinates":[-83.047924,42.331685]}},{"properties":{"city":"Farmington","latitude":41.748905,"regionname":"Connecticut Blood Services Region","longitude":-72.867699,"id":"a6751jaedrhj","state":"CT"},"type":"Feature","geometry":{"type":"Point","coordinates":[-72.867699,41.748905]}},{"properties":{"city":"Ft. Wayne","latitude":41.075525,"regionname":"Indiana-Ohio Blood Services Region","longitude":-85.099064,"id":"a6751jfzetsq","state":"IN"},"type":"Feature","geometry":{"type":"Point","coordinates":[-85.099064,41.075525]}},{"properties":{"city":"Johnstown","latitude":40.32726,"regionname":"Greater Alleghenies Blood Services Region","longitude":-78.918354,"id":"a6751j0kzzsx","state":"PA"},"type":"Feature","geometry":{"type":"Point","coordinates":[-78.918354,40.32726]}},{"properties":{"city":"Lansing","latitude":42.73202,"regionname":"Great Lakes Blood Services Region","longitude":-84.552279,"id":"a6751jb4c5xf","state":"MI"},"type":"Feature","geometry":{"type":"Point","coordinates":[-84.552279,42.73202]}},{"properties":{"city":"Little Rock","latitude":34.748655,"regionname":"Greater Ozarks Blood Services Region","longitude":-92.274494,"id":"a6751jatuvhw","state":"AR"},"type":"Feature","geometry":{"type":"Point","coordinates":[-92.274494,34.748655]}},{"properties":{"city":"Louisville","latitude":38.254167,"regionname":"River Valley Blood Services Region","longitude":-85.760278,"id":"a6751j321dza","state":"KY"},"type":"Feature","geometry":{"type":"Point","coordinates":[-85.760278,38.254167]}},{"properties":{"city":"Madison","latitude":43.072925,"regionname":"Badger-Hawkeye Blood Services Region","longitude":-89.386659,"id":"a6751j1ni17q","state":"WI"},"type":"Feature","geometry":{"type":"Point","coordinates":[-89.386659,43.072925]}},{"properties":{"city":"Nashville","latitude":36.167762,"regionname":"Tennessee Valley Blood Services Region","longitude":-86.778366,"id":"a6751j70lxw3","state":"TN"},"type":"Feature","geometry":{"type":"Point","coordinates":[-86.778366,36.167762]}},{"properties":{"city":"Norfolk","latitude":36.846825,"regionname":"Mid-Atlantic Blood Services Region","longitude":-76.285069,"id":"a6751j5y6hj0","state":"VA"},"type":"Feature","geometry":{"type":"Point","coordinates":[-76.285069,36.846825]}},{"properties":{"city":"Oakland","latitude":37.805065,"regionname":"River Valley Blood Services Region","longitude":-122.273024,"id":"a6751j7qb9ve","state":"CA"},"type":"Feature","geometry":{"type":"Point","coordinates":[-122.273024,37.805065]}},{"properties":{"city":"Omaha","latitude":41.260645,"regionname":"Midwest Region Blood Services Region","longitude":-95.940469,"id":"a6751jf7o7ko","state":"NE"},"type":"Feature","geometry":{"type":"Point","coordinates":[-95.940469,41.260645]}},{"properties":{"city":"Peoria","latitude":40.69214,"regionname":"Heart of America Blood Services Region","longitude":-89.587764,"id":"a6751j8qrdtx","state":"IL"},"type":"Feature","geometry":{"type":"Point","coordinates":[-89.587764,40.69214]}},{"properties":{"city":"Philadelphia","latitude":39.953333,"regionname":"Penn-Jersey Blood Services Region","longitude":-75.17,"id":"a6751j3xn8gp","state":"PA"},"type":"Feature","geometry":{"type":"Point","coordinates":[-75.17,39.953333]}},{"properties":{"city":"Pomona","latitude":34.054645,"regionname":"Southern California Blood Services Region","longitude":-117.750024,"id":"a6751jeqszxp","state":"CA"},"type":"Feature","geometry":{"type":"Point","coordinates":[-117.750024,34.054645]}},{"properties":{"city":"Portland","latitude":45.511795,"regionname":"Pacific Northwest Blood Services Region","longitude":-122.675629,"id":"a6751j6f9u27","state":"OR"},"type":"Feature","geometry":{"type":"Point","coordinates":[-122.675629,45.511795]}},{"properties":{"city":"Roanoke","latitude":37.271525,"regionname":"Appalachian Regional Blood Services Region","longitude":-79.940534,"id":"a6751j9cqqk6","state":"VA"},"type":"Feature","geometry":{"type":"Point","coordinates":[-79.940534,37.271525]}},{"properties":{"city":"Salt Lake City","latitude":40.75952,"regionname":"Lewis &amp; Clark Blood Services Region","longitude":-111.888229,"id":"a6751j0up1q7","state":"UT"},"type":"Feature","geometry":{"type":"Point","coordinates":[-111.888229,40.75952]}},{"properties":{"city":"St. Louis","latitude":38.62761,"regionname":"Missouri Illinois Blood Services Region","longitude":-90.198954,"id":"a6751jbbayid","state":"MO"},"type":"Feature","geometry":{"type":"Point","coordinates":[-90.198954,38.62761]}},{"properties":{"city":"St. Paul","latitude":44.943829,"regionname":"North Central Blood Services Region","longitude":-93.093326,"id":"a6751jbz80ww","state":"MN"},"type":"Feature","geometry":{"type":"Point","coordinates":[-93.093326,44.943829]}},{"properties":{"city":"Toledo","latitude":41.65381,"regionname":"Western Lake Erie Blood Services Region","longitude":-83.536259,"id":"a6751j8h36x5","state":"OH"},"type":"Feature","geometry":{"type":"Point","coordinates":[-83.536259,41.65381]}},{"properties":{"city":"Tucson","latitude":32.221553,"regionname":"Arizona Blood Services Region","longitude":-110.969754,"id":"a6751jeqkgpb","state":"AZ"},"type":"Feature","geometry":{"type":"Point","coordinates":[-110.969754,32.221553]}},{"properties":{"city":"Tulsa","latitude":36.14975,"regionname":"Southwest Blood Services Region","longitude":-95.993354,"id":"a6751jae3uno","state":"OK"},"type":"Feature","geometry":{"type":"Point","coordinates":[-95.993354,36.14975]}},{"properties":{"city":"West Henrietta","latitude":43.040331,"regionname":"New York-Penn Blood Services Region","longitude":-77.663679,"id":"a6751jdpfgtj","state":"NY"},"type":"Feature","geometry":{"type":"Point","coordinates":[-77.663679,43.040331]}},{"properties":{"city":"Wichita","latitude":37.68698,"regionname":"Central Plains Blood Services Region","longitude":-97.335579,"id":"a6751j8p9dir","state":"KS"},"type":"Feature","geometry":{"type":"Point","coordinates":[-97.335579,37.68698]}},{"properties":{"city":"Wilkes-Barre","latitude":41.2426,"regionname":"Northeastern Pennsylvania Blood Services Region","longitude":-75.877334,"id":"a6751j48dzy7","state":"PA"},"type":"Feature","geometry":{"type":"Point","coordinates":[-75.877334,41.2426]}}],"is_temporal":false,"author":{"url":"http://www.givelife2.org/links.asp?thisHB=09/22/2008%2007:02:42","metadata":"","contact_name":"","contact_address":"","source":"American Red Cross","contact_phone":""},"source":"http://www.givelife2.org/links.asp?thisHB=09/22/2008%2007:02:42","pagination":{"sort":null,"start":0,"total":34,"limit":1000000},"state":"complete","tags":"2008,blood,centers,cross,drives,red,regional","published":"2008-01-01T12:00:00Z","id":4603}