{"type":"FeatureCollection","data_type":"Dataset","url_type":null,"permissions":[{"permissions":{"download":true,"view":true},"group_id":"everyone"}],"classification":null,"title":"Kentucky Dept of Corrections, Kentucky State Adult Correctional Institutions, Kentucky, 3.2008 ","count":9,"stream_id":464,"contributor":{"url":"http://geocommons.com/users/2","name":"data"},"data_attributes":null,"calculation_params":null,"icon_link":null,"link":"http://geocommons.com/overlays/464.json","extent":[-88.0752,37.0487,-83.0726,38.4125],"geometry_types":["point"],"unique_name":null,"name":"Kentucky Dept of Corrections, Kentucky State Adult Correctional Institutions, Kentucky, 3.2008 ","feature_count":9,"description":"This dataset displays the locations of all the Adult Correctional Facilities in the state of Kentucky as of 3.2008. This includes both female and male institutions.\n","next_feature":null,"is_raster":false,"short_classification":"Y","stats":{"lon":{"max":-83.072621,"mean":-85.6035674444445,"variance":3.42037413131128,"stdev":1.84942535164609,"min":-88.07521,"median":-85.42585},"zip":{"max":42411,"mean":41116.7777777778,"variance":996841.944444444,"stdev":998.419723585449,"min":40031,"median":41171},"lat":{"max":38.412534,"mean":37.8611693333333,"variance":0.299763559593,"stdev":0.547506675386703,"min":37.048721,"median":38.10544}},"features":[{"properties":{"city":"Lexington","lon":-84.560111,"zip":40511,"facility":"Blackburn Correctional Complex","id":"a674y676utl1","address":"3111 Spurr Road","lat":38.10544,"state":"KY"},"type":"Feature","geometry":{"type":"Point","coordinates":[-84.560111,38.10544]}},{"properties":{"city":"West Liberty","lon":-83.26974,"zip":41472,"facility":"Eastern Kentucky Correctional Complex","id":"a674y6d0h73p","address":"200 Road to Justice","lat":37.903696,"state":"KY"},"type":"Feature","geometry":{"type":"Point","coordinates":[-83.26974,37.903696]}},{"properties":{"city":"Central City","lon":-87.113955,"zip":42330,"facility":"Green River Correctional Complex","id":"a674y6hwlb74","address":"1200 River Road","lat":37.315265,"state":"KY"},"type":"Feature","geometry":{"type":"Point","coordinates":[-87.113955,37.315265]}},{"properties":{"city":"Pewee Valley","lon":-85.457175,"zip":40056,"facility":"Kentucky Correctional Institution for Women","id":"a674y69siww2","address":"3000 Ash Ave.","lat":38.28566,"state":"KY"},"type":"Feature","geometry":{"type":"Point","coordinates":[-85.457175,38.28566]}},{"properties":{"city":"Eddyville","lon":-88.07521,"zip":42038,"facility":"Kentucky State Penitentiary","id":"a674y6hybj3d","address":"266 Water St","lat":37.048721,"state":"KY"},"type":"Feature","geometry":{"type":"Point","coordinates":[-88.07521,37.048721]}},{"properties":{"city":"Sandy Hook","lon":-83.072621,"zip":41171,"facility":"Little Sandy Correctional Complex","id":"a674y6hfphtj","address":"Route 5","lat":38.138141,"state":"KY"},"type":"Feature","geometry":{"type":"Point","coordinates":[-83.072621,38.138141]}},{"properties":{"city":"LaGrange","lon":-85.42585,"zip":40031,"facility":"Luther Luckett Correctional Complex","id":"a674y6ajrs7i","address":"Dawkins Road","lat":38.412534,"state":"KY"},"type":"Feature","geometry":{"type":"Point","coordinates":[-85.42585,38.412534]}},{"properties":{"city":"LaGrange","lon":-85.415996,"zip":40031,"facility":"Roederer Correctional Complex","id":"a674y6jdnj0b","address":"P. O. Box 69","lat":38.403467,"state":"KY"},"type":"Feature","geometry":{"type":"Point","coordinates":[-85.415996,38.403467]}},{"properties":{"city":"Fredonia","lon":-88.041449,"zip":42411,"facility":"Western Kentucky Correctional Complex","id":"a674y6m5b6iv","address":"374 New Bethel Church Road","lat":37.1376,"state":"KY"},"type":"Feature","geometry":{"type":"Point","coordinates":[-88.041449,37.1376]}}],"is_temporal":false,"author":{"url":"http://www.corrections.ky.gov/","metadata":"","contact_name":"","contact_address":"","source":"Kentucky Dept of Corrections","contact_phone":""},"source":"http://www.corrections.ky.gov/","pagination":{"sort":null,"start":0,"total":9,"limit":1000000},"state":"complete","tags":"correctional,corrections,enforcement,institution,kentucky,law,prisons","published":"2008-05-07T12:00:00Z","id":464}