{"type":"FeatureCollection","data_type":"Dataset","url_type":null,"permissions":[{"permissions":{"download":true,"view":true},"group_id":"everyone"}],"classification":null,"title":"Louisiana Dept of Corrections, Louisiana State Adult Correctional Institutions, Louisiana, 3.2008 ","count":12,"stream_id":465,"contributor":{"url":"http://geocommons.com/users/2","name":"data"},"data_attributes":null,"calculation_params":null,"icon_link":null,"link":"http://geocommons.com/overlays/465.json","extent":[-93.8271,30.2626,-89.8163,32.9019],"geometry_types":["point"],"unique_name":null,"name":"Louisiana Dept of Corrections, Louisiana State Adult Correctional Institutions, Louisiana, 3.2008 ","feature_count":12,"description":"This dataset displays the locations of all the Adult Correctional Facilities in the state of Louisiana as of 3.2008. This includes both female and male institutions.\n","next_feature":null,"is_raster":false,"short_classification":"Y","stats":{"lon":{"max":-89.816254,"mean":-92.0870503333334,"variance":1.36240744186334,"stdev":1.16722210476984,"min":-93.827126,"median":-92.025399},"zip":{"max":71483,"mean":70914.6666666667,"variance":111010.424242424,"stdev":333.182268799563,"min":70426,"median":70776},"lat":{"max":32.901863,"mean":31.1340875,"variance":0.669207383631,"stdev":0.818050966401849,"min":30.26257,"median":30.954805}},"features":[{"properties":{"city":"Kinder","lon":-92.789596,"zip":70648,"facility":"ALLEN CORRECTIONAL CENTER (ALC)","id":"a63gqom5szg4","address":"3751 Lauderdale Woodyard Road","lat":30.561669,"state":"LA"},"type":"Feature","geometry":{"type":"Point","coordinates":[-92.789596,30.561669]}},{"properties":{"city":"Cottonport","lon":-92.025399,"zip":71327,"facility":"AVOYELLES CORRECTIONAL CENTER (AVC)","id":"a63gqogksbm2","address":"1630 Prison Road","lat":30.974312,"state":"LA"},"type":"Feature","geometry":{"type":"Point","coordinates":[-92.025399,30.974312]}},{"properties":{"city":"Angie","lon":-89.816254,"zip":70426,"facility":"B.B. \"SIXTY\" RAYBURN CORRECTIONAL CENTER (RCC)","id":"a63gqodnm1w1","address":"27268 Highway 21","lat":30.922302,"state":"LA"},"type":"Feature","geometry":{"type":"Point","coordinates":[-89.816254,30.922302]}},{"properties":{"city":"Dequincy","lon":-93.436079,"zip":70633,"facility":"C. PAUL PHELPS CORRECTIONAL CENTER (CPPCC)","id":"a63gqobt4boe","address":"Highway 27","lat":30.495938,"state":"LA"},"type":"Feature","geometry":{"type":"Point","coordinates":[-93.436079,30.495938]}},{"properties":{"city":"Homer","lon":-93.020111,"zip":71040,"facility":"DAVID WADE CORRECTIONAL CENTER (DWCC)","id":"a63gqoa10k83","address":"670 Bell Hill Road","lat":32.901863,"state":"LA"},"type":"Feature","geometry":{"type":"Point","coordinates":[-93.020111,32.901863]}},{"properties":{"city":"Jackson","lon":-91.208168,"zip":70748,"facility":"DIXON CORRECTIONAL INSTITUTE (DCI)","id":"a63gqoik0e3d","address":"Highway 68","lat":30.811466,"state":"LA"},"type":"Feature","geometry":{"type":"Point","coordinates":[-91.208168,30.811466]}},{"properties":{"city":"St. Gabriel","lon":-91.086718,"zip":70776,"facility":"ELAYN HUNT CORRECTIONAL CENTER (EHCC)","id":"a63gqobifd20","address":"Highway 74","lat":30.265642,"state":"LA"},"type":"Feature","geometry":{"type":"Point","coordinates":[-91.086718,30.265642]}},{"properties":{"city":"Keithville","lon":-93.827126,"zip":71047,"facility":"FORCHT - WADE CORRECTIONAL CENTER (FWCC)","id":"a63gqomw79r9","address":"7990 Caddo Drive","lat":32.234204,"state":"LA"},"type":"Feature","geometry":{"type":"Point","coordinates":[-93.827126,32.234204]}},{"properties":{"city":"Pineville","lon":-92.388624,"zip":71360,"facility":"J. LEVY DABADIE CORRECTIONAL CENTER (JLDCC)","id":"a63gqoicqg37","address":"1453 15th Street","lat":31.373727,"state":"LA"},"type":"Feature","geometry":{"type":"Point","coordinates":[-92.388624,31.373727]}},{"properties":{"city":"St. Gabriel","lon":-91.073599,"zip":70776,"facility":"LOUISIANA CORRECTIONAL INSTITUTE FOR WOMEN (LCIW)","id":"a63gqol6n4ff","address":"Highway 74","lat":30.26257,"state":"LA"},"type":"Feature","geometry":{"type":"Point","coordinates":[-91.073599,30.26257]}},{"properties":{"city":"Angola","lon":-91.593441,"zip":70712,"facility":"LOUISIANA STATE PENITENTIARY (LSP)","id":"a63gqojhd8ui","address":"17544 Tunica Trace","lat":30.954805,"state":"LA"},"type":"Feature","geometry":{"type":"Point","coordinates":[-91.593441,30.954805]}},{"properties":{"city":"Atlanta","lon":-92.779489,"zip":71483,"facility":"WINN CORRECTIONAL CENTER (WNC)","id":"a63gqoi56j17","address":"180 CCA Blvd.","lat":31.850552,"state":"LA"},"type":"Feature","geometry":{"type":"Point","coordinates":[-92.779489,31.850552]}}],"is_temporal":false,"author":{"url":"http://www.doc.louisiana.gov/","metadata":"","contact_name":"","contact_address":"","source":"Louisiana Dept of Corrections","contact_phone":""},"source":"http://www.doc.louisiana.gov/","pagination":{"sort":null,"start":0,"total":12,"limit":1000000},"state":"complete","tags":"correctional,corrections,enforcement,institution,law,louisiana,prisons","published":"2008-05-07T12:00:00Z","id":465}