{"type":"FeatureCollection","data_type":"Dataset","url_type":null,"permissions":[{"permissions":{"download":true,"view":true},"group_id":"everyone"}],"classification":null,"title":"Missouri Dept of Corrections, Missouri State Adult Correctional Institutions, Missouri, 3.2008 ","count":20,"stream_id":472,"contributor":{"url":"http://geocommons.com/users/2","name":"data"},"data_attributes":null,"calculation_params":null,"icon_link":null,"link":"http://geocommons.com/overlays/472.json","extent":[-94.8134,36.8951,-89.3504,40.3456],"geometry_types":["point"],"unique_name":null,"name":"Missouri Dept of Corrections, Missouri State Adult Correctional Institutions, Missouri, 3.2008 ","feature_count":20,"description":"This dataset displays the locations of all the Adult Correctional Facilities in the state of Missouri as of 3.2008. This includes both female and male institutions.\n","next_feature":null,"is_raster":false,"short_classification":"Y","stats":{"lon":{"max":-89.350442,"mean":-92.23992505,"variance":2.36739641235394,"stdev":1.53863459351268,"min":-94.813401,"median":-92.046709},"zip":{"max":65652,"mean":64460.55,"variance":655979.944736842,"stdev":809.925888422417,"min":63069,"median":64506},"lat":{"max":40.345588,"mean":38.73773605,"variance":0.940632229659101,"stdev":0.969861964229498,"min":36.895099,"median":38.84585}},"features":[{"properties":{"city":"Jefferson City","lon":-92.046709,"zip":65101,"facility":"Algoa Correctional Center","id":"a626ge08vmo8","address":"8501 No More Victims Road","lat":38.551552,"state":"MO"},"type":"Feature","geometry":{"type":"Point","coordinates":[-92.046709,38.551552]}},{"properties":{"city":"Boonville","lon":-92.729958,"zip":65233,"facility":"Boonville Correctional Center","id":"a626gdyyyugc","address":"1216 East Morgan Street","lat":38.975323,"state":"MO"},"type":"Feature","geometry":{"type":"Point","coordinates":[-92.729958,38.975323]}},{"properties":{"city":"Chillicothe","lon":-93.560889,"zip":64601,"facility":"Chillicothe Correctional Center","id":"a626gdo3ln0p","address":"1500 Third Street","lat":39.788593,"state":"MO"},"type":"Feature","geometry":{"type":"Point","coordinates":[-93.560889,39.788593]}},{"properties":{"city":"Cameron","lon":-94.223886,"zip":64429,"facility":"Crossroads Correctional Center","id":"a626gdzigvha","address":"1115 E. Pence Road","lat":39.765685,"state":"MO"},"type":"Feature","geometry":{"type":"Point","coordinates":[-94.223886,39.765685]}},{"properties":{"city":"Bonne Terre","lon":-90.514557,"zip":63628,"facility":"Eastern Reception, Diagnostic and Correctional Center","id":"a626gdpasxw3","address":"2727 Hwy K","lat":37.924355,"state":"MO"},"type":"Feature","geometry":{"type":"Point","coordinates":[-90.514557,37.924355]}},{"properties":{"city":"Farmington","lon":-90.43492,"zip":63640,"facility":"Farmington Correctional Center","id":"a626gdvjyftc","address":"1012 W. Columbia Street","lat":37.767324,"state":"MO"},"type":"Feature","geometry":{"type":"Point","coordinates":[-90.43492,37.767324]}},{"properties":{"city":"Fulton","lon":-91.922292,"zip":65251,"facility":"Fulton Reception and Diagnostic Center","id":"a626ge0w8pae","address":"P.O. Box 190","lat":38.84585,"state":"MO"},"type":"Feature","geometry":{"type":"Point","coordinates":[-91.922292,38.84585]}},{"properties":{"city":"Jefferson City","lon":-92.051975,"zip":65101,"facility":"Jefferson City Correctional Center","id":"a626gdta0sxa","address":"8200 No More Victims Road","lat":38.55363,"state":"MO"},"type":"Feature","geometry":{"type":"Point","coordinates":[-92.051975,38.55363]}},{"properties":{"city":"Maryville","lon":-94.813401,"zip":64468,"facility":"Maryville Treatment Center","id":"a626gdm3aozy","address":"30227 US Hwy 136","lat":40.345588,"state":"MO"},"type":"Feature","geometry":{"type":"Point","coordinates":[-94.813401,40.345588]}},{"properties":{"city":"Pacific","lon":-90.701217,"zip":63069,"facility":"Missouri Eastern Correctional Center","id":"a626gdreyodg","address":"18701 Old Highway 66","lat":38.490279,"state":"MO"},"type":"Feature","geometry":{"type":"Point","coordinates":[-90.701217,38.490279]}},{"properties":{"city":"Moberly","lon":-92.440526,"zip":65270,"facility":"Moberly Correctional Center","id":"a626gdm454um","address":"P.O. Box 7","lat":39.362119,"state":"MO"},"type":"Feature","geometry":{"type":"Point","coordinates":[-92.440526,39.362119]}},{"properties":{"city":"Bowling Green","lon":-91.225204,"zip":63334,"facility":"Northeast Correctional Center","id":"a626gduyf6dx","address":"13698 Airport Road","lat":39.369771,"state":"MO"},"type":"Feature","geometry":{"type":"Point","coordinates":[-91.225204,39.369771]}},{"properties":{"city":"Fordland","lon":-92.876048,"zip":65652,"facility":"Ozark Correctional Center","id":"a626gdph1ezn","address":"929 Honor Camp Lane","lat":37.15375,"state":"MO"},"type":"Feature","geometry":{"type":"Point","coordinates":[-92.876048,37.15375]}},{"properties":{"city":"Mineral Point","lon":-90.736617,"zip":63660,"facility":"Potosi Correctional Center","id":"a626gdro85hh","address":"11593 State Highway O","lat":37.936269,"state":"MO"},"type":"Feature","geometry":{"type":"Point","coordinates":[-90.736617,37.936269]}},{"properties":{"city":"Licking","lon":-91.872977,"zip":65542,"facility":"South Central Correctional Center","id":"a626gdsy4k7k","address":"255 W. Hwy 32","lat":37.505356,"state":"MO"},"type":"Feature","geometry":{"type":"Point","coordinates":[-91.872977,37.505356]}},{"properties":{"city":"Charleston","lon":-89.350442,"zip":63834,"facility":"Southeast Correctional Center","id":"a626gdx8s6lp","address":"Highway 105","lat":36.895099,"state":"MO"},"type":"Feature","geometry":{"type":"Point","coordinates":[-89.350442,36.895099]}},{"properties":{"city":"Tipton","lon":-92.780065,"zip":65081,"facility":"Tipton Correctional Center","id":"a626gdlav0sl","address":"619 N. Osage Avenue","lat":38.667667,"state":"MO"},"type":"Feature","geometry":{"type":"Point","coordinates":[-92.780065,38.667667]}},{"properties":{"city":"Cameron","lon":-94.229127,"zip":64429,"facility":"Western Missouri Correctional Center","id":"a626gdtcygs1","address":"609 E. Pence Road","lat":39.764281,"state":"MO"},"type":"Feature","geometry":{"type":"Point","coordinates":[-94.229127,39.764281]}},{"properties":{"city":"St. Joseph","lon":-94.811088,"zip":64506,"facility":"Western Reception, Diagnostic and Correctional Center","id":"a626gdn87b4o","address":"3401 Faraon","lat":39.774384,"state":"MO"},"type":"Feature","geometry":{"type":"Point","coordinates":[-94.811088,39.774384]}},{"properties":{"city":"Vandalia","lon":-91.476603,"zip":63382,"facility":"Women's Eastern Reception, Diagnostic and Correctional Center","id":"a626gdnv5d8h","address":"1101 E. Hwy 54","lat":39.317846,"state":"MO"},"type":"Feature","geometry":{"type":"Point","coordinates":[-91.476603,39.317846]}}],"is_temporal":false,"author":{"url":"http://www.doc.mo.gov/","metadata":"","contact_name":"","contact_address":"","source":"Missouri Dept of Corrections","contact_phone":""},"source":"http://www.doc.mo.gov/","pagination":{"sort":null,"start":0,"total":20,"limit":1000000},"state":"complete","tags":"correctional,corrections,enforcement,institution,law,missouri,prisons","published":"2008-05-07T12:00:00Z","id":472}