{"type":"FeatureCollection","data_type":"Dataset","url_type":null,"permissions":[{"permissions":{"download":true,"view":true},"group_id":"everyone"}],"classification":null,"title":"Nebraska Dept of Corrections, Nebraska State Adult Correctional Institutions, Nebraska, 3.2008 ","count":6,"stream_id":475,"contributor":{"url":"http://geocommons.com/users/2","name":"data"},"data_attributes":null,"calculation_params":null,"icon_link":null,"link":"http://geocommons.com/overlays/475.json","extent":[-97.6284,40.4021,-95.8989,41.2812],"geometry_types":["point"],"unique_name":null,"name":"Nebraska Dept of Corrections, Nebraska State Adult Correctional Institutions, Nebraska, 3.2008 ","feature_count":6,"description":"This dataset displays the locations of all the Adult Correctional Facilities in the state of Nebraska as of 3.2008. This includes both female and male institutions.\n","next_feature":null,"is_raster":false,"short_classification":"Y","stats":{"lon":{"max":-95.898911,"mean":-96.6581661666667,"variance":0.353424627644967,"stdev":0.594495271339451,"min":-97.628411,"median":-96.703977},"zip":{"max":68522,"mean":68429.0,"variance":25127.2,"stdev":158.515614372843,"min":68111,"median":68502},"lat":{"max":41.281162,"mean":40.8152535,"variance":0.0787578489155001,"stdev":0.280638288398964,"min":40.402073,"median":40.787848}},"features":[{"properties":{"city":"Lincoln","lon":-96.766828,"zip":68522,"facility":"Diagnostic and Evaluation Center","id":"a65qkzalcz9a","address":"3220 West Van Dorn","lat":40.786287,"state":"NE"},"type":"Feature","geometry":{"type":"Point","coordinates":[-96.766828,40.786287]}},{"properties":{"city":"Lincoln","lon":-96.765773,"zip":68522,"facility":"Lincoln Correctional Center","id":"a65qkz1jswap","address":"3216 West Van Dorn","lat":40.787848,"state":"NE"},"type":"Feature","geometry":{"type":"Point","coordinates":[-96.765773,40.787848]}},{"properties":{"city":"York","lon":-97.628411,"zip":68467,"facility":"Nebraska Correctional Center for Women","id":"a65qkz9td2dt","address":"1107 Recharge Road","lat":40.863999,"state":"NE"},"type":"Feature","geometry":{"type":"Point","coordinates":[-97.628411,40.863999]}},{"properties":{"city":"Lincoln","lon":-96.703977,"zip":68502,"facility":"Nebraska State Penitentiary","id":"a65qkz7qw58t","address":"4201 S 14th St","lat":40.770152,"state":"NE"},"type":"Feature","geometry":{"type":"Point","coordinates":[-96.703977,40.770152]}},{"properties":{"city":"Omaha","lon":-95.898911,"zip":68111,"facility":"Omaha Correctional Center","id":"a65qkzdg8hsv","address":"2323 Avenue \"J\"","lat":41.281162,"state":"NE"},"type":"Feature","geometry":{"type":"Point","coordinates":[-95.898911,41.281162]}},{"properties":{"city":"Tecumseh","lon":-96.185097,"zip":68450,"facility":"Tecumseh State Correctional Institution","id":"a65qkyztfrew","address":"2725 N. Hwy. 50","lat":40.402073,"state":"NE"},"type":"Feature","geometry":{"type":"Point","coordinates":[-96.185097,40.402073]}}],"is_temporal":false,"author":{"url":"http://www.corrections.state.ne.us/","metadata":"","contact_name":"","contact_address":"","source":"Nebraska Dept of Corrections","contact_phone":""},"source":"http://www.corrections.state.ne.us/","pagination":{"sort":null,"start":0,"total":6,"limit":1000000},"state":"complete","tags":"correctional,corrections,enforcement,institution,law,nebraska,prisons","published":"2008-05-07T12:00:00Z","id":475}