{"type":"FeatureCollection","data_type":"Dataset","url_type":null,"permissions":[{"permissions":{"download":true,"view":true},"group_id":"everyone"}],"classification":null,"title":"locales","count":1122,"stream_id":480171,"contributor":{"url":"http://geocommons.com/users/101893","name":"pcast"},"data_attributes":null,"calculation_params":null,"icon_link":null,"link":"http://geocommons.com/overlays/480171.json","extent":[0.0,0.0,0.0,0.0],"geometry_types":null,"unique_name":null,"name":"locales","feature_count":1122,"description":"","next_feature":null,"is_raster":false,"short_classification":"Y","features":[{"properties":{"zip":"5482","id":"aofij5vv4cch","state":"VA"},"type":"Feature","geometry":null},{"properties":{"zip":"42003","id":"aofij61h0mji","state":"KY"},"type":"Feature","geometry":null},{"properties":{"zip":"37421","id":"aofij5xv5v1b","state":"TN"},"type":"Feature","geometry":null},{"properties":{"zip":"37303","id":"aofij663qysp","state":"TN"},"type":"Feature","geometry":null},{"properties":{"zip":"37921","id":"aofij63onhda","state":"TN"},"type":"Feature","geometry":null},{"properties":{"zip":"37421","id":"aofij5vv1a5q","state":"TN"},"type":"Feature","geometry":null},{"properties":{"zip":"37303","id":"aofij5vo7pvm","state":"TN"},"type":"Feature","geometry":null},{"properties":{"zip":"37421","id":"aofij606vfha","state":"TN"},"type":"Feature","geometry":null},{"properties":{"zip":"37921","id":"aofij61qpaax","state":"TN"},"type":"Feature","geometry":null},{"properties":{"zip":"37303","id":"aofij5yxi3jr","state":"TN"},"type":"Feature","geometry":null},{"properties":{"zip":"37421","id":"aofij66eet4n","state":"TN"},"type":"Feature","geometry":null},{"properties":{"zip":"37421","id":"aofij5vtj6m7","state":"TN"},"type":"Feature","geometry":null},{"properties":{"zip":"37321","id":"aofij62z5bni","state":"TN"},"type":"Feature","geometry":null},{"properties":{"zip":"37921","id":"aofij63nbxro","state":"TN"},"type":"Feature","geometry":null},{"properties":{"zip":"37323","id":"aofij5zndjdc","state":"TN"},"type":"Feature","geometry":null},{"properties":{"zip":"42003","id":"aofij61r2bs4","state":"KY"},"type":"Feature","geometry":null},{"properties":{"zip":"42003","id":"aofij60nvrr3","state":"KY"},"type":"Feature","geometry":null},{"properties":{"zip":"37311","id":"aofij68ccni1","state":"TN"},"type":"Feature","geometry":null},{"properties":{"zip":"37303","id":"aofij5yhdkq2","state":"TN"},"type":"Feature","geometry":null},{"properties":{"zip":"37354","id":"aofij5vs9ih7","state":"TN"},"type":"Feature","geometry":null},{"properties":{"zip":"37921","id":"aofij6bfd6dx","state":"TN"},"type":"Feature","geometry":null},{"properties":{"zip":"37421","id":"aofij63hpa0b","state":"TN"},"type":"Feature","geometry":null},{"properties":{"zip":"37406","id":"aofij6ahfhwn","state":"TN"},"type":"Feature","geometry":null},{"properties":{"zip":"37321","id":"aofij63mtwyt","state":"TN"},"type":"Feature","geometry":null},{"properties":{"zip":"37321","id":"aofij66xd7lh","state":"TN"},"type":"Feature","geometry":null},{"properties":{"zip":"37421","id":"aofij5y7ruhu","state":"TN"},"type":"Feature","geometry":null},{"properties":{"zip":"30260","id":"aofij62ug2kd","state":"GA"},"type":"Feature","geometry":null},{"properties":{"zip":"37921","id":"aofij5zdvfc2","state":"TN"},"type":"Feature","geometry":null},{"properties":{"zip":"28734","id":"aofij616hnit","state":"NC"},"type":"Feature","geometry":null},{"properties":{"zip":"37303","id":"aofij65jj0gk","state":"TN"},"type":"Feature","geometry":null},{"properties":{"zip":"42003","id":"aofij5ykeqm0","state":"KY"},"type":"Feature","geometry":null},{"properties":{"zip":"60632","id":"aofij6a2r4kk","state":"IL"},"type":"Feature","geometry":null},{"properties":{"zip":"37406","id":"aofij5x4m0o4","state":"TN"},"type":"Feature","geometry":null},{"properties":{"zip":"37321","id":"aofij5wiypk9","state":"TN"},"type":"Feature","geometry":null},{"properties":{"zip":"37421","id":"aofij5xo2by0","state":"TN"},"type":"Feature","geometry":null},{"properties":{"zip":"42003","id":"aofij61jo641","state":"KY"},"type":"Feature","geometry":null},{"properties":{"zip":"37406","id":"aofij64i4efl","state":"TN"},"type":"Feature","geometry":null},{"properties":{"zip":"37421","id":"aofij656ien8","state":"TN"},"type":"Feature","geometry":null},{"properties":{"zip":"37921","id":"aofij6995f4d","state":"TN"},"type":"Feature","geometry":null},{"properties":{"zip":"28734","id":"aofij6bb0utc","state":"NC"},"type":"Feature","geometry":null},{"properties":{"zip":"37421","id":"aofij66amj1c","state":"TN"},"type":"Feature","geometry":null},{"properties":{"zip":"37303","id":"aofij65jdoxt","state":"TN"},"type":"Feature","geometry":null},{"properties":{"zip":"37405","id":"aofij61cjfl6","state":"TN"},"type":"Feature","geometry":null},{"properties":{"zip":"61354","id":"aofij670jq3g","state":"IL"},"type":"Feature","geometry":null},{"properties":{"zip":"37303","id":"aofij69sy6o1","state":"TN"},"type":"Feature","geometry":null},{"properties":{"zip":"37321","id":"aofij690wzmr","state":"TN"},"type":"Feature","geometry":null},{"properties":{"zip":"30045","id":"aofij636gh1z","state":"GA"},"type":"Feature","geometry":null},{"properties":{"zip":"37421","id":"aofij65824nm","state":"TN"},"type":"Feature","geometry":null},{"properties":{"zip":"37303","id":"aofij60o4xen","state":"TN"},"type":"Feature","geometry":null},{"properties":{"zip":"37406","id":"aofij64n9vg1","state":"TN"},"type":"Feature","geometry":null},{"properties":{"zip":"30045","id":"aofij68tf8ij","state":"GA"},"type":"Feature","geometry":null},{"properties":{"zip":"37921","id":"aofij5wbjupa","state":"TN"},"type":"Feature","geometry":null},{"properties":{"zip":"37921","id":"aofij68h940r","state":"TN"},"type":"Feature","geometry":null},{"properties":{"zip":"61354","id":"aofij5wwma25","state":"IL"},"type":"Feature","geometry":null},{"properties":{"zip":"37421","id":"aofij68dksko","state":"TN"},"type":"Feature","geometry":null},{"properties":{"zip":"43085","id":"aofij68hntdd","state":"OH"},"type":"Feature","geometry":null},{"properties":{"zip":"37421","id":"aofij65qotae","state":"TN"},"type":"Feature","geometry":null},{"properties":{"zip":"42003","id":"aofij69fmgxw","state":"KY"},"type":"Feature","geometry":null},{"properties":{"zip":"30045","id":"aofij67g9ux8","state":"GA"},"type":"Feature","geometry":null},{"properties":{"zip":"37921","id":"aofij66mez50","state":"TN"},"type":"Feature","geometry":null},{"properties":{"zip":"37421","id":"aofij696t98p","state":"TN"},"type":"Feature","geometry":null},{"properties":{"zip":"61354","id":"aofij5y9wtot","state":"IL"},"type":"Feature","geometry":null},{"properties":{"zip":"4103","id":"aofij5vfd3wj","state":"ME"},"type":"Feature","geometry":null},{"properties":{"zip":"37303","id":"aofij68v8tnz","state":"TN"},"type":"Feature","geometry":null},{"properties":{"zip":"37421","id":"aofij66amc4p","state":"TN"},"type":"Feature","geometry":null},{"properties":{"zip":"42003","id":"aofij63r8d14","state":"KY"},"type":"Feature","geometry":null},{"properties":{"zip":"37921","id":"aofij5z7h0xt","state":"TN"},"type":"Feature","geometry":null},{"properties":{"zip":"37013","id":"aofij5xxh5ad","state":"TN"},"type":"Feature","geometry":null},{"properties":{"zip":"37921","id":"aofij5y0mov5","state":"TN"},"type":"Feature","geometry":null},{"properties":{"zip":"37311","id":"aofij64v2xh3","state":"TN"},"type":"Feature","geometry":null},{"properties":{"zip":"61354","id":"aofij664p4bs","state":"IL"},"type":"Feature","geometry":null},{"properties":{"zip":"37421","id":"aofij61454ve","state":"TN"},"type":"Feature","geometry":null},{"properties":{"zip":"37311","id":"aofij64btjfx","state":"TN"},"type":"Feature","geometry":null},{"properties":{"zip":"37406","id":"aofij614el90","state":"TN"},"type":"Feature","geometry":null},{"properties":{"zip":"37421","id":"aofij62erfuo","state":"TN"},"type":"Feature","geometry":null},{"properties":{"zip":"37404","id":"aofij68ww2d1","state":"TN"},"type":"Feature","geometry":null},{"properties":{"zip":"37921","id":"aofij5wxqus0","state":"TN"},"type":"Feature","geometry":null},{"properties":{"zip":"30045","id":"aofij5vjs5r9","state":"GA"},"type":"Feature","geometry":null},{"properties":{"zip":"37921","id":"aofij600pkad","state":"TN"},"type":"Feature","geometry":null},{"properties":{"zip":"37919","id":"aofij686olp2","state":"TN"},"type":"Feature","geometry":null},{"properties":{"zip":"37321","id":"aofij6088pa3","state":"TN"},"type":"Feature","geometry":null},{"properties":{"zip":"37404","id":"aofij68u3f9y","state":"TN"},"type":"Feature","geometry":null},{"properties":{"zip":"30045","id":"aofij68x1r3y","state":"GA"},"type":"Feature","geometry":null},{"properties":{"zip":"37421","id":"aofij5v7z5zn","state":"TN"},"type":"Feature","geometry":null},{"properties":{"zip":"37321","id":"aofij685rirj","state":"TN"},"type":"Feature","geometry":null},{"properties":{"zip":"61354","id":"aofij65lbrqf","state":"IL"},"type":"Feature","geometry":null},{"properties":{"zip":"42003","id":"aofij65ck13n","state":"KY"},"type":"Feature","geometry":null},{"properties":{"zip":"37921","id":"aofij65e5m2j","state":"TN"},"type":"Feature","geometry":null},{"properties":{"zip":"55107","id":"aofij68tdfgv","state":"MN"},"type":"Feature","geometry":null},{"properties":{"zip":"37921","id":"aofij64brpsa","state":"TN"},"type":"Feature","geometry":null},{"properties":{"zip":"37421","id":"aofij5xxav8e","state":"TN"},"type":"Feature","geometry":null},{"properties":{"zip":"42003","id":"aofij5vajaje","state":"KY"},"type":"Feature","geometry":null},{"properties":{"zip":"37407","id":"aofij6aoneoq","state":"TN"},"type":"Feature","geometry":null},{"properties":{"zip":"30045","id":"aofij64j4s56","state":"GA"},"type":"Feature","geometry":null},{"properties":{"zip":"37404","id":"aofij6adcvdq","state":"TN"},"type":"Feature","geometry":null},{"properties":{"zip":"17402","id":"aofij693r0v8","state":"PA"},"type":"Feature","geometry":null},{"properties":{"zip":"28078","id":"aofij60auatt","state":"NC"},"type":"Feature","geometry":null},{"properties":{"zip":"37013","id":"aofij68eurms","state":"TN"},"type":"Feature","geometry":null},{"properties":{"zip":"30121","id":"aofij5yx59vd","state":"GA"},"type":"Feature","geometry":null},{"properties":{"zip":"37921","id":"aofij5vi13ns","state":"TN"},"type":"Feature","geometry":null},{"properties":{"zip":"60563","id":"aofij62fj864","state":"IL"},"type":"Feature","geometry":null},{"properties":{"zip":"30120","id":"aofij5vt0wuo","state":"GA"},"type":"Feature","geometry":null},{"properties":{"zip":"8701","id":"aofij60x4d0a","state":"NJ"},"type":"Feature","geometry":null},{"properties":{"zip":"21093","id":"aofij5x1r8he","state":"MD"},"type":"Feature","geometry":null},{"properties":{"zip":"46544","id":"aofij6b7ugdw","state":"IN"},"type":"Feature","geometry":null},{"properties":{"zip":"37303","id":"aofij5y8k7d9","state":"TN"},"type":"Feature","geometry":null},{"properties":{"zip":"37321","id":"aofij6bjd5ml","state":"TN"},"type":"Feature","geometry":null},{"properties":{"zip":"37407","id":"aofij66m8gt9","state":"TN"},"type":"Feature","geometry":null},{"properties":{"zip":"1089","id":"aofij64q0aqz","state":"MA"},"type":"Feature","geometry":null},{"properties":{"zip":"30263","id":"aofij63cqttr","state":"GA"},"type":"Feature","geometry":null},{"properties":{"zip":"21012","id":"aofij62xog65","state":"MD"},"type":"Feature","geometry":null},{"properties":{"zip":"30080","id":"aofij62for52","state":"GA"},"type":"Feature","geometry":null},{"properties":{"zip":"43537","id":"aofij68imq4m","state":"OH"},"type":"Feature","geometry":null},{"properties":{"zip":"75040","id":"aofij67lpfwg","state":"TX"},"type":"Feature","geometry":null},{"properties":{"zip":"19456","id":"aofij68fa7rd","state":"PA"},"type":"Feature","geometry":null},{"properties":{"zip":"7083","id":"aofij5vusdub","state":"NJ"},"type":"Feature","geometry":null},{"properties":{"zip":"27613","id":"aofij69zsue6","state":"NE"},"type":"Feature","geometry":null},{"properties":{"zip":"20109","id":"aofij5yahzd3","state":"VA"},"type":"Feature","geometry":null},{"properties":{"zip":"30742","id":"aofij5vix9q7","state":"GA"},"type":"Feature","geometry":null},{"properties":{"zip":"55413","id":"aofij67vmyqg","state":"MN"},"type":"Feature","geometry":null},{"properties":{"zip":"37311","id":"aofij61k1638","state":"TN"},"type":"Feature","geometry":null},{"properties":{"zip":"33314","id":"aofij680x0dc","state":"FL"},"type":"Feature","geometry":null},{"properties":{"zip":"49418","id":"aofij68m7w8k","state":"MI"},"type":"Feature","geometry":null},{"properties":{"zip":"17961","id":"aofij69693p1","state":"PA"},"type":"Feature","geometry":null},{"properties":{"zip":"61201","id":"aofij5xhni7z","state":"IL"},"type":"Feature","geometry":null},{"properties":{"zip":"55114","id":"aofij5yyd9t7","state":"MN"},"type":"Feature","geometry":null},{"properties":{"zip":"46256","id":"aofij67hkjxu","state":"IN"},"type":"Feature","geometry":null},{"properties":{"zip":"55107","id":"aofij69aqjqo","state":"MN"},"type":"Feature","geometry":null},{"properties":{"zip":"10940","id":"aofij62cg8ew","state":"NE"},"type":"Feature","geometry":null},{"properties":{"zip":"11706","id":"aofij5yybpwz","state":"NY"},"type":"Feature","geometry":null},{"properties":{"zip":"92647","id":"aofij5vl6lxo","state":"CA"},"type":"Feature","geometry":null},{"properties":{"zip":"18018","id":"aofij63wvapr","state":"PA"},"type":"Feature","geometry":null},{"properties":{"zip":"37407","id":"aofij692kbrs","state":"TN"},"type":"Feature","geometry":null},{"properties":{"zip":"60451","id":"aofij5wggxwg","state":"IL"},"type":"Feature","geometry":null},{"properties":{"zip":"64055","id":"aofij67iks8d","state":"ME"},"type":"Feature","geometry":null},{"properties":{"zip":"37421","id":"aofij69tb1nm","state":"TN"},"type":"Feature","geometry":null},{"properties":{"zip":"42003","id":"aofij69mnp08","state":"KY"},"type":"Feature","geometry":null},{"properties":{"zip":"37311","id":"aofij6543j5i","state":"TN"},"type":"Feature","geometry":null},{"properties":{"zip":"37013","id":"aofij60plqr8","state":"TN"},"type":"Feature","geometry":null},{"properties":{"zip":"30045","id":"aofij5ygm2m7","state":"GA"},"type":"Feature","geometry":null},{"properties":{"zip":"27616","id":"aofij63k02t2","state":"NC"},"type":"Feature","geometry":null},{"properties":{"zip":"48035","id":"aofij68pctn6","state":"MI"},"type":"Feature","geometry":null},{"properties":{"zip":"75040","id":"aofij6183so3","state":"TX"},"type":"Feature","geometry":null},{"properties":{"zip":"92071","id":"aofij685z2p9","state":"CA"},"type":"Feature","geometry":null},{"properties":{"zip":"95062","id":"aofij5y8xjmb","state":"CA"},"type":"Feature","geometry":null},{"properties":{"zip":"1089","id":"aofij5wsrltw","state":"MA"},"type":"Feature","geometry":null},{"properties":{"zip":"70403","id":"aofij622glx2","state":"LA"},"type":"Feature","geometry":null},{"properties":{"zip":"30134","id":"aofij5wpc1vh","state":"GA"},"type":"Feature","geometry":null},{"properties":{"zip":"18428","id":"aofij66zqef8","state":"PA"},"type":"Feature","geometry":null},{"properties":{"zip":"48393","id":"aofij61a2fto","state":"MI"},"type":"Feature","geometry":null},{"properties":{"zip":"30120","id":"aofij634pcn9","state":"GA"},"type":"Feature","geometry":null},{"properties":{"zip":"11772","id":"aofij5wzaxeo","state":"NY"},"type":"Feature","geometry":null},{"properties":{"zip":"98801","id":"aofij5xob55r","state":"WA"},"type":"Feature","geometry":null},{"properties":{"zip":"30045","id":"aofij627vny2","state":"GA"},"type":"Feature","geometry":null},{"properties":{"zip":"12065","id":"aofij5y8or5l","state":"NY"},"type":"Feature","geometry":null},{"properties":{"zip":"13316","id":"aofij5x4wcud","state":"NE"},"type":"Feature","geometry":null},{"properties":{"zip":"7047","id":"aofij661tv4x","state":"NJ"},"type":"Feature","geometry":null},{"properties":{"zip":"24012","id":"aofij61ueoct","state":"VA"},"type":"Feature","geometry":null},{"properties":{"zip":"60061","id":"aofij6786vv9","state":"IL"},"type":"Feature","geometry":null},{"properties":{"zip":"40741","id":"aofij60m7ywe","state":"KY"},"type":"Feature","geometry":null},{"properties":{"zip":"11706","id":"aofij66f0ttp","state":"NY"},"type":"Feature","geometry":null},{"properties":{"zip":"93117","id":"aofij62876q1","state":"CA"},"type":"Feature","geometry":null},{"properties":{"zip":"37406","id":"aofij65vh1l2","state":"TN"},"type":"Feature","geometry":null},{"properties":{"zip":"37321","id":"aofij61n8dxr","state":"TN"},"type":"Feature","geometry":null},{"properties":{"zip":"37303","id":"aofij66oa3uk","state":"TN"},"type":"Feature","geometry":null},{"properties":{"zip":"15106","id":"aofij5y946c8","state":"PA"},"type":"Feature","geometry":null},{"properties":{"zip":"44028","id":"aofij5wo075b","state":"OH"},"type":"Feature","geometry":null},{"properties":{"zip":"37343","id":"aofij5xfwp6i","state":"TN"},"type":"Feature","geometry":null},{"properties":{"zip":"11743","id":"aofij610qfdv","state":"NY"},"type":"Feature","geometry":null},{"properties":{"zip":"76542","id":"aofij61etbpi","state":"TX"},"type":"Feature","geometry":null},{"properties":{"zip":"22306","id":"aofij603o695","state":"VA"},"type":"Feature","geometry":null},{"properties":{"zip":"23234","id":"aofij664q69r","state":"VA"},"type":"Feature","geometry":null},{"properties":{"zip":"17961","id":"aofij60u4kc0","state":"PA"},"type":"Feature","geometry":null},{"properties":{"zip":"7083","id":"aofij6bfltw0","state":"NJ"},"type":"Feature","geometry":null},{"properties":{"zip":"37919","id":"aofij69gl74g","state":"TN"},"type":"Feature","geometry":null},{"properties":{"zip":"95776","id":"aofij67zq9rl","state":"CA"},"type":"Feature","geometry":null},{"properties":{"zip":"13027","id":"aofij5xwmjlz","state":"NY"},"type":"Feature","geometry":null},{"properties":{"zip":"11753","id":"aofij655xkwr","state":"NY"},"type":"Feature","geometry":null},{"properties":{"zip":"70433","id":"aofij6a4kwf6","state":"LA"},"type":"Feature","geometry":null},{"properties":{"zip":"85054","id":"aofij63pa5dj","state":"AZ"},"type":"Feature","geometry":null},{"properties":{"zip":"39401","id":"aofij5yjy3on","state":"MS"},"type":"Feature","geometry":null},{"properties":{"zip":"43537","id":"aofij67sgeib","state":"OH"},"type":"Feature","geometry":null},{"properties":{"zip":"20175","id":"aofij5xzua7f","state":"VA"},"type":"Feature","geometry":null},{"properties":{"zip":"37407","id":"aofij60cyryy","state":"TN"},"type":"Feature","geometry":null},{"properties":{"zip":"35020","id":"aofij629tnda","state":"AL"},"type":"Feature","geometry":null},{"properties":{"zip":"37421","id":"aofij5y4hhsa","state":"TN"},"type":"Feature","geometry":null},{"properties":{"zip":"37421","id":"aofij6bo32q8","state":"TN"},"type":"Feature","geometry":null},{"properties":{"zip":"93268","id":"aofij5z56x9k","state":"CA"},"type":"Feature","geometry":null},{"properties":{"zip":"61354","id":"aofij69btutq","state":"IL"},"type":"Feature","geometry":null},{"properties":{"zip":"32219","id":"aofij63i933r","state":"FL"},"type":"Feature","geometry":null},{"properties":{"zip":"28405","id":"aofij63098zf","state":"NC"},"type":"Feature","geometry":null},{"properties":{"zip":"33314","id":"aofij65eji54","state":"FL"},"type":"Feature","geometry":null},{"properties":{"zip":"33133","id":"aofij5yuj1k8","state":"FL"},"type":"Feature","geometry":null},{"properties":{"zip":"85716","id":"aofij5wsfriy","state":"AZ"},"type":"Feature","geometry":null},{"properties":{"zip":"39232","id":"aofij5vroe7i","state":"MS"},"type":"Feature","geometry":null},{"properties":{"zip":"32303","id":"aofij67m8r2d","state":"FL"},"type":"Feature","geometry":null},{"properties":{"zip":"33761","id":"aofij5xiuy3p","state":"FL"},"type":"Feature","geometry":null},{"properties":{"zip":"93455","id":"aofij5ya1ebw","state":"CA"},"type":"Feature","geometry":null},{"properties":{"zip":"37210","id":"aofij5yw9ldo","state":"TN"},"type":"Feature","geometry":null},{"properties":{"zip":"76542","id":"aofij63kx384","state":"TX"},"type":"Feature","geometry":null},{"properties":{"zip":"55413","id":"aofij61e1t31","state":"MN"},"type":"Feature","geometry":null},{"properties":{"zip":"4103","id":"aofij65tn2w6","state":"ME"},"type":"Feature","geometry":null},{"properties":{"zip":"7751","id":"aofij68fu0y6","state":"NJ"},"type":"Feature","geometry":null},{"properties":{"zip":"2119","id":"aofij5wwcbhq","state":"MA"},"type":"Feature","geometry":null},{"properties":{"zip":"64127","id":"aofij6225m70","state":"MO"},"type":"Feature","geometry":null},{"properties":{"zip":"23608","id":"aofij655nqz6","state":"VA"},"type":"Feature","geometry":null},{"properties":{"zip":"37921","id":"aofij6b7og12","state":"TN"},"type":"Feature","geometry":null},{"properties":{"zip":"25304","id":"aofij5y8u54m","state":"WV"},"type":"Feature","geometry":null},{"properties":{"zip":"33511","id":"aofij6b0cbcx","state":"FL"},"type":"Feature","geometry":null},{"properties":{"zip":"8701","id":"aofij69u0u98","state":"NJ"},"type":"Feature","geometry":null},{"properties":{"zip":"74010","id":"aofij5y6d8im","state":"OK"},"type":"Feature","geometry":null},{"properties":{"zip":"15102","id":"aofij5w94ck8","state":"PA"},"type":"Feature","geometry":null},{"properties":{"zip":"79404","id":"aofij642i1vn","state":"TX"},"type":"Feature","geometry":null},{"properties":{"zip":"37406","id":"aofij5yb0rcj","state":"TN"},"type":"Feature","geometry":null},{"properties":{"zip":"37421","id":"aofij67bs693","state":"TN"},"type":"Feature","geometry":null},{"properties":{"zip":"37921","id":"aofij6aus2km","state":"TN"},"type":"Feature","geometry":null},{"properties":{"zip":"90504","id":"aofij5w3eqkn","state":"CA"},"type":"Feature","geometry":null},{"properties":{"zip":"41042","id":"aofij5zg9vpg","state":"KY"},"type":"Feature","geometry":null},{"properties":{"zip":"45246","id":"aofij61muxxm","state":"OH"},"type":"Feature","geometry":null},{"properties":{"zip":"78717","id":"aofij62xb8uf","state":"TX"},"type":"Feature","geometry":null},{"properties":{"zip":"92071","id":"aofij6avh8g9","state":"CA"},"type":"Feature","geometry":null},{"properties":{"zip":"19131","id":"aofij5wm5lxm","state":"PA"},"type":"Feature","geometry":null},{"properties":{"zip":"17815","id":"aofij5wqmodk","state":"PA"},"type":"Feature","geometry":null},{"properties":{"zip":"19150","id":"aofij6bcpljs","state":"PA"},"type":"Feature","geometry":null},{"properties":{"zip":"2026","id":"aofij667vut3","state":"MA"},"type":"Feature","geometry":null},{"properties":{"zip":"48393","id":"aofij6719pv8","state":"MI"},"type":"Feature","geometry":null},{"properties":{"zip":"37919","id":"aofij6996de7","state":"TN"},"type":"Feature","geometry":null},{"properties":{"zip":"30114","id":"aofij6bgic3t","state":"GA"},"type":"Feature","geometry":null},{"properties":{"zip":"37421","id":"aofij6aoxbiu","state":"TN"},"type":"Feature","geometry":null},{"properties":{"zip":"27616","id":"aofij659knho","state":"NC"},"type":"Feature","geometry":null},{"properties":{"zip":"37921","id":"aofij685dd8l","state":"TN"},"type":"Feature","geometry":null},{"properties":{"zip":"61354","id":"aofij692oyrt","state":"IL"},"type":"Feature","geometry":null},{"properties":{"zip":"92336","id":"aofij69y0o58","state":"CA"},"type":"Feature","geometry":null},{"properties":{"zip":"37343","id":"aofij6arpc5s","state":"TN"},"type":"Feature","geometry":null},{"properties":{"zip":"37421","id":"aofij652rjkf","state":"TN"},"type":"Feature","geometry":null},{"properties":{"zip":"37407","id":"aofij6b8igbr","state":"TN"},"type":"Feature","geometry":null},{"properties":{"zip":"95123","id":"aofij6402lw6","state":"CA"},"type":"Feature","geometry":null},{"properties":{"zip":"41042","id":"aofij5z6ye63","state":"KY"},"type":"Feature","geometry":null},{"properties":{"zip":"67601","id":"aofij62po3oa","state":"KS"},"type":"Feature","geometry":null},{"properties":{"zip":"37421","id":"aofij62vigfc","state":"TN"},"type":"Feature","geometry":null},{"properties":{"zip":"97470","id":"aofij63bshb8","state":"OR"},"type":"Feature","geometry":null},{"properties":{"zip":"37407","id":"aofij6amwu6e","state":"TN"},"type":"Feature","geometry":null},{"properties":{"zip":"22306","id":"aofij6ax9t4l","state":"VA"},"type":"Feature","geometry":null},{"properties":{"zip":"7436","id":"aofij65n5441","state":"NJ"},"type":"Feature","geometry":null},{"properties":{"zip":"33133","id":"aofij63p66ys","state":"FL"},"type":"Feature","geometry":null},{"properties":{"zip":"91324","id":"aofij69jxpb8","state":"CA"},"type":"Feature","geometry":null},{"properties":{"zip":"20695","id":"aofij5wx0gf9","state":"MD"},"type":"Feature","geometry":null},{"properties":{"zip":"32256","id":"aofij6b16wnd","state":"FL"},"type":"Feature","geometry":null},{"properties":{"zip":"98188","id":"aofij61m6ws4","state":"WA"},"type":"Feature","geometry":null},{"properties":{"zip":"37303","id":"aofij5z4ppz2","state":"TN"},"type":"Feature","geometry":null},{"properties":{"zip":"29070","id":"aofij60at8vt","state":"SC"},"type":"Feature","geometry":null},{"properties":{"zip":"40218","id":"aofij64o0ptt","state":"KY"},"type":"Feature","geometry":null},{"properties":{"zip":"32609","id":"aofij69mcg0f","state":"FL"},"type":"Feature","geometry":null},{"properties":{"zip":"37211","id":"aofij5yimiba","state":"TN"},"type":"Feature","geometry":null},{"properties":{"zip":"93726","id":"aofij680bpxo","state":"CA"},"type":"Feature","geometry":null},{"properties":{"zip":"8816","id":"aofij5wnppcb","state":"NJ"},"type":"Feature","geometry":null},{"properties":{"zip":"78237","id":"aofij69afmnf","state":"TX"},"type":"Feature","geometry":null},{"properties":{"zip":"77429","id":"aofij5xrinpq","state":"TN"},"type":"Feature","geometry":null},{"properties":{"zip":"37421","id":"aofij66na8ru","state":"TN"},"type":"Feature","geometry":null},{"properties":{"zip":"37321","id":"aofij66p1fcp","state":"TN"},"type":"Feature","geometry":null},{"properties":{"zip":"37406","id":"aofij5vaut08","state":"TN"},"type":"Feature","geometry":null},{"properties":{"zip":"37921","id":"aofij6b4ab68","state":"TN"},"type":"Feature","geometry":null},{"properties":{"zip":"32068","id":"aofij62dmlly","state":"FL"},"type":"Feature","geometry":null},{"properties":{"zip":"93101","id":"aofij69kcfm2","state":"CA"},"type":"Feature","geometry":null},{"properties":{"zip":"42003","id":"aofij5vm3b4n","state":"KY"},"type":"Feature","geometry":null},{"properties":{"zip":"93036","id":"aofij5x72clq","state":"CA"},"type":"Feature","geometry":null},{"properties":{"zip":"11720","id":"aofij64boe4q","state":"NY"},"type":"Feature","geometry":null},{"properties":{"zip":"44047","id":"aofij66gefmr","state":"OH"},"type":"Feature","geometry":null},{"properties":{"zip":"33304","id":"aofij69i3ktj","state":"FL"},"type":"Feature","geometry":null},{"properties":{"zip":"33853","id":"aofij5zbff05","state":"FL"},"type":"Feature","geometry":null},{"properties":{"zip":"30047","id":"aofij667lt39","state":"GA"},"type":"Feature","geometry":null},{"properties":{"zip":"94124","id":"aofij64m7mne","state":"TN"},"type":"Feature","geometry":null},{"properties":{"zip":"84107","id":"aofij5xwmhkz","state":"UT"},"type":"Feature","geometry":null},{"properties":{"zip":"88310","id":"aofij62iszpi","state":"NM"},"type":"Feature","geometry":null},{"properties":{"zip":"37921","id":"aofij5xneuy7","state":"TN"},"type":"Feature","geometry":null},{"properties":{"zip":"33403","id":"aofij5xh8m70","state":"FL"},"type":"Feature","geometry":null},{"properties":{"zip":"37354","id":"aofij5vxb8e4","state":"TN"},"type":"Feature","geometry":null},{"properties":{"zip":"17756","id":"aofij65ymc3s","state":"PA"},"type":"Feature","geometry":null},{"properties":{"zip":"11215","id":"aofij667cba4","state":"NY"},"type":"Feature","geometry":null},{"properties":{"zip":"55107","id":"aofij641da10","state":"MN"},"type":"Feature","geometry":null},{"properties":{"zip":"37210","id":"aofij65ndxn2","state":"TN"},"type":"Feature","geometry":null},{"properties":{"zip":"95351","id":"aofij5vba5dk","state":"CA"},"type":"Feature","geometry":null},{"properties":{"zip":"91761","id":"aofij69lwwq4","state":"CA"},"type":"Feature","geometry":null},{"properties":{"zip":"29201","id":"aofij5w4lhs7","state":"SC"},"type":"Feature","geometry":null},{"properties":{"zip":"98052","id":"aofij6ar1c3i","state":"WA"},"type":"Feature","geometry":null},{"properties":{"zip":"28078","id":"aofij60wovab","state":"NC"},"type":"Feature","geometry":null},{"properties":{"zip":"60938","id":"aofij691mbfr","state":"IL"},"type":"Feature","geometry":null},{"properties":{"zip":"21613","id":"aofij64sdusl","state":"MD"},"type":"Feature","geometry":null},{"properties":{"zip":"30318","id":"aofij67fbljm","state":"GA"},"type":"Feature","geometry":null},{"properties":{"zip":"39401","id":"aofij5xtcwlv","state":"MS"},"type":"Feature","geometry":null},{"properties":{"zip":"37311","id":"aofij5zmysi9","state":"TN"},"type":"Feature","geometry":null},{"properties":{"zip":"44231","id":"aofij66q75dk","state":"OH"},"type":"Feature","geometry":null},{"properties":{"zip":"18017","id":"aofij5yncvj3","state":"PA"},"type":"Feature","geometry":null},{"properties":{"zip":"11422","id":"aofij64xr937","state":"NY"},"type":"Feature","geometry":null},{"properties":{"zip":"30265","id":"aofij65sogvs","state":"GA"},"type":"Feature","geometry":null},{"properties":{"zip":"85249","id":"aofij63oou0p","state":"AZ"},"type":"Feature","geometry":null},{"properties":{"zip":"80601","id":"aofij6asmbtr","state":"CO"},"type":"Feature","geometry":null},{"properties":{"zip":"77598","id":"aofij5xt8qqf","state":"TX"},"type":"Feature","geometry":null},{"properties":{"zip":"93036","id":"aofij67bsau1","state":"CA"},"type":"Feature","geometry":null},{"properties":{"zip":"37013","id":"aofij67rmh6t","state":"TN"},"type":"Feature","geometry":null},{"properties":{"zip":"53901","id":"aofij61ugicr","state":"WI"},"type":"Feature","geometry":null},{"properties":{"zip":"31405","id":"aofij66pu84c","state":"GA"},"type":"Feature","geometry":null},{"properties":{"zip":"32958","id":"aofij6adddvi","state":"FL"},"type":"Feature","geometry":null},{"properties":{"zip":"32219","id":"aofij64d76nf","state":"FL"},"type":"Feature","geometry":null},{"properties":{"zip":"94583","id":"aofij6apru5u","state":"CA"},"type":"Feature","geometry":null},{"properties":{"zip":"61107","id":"aofij5wfl9w3","state":"IL"},"type":"Feature","geometry":null},{"properties":{"zip":"61611","id":"aofij6awjstw","state":"IL"},"type":"Feature","geometry":null},{"properties":{"zip":"44028","id":"aofij65yi4m0","state":"OH"},"type":"Feature","geometry":null},{"properties":{"zip":"12345","id":"aofij60ktqju","state":"LA"},"type":"Feature","geometry":null},{"properties":{"zip":"91762","id":"aofij5vhif9r","state":"CA"},"type":"Feature","geometry":null},{"properties":{"zip":"30045","id":"aofij69rwcps","state":"GA"},"type":"Feature","geometry":null},{"properties":{"zip":"92807","id":"aofij63obheg","state":"CA"},"type":"Feature","geometry":null},{"properties":{"zip":"60563","id":"aofij667ju55","state":"IL"},"type":"Feature","geometry":null},{"properties":{"zip":"35756","id":"aofij68lyg42","state":"AL"},"type":"Feature","geometry":null},{"properties":{"zip":"88101","id":"aofij65j4nfp","state":"NM"},"type":"Feature","geometry":null},{"properties":{"zip":"54303","id":"aofij5yb55po","state":"WI"},"type":"Feature","geometry":null},{"properties":{"zip":"22044","id":"aofij6713gkg","state":"VA"},"type":"Feature","geometry":null},{"properties":{"zip":"38017","id":"aofij605zkzn","state":"TN"},"type":"Feature","geometry":null},{"properties":{"zip":"20772","id":"aofij5x918av","state":"MD"},"type":"Feature","geometry":null},{"properties":{"zip":"33458","id":"aofij5zpa41q","state":"FL"},"type":"Feature","geometry":null},{"properties":{"zip":"16823","id":"aofij620nvky","state":"PA"},"type":"Feature","geometry":null},{"properties":{"zip":"16830","id":"aofij69iy9yf","state":"PA"},"type":"Feature","geometry":null},{"properties":{"zip":"33311","id":"aofij61tf1v3","state":"FL"},"type":"Feature","geometry":null},{"properties":{"zip":"79703","id":"aofij62f1140","state":"TX"},"type":"Feature","geometry":null},{"properties":{"zip":"28314","id":"aofij6agfhue","state":"NC"},"type":"Feature","geometry":null},{"properties":{"zip":"99208","id":"aofij640nlnv","state":"WA"},"type":"Feature","geometry":null},{"properties":{"zip":"18840","id":"aofij5wk3n49","state":"PA"},"type":"Feature","geometry":null},{"properties":{"zip":"83501","id":"aofij6adgry1","state":"ID"},"type":"Feature","geometry":null},{"properties":{"zip":"85260","id":"aofij5vpctcl","state":"AZ"},"type":"Feature","geometry":null},{"properties":{"zip":"99212","id":"aofij6be66nl","state":"WA"},"type":"Feature","geometry":null},{"properties":{"zip":"37303","id":"aofij6a41h1b","state":"TN"},"type":"Feature","geometry":null},{"properties":{"zip":"89103","id":"aofij61qi8yw","state":"NV"},"type":"Feature","geometry":null},{"properties":{"zip":"14228","id":"aofij66f2fdz","state":"NY"},"type":"Feature","geometry":null},{"properties":{"zip":"77095","id":"aofij63kl5fh","state":"TX"},"type":"Feature","geometry":null},{"properties":{"zip":"30742","id":"aofij5x63xie","state":"GA"},"type":"Feature","geometry":null},{"properties":{"zip":"11433","id":"aofij6avsyo7","state":"NY"},"type":"Feature","geometry":null},{"properties":{"zip":"85206","id":"aofij69ckvd7","state":"AZ"},"type":"Feature","geometry":null},{"properties":{"zip":"37013","id":"aofij6ari0kx","state":"TN"},"type":"Feature","geometry":null},{"properties":{"zip":"37421","id":"aofij5xvughu","state":"TN"},"type":"Feature","geometry":null},{"properties":{"zip":"8701","id":"aofij649cvpi","state":"NJ"},"type":"Feature","geometry":null},{"properties":{"zip":"37421","id":"aofij6alc2pv","state":"TN"},"type":"Feature","geometry":null},{"properties":{"zip":"27616","id":"aofij5ze52hv","state":"NC"},"type":"Feature","geometry":null},{"properties":{"zip":"12345","id":"aofij64qw15e","state":"LA"},"type":"Feature","geometry":null},{"properties":{"zip":"37407","id":"aofij6aczfnx","state":"TN"},"type":"Feature","geometry":null},{"properties":{"zip":"30134","id":"aofij648sesv","state":"GA"},"type":"Feature","geometry":null},{"properties":{"zip":"93036","id":"aofij62l1o16","state":"CA"},"type":"Feature","geometry":null},{"properties":{"zip":"30084","id":"aofij667wfzb","state":"GA"},"type":"Feature","geometry":null},{"properties":{"zip":"37343","id":"aofij6b9z6vt","state":"TN"},"type":"Feature","geometry":null},{"properties":{"zip":"30742","id":"aofij6b4t4ui","state":"NH"},"type":"Feature","geometry":null},{"properties":{"zip":"90065","id":"aofij65ioaq9","state":"CA"},"type":"Feature","geometry":null},{"properties":{"zip":"92807","id":"aofij5wl528w","state":"CA"},"type":"Feature","geometry":null},{"properties":{"zip":"30742","id":"aofij5we9up3","state":"GA"},"type":"Feature","geometry":null},{"properties":{"zip":"79404","id":"aofij680ztb7","state":"TX"},"type":"Feature","geometry":null},{"properties":{"zip":"32940","id":"aofij69sxzs6","state":"FL"},"type":"Feature","geometry":null},{"properties":{"zip":"55413","id":"aofij62ag2ea","state":"MN"},"type":"Feature","geometry":null},{"properties":{"zip":"2370","id":"aofij655qabw","state":"MD"},"type":"Feature","geometry":null},{"properties":{"zip":"21401","id":"aofij68q8x6s","state":"MD"},"type":"Feature","geometry":null},{"properties":{"zip":"32958","id":"aofij6847wfg","state":"FL"},"type":"Feature","geometry":null},{"properties":{"zip":"44515","id":"aofij5wai50f","state":"OH"},"type":"Feature","geometry":null},{"properties":{"zip":"37407","id":"aofij67y19oc","state":"TN"},"type":"Feature","geometry":null},{"properties":{"zip":"30045","id":"aofij66gwyjb","state":"GA"},"type":"Feature","geometry":null},{"properties":{"zip":"94587","id":"aofij5xhb75n","state":"CA"},"type":"Feature","geometry":null},{"properties":{"zip":"92223","id":"aofij5yc5zq4","state":"CA"},"type":"Feature","geometry":null},{"properties":{"zip":"84062","id":"aofij65glg9c","state":"UT"},"type":"Feature","geometry":null},{"properties":{"zip":"37921","id":"aofij69iq030","state":"TN"},"type":"Feature","geometry":null},{"properties":{"zip":"99208","id":"aofij6aycop0","state":"WA"},"type":"Feature","geometry":null},{"properties":{"zip":"37370","id":"aofij616ob9w","state":"TN"},"type":"Feature","geometry":null},{"properties":{"zip":"37407","id":"aofij64o5zrz","state":"TN"},"type":"Feature","geometry":null},{"properties":{"zip":"33404","id":"aofij5vcjoww","state":"FL"},"type":"Feature","geometry":null},{"properties":{"zip":"85297","id":"aofij62lk7r6","state":"AZ"},"type":"Feature","geometry":null},{"properties":{"zip":"32548","id":"aofij611grma","state":"FL"},"type":"Feature","geometry":null},{"properties":{"zip":"55107","id":"aofij608q2jj","state":"MN"},"type":"Feature","geometry":null},{"properties":{"zip":"98012","id":"aofij63vsn2e","state":"WA"},"type":"Feature","geometry":null},{"properties":{"zip":"79720","id":"aofij5zgaukp","state":"TX"},"type":"Feature","geometry":null},{"properties":{"zip":"91504","id":"aofij5yg3zvp","state":"CA"},"type":"Feature","geometry":null},{"properties":{"zip":"98321","id":"aofij67y8ikr","state":"WA"},"type":"Feature","geometry":null},{"properties":{"zip":"30144","id":"aofij5zqjspy","state":"GA"},"type":"Feature","geometry":null},{"properties":{"zip":"33411","id":"aofij64vwnia","state":"FL"},"type":"Feature","geometry":null},{"properties":{"zip":"33411","id":"aofij5z04di5","state":"FL"},"type":"Feature","geometry":null},{"properties":{"zip":"37129","id":"aofij64aomwa","state":"TN"},"type":"Feature","geometry":null},{"properties":{"zip":"28655","id":"aofij5wqe29d","state":"NE"},"type":"Feature","geometry":null},{"properties":{"zip":"43926","id":"aofij62ths2w","state":"OH"},"type":"Feature","geometry":null},{"properties":{"zip":"15501","id":"aofij638doyv","state":"PA"},"type":"Feature","geometry":null},{"properties":{"zip":"60164","id":"aofij5vjexs1","state":"IL"},"type":"Feature","geometry":null},{"properties":{"zip":"35401","id":"aofij63l3lme","state":"AL"},"type":"Feature","geometry":null},{"properties":{"zip":"92405","id":"aofij698t8ds","state":"CA"},"type":"Feature","geometry":null},{"properties":{"zip":"97470","id":"aofij5z0xbpb","state":"OR"},"type":"Feature","geometry":null},{"properties":{"zip":"39208","id":"aofij5wfem9d","state":"MS"},"type":"Feature","geometry":null},{"properties":{"zip":"83402","id":"aofij60udtrw","state":"ID"},"type":"Feature","geometry":null},{"properties":{"zip":"84401","id":"aofij60wmn0m","state":"UT"},"type":"Feature","geometry":null},{"properties":{"zip":"21207","id":"aofij66roofk","state":"MD"},"type":"Feature","geometry":null},{"properties":{"zip":"8075","id":"aofij5xf5edc","state":"NJ"},"type":"Feature","geometry":null},{"properties":{"zip":"47172","id":"aofij687v3u4","state":"IN"},"type":"Feature","geometry":null},{"properties":{"zip":"93534","id":"aofij5zpwoc7","state":"CA"},"type":"Feature","geometry":null},{"properties":{"zip":"32219","id":"aofij6ap02oe","state":"FL"},"type":"Feature","geometry":null},{"properties":{"zip":"95833","id":"aofij67g9mwl","state":"CA"},"type":"Feature","geometry":null},{"properties":{"zip":"37421","id":"aofij60a8nwx","state":"TN"},"type":"Feature","geometry":null},{"properties":{"zip":"29464","id":"aofij63tkt2a","state":"SC"},"type":"Feature","geometry":null},{"properties":{"zip":"6706","id":"aofij6b0e50l","state":"CT"},"type":"Feature","geometry":null},{"properties":{"zip":"89145","id":"aofij62z7oq9","state":"NV"},"type":"Feature","geometry":null},{"properties":{"zip":"5001","id":"aofij6b2jqmc","state":"TN"},"type":"Feature","geometry":null},{"properties":{"zip":"39401","id":"aofij698v7qc","state":"MS"},"type":"Feature","geometry":null},{"properties":{"zip":"90731","id":"aofij61o2m8k","state":"CA"},"type":"Feature","geometry":null},{"properties":{"zip":"37421","id":"aofij5xmfmke","state":"TN"},"type":"Feature","geometry":null},{"properties":{"zip":"85018","id":"aofij64e6ry2","state":"AZ"},"type":"Feature","geometry":null},{"properties":{"zip":"20110","id":"aofij5x0l1l5","state":"VA"},"type":"Feature","geometry":null},{"properties":{"zip":"79701","id":"aofij66if7jq","state":"TN"},"type":"Feature","geometry":null},{"properties":{"zip":"79701","id":"aofij60k16wm","state":"TX"},"type":"Feature","geometry":null},{"properties":{"zip":"44028","id":"aofij69340pw","state":"OH"},"type":"Feature","geometry":null},{"properties":{"zip":"33624","id":"aofij68uu7ur","state":"FL"},"type":"Feature","geometry":null},{"properties":{"zip":"37210","id":"aofij66x2fqb","state":"TN"},"type":"Feature","geometry":null},{"properties":{"zip":"37404","id":"aofij6bj5z9f","state":"TN"},"type":"Feature","geometry":null},{"properties":{"zip":"94109","id":"aofij5vjgddx","state":"CA"},"type":"Feature","geometry":null},{"properties":{"zip":"60803","id":"aofij678a0pv","state":"IL"},"type":"Feature","geometry":null},{"properties":{"zip":"84107","id":"aofij5x8nnzd","state":"UT"},"type":"Feature","geometry":null},{"properties":{"zip":"78148","id":"aofij66yivgj","state":"TX"},"type":"Feature","geometry":null},{"properties":{"zip":"90755","id":"aofij60ujrl4","state":"CA"},"type":"Feature","geometry":null},{"properties":{"zip":"37311","id":"aofij5x3npo7","state":"TN"},"type":"Feature","geometry":null},{"properties":{"zip":"92392","id":"aofij686s7i5","state":"CA"},"type":"Feature","geometry":null},{"properties":{"zip":"17961","id":"aofij68z4gst","state":"PA"},"type":"Feature","geometry":null},{"properties":{"zip":"37932","id":"aofij64o2xp2","state":"TN"},"type":"Feature","geometry":null},{"properties":{"zip":"70726","id":"aofij5xb7zyy","state":"LA"},"type":"Feature","geometry":null},{"properties":{"zip":"98012","id":"aofij69xwf45","state":"WA"},"type":"Feature","geometry":null},{"properties":{"zip":"61354","id":"aofij5zrf9o2","state":"IL"},"type":"Feature","geometry":null},{"properties":{"zip":"16823","id":"aofij62yn6t2","state":"PA"},"type":"Feature","geometry":null},{"properties":{"zip":"39441","id":"aofij67fpo2w","state":"MS"},"type":"Feature","geometry":null},{"properties":{"zip":"33166","id":"aofij66uj9tc","state":"FL"},"type":"Feature","geometry":null},{"properties":{"zip":"37921","id":"aofij64rdhbf","state":"TN"},"type":"Feature","geometry":null},{"properties":{"zip":"37321","id":"aofij63i37kn","state":"TN"},"type":"Feature","geometry":null},{"properties":{"zip":"42104","id":"aofij5z87au4","state":"KY"},"type":"Feature","geometry":null},{"properties":{"zip":"18235","id":"aofij613l051","state":"PA"},"type":"Feature","geometry":null},{"properties":{"zip":"11219","id":"aofij68n43aw","state":"NY"},"type":"Feature","geometry":null},{"properties":{"zip":"91502","id":"aofij5xsjth4","state":"CA"},"type":"Feature","geometry":null},{"properties":{"zip":"94520","id":"aofij68mx3dj","state":"CA"},"type":"Feature","geometry":null},{"properties":{"zip":"7046","id":"aofij61f1i59","state":"NJ"},"type":"Feature","geometry":null},{"properties":{"zip":"89512","id":"aofij62vygnu","state":"NV"},"type":"Feature","geometry":null},{"properties":{"zip":"32208","id":"aofij5xe94sj","state":"FL"},"type":"Feature","geometry":null},{"properties":{"zip":"78626","id":"aofij63qt2e5","state":"TX"},"type":"Feature","geometry":null},{"properties":{"zip":"37406","id":"aofij5yxnlqy","state":"TN"},"type":"Feature","geometry":null},{"properties":{"zip":"32256","id":"aofij659cq8o","state":"FL"},"type":"Feature","geometry":null},{"properties":{"zip":"46320","id":"aofij67yfvl7","state":"IN"},"type":"Feature","geometry":null},{"properties":{"zip":"24502","id":"aofij673y96x","state":"VA"},"type":"Feature","geometry":null},{"properties":{"zip":"57703","id":"aofij65m5hr8","state":"SD"},"type":"Feature","geometry":null},{"properties":{"zip":"4103","id":"aofij6bj170f","state":"ME"},"type":"Feature","geometry":null},{"properties":{"zip":"18640","id":"aofij5xtpu3g","state":"PA"},"type":"Feature","geometry":null},{"properties":{"zip":"97355","id":"aofij68rbazm","state":"OR"},"type":"Feature","geometry":null},{"properties":{"zip":"29621","id":"aofij661fdpf","state":"SC"},"type":"Feature","geometry":null},{"properties":{"zip":"30045","id":"aofij61qanx9","state":"GA"},"type":"Feature","geometry":null},{"properties":{"zip":"37354","id":"aofij63gaii9","state":"TN"},"type":"Feature","geometry":null},{"properties":{"zip":"92336","id":"aofij6916z7x","state":"CA"},"type":"Feature","geometry":null},{"properties":{"zip":"37312","id":"aofij5yus5y7","state":"TN"},"type":"Feature","geometry":null},{"properties":{"zip":"27587","id":"aofij63610sz","state":"NC"},"type":"Feature","geometry":null},{"properties":{"zip":"37303","id":"aofij5zcjlbg","state":"TN"},"type":"Feature","geometry":null},{"properties":{"zip":"20194","id":"aofij631lkrh","state":"VA"},"type":"Feature","geometry":null},{"properties":{"zip":"90720","id":"aofij6bg28wv","state":"CA"},"type":"Feature","geometry":null},{"properties":{"zip":"23602","id":"aofij69o9igf","state":"VA"},"type":"Feature","geometry":null},{"properties":{"zip":"38668","id":"aofij5x589dg","state":"MS"},"type":"Feature","geometry":null},{"properties":{"zip":"38637","id":"aofij5zbo6cy","state":"MS"},"type":"Feature","geometry":null},{"properties":{"zip":"29615","id":"aofij690xbbf","state":"SC"},"type":"Feature","geometry":null},{"properties":{"zip":"75605","id":"aofij5yjfvn3","state":"TX"},"type":"Feature","geometry":null},{"properties":{"zip":"60031","id":"aofij61vkxpx","state":"IL"},"type":"Feature","geometry":null},{"properties":{"zip":"60061","id":"aofij60181ie","state":"IL"},"type":"Feature","geometry":null},{"properties":{"zip":"60031","id":"aofij65yv2v3","state":"IL"},"type":"Feature","geometry":null},{"properties":{"zip":"42003","id":"aofij5y92gid","state":"KY"},"type":"Feature","geometry":null},{"properties":{"zip":"95336","id":"aofij5xtudqj","state":"CA"},"type":"Feature","geometry":null},{"properties":{"zip":"80751","id":"aofij6bhwo65","state":"CO"},"type":"Feature","geometry":null},{"properties":{"zip":"98391","id":"aofij5zr8a0l","state":"WA"},"type":"Feature","geometry":null},{"properties":{"zip":"27502","id":"aofij6b2f585","state":"NC"},"type":"Feature","geometry":null},{"properties":{"zip":"29615","id":"aofij5zg0zbz","state":"SC"},"type":"Feature","geometry":null},{"properties":{"zip":"95356","id":"aofij64hs3pf","state":"CA"},"type":"Feature","geometry":null},{"properties":{"zip":"72404","id":"aofij5w2jkxt","state":"AR"},"type":"Feature","geometry":null},{"properties":{"zip":"30045","id":"aofij5wv6j3z","state":"GA"},"type":"Feature","geometry":null},{"properties":{"zip":"74120","id":"aofij5w43q28","state":"OK"},"type":"Feature","geometry":null},{"properties":{"zip":"6334","id":"aofij60hqf9o","state":"CT"},"type":"Feature","geometry":null},{"properties":{"zip":"16823","id":"aofij68zibpo","state":"PA"},"type":"Feature","geometry":null},{"properties":{"zip":"6241","id":"aofij68far43","state":"CT"},"type":"Feature","geometry":null},{"properties":{"zip":"37406","id":"aofij5vozz0x","state":"TN"},"type":"Feature","geometry":null},{"properties":{"zip":"28269","id":"aofij622yx93","state":"NC"},"type":"Feature","geometry":null},{"properties":{"zip":"37013","id":"aofij63mg8w9","state":"TN"},"type":"Feature","geometry":null},{"properties":{"zip":"37343","id":"aofij6687196","state":"TN"},"type":"Feature","geometry":null},{"properties":{"zip":"10024","id":"aofij5w353fu","state":"NY"},"type":"Feature","geometry":null},{"properties":{"zip":"37932","id":"aofij66nkrrb","state":"TN"},"type":"Feature","geometry":null},{"properties":{"zip":"89445","id":"aofij6a6u6ar","state":"NV"},"type":"Feature","geometry":null},{"properties":{"zip":"92046","id":"aofij61ieojb","state":"TN"},"type":"Feature","geometry":null},{"properties":{"zip":"30263","id":"aofij5z9rhni","state":"GA"},"type":"Feature","geometry":null},{"properties":{"zip":"37407","id":"aofij6870zt5","state":"TN"},"type":"Feature","geometry":null},{"properties":{"zip":"92553","id":"aofij64rjrx1","state":"CA"},"type":"Feature","geometry":null},{"properties":{"zip":"30080","id":"aofij651nnpy","state":"GA"},"type":"Feature","geometry":null},{"properties":{"zip":"30045","id":"aofij5z7m0ui","state":"GA"},"type":"Feature","geometry":null},{"properties":{"zip":"37407","id":"aofij5yq4jlg","state":"TN"},"type":"Feature","geometry":null},{"properties":{"zip":"30114","id":"aofij5x6nian","state":"GA"},"type":"Feature","geometry":null},{"properties":{"zip":"37421","id":"aofij6353q7r","state":"TN"},"type":"Feature","geometry":null},{"properties":{"zip":"1075","id":"aofij61r9jj3","state":"MA"},"type":"Feature","geometry":null},{"properties":{"zip":"37921","id":"aofij5ynmicr","state":"TN"},"type":"Feature","geometry":null},{"properties":{"zip":"75247","id":"aofij63p5kvy","state":"TX"},"type":"Feature","geometry":null},{"properties":{"zip":"85201","id":"aofij609902h","state":"AZ"},"type":"Feature","geometry":null},{"properties":{"zip":"61354","id":"aofij69s5io7","state":"IL"},"type":"Feature","geometry":null},{"properties":{"zip":"29492","id":"aofij6a8vlix","state":"SC"},"type":"Feature","geometry":null},{"properties":{"zip":"60803","id":"aofij6bm7kxf","state":"IL"},"type":"Feature","geometry":null},{"properties":{"zip":"37311","id":"aofij5yu2zgx","state":"TN"},"type":"Feature","geometry":null},{"properties":{"zip":"97402","id":"aofij63jkakd","state":"OR"},"type":"Feature","geometry":null},{"properties":{"zip":"44646","id":"aofij63q1506","state":"OH"},"type":"Feature","geometry":null},{"properties":{"zip":"50266","id":"aofij5w1qona","state":"IA"},"type":"Feature","geometry":null},{"properties":{"zip":"44280","id":"aofij61h38fs","state":"OH"},"type":"Feature","geometry":null},{"properties":{"zip":"30742","id":"aofij67mg0jx","state":"GA"},"type":"Feature","geometry":null},{"properties":{"zip":"70503","id":"aofij69xknpk","state":"LA"},"type":"Feature","geometry":null},{"properties":{"zip":"37421","id":"aofij68caskk","state":"TN"},"type":"Feature","geometry":null},{"properties":{"zip":"37919","id":"aofij6ak9it3","state":"TN"},"type":"Feature","geometry":null},{"properties":{"zip":"37921","id":"aofij5xi5py2","state":"TN"},"type":"Feature","geometry":null},{"properties":{"zip":"33403","id":"aofij605aw9v","state":"FL"},"type":"Feature","geometry":null},{"properties":{"zip":"43950","id":"aofij5wuxcn4","state":"OH"},"type":"Feature","geometry":null},{"properties":{"zip":"37210","id":"aofij611me6m","state":"TN"},"type":"Feature","geometry":null},{"properties":{"zip":"31792","id":"aofij5yur3nh","state":"GA"},"type":"Feature","geometry":null},{"properties":{"zip":"95928","id":"aofij5ztou8v","state":"CA"},"type":"Feature","geometry":null},{"properties":{"zip":"32958","id":"aofij63jluih","state":"FL"},"type":"Feature","geometry":null},{"properties":{"zip":"37421","id":"aofij63d12dj","state":"TN"},"type":"Feature","geometry":null},{"properties":{"zip":"95123","id":"aofij60nn0t4","state":"CA"},"type":"Feature","geometry":null},{"properties":{"zip":"91504","id":"aofij69pfx42","state":"CA"},"type":"Feature","geometry":null},{"properties":{"zip":"37421","id":"aofij6a25rkg","state":"TN"},"type":"Feature","geometry":null},{"properties":{"zip":"72106","id":"aofij61uc8d1","state":"AZ"},"type":"Feature","geometry":null},{"properties":{"zip":"90065","id":"aofij5w4d1qq","state":"CA"},"type":"Feature","geometry":null},{"properties":{"zip":"93268","id":"aofij68mjtf6","state":"CA"},"type":"Feature","geometry":null},{"properties":{"zip":"23602","id":"aofij6497h32","state":"VA"},"type":"Feature","geometry":null},{"properties":{"zip":"37406","id":"aofij633zj20","state":"TN"},"type":"Feature","geometry":null},{"properties":{"zip":"37421","id":"aofij651b34v","state":"TN"},"type":"Feature","geometry":null},{"properties":{"zip":"37321","id":"aofij63xw0oq","state":"TN"},"type":"Feature","geometry":null},{"properties":{"zip":"32219","id":"aofij68iley8","state":"FL"},"type":"Feature","geometry":null},{"properties":{"zip":"37421","id":"aofij6b3tihp","state":"TN"},"type":"Feature","geometry":null},{"properties":{"zip":"40510","id":"aofij5x9gp3o","state":"KY"},"type":"Feature","geometry":null},{"properties":{"zip":"11251","id":"aofij6atq2ra","state":"NY"},"type":"Feature","geometry":null},{"properties":{"zip":"37303","id":"aofij5w6jmbe","state":"TN"},"type":"Feature","geometry":null},{"properties":{"zip":"30742","id":"aofij6ai22ke","state":"GA"},"type":"Feature","geometry":null},{"properties":{"zip":"92025","id":"aofij626upks","state":"CA"},"type":"Feature","geometry":null},{"properties":{"zip":"50313","id":"aofij60i271n","state":"IA"},"type":"Feature","geometry":null},{"properties":{"zip":"92591","id":"aofij5wgde5q","state":"CA"},"type":"Feature","geometry":null},{"properties":{"zip":"73096","id":"aofij6bcz2am","state":"OK"},"type":"Feature","geometry":null},{"properties":{"zip":"1107","id":"aofij5xpuhmf","state":"MA"},"type":"Feature","geometry":null},{"properties":{"zip":"6042","id":"aofij5ybdvhr","state":"CT"},"type":"Feature","geometry":null},{"properties":{"zip":"55378","id":"aofij68xn0d7","state":"MN"},"type":"Feature","geometry":null},{"properties":{"zip":"19713","id":"aofij61p0o4e","state":"DE"},"type":"Feature","geometry":null},{"properties":{"zip":"32114","id":"aofij6bjz8uw","state":"FL"},"type":"Feature","geometry":null},{"properties":{"zip":"37421","id":"aofij5xggj4c","state":"TN"},"type":"Feature","geometry":null},{"properties":{"zip":"7095","id":"aofij69l8nmj","state":"NJ"},"type":"Feature","geometry":null},{"properties":{"zip":"71301","id":"aofij61j1kdo","state":"LA"},"type":"Feature","geometry":null},{"properties":{"zip":"70452","id":"aofij6a7jbnq","state":"LA"},"type":"Feature","geometry":null},{"properties":{"zip":"94085","id":"aofij5xgiijb","state":"CA"},"type":"Feature","geometry":null},{"properties":{"zip":"98012","id":"aofij60h52h6","state":"WA"},"type":"Feature","geometry":null},{"properties":{"zip":"33166","id":"aofij6ammvdd","state":"FL"},"type":"Feature","geometry":null},{"properties":{"zip":"23454","id":"aofij5w7z7rr","state":"VA"},"type":"Feature","geometry":null},{"properties":{"zip":"37347","id":"aofij60twvh1","state":"TN"},"type":"Feature","geometry":null},{"properties":{"zip":"91601","id":"aofij62xo7dy","state":"CA"},"type":"Feature","geometry":null},{"properties":{"zip":"4103","id":"aofij5xhzabg","state":"ME"},"type":"Feature","geometry":null},{"properties":{"zip":"11237","id":"aofij69stoac","state":"NY"},"type":"Feature","geometry":null},{"properties":{"zip":"98055","id":"aofij60ufer1","state":"WA"},"type":"Feature","geometry":null},{"properties":{"zip":"63143","id":"aofij6961dab","state":"MO"},"type":"Feature","geometry":null},{"properties":{"zip":"33404","id":"aofij5y95sc9","state":"FL"},"type":"Feature","geometry":null},{"properties":{"zip":"11530","id":"aofij5yl2y04","state":"NY"},"type":"Feature","geometry":null},{"properties":{"zip":"11768","id":"aofij5w0rih2","state":"NY"},"type":"Feature","geometry":null},{"properties":{"zip":"43232","id":"aofij5y02ppd","state":"OH"},"type":"Feature","geometry":null},{"properties":{"zip":"27408","id":"aofij658nxnt","state":"NC"},"type":"Feature","geometry":null},{"properties":{"zip":"63045","id":"aofij658hoon","state":"MO"},"type":"Feature","geometry":null},{"properties":{"zip":"94568","id":"aofij5vjm3hz","state":"CA"},"type":"Feature","geometry":null},{"properties":{"zip":"37407","id":"aofij5xzkvv7","state":"TN"},"type":"Feature","geometry":null},{"properties":{"zip":"37303","id":"aofij5yndfnn","state":"TN"},"type":"Feature","geometry":null},{"properties":{"zip":"4062","id":"aofij64ae1rv","state":"ME"},"type":"Feature","geometry":null},{"properties":{"zip":"19605","id":"aofij5zxrhxq","state":"PA"},"type":"Feature","geometry":null},{"properties":{"zip":"23320","id":"aofij660owbo","state":"VA"},"type":"Feature","geometry":null},{"properties":{"zip":"76801","id":"aofij66c3a9k","state":"TX"},"type":"Feature","geometry":null},{"properties":{"zip":"33440","id":"aofij5z55up2","state":"FL"},"type":"Feature","geometry":null},{"properties":{"zip":"37303","id":"aofij5ve6oeu","state":"TN"},"type":"Feature","geometry":null},{"properties":{"zip":"21601","id":"aofij6awse41","state":"MD"},"type":"Feature","geometry":null},{"properties":{"zip":"42003","id":"aofij68vzseo","state":"KY"},"type":"Feature","geometry":null},{"properties":{"zip":"32778","id":"aofij69nzc24","state":"FL"},"type":"Feature","geometry":null},{"properties":{"zip":"37421","id":"aofij64rw5s2","state":"TN"},"type":"Feature","geometry":null},{"properties":{"zip":"46528","id":"aofij62zcpqc","state":"IN"},"type":"Feature","geometry":null},{"properties":{"zip":"34480","id":"aofij679z7rn","state":"FL"},"type":"Feature","geometry":null},{"properties":{"zip":"46373","id":"aofij67gf0nq","state":"IN"},"type":"Feature","geometry":null},{"properties":{"zip":"22153","id":"aofij5vjr5kt","state":"VA"},"type":"Feature","geometry":null},{"properties":{"zip":"57703","id":"aofij66murcz","state":"SD"},"type":"Feature","geometry":null},{"properties":{"zip":"27406","id":"aofij6a1y6ew","state":"NC"},"type":"Feature","geometry":null},{"properties":{"zip":"32254","id":"aofij68lk9qu","state":"FL"},"type":"Feature","geometry":null},{"properties":{"zip":"48827","id":"aofij5v7bd72","state":"MI"},"type":"Feature","geometry":null},{"properties":{"zip":"17961","id":"aofij649uptz","state":"PA"},"type":"Feature","geometry":null},{"properties":{"zip":"11735","id":"aofij6akz5vz","state":"NY"},"type":"Feature","geometry":null},{"properties":{"zip":"29626","id":"aofij617svq5","state":"SC"},"type":"Feature","geometry":null},{"properties":{"zip":"91766","id":"aofij66wnnlu","state":"CA"},"type":"Feature","geometry":null},{"properties":{"zip":"37013","id":"aofij5yhfxoy","state":"TN"},"type":"Feature","geometry":null},{"properties":{"zip":"1107","id":"aofij683ur57","state":"MA"},"type":"Feature","geometry":null},{"properties":{"zip":"43219","id":"aofij5vlkhpm","state":"OH"},"type":"Feature","geometry":null},{"properties":{"zip":"37407","id":"aofij6abdm06","state":"TN"},"type":"Feature","geometry":null},{"properties":{"zip":"49512","id":"aofij5xei5im","state":"MI"},"type":"Feature","geometry":null},{"properties":{"zip":"64057","id":"aofij61a47md","state":"MO"},"type":"Feature","geometry":null},{"properties":{"zip":"30080","id":"aofij6bfmqio","state":"GA"},"type":"Feature","geometry":null},{"properties":{"zip":"37311","id":"aofij64320p0","state":"TN"},"type":"Feature","geometry":null},{"properties":{"zip":"37421","id":"aofij64mshqj","state":"TN"},"type":"Feature","geometry":null},{"properties":{"zip":"37421","id":"aofij64gx43m","state":"TN"},"type":"Feature","geometry":null},{"properties":{"zip":"37421","id":"aofij62n3t37","state":"TN"},"type":"Feature","geometry":null},{"properties":{"zip":"37407","id":"aofij6b5360u","state":"TN"},"type":"Feature","geometry":null},{"properties":{"zip":"48827","id":"aofij69b1q55","state":"MI"},"type":"Feature","geometry":null},{"properties":{"zip":"30045","id":"aofij5x5w991","state":"GA"},"type":"Feature","geometry":null},{"properties":{"zip":"30265","id":"aofij67oeshr","state":"GA"},"type":"Feature","geometry":null},{"properties":{"zip":"37370","id":"aofij60kd4yv","state":"TN"},"type":"Feature","geometry":null},{"properties":{"zip":"33404","id":"aofij60phzg4","state":"FL"},"type":"Feature","geometry":null},{"properties":{"zip":"22306","id":"aofij66jtkds","state":"VA"},"type":"Feature","geometry":null},{"properties":{"zip":"37321","id":"aofij60ye19l","state":"TN"},"type":"Feature","geometry":null},{"properties":{"zip":"37923","id":"aofij68o1yma","state":"TN"},"type":"Feature","geometry":null},{"properties":{"zip":"42003","id":"aofij5yti9rx","state":"KY"},"type":"Feature","geometry":null},{"properties":{"zip":"7086","id":"aofij5wdz1cn","state":"NJ"},"type":"Feature","geometry":null},{"properties":{"zip":"29118","id":"aofij65a8sfi","state":"SC"},"type":"Feature","geometry":null},{"properties":{"zip":"78219","id":"aofij5z4kpku","state":"TX"},"type":"Feature","geometry":null},{"properties":{"zip":"37407","id":"aofij602gfpl","state":"TN"},"type":"Feature","geometry":null},{"properties":{"zip":"37421","id":"aofij68dql3d","state":"TN"},"type":"Feature","geometry":null},{"properties":{"zip":"80524","id":"aofij5xr4jxk","state":"CO"},"type":"Feature","geometry":null},{"properties":{"zip":"32223","id":"aofij64hg0bt","state":"FL"},"type":"Feature","geometry":null},{"properties":{"zip":"55303","id":"aofij69iezpy","state":"MN"},"type":"Feature","geometry":null},{"properties":{"zip":"15106","id":"aofij65ky6ul","state":"PA"},"type":"Feature","geometry":null},{"properties":{"zip":"1776","id":"aofij64hw5hs","state":"PA"},"type":"Feature","geometry":null},{"properties":{"zip":"95776","id":"aofij65pdd5f","state":"CA"},"type":"Feature","geometry":null},{"properties":{"zip":"47172","id":"aofij69m3bec","state":"IN"},"type":"Feature","geometry":null},{"properties":{"zip":"70452","id":"aofij6abahk1","state":"LA"},"type":"Feature","geometry":null},{"properties":{"zip":"35594","id":"aofij5y217ip","state":"AL"},"type":"Feature","geometry":null},{"properties":{"zip":"35203","id":"aofij6a75cxd","state":"AL"},"type":"Feature","geometry":null},{"properties":{"zip":"21704","id":"aofij671tj16","state":"MD"},"type":"Feature","geometry":null},{"properties":{"zip":"20815","id":"aofij630cpk6","state":"MD"},"type":"Feature","geometry":null},{"properties":{"zip":"27406","id":"aofij5yyxq2r","state":"NC"},"type":"Feature","geometry":null},{"properties":{"zip":"97321","id":"aofij690tdgx","state":"OR"},"type":"Feature","geometry":null},{"properties":{"zip":"30566","id":"aofij61gnogv","state":"GA"},"type":"Feature","geometry":null},{"properties":{"zip":"85713","id":"aofij5y0ookp","state":"AZ"},"type":"Feature","geometry":null},{"properties":{"zip":"92545","id":"aofij6a0spcf","state":"CA"},"type":"Feature","geometry":null},{"properties":{"zip":"37421","id":"aofij69hvlfo","state":"TN"},"type":"Feature","geometry":null},{"properties":{"zip":"11530","id":"aofij64n0tip","state":"NY"},"type":"Feature","geometry":null},{"properties":{"zip":"92880","id":"aofij628ztnz","state":"CA"},"type":"Feature","geometry":null},{"properties":{"zip":"99212","id":"aofij67jy2ue","state":"WA"},"type":"Feature","geometry":null},{"properties":{"zip":"73069","id":"aofij5yvr0rn","state":"OK"},"type":"Feature","geometry":null},{"properties":{"zip":"78163","id":"aofij5vsmua5","state":"TX"},"type":"Feature","geometry":null},{"properties":{"zip":"20166","id":"aofij6akfpwe","state":"VA"},"type":"Feature","geometry":null},{"properties":{"zip":"37406","id":"aofij65urhbg","state":"TN"},"type":"Feature","geometry":null},{"properties":{"zip":"23452","id":"aofij5zpiv6g","state":"VA"},"type":"Feature","geometry":null},{"properties":{"zip":"95973","id":"aofij63d9wfj","state":"CA"},"type":"Feature","geometry":null},{"properties":{"zip":"34654","id":"aofij651pz7e","state":"FL"},"type":"Feature","geometry":null},{"properties":{"zip":"37343","id":"aofij616d895","state":"TN"},"type":"Feature","geometry":null},{"properties":{"zip":"37343","id":"aofij65okem5","state":"TN"},"type":"Feature","geometry":null},{"properties":{"zip":"37406","id":"aofij6864wd6","state":"TN"},"type":"Feature","geometry":null},{"properties":{"zip":"39401","id":"aofij65zlobx","state":"MS"},"type":"Feature","geometry":null},{"properties":{"zip":"40511","id":"aofij5y73rf2","state":"KY"},"type":"Feature","geometry":null},{"properties":{"zip":"10940","id":"aofij69m92xy","state":"NY"},"type":"Feature","geometry":null},{"properties":{"zip":"23228","id":"aofij62kjsvy","state":"VA"},"type":"Feature","geometry":null},{"properties":{"zip":"30084","id":"aofij65iedce","state":"GA"},"type":"Feature","geometry":null},{"properties":{"zip":"89148","id":"aofij5yeenq7","state":"NV"},"type":"Feature","geometry":null},{"properties":{"zip":"44646","id":"aofij5v8b4of","state":"OH"},"type":"Feature","geometry":null},{"properties":{"zip":"65201","id":"aofij5zlmpr8","state":"MO"},"type":"Feature","geometry":null},{"properties":{"zip":"35068","id":"aofij5wtpkgq","state":"AL"},"type":"Feature","geometry":null},{"properties":{"zip":"92591","id":"aofij68bhy00","state":"CA"},"type":"Feature","geometry":null},{"properties":{"zip":"30742","id":"aofij6154cgz","state":"GA"},"type":"Feature","geometry":null},{"properties":{"zip":"29577","id":"aofij6attyel","state":"SC"},"type":"Feature","geometry":null},{"properties":{"zip":"22701","id":"aofij5wxadco","state":"VA"},"type":"Feature","geometry":null},{"properties":{"zip":"7083","id":"aofij5zcvisw","state":"NJ"},"type":"Feature","geometry":null},{"properties":{"zip":"72404","id":"aofij649dvjx","state":"AR"},"type":"Feature","geometry":null},{"properties":{"zip":"30045","id":"aofij63fg2ub","state":"GA"},"type":"Feature","geometry":null},{"properties":{"zip":"6120","id":"aofij61jqsd1","state":"CT"},"type":"Feature","geometry":null},{"properties":{"zip":"84058","id":"aofij6a6bwtu","state":"UT"},"type":"Feature","geometry":null},{"properties":{"zip":"61354","id":"aofij5vcd9pd","state":"IL"},"type":"Feature","geometry":null},{"properties":{"zip":"6334","id":"aofij69t2y89","state":"CT"},"type":"Feature","geometry":null},{"properties":{"zip":"61107","id":"aofij5za1a7z","state":"IL"},"type":"Feature","geometry":null},{"properties":{"zip":"18103","id":"aofij6acvwid","state":"PA"},"type":"Feature","geometry":null},{"properties":{"zip":"30263","id":"aofij6aj7kbl","state":"GA"},"type":"Feature","geometry":null},{"properties":{"zip":"63088","id":"aofij63oi4mr","state":"MO"},"type":"Feature","geometry":null},{"properties":{"zip":"30539","id":"aofij65bpixt","state":"GA"},"type":"Feature","geometry":null},{"properties":{"zip":"30809","id":"aofij5yhb6vs","state":"GA"},"type":"Feature","geometry":null},{"properties":{"zip":"37421","id":"aofij64msibm","state":"TN"},"type":"Feature","geometry":null},{"properties":{"zip":"16510","id":"aofij68vtskm","state":"PA"},"type":"Feature","geometry":null},{"properties":{"zip":"32219","id":"aofij68ce7av","state":"FL"},"type":"Feature","geometry":null},{"properties":{"zip":"21234","id":"aofij6bfk84q","state":"MD"},"type":"Feature","geometry":null},{"properties":{"zip":"92673","id":"aofij69em719","state":"CA"},"type":"Feature","geometry":null},{"properties":{"zip":"11101","id":"aofij60gxmll","state":"NY"},"type":"Feature","geometry":null},{"properties":{"zip":"4210","id":"aofij5y2jmcl","state":"ME"},"type":"Feature","geometry":null},{"properties":{"zip":"33605","id":"aofij604m2qj","state":"FL"},"type":"Feature","geometry":null},{"properties":{"zip":"37347","id":"aofij68yqnq2","state":"TN"},"type":"Feature","geometry":null},{"properties":{"zip":"11772","id":"aofij5wq9mth","state":"NY"},"type":"Feature","geometry":null},{"properties":{"zip":"20772","id":"aofij62rth6p","state":"MD"},"type":"Feature","geometry":null},{"properties":{"zip":"11251","id":"aofij5zeuvag","state":"NY"},"type":"Feature","geometry":null},{"properties":{"zip":"32114","id":"aofij62bsl2w","state":"FL"},"type":"Feature","geometry":null},{"properties":{"zip":"20735","id":"aofij64bqe0e","state":"MD"},"type":"Feature","geometry":null},{"properties":{"zip":"8701","id":"aofij675d2le","state":"NJ"},"type":"Feature","geometry":null},{"properties":{"zip":"13760","id":"aofij5w5rk0e","state":"NY"},"type":"Feature","geometry":null},{"properties":{"zip":"92801","id":"aofij65wy4c7","state":"CA"},"type":"Feature","geometry":null},{"properties":{"zip":"62702","id":"aofij61hlxnq","state":"IL"},"type":"Feature","geometry":null},{"properties":{"zip":"33012","id":"aofij61s5so2","state":"FL"},"type":"Feature","geometry":null},{"properties":{"zip":"37404","id":"aofij68c0ja4","state":"TN"},"type":"Feature","geometry":null},{"properties":{"zip":"33778","id":"aofij5w6ruje","state":"FL"},"type":"Feature","geometry":null},{"properties":{"zip":"11801","id":"aofij677z2ct","state":"NY"},"type":"Feature","geometry":null},{"properties":{"zip":"11768","id":"aofij6ai8dd2","state":"NY"},"type":"Feature","geometry":null},{"properties":{"zip":"37421","id":"aofij6awzy90","state":"TN"},"type":"Feature","geometry":null},{"properties":{"zip":"27030","id":"aofij5yloyup","state":"NC"},"type":"Feature","geometry":null},{"properties":{"zip":"94587","id":"aofij5yutrum","state":"CA"},"type":"Feature","geometry":null},{"properties":{"zip":"21228","id":"aofij68x2qxf","state":"MD"},"type":"Feature","geometry":null},{"properties":{"zip":"35055","id":"aofij5y3yc8g","state":"AL"},"type":"Feature","geometry":null},{"properties":{"zip":"85365","id":"aofij5wvg6rh","state":"AZ"},"type":"Feature","geometry":null},{"properties":{"zip":"78626","id":"aofij62bw4bl","state":"TX"},"type":"Feature","geometry":null},{"properties":{"zip":"76559","id":"aofij6b513nn","state":"TX"},"type":"Feature","geometry":null},{"properties":{"zip":"76501","id":"aofij5v8m6na","state":"TX"},"type":"Feature","geometry":null},{"properties":{"zip":"63143","id":"aofij5xxk6mv","state":"MO"},"type":"Feature","geometry":null},{"properties":{"zip":"11550","id":"aofij67ddh9p","state":"NY"},"type":"Feature","geometry":null},{"properties":{"zip":"80504","id":"aofij67vn5f9","state":"CO"},"type":"Feature","geometry":null},{"properties":{"zip":"87402","id":"aofij68e1xqs","state":"NM"},"type":"Feature","geometry":null},{"properties":{"zip":"80216","id":"aofij5zo5itj","state":"CO"},"type":"Feature","geometry":null},{"properties":{"zip":"78744","id":"aofij68evom3","state":"TX"},"type":"Feature","geometry":null},{"properties":{"zip":"37013","id":"aofij5vdfllq","state":"TN"},"type":"Feature","geometry":null},{"properties":{"zip":"37421","id":"aofij609ax84","state":"TN"},"type":"Feature","geometry":null},{"properties":{"zip":"37407","id":"aofij5y007d8","state":"TN"},"type":"Feature","geometry":null},{"properties":{"zip":"37404","id":"aofij6bf8mjt","state":"TN"},"type":"Feature","geometry":null},{"properties":{"zip":"93065","id":"aofij62p8c07","state":"CA"},"type":"Feature","geometry":null},{"properties":{"zip":"75247","id":"aofij64n506r","state":"TX"},"type":"Feature","geometry":null},{"properties":{"zip":"37406","id":"aofij67ubuna","state":"TN"},"type":"Feature","geometry":null},{"properties":{"zip":"37343","id":"aofij6307jh9","state":"TN"},"type":"Feature","geometry":null},{"properties":{"zip":"80216","id":"aofij61g43zw","state":"CO"},"type":"Feature","geometry":null},{"properties":{"zip":"17603","id":"aofij62hvwrp","state":"PA"},"type":"Feature","geometry":null},{"properties":{"zip":"27407","id":"aofij5w8f4dy","state":"NC"},"type":"Feature","geometry":null},{"properties":{"zip":"19605","id":"aofij62trcw4","state":"PA"},"type":"Feature","geometry":null},{"properties":{"zip":"37921","id":"aofij67zm1xo","state":"TN"},"type":"Feature","geometry":null},{"properties":{"zip":"37210","id":"aofij694b7cn","state":"TN"},"type":"Feature","geometry":null},{"properties":{"zip":"44720","id":"aofij63j0rzy","state":"OH"},"type":"Feature","geometry":null},{"properties":{"zip":"37311","id":"aofij6bo9407","state":"TN"},"type":"Feature","geometry":null},{"properties":{"zip":"44135","id":"aofij5w7m7rd","state":"OH"},"type":"Feature","geometry":null},{"properties":{"zip":"53222","id":"aofij62eskuc","state":"WI"},"type":"Feature","geometry":null},{"properties":{"zip":"37343","id":"aofij663eqpg","state":"TN"},"type":"Feature","geometry":null},{"properties":{"zip":"30045","id":"aofij67nnban","state":"GA"},"type":"Feature","geometry":null},{"properties":{"zip":"84405","id":"aofij5wn3dzs","state":"UT"},"type":"Feature","geometry":null},{"properties":{"zip":"30045","id":"aofij6al72e5","state":"GA"},"type":"Feature","geometry":null},{"properties":{"zip":"37211","id":"aofij69ld72x","state":"TN"},"type":"Feature","geometry":null},{"properties":{"zip":"23294","id":"aofij67nnfbr","state":"VA"},"type":"Feature","geometry":null},{"properties":{"zip":"30318","id":"aofij63s4eur","state":"GA"},"type":"Feature","geometry":null},{"properties":{"zip":"77008","id":"aofij5wapq2n","state":"TX"},"type":"Feature","geometry":null},{"properties":{"zip":"37321","id":"aofij69yv4up","state":"TN"},"type":"Feature","geometry":null},{"properties":{"zip":"49444","id":"aofij61ebl6p","state":"MI"},"type":"Feature","geometry":null},{"properties":{"zip":"48187","id":"aofij67jdif2","state":"MI"},"type":"Feature","geometry":null},{"properties":{"zip":"28277","id":"aofij67g8swu","state":"NC"},"type":"Feature","geometry":null},{"properties":{"zip":"34714","id":"aofij644uqkx","state":"FL"},"type":"Feature","geometry":null},{"properties":{"zip":"46218","id":"aofij6a5ci4d","state":"IN"},"type":"Feature","geometry":null},{"properties":{"zip":"8618","id":"aofij65f9nun","state":"NJ"},"type":"Feature","geometry":null},{"properties":{"zip":"61354","id":"aofij6b2en8c","state":"IL"},"type":"Feature","geometry":null},{"properties":{"zip":"6334","id":"aofij655azyi","state":"CT"},"type":"Feature","geometry":null},{"properties":{"zip":"90019","id":"aofij60anvn4","state":"CA"},"type":"Feature","geometry":null},{"properties":{"zip":"37421","id":"aofij6a137o2","state":"TN"},"type":"Feature","geometry":null},{"properties":{"zip":"11757","id":"aofij69erk9f","state":"NY"},"type":"Feature","geometry":null},{"properties":{"zip":"20646","id":"aofij69ql98v","state":"MD"},"type":"Feature","geometry":null},{"properties":{"zip":"27406","id":"aofij69ozu77","state":"NC"},"type":"Feature","geometry":null},{"properties":{"zip":"27409","id":"aofij663z52c","state":"NC"},"type":"Feature","geometry":null},{"properties":{"zip":"20784","id":"aofij5yje9o2","state":"MD"},"type":"Feature","geometry":null},{"properties":{"zip":"32960","id":"aofij60dkbb2","state":"FL"},"type":"Feature","geometry":null},{"properties":{"zip":"30080","id":"aofij5zpaqgv","state":"GA"},"type":"Feature","geometry":null},{"properties":{"zip":"37407","id":"aofij69wcnd7","state":"TN"},"type":"Feature","geometry":null},{"properties":{"zip":"7083","id":"aofij6ad8orh","state":"NJ"},"type":"Feature","geometry":null},{"properties":{"zip":"21228","id":"aofij675pmeu","state":"MD"},"type":"Feature","geometry":null},{"properties":{"zip":"72745","id":"aofij61ki1n0","state":"AR"},"type":"Feature","geometry":null},{"properties":{"zip":"30318","id":"aofij62y3xed","state":"GA"},"type":"Feature","geometry":null},{"properties":{"zip":"1107","id":"aofij5xbjxp8","state":"MA"},"type":"Feature","geometry":null},{"properties":{"zip":"46514","id":"aofij5xfs1gx","state":"IN"},"type":"Feature","geometry":null},{"properties":{"zip":"33563","id":"aofij66muptm","state":"FL"},"type":"Feature","geometry":null},{"properties":{"zip":"1515","id":"aofij5zmx041","state":"MA"},"type":"Feature","geometry":null},{"properties":{"zip":"1605","id":"aofij5zqlpoz","state":"MA"},"type":"Feature","geometry":null},{"properties":{"zip":"30265","id":"aofij69nrdp9","state":"GA"},"type":"Feature","geometry":null},{"properties":{"zip":"77384","id":"aofij68zw6vo","state":"TX"},"type":"Feature","geometry":null},{"properties":{"zip":"78229","id":"aofij6arcbag","state":"TX"},"type":"Feature","geometry":null},{"properties":{"zip":"21550","id":"aofij67ozgll","state":"MD"},"type":"Feature","geometry":null},{"properties":{"zip":"6042","id":"aofij5wfg8ia","state":"CT"},"type":"Feature","geometry":null},{"properties":{"zip":"37421","id":"aofij61l9vf8","state":"TN"},"type":"Feature","geometry":null},{"properties":{"zip":"34480","id":"aofij61ddepz","state":"FL"},"type":"Feature","geometry":null},{"properties":{"zip":"13142","id":"aofij68xda8h","state":"NY"},"type":"Feature","geometry":null},{"properties":{"zip":"37422","id":"aofij5zbe3lw","state":"TN"},"type":"Feature","geometry":null},{"properties":{"zip":"42003","id":"aofij68ybl9u","state":"KY"},"type":"Feature","geometry":null},{"properties":{"zip":"22306","id":"aofij65c6yid","state":"VA"},"type":"Feature","geometry":null},{"properties":{"zip":"39401","id":"aofij60jq1fo","state":"MS"},"type":"Feature","geometry":null},{"properties":{"zip":"7836","id":"aofij65t4loa","state":"NJ"},"type":"Feature","geometry":null},{"properties":{"zip":"2322","id":"aofij5wtc5xg","state":"MA"},"type":"Feature","geometry":null},{"properties":{"zip":"76542","id":"aofij6ad3bmp","state":"TX"},"type":"Feature","geometry":null},{"properties":{"zip":"38555","id":"aofij5v8twmf","state":"TN"},"type":"Feature","geometry":null},{"properties":{"zip":"37421","id":"aofij66q4uui","state":"TN"},"type":"Feature","geometry":null},{"properties":{"zip":"40511","id":"aofij66zmaab","state":"KY"},"type":"Feature","geometry":null},{"properties":{"zip":"70401","id":"aofij6b12j7t","state":"LA"},"type":"Feature","geometry":null},{"properties":{"zip":"33015","id":"aofij613nuz2","state":"FL"},"type":"Feature","geometry":null},{"properties":{"zip":"8723","id":"aofij670n4ai","state":"NJ"},"type":"Feature","geometry":null},{"properties":{"zip":"20109","id":"aofij627wz0r","state":"VA"},"type":"Feature","geometry":null},{"properties":{"zip":"98032","id":"aofij62zwdso","state":"WA"},"type":"Feature","geometry":null},{"properties":{"zip":"33634","id":"aofij6b7io86","state":"FL"},"type":"Feature","geometry":null},{"properties":{"zip":"37814","id":"aofij614xiwn","state":"TN"},"type":"Feature","geometry":null},{"properties":{"zip":"6418","id":"aofij5z6f92a","state":"CT"},"type":"Feature","geometry":null},{"properties":{"zip":"13421","id":"aofij61wlg5n","state":"NY"},"type":"Feature","geometry":null},{"properties":{"zip":"94587","id":"aofij69ktofw","state":"CA"},"type":"Feature","geometry":null},{"properties":{"zip":"20151","id":"aofij5xzwete","state":"VA"},"type":"Feature","geometry":null},{"properties":{"zip":"23602","id":"aofij6a29fdi","state":"VA"},"type":"Feature","geometry":null},{"properties":{"zip":"59101","id":"aofij6bophr8","state":"MT"},"type":"Feature","geometry":null},{"properties":{"zip":"80524","id":"aofij5yud2zd","state":"CO"},"type":"Feature","geometry":null},{"properties":{"zip":"29483","id":"aofij682c44k","state":"SC"},"type":"Feature","geometry":null},{"properties":{"zip":"16510","id":"aofij5w9mmyg","state":"PA"},"type":"Feature","geometry":null},{"properties":{"zip":"12603","id":"aofij5yxvnp0","state":"NY"},"type":"Feature","geometry":null},{"properties":{"zip":"37407","id":"aofij68oxppy","state":"TN"},"type":"Feature","geometry":null},{"properties":{"zip":"80027","id":"aofij5ynv92d","state":"CO"},"type":"Feature","geometry":null},{"properties":{"zip":"19446","id":"aofij5xwwx99","state":"PA"},"type":"Feature","geometry":null},{"properties":{"zip":"63111","id":"aofij5ybfbx1","state":"MO"},"type":"Feature","geometry":null},{"properties":{"zip":"2886","id":"aofij6bmwl21","state":"RI"},"type":"Feature","geometry":null},{"properties":{"zip":"37421","id":"aofij66tfuwo","state":"TN"},"type":"Feature","geometry":null},{"properties":{"zip":"29615","id":"aofij62a0ew4","state":"SC"},"type":"Feature","geometry":null},{"properties":{"zip":"39208","id":"aofij600tm06","state":"MS"},"type":"Feature","geometry":null},{"properties":{"zip":"78702","id":"aofij6ak8g9x","state":"TX"},"type":"Feature","geometry":null},{"properties":{"zip":"33624","id":"aofij60m0wcw","state":"FL"},"type":"Feature","geometry":null},{"properties":{"zip":"85054","id":"aofij68k88ba","state":"AZ"},"type":"Feature","geometry":null},{"properties":{"zip":"31794","id":"aofij64cfxtw","state":"GA"},"type":"Feature","geometry":null},{"properties":{"zip":"33605","id":"aofij668fxf3","state":"FL"},"type":"Feature","geometry":null},{"properties":{"zip":"30566","id":"aofij5wjlkup","state":"GA"},"type":"Feature","geometry":null},{"properties":{"zip":"21046","id":"aofij6ahbwuc","state":"MD"},"type":"Feature","geometry":null},{"properties":{"zip":"20706","id":"aofij5xeln7r","state":"MD"},"type":"Feature","geometry":null},{"properties":{"zip":"30114","id":"aofij69i015f","state":"GA"},"type":"Feature","geometry":null},{"properties":{"zip":"50316","id":"aofij5xsowhk","state":"IA"},"type":"Feature","geometry":null},{"properties":{"zip":"73127","id":"aofij64pzupb","state":"OK"},"type":"Feature","geometry":null},{"properties":{"zip":"33351","id":"aofij643guj9","state":"FL"},"type":"Feature","geometry":null},{"properties":{"zip":"55303","id":"aofij62zzdi1","state":"MN"},"type":"Feature","geometry":null},{"properties":{"zip":"35951","id":"aofij61tfwa4","state":"AL"},"type":"Feature","geometry":null},{"properties":{"zip":"35234","id":"aofij63c2ufw","state":"AL"},"type":"Feature","geometry":null},{"properties":{"zip":"37407","id":"aofij6bdm3a6","state":"TN"},"type":"Feature","geometry":null},{"properties":{"zip":"95776","id":"aofij64auclv","state":"CA"},"type":"Feature","geometry":null},{"properties":{"zip":"91324","id":"aofij5yo9asy","state":"CA"},"type":"Feature","geometry":null},{"properties":{"zip":"18017","id":"aofij6637jmg","state":"PA"},"type":"Feature","geometry":null},{"properties":{"zip":"70127","id":"aofij699q9z8","state":"LA"},"type":"Feature","geometry":null},{"properties":{"zip":"30214","id":"aofij64erihj","state":"GA"},"type":"Feature","geometry":null},{"properties":{"zip":"48060","id":"aofij64bgqy3","state":"MI"},"type":"Feature","geometry":null},{"properties":{"zip":"32219","id":"aofij5yo5xhn","state":"FL"},"type":"Feature","geometry":null},{"properties":{"zip":"73034","id":"aofij5vi5puh","state":"OK"},"type":"Feature","geometry":null},{"properties":{"zip":"11234","id":"aofij6ahi0v3","state":"NY"},"type":"Feature","geometry":null},{"properties":{"zip":"33186","id":"aofij64t9rs4","state":"FL"},"type":"Feature","geometry":null},{"properties":{"zip":"33404","id":"aofij6bc0i2s","state":"TN"},"type":"Feature","geometry":null},{"properties":{"zip":"7652","id":"aofij6a8fv64","state":"NJ"},"type":"Feature","geometry":null},{"properties":{"zip":"11788","id":"aofij62uqsrc","state":"NY"},"type":"Feature","geometry":null},{"properties":{"zip":"21211","id":"aofij6b61k9x","state":"MD"},"type":"Feature","geometry":null},{"properties":{"zip":"10940","id":"aofij656p2mr","state":"NY"},"type":"Feature","geometry":null},{"properties":{"zip":"7405","id":"aofij5z4i0o0","state":"NJ"},"type":"Feature","geometry":null},{"properties":{"zip":"27529","id":"aofij63gzd2d","state":"NC"},"type":"Feature","geometry":null},{"properties":{"zip":"27518","id":"aofij620u0s2","state":"NC"},"type":"Feature","geometry":null},{"properties":{"zip":"71301","id":"aofij647z2at","state":"LA"},"type":"Feature","geometry":null},{"properties":{"zip":"32219","id":"aofij674iui0","state":"FL"},"type":"Feature","geometry":null},{"properties":{"zip":"30045","id":"aofij5v90g4d","state":"GA"},"type":"Feature","geometry":null},{"properties":{"zip":"37013","id":"aofij5vzsry1","state":"TN"},"type":"Feature","geometry":null},{"properties":{"zip":"37407","id":"aofij5w28gxb","state":"TN"},"type":"Feature","geometry":null},{"properties":{"zip":"25703","id":"aofij62d0s5y","state":"WV"},"type":"Feature","geometry":null},{"properties":{"zip":"70433","id":"aofij68y797r","state":"LA"},"type":"Feature","geometry":null},{"properties":{"zip":"29405","id":"aofij62bhjg1","state":"SC"},"type":"Feature","geometry":null},{"properties":{"zip":"33166","id":"aofij65txlx9","state":"FL"},"type":"Feature","geometry":null},{"properties":{"zip":"37321","id":"aofij64a7t8c","state":"TN"},"type":"Feature","geometry":null},{"properties":{"zip":"1749","id":"aofij5xdaj6i","state":"MA"},"type":"Feature","geometry":null},{"properties":{"zip":"37407","id":"aofij683rfar","state":"TN"},"type":"Feature","geometry":null},{"properties":{"zip":"2324","id":"aofij65d2dmx","state":"MA"},"type":"Feature","geometry":null},{"properties":{"zip":"22406","id":"aofij67tctid","state":"VA"},"type":"Feature","geometry":null},{"properties":{"zip":"34601","id":"aofij65l2rb4","state":"FL"},"type":"Feature","geometry":null},{"properties":{"zip":"43017","id":"aofij61x712r","state":"OH"},"type":"Feature","geometry":null},{"properties":{"zip":"97223","id":"aofij62se9om","state":"OR"},"type":"Feature","geometry":null},{"properties":{"zip":"37421","id":"aofij63998ex","state":"TN"},"type":"Feature","geometry":null},{"properties":{"zip":"98032","id":"aofij5vkxyqd","state":"WA"},"type":"Feature","geometry":null},{"properties":{"zip":"37209","id":"aofij5xj8zuq","state":"TN"},"type":"Feature","geometry":null},{"properties":{"zip":"73108","id":"aofij65qlhz7","state":"OK"},"type":"Feature","geometry":null},{"properties":{"zip":"33605","id":"aofij6bfs8s9","state":"FL"},"type":"Feature","geometry":null},{"properties":{"zip":"37921","id":"aofij67wi1hj","state":"TN"},"type":"Feature","geometry":null},{"properties":{"zip":"37421","id":"aofij63oh6xu","state":"TN"},"type":"Feature","geometry":null},{"properties":{"zip":"37311","id":"aofij6akd9be","state":"TN"},"type":"Feature","geometry":null},{"properties":{"zip":"62704","id":"aofij6ayp370","state":"IL"},"type":"Feature","geometry":null},{"properties":{"zip":"30045","id":"aofij66dx3v9","state":"GA"},"type":"Feature","geometry":null},{"properties":{"zip":"64116","id":"aofij5w70dr9","state":"MO"},"type":"Feature","geometry":null},{"properties":{"zip":"37404","id":"aofij69arup5","state":"TN"},"type":"Feature","geometry":null},{"properties":{"zip":"27596","id":"aofij5w81ho9","state":"NC"},"type":"Feature","geometry":null},{"properties":{"zip":"27587","id":"aofij5z8gz59","state":"NC"},"type":"Feature","geometry":null},{"properties":{"zip":"16823","id":"aofij5vu6roj","state":"PA"},"type":"Feature","geometry":null},{"properties":{"zip":"36801","id":"aofij62crp1y","state":"AL"},"type":"Feature","geometry":null},{"properties":{"zip":"37407","id":"aofij61nnem3","state":"TN"},"type":"Feature","geometry":null},{"properties":{"zip":"22192","id":"aofij653bqhz","state":"VA"},"type":"Feature","geometry":null},{"properties":{"zip":"34741","id":"aofij69yxzj7","state":"FL"},"type":"Feature","geometry":null},{"properties":{"zip":"32073","id":"aofij66he5mr","state":"FL"},"type":"Feature","geometry":null},{"properties":{"zip":"39208","id":"aofij5z6wy0a","state":"MS"},"type":"Feature","geometry":null},{"properties":{"zip":"37138","id":"aofij63idrx9","state":"TN"},"type":"Feature","geometry":null},{"properties":{"zip":"44060","id":"aofij613mzy1","state":"OH"},"type":"Feature","geometry":null},{"properties":{"zip":"93036","id":"aofij67at0my","state":"CA"},"type":"Feature","geometry":null},{"properties":{"zip":"7733","id":"aofij68tyv1z","state":"NJ"},"type":"Feature","geometry":null},{"properties":{"zip":"1082","id":"aofij61jrc73","state":"MA"},"type":"Feature","geometry":null},{"properties":{"zip":"19137","id":"aofij67nqo79","state":"PA"},"type":"Feature","geometry":null},{"properties":{"zip":"84107","id":"aofij68q3u0x","state":"UT"},"type":"Feature","geometry":null},{"properties":{"zip":"77833","id":"aofij5x3f73k","state":"TX"},"type":"Feature","geometry":null},{"properties":{"zip":"37921","id":"aofij6258xec","state":"TN"},"type":"Feature","geometry":null},{"properties":{"zip":"37748","id":"aofij66jyu0j","state":"TN"},"type":"Feature","geometry":null},{"properties":{"zip":"61354","id":"aofij5xmwya8","state":"IL"},"type":"Feature","geometry":null},{"properties":{"zip":"23061","id":"aofij5vp0u48","state":"VA"},"type":"Feature","geometry":null},{"properties":{"zip":"98005","id":"aofij5wukzc8","state":"WA"},"type":"Feature","geometry":null},{"properties":{"zip":"63640","id":"aofij5wvi897","state":"MO"},"type":"Feature","geometry":null},{"properties":{"zip":"6334","id":"aofij632z6rl","state":"CT"},"type":"Feature","geometry":null},{"properties":{"zip":"60652","id":"aofij5xktlcj","state":"IL"},"type":"Feature","geometry":null},{"properties":{"zip":"18976","id":"aofij5zgg127","state":"PA"},"type":"Feature","geometry":null},{"properties":{"zip":"72404","id":"aofij5xppi8o","state":"AR"},"type":"Feature","geometry":null},{"properties":{"zip":"7083","id":"aofij6ace62v","state":"NJ"},"type":"Feature","geometry":null},{"properties":{"zip":"15275","id":"aofij5xr6u9x","state":"PA"},"type":"Feature","geometry":null},{"properties":{"zip":"37421","id":"aofij64wvrjg","state":"TN"},"type":"Feature","geometry":null},{"properties":{"zip":"37303","id":"aofij621kzkv","state":"TN"},"type":"Feature","geometry":null},{"properties":{"zip":"27302","id":"aofij63t1lkt","state":"NC"},"type":"Feature","geometry":null},{"properties":{"zip":"35234","id":"aofij67itwdz","state":"AL"},"type":"Feature","geometry":null},{"properties":{"zip":"20110","id":"aofij63k7pgd","state":"VA"},"type":"Feature","geometry":null},{"properties":{"zip":"10303","id":"aofij69iy3e8","state":"NY"},"type":"Feature","geometry":null},{"properties":{"zip":"6418","id":"aofij5xulqfg","state":"CT"},"type":"Feature","geometry":null},{"properties":{"zip":"43219","id":"aofij6agckgr","state":"OH"},"type":"Feature","geometry":null},{"properties":{"zip":"53948","id":"aofij5wke2iw","state":"WI"},"type":"Feature","geometry":null},{"properties":{"zip":"6120","id":"aofij6a348yv","state":"CT"},"type":"Feature","geometry":null},{"properties":{"zip":"37210","id":"aofij6a8moiy","state":"TN"},"type":"Feature","geometry":null},{"properties":{"zip":"11251","id":"aofij66ce7h0","state":"NY"},"type":"Feature","geometry":null},{"properties":{"zip":"37421","id":"aofij67ynkyc","state":"TN"},"type":"Feature","geometry":null},{"properties":{"zip":"32904","id":"aofij69z83tt","state":"FL"},"type":"Feature","geometry":null},{"properties":{"zip":"21234","id":"aofij6bhlnrr","state":"MD"},"type":"Feature","geometry":null},{"properties":{"zip":"30742","id":"aofij6855jm5","state":"GA"},"type":"Feature","geometry":null},{"properties":{"zip":"37343","id":"aofij687dydb","state":"TN"},"type":"Feature","geometry":null},{"properties":{"zip":"37406","id":"aofij5xuspud","state":"TN"},"type":"Feature","geometry":null},{"properties":{"zip":"2886","id":"aofij602fcgy","state":"RI"},"type":"Feature","geometry":null},{"properties":{"zip":"37343","id":"aofij675t4eo","state":"TN"},"type":"Feature","geometry":null},{"properties":{"zip":"28269","id":"aofij66p4nns","state":"NC"},"type":"Feature","geometry":null},{"properties":{"zip":"7047","id":"aofij68vjxgf","state":"NJ"},"type":"Feature","geometry":null},{"properties":{"zip":"7011","id":"aofij61bkn0r","state":"NJ"},"type":"Feature","geometry":null},{"properties":{"zip":"98012","id":"aofij699rehm","state":"WA"},"type":"Feature","geometry":null},{"properties":{"zip":"24502","id":"aofij65061tc","state":"VA"},"type":"Feature","geometry":null},{"properties":{"zip":"65803","id":"aofij5yk57ai","state":"MO"},"type":"Feature","geometry":null},{"properties":{"zip":"18974","id":"aofij643sjir","state":"PA"},"type":"Feature","geometry":null},{"properties":{"zip":"37932","id":"aofij635qxof","state":"TN"},"type":"Feature","geometry":null},{"properties":{"zip":"20166","id":"aofij67xsegg","state":"VA"},"type":"Feature","geometry":null},{"properties":{"zip":"72103","id":"aofij61hncwm","state":"AR"},"type":"Feature","geometry":null},{"properties":{"zip":"7712","id":"aofij62n0emx","state":"NJ"},"type":"Feature","geometry":null},{"properties":{"zip":"42003","id":"aofij5yy4izo","state":"KY"},"type":"Feature","geometry":null},{"properties":{"zip":"37421","id":"aofij695y9vv","state":"TN"},"type":"Feature","geometry":null},{"properties":{"zip":"30288","id":"aofij63bemve","state":"GA"},"type":"Feature","geometry":null},{"properties":{"zip":"14141","id":"aofij627p16t","state":"NY"},"type":"Feature","geometry":null},{"properties":{"zip":"14606","id":"aofij5xe4l38","state":"NY"},"type":"Feature","geometry":null},{"properties":{"zip":"31794","id":"aofij612kv0n","state":"GA"},"type":"Feature","geometry":null},{"properties":{"zip":"33426","id":"aofij5z4ocar","state":"FL"},"type":"Feature","geometry":null},{"properties":{"zip":"46203","id":"aofij5y42yny","state":"IN"},"type":"Feature","geometry":null},{"properties":{"zip":"44139","id":"aofij68x490d","state":"OH"},"type":"Feature","geometry":null},{"properties":{"zip":"18360","id":"aofij61ouqvh","state":"PA"},"type":"Feature","geometry":null},{"properties":{"zip":"23502","id":"aofij60pf1vq","state":"VA"},"type":"Feature","geometry":null},{"properties":{"zip":"16803","id":"aofij6amtw7p","state":"PA"},"type":"Feature","geometry":null},{"properties":{"zip":"71301","id":"aofij6blqsud","state":"LA"},"type":"Feature","geometry":null},{"properties":{"zip":"23602","id":"aofij660nzrx","state":"VA"},"type":"Feature","geometry":null},{"properties":{"zip":"10962","id":"aofij5w12rx1","state":"NY"},"type":"Feature","geometry":null},{"properties":{"zip":"80002","id":"aofij6145egt","state":"CO"},"type":"Feature","geometry":null},{"properties":{"zip":"55359","id":"aofij5wgss6m","state":"MN"},"type":"Feature","geometry":null},{"properties":{"zip":"37211","id":"aofij682spqo","state":"TN"},"type":"Feature","geometry":null},{"properties":{"zip":"37421","id":"aofij60offti","state":"TN"},"type":"Feature","geometry":null},{"properties":{"zip":"29841","id":"aofij5xoqpyv","state":"SC"},"type":"Feature","geometry":null},{"properties":{"zip":"37407","id":"aofij6a8412y","state":"TN"},"type":"Feature","geometry":null},{"properties":{"zip":"2322","id":"aofij5ygo4n3","state":"MA"},"type":"Feature","geometry":null},{"properties":{"zip":"30120","id":"aofij64b8qbx","state":"GA"},"type":"Feature","geometry":null},{"properties":{"zip":"19131","id":"aofij68dlx2e","state":"PA"},"type":"Feature","geometry":null},{"properties":{"zip":"49068","id":"aofij677x1vk","state":"MI"},"type":"Feature","geometry":null},{"properties":{"zip":"48225","id":"aofij6apumwe","state":"MI"},"type":"Feature","geometry":null},{"properties":{"zip":"1701","id":"aofij66ktl0n","state":"MA"},"type":"Feature","geometry":null},{"properties":{"zip":"40214","id":"aofij5vvcz0o","state":"KY"},"type":"Feature","geometry":null},{"properties":{"zip":"37166","id":"aofij66trsw5","state":"TN"},"type":"Feature","geometry":null},{"properties":{"zip":"8302","id":"aofij69v9l5i","state":"NJ"},"type":"Feature","geometry":null},{"properties":{"zip":"73127","id":"aofij63jem37","state":"OK"},"type":"Feature","geometry":null},{"properties":{"zip":"14228","id":"aofij665uyjt","state":"NY"},"type":"Feature","geometry":null},{"properties":{"zip":"67207","id":"aofij61tl0ja","state":"KS"},"type":"Feature","geometry":null},{"properties":{"zip":"37040","id":"aofij63yfbnv","state":"TN"},"type":"Feature","geometry":null},{"properties":{"zip":"89014","id":"aofij606z1ts","state":"NV"},"type":"Feature","geometry":null},{"properties":{"zip":"37421","id":"aofij696t8hq","state":"TN"},"type":"Feature","geometry":null},{"properties":{"zip":"75951","id":"aofij6avtait","state":"TX"},"type":"Feature","geometry":null},{"properties":{"zip":"28787","id":"aofij5z1258o","state":"NC"},"type":"Feature","geometry":null},{"properties":{"zip":"15237","id":"aofij5z04yyu","state":"PA"},"type":"Feature","geometry":null},{"properties":{"zip":"37814","id":"aofij62pgpis","state":"TN"},"type":"Feature","geometry":null},{"properties":{"zip":"72745","id":"aofij5z2gj2t","state":"AR"},"type":"Feature","geometry":null},{"properties":{"zip":"75247","id":"aofij63lv6n5","state":"TX"},"type":"Feature","geometry":null},{"properties":{"zip":"35806","id":"aofij696ykel","state":"AL"},"type":"Feature","geometry":null},{"properties":{"zip":"89145","id":"aofij65f1qv8","state":"NV"},"type":"Feature","geometry":null},{"properties":{"zip":"30263","id":"aofij6bmx9zh","state":"GA"},"type":"Feature","geometry":null},{"properties":{"zip":"21228","id":"aofij5vkzzdz","state":"MD"},"type":"Feature","geometry":null},{"properties":{"zip":"95610","id":"aofij67n1xcy","state":"CA"},"type":"Feature","geometry":null},{"properties":{"zip":"94587","id":"aofij5z1dd8o","state":"CA"},"type":"Feature","geometry":null},{"properties":{"zip":"37421","id":"aofij6aokdu3","state":"TN"},"type":"Feature","geometry":null},{"properties":{"zip":"27604","id":"aofij5xjzubk","state":"NC"},"type":"Feature","geometry":null},{"properties":{"zip":"92057","id":"aofij61b8o22","state":"CA"},"type":"Feature","geometry":null},{"properties":{"zip":"12205","id":"aofij67krcwo","state":"NY"},"type":"Feature","geometry":null},{"properties":{"zip":"49068","id":"aofij626yb5o","state":"MI"},"type":"Feature","geometry":null},{"properties":{"zip":"24012","id":"aofij68w6lg8","state":"VA"},"type":"Feature","geometry":null},{"properties":{"zip":"30045","id":"aofij6b0rnbh","state":"GA"},"type":"Feature","geometry":null},{"properties":{"zip":"2886","id":"aofij6591rnw","state":"RI"},"type":"Feature","geometry":null},{"properties":{"zip":"32219","id":"aofij5wfayu1","state":"FL"},"type":"Feature","geometry":null},{"properties":{"zip":"54220","id":"aofij668ctl0","state":"WI"},"type":"Feature","geometry":null},{"properties":{"zip":"89115","id":"aofij5xy079q","state":"NV"},"type":"Feature","geometry":null},{"properties":{"zip":"89104","id":"aofij5wybvsv","state":"NV"},"type":"Feature","geometry":null},{"properties":{"zip":"94303","id":"aofij5zbciks","state":"CA"},"type":"Feature","geometry":null},{"properties":{"zip":"37210","id":"aofij62gz7u1","state":"TN"},"type":"Feature","geometry":null},{"properties":{"zip":"11780","id":"aofij61oh33c","state":"NY"},"type":"Feature","geometry":null},{"properties":{"zip":"65803","id":"aofij64yym5q","state":"MO"},"type":"Feature","geometry":null},{"properties":{"zip":"53948","id":"aofij5x38wxq","state":"WI"},"type":"Feature","geometry":null},{"properties":{"zip":"42003","id":"aofij69elmhm","state":"KY"},"type":"Feature","geometry":null},{"properties":{"zip":"55433","id":"aofij5wjvs5k","state":"MN"},"type":"Feature","geometry":null},{"properties":{"zip":"7047","id":"aofij5yhf0i3","state":"NJ"},"type":"Feature","geometry":null},{"properties":{"zip":"20877","id":"aofij61t9ch8","state":"MD"},"type":"Feature","geometry":null},{"properties":{"zip":"19083","id":"aofij5z7uwl4","state":"PA"},"type":"Feature","geometry":null},{"properties":{"zip":"37921","id":"aofij5xfpzhe","state":"TN"},"type":"Feature","geometry":null},{"properties":{"zip":"46219","id":"aofij66xhrmw","state":"IN"},"type":"Feature","geometry":null},{"properties":{"zip":"29626","id":"aofij5wp5ju0","state":"SC"},"type":"Feature","geometry":null},{"properties":{"zip":"6604","id":"aofij68ugzrq","state":"CT"},"type":"Feature","geometry":null},{"properties":{"zip":"37343","id":"aofij6bloifg","state":"TN"},"type":"Feature","geometry":null},{"properties":{"zip":"37421","id":"aofij63z7xzb","state":"TN"},"type":"Feature","geometry":null},{"properties":{"zip":"37421","id":"aofij67gxekf","state":"TN"},"type":"Feature","geometry":null},{"properties":{"zip":"63143","id":"aofij69m4xaf","state":"MO"},"type":"Feature","geometry":null},{"properties":{"zip":"37404","id":"aofij6ag8ztx","state":"TN"},"type":"Feature","geometry":null},{"properties":{"zip":"9257","id":"aofij66jisnk","state":"CA"},"type":"Feature","geometry":null},{"properties":{"zip":"51106","id":"aofij6077j0o","state":"IA"},"type":"Feature","geometry":null},{"properties":{"zip":"95242","id":"aofij61h0ym3","state":"CA"},"type":"Feature","geometry":null},{"properties":{"zip":"7073","id":"aofij5y40pf4","state":"NJ"},"type":"Feature","geometry":null},{"properties":{"zip":"61611","id":"aofij66psdoh","state":"IL"},"type":"Feature","geometry":null},{"properties":{"zip":"30045","id":"aofij699qben","state":"GA"},"type":"Feature","geometry":null},{"properties":{"zip":"37921","id":"aofij6737sz4","state":"TN"},"type":"Feature","geometry":null},{"properties":{"zip":"37311","id":"aofij60xd83a","state":"TN"},"type":"Feature","geometry":null},{"properties":{"zip":"95776","id":"aofij604qze3","state":"CA"},"type":"Feature","geometry":null},{"properties":{"zip":"28269","id":"aofij5wecjit","state":"NC"},"type":"Feature","geometry":null},{"properties":{"zip":"30288","id":"aofij5wpbjbe","state":"GA"},"type":"Feature","geometry":null},{"properties":{"zip":"37407","id":"aofij5w7ngiy","state":"TN"},"type":"Feature","geometry":null},{"properties":{"zip":"8753","id":"aofij5vevpqh","state":"NJ"},"type":"Feature","geometry":null},{"properties":{"zip":"94124","id":"aofij664n13a","state":"CA"},"type":"Feature","geometry":null},{"properties":{"zip":"7712","id":"aofij6ai80rv","state":"NJ"},"type":"Feature","geometry":null},{"properties":{"zip":"91786","id":"aofij63b354c","state":"CA"},"type":"Feature","geometry":null},{"properties":{"zip":"48225","id":"aofij5x4aysh","state":"MI"},"type":"Feature","geometry":null},{"properties":{"zip":"17870","id":"aofij5zly8s7","state":"PA"},"type":"Feature","geometry":null},{"properties":{"zip":"37311","id":"aofij681myvz","state":"TN"},"type":"Feature","geometry":null},{"properties":{"zip":"55413","id":"aofij5v7ytsw","state":"MN"},"type":"Feature","geometry":null},{"properties":{"zip":"55107","id":"aofij63fj974","state":"MN"},"type":"Feature","geometry":null},{"properties":{"zip":"6010","id":"aofij5z37bvs","state":"CT"},"type":"Feature","geometry":null},{"properties":{"zip":"31794","id":"aofij636gcwv","state":"GA"},"type":"Feature","geometry":null},{"properties":{"zip":"59101","id":"aofij63j6twi","state":"MT"},"type":"Feature","geometry":null},{"properties":{"zip":"78219","id":"aofij67fxt3d","state":"TX"},"type":"Feature","geometry":null},{"properties":{"zip":"20707","id":"aofij631zkx6","state":"MD"},"type":"Feature","geometry":null},{"properties":{"zip":"24572","id":"aofij6b2lxt7","state":"VA"},"type":"Feature","geometry":null},{"properties":{"zip":"20151","id":"aofij61gqdi4","state":"VA"},"type":"Feature","geometry":null},{"properties":{"zip":"37201","id":"aofij6a0xide","state":"TN"},"type":"Feature","geometry":null},{"properties":{"zip":"37321","id":"aofij6af653y","state":"TN"},"type":"Feature","geometry":null},{"properties":{"zip":"37421","id":"aofij67vmaru","state":"TN"},"type":"Feature","geometry":null},{"properties":{"zip":"2026","id":"aofij61pzy1w","state":"MA"},"type":"Feature","geometry":null},{"properties":{"zip":"37421","id":"aofij61yq54y","state":"TN"},"type":"Feature","geometry":null},{"properties":{"zip":"37353","id":"aofij610myxo","state":"TN"},"type":"Feature","geometry":null},{"properties":{"zip":"28412","id":"aofij60t5vgk","state":"NC"},"type":"Feature","geometry":null},{"properties":{"zip":"8075","id":"aofij61cs6og","state":"NJ"},"type":"Feature","geometry":null},{"properties":{"zip":"37421","id":"aofij6b8vot2","state":"TN"},"type":"Feature","geometry":null},{"properties":{"zip":"24450","id":"aofij65lheiy","state":"VA"},"type":"Feature","geometry":null},{"properties":{"zip":"90019","id":"aofij6ahue99","state":"CA"},"type":"Feature","geometry":null},{"properties":{"zip":"94509","id":"aofij5yg9k4w","state":"CA"},"type":"Feature","geometry":null},{"properties":{"zip":"30052","id":"aofij66btqdj","state":"GA"},"type":"Feature","geometry":null},{"properties":{"zip":"11251","id":"aofij5ygdemd","state":"NY"},"type":"Feature","geometry":null},{"properties":{"zip":"37406","id":"aofij647h2yu","state":"TN"},"type":"Feature","geometry":null},{"properties":{"zip":"37407","id":"aofij65x2zxg","state":"TN"},"type":"Feature","geometry":null},{"properties":{"zip":"98029","id":"aofij5xywcug","state":"WA"},"type":"Feature","geometry":null},{"properties":{"zip":"23228","id":"aofij67erd8w","state":"VA"},"type":"Feature","geometry":null},{"properties":{"zip":"3109","id":"aofij62583du","state":"NH"},"type":"Feature","geometry":null},{"properties":{"zip":"78628","id":"aofij6bl0f01","state":"TX"},"type":"Feature","geometry":null},{"properties":{"zip":"10962","id":"aofij66udng2","state":"NY"},"type":"Feature","geometry":null},{"properties":{"zip":"37421","id":"aofij677fjee","state":"TN"},"type":"Feature","geometry":null},{"properties":{"zip":"27529","id":"aofij69gayhk","state":"NC"},"type":"Feature","geometry":null},{"properties":{"zip":"17401","id":"aofij62f43a9","state":"PA"},"type":"Feature","geometry":null},{"properties":{"zip":"37421","id":"aofij5y62xwm","state":"TN"},"type":"Feature","geometry":null},{"properties":{"zip":"1107","id":"aofij6b26i3o","state":"MA"},"type":"Feature","geometry":null},{"properties":{"zip":"15642","id":"aofij5wcf0a9","state":"PA"},"type":"Feature","geometry":null},{"properties":{"zip":"53142","id":"aofij5w7894k","state":"WI"},"type":"Feature","geometry":null},{"properties":{"zip":"27613","id":"aofij61v2yjy","state":"NE"},"type":"Feature","geometry":null},{"properties":{"zip":"75247","id":"aofij64it8lv","state":"TX"},"type":"Feature","geometry":null},{"properties":{"zip":"22153","id":"aofij6622n2o","state":"VA"},"type":"Feature","geometry":null},{"properties":{"zip":"7825","id":"aofij60yuker","state":"NJ"},"type":"Feature","geometry":null},{"properties":{"zip":"11234","id":"aofij604mb4y","state":"NY"},"type":"Feature","geometry":null},{"properties":{"zip":"30045","id":"aofij645o08g","state":"GA"},"type":"Feature","geometry":null},{"properties":{"zip":"30045","id":"aofij6barnlg","state":"GA"},"type":"Feature","geometry":null},{"properties":{"zip":"28805","id":"aofij5xt21al","state":"NC"},"type":"Feature","geometry":null},{"properties":{"zip":"37919","id":"aofij67ud7sz","state":"TN"},"type":"Feature","geometry":null},{"properties":{"zip":"37311","id":"aofij5y0ws0k","state":"TN"},"type":"Feature","geometry":null},{"properties":{"zip":"31794","id":"aofij63rfhpv","state":"GA"},"type":"Feature","geometry":null},{"properties":{"zip":"37407","id":"aofij6bc9g43","state":"TN"},"type":"Feature","geometry":null},{"properties":{"zip":"11530","id":"aofij60uo8q9","state":"NY"},"type":"Feature","geometry":null},{"properties":{"zip":"49068","id":"aofij67hwepe","state":"MI"},"type":"Feature","geometry":null},{"properties":{"zip":"37407","id":"aofij62kqtky","state":"TN"},"type":"Feature","geometry":null},{"properties":{"zip":"1107","id":"aofij6alb3i5","state":"MA"},"type":"Feature","geometry":null},{"properties":{"zip":"37421","id":"aofij67adgny","state":"TN"},"type":"Feature","geometry":null},{"properties":{"zip":"30318","id":"aofij609rszt","state":"GA"},"type":"Feature","geometry":null},{"properties":{"zip":"97301","id":"aofij5wi7zjo","state":"OR"},"type":"Feature","geometry":null},{"properties":{"zip":"37421","id":"aofij66aczbj","state":"TN"},"type":"Feature","geometry":null},{"properties":{"zip":"20772","id":"aofij5wnif5w","state":"MD"},"type":"Feature","geometry":null},{"properties":{"zip":"2886","id":"aofij65jqm82","state":"RI"},"type":"Feature","geometry":null},{"properties":{"zip":"12801","id":"aofij6adj6oy","state":"NY"},"type":"Feature","geometry":null},{"properties":{"zip":"29841","id":"aofij64ssjzg","state":"SC"},"type":"Feature","geometry":null},{"properties":{"zip":"80216","id":"aofij60cjj7u","state":"CO"},"type":"Feature","geometry":null},{"properties":{"zip":"60639","id":"aofij5v8k4dj","state":"IL"},"type":"Feature","geometry":null},{"properties":{"zip":"37211","id":"aofij5ze3af6","state":"TN"},"type":"Feature","geometry":null},{"properties":{"zip":"35951","id":"aofij6325oqc","state":"AL"},"type":"Feature","geometry":null},{"properties":{"zip":"17111","id":"aofij61k497c","state":"PA"},"type":"Feature","geometry":null},{"properties":{"zip":"28078","id":"aofij5ylr0gx","state":"NC"},"type":"Feature","geometry":null},{"properties":{"zip":"28697","id":"aofij67acu7p","state":"NC"},"type":"Feature","geometry":null},{"properties":{"zip":"10918","id":"aofij68tpq7i","state":"NY"},"type":"Feature","geometry":null},{"properties":{"zip":"7504","id":"aofij68oby1w","state":"NJ"},"type":"Feature","geometry":null},{"properties":{"zip":"5495","id":"aofij5vn12ax","state":"VT"},"type":"Feature","geometry":null},{"properties":{"zip":"37921","id":"aofij64w4c4k","state":"TN"},"type":"Feature","geometry":null},{"properties":{"zip":"37209","id":"aofij5xemm5x","state":"TN"},"type":"Feature","geometry":null},{"properties":{"zip":"54703","id":"aofij63vsbus","state":"WI"},"type":"Feature","geometry":null},{"properties":{"zip":"61354","id":"aofij65i6wza","state":"IL"},"type":"Feature","geometry":null},{"properties":{"zip":"37343","id":"aofij666lvq1","state":"TN"},"type":"Feature","geometry":null},{"properties":{"zip":"75070","id":"aofij68smr74","state":"TX"},"type":"Feature","geometry":null},{"properties":{"zip":"30288","id":"aofij62fkxn6","state":"GA"},"type":"Feature","geometry":null},{"properties":{"zip":"65616","id":"aofij60wcp3a","state":"MO"},"type":"Feature","geometry":null},{"properties":{"zip":"49735","id":"aofij5yi6j88","state":"MI"},"type":"Feature","geometry":null},{"properties":{"zip":"37421","id":"aofij5yx3q7u","state":"TN"},"type":"Feature","geometry":null},{"properties":{"zip":"6810","id":"aofij6a66h3w","state":"CT"},"type":"Feature","geometry":null},{"properties":{"zip":"57703","id":"aofij5z0lsgl","state":"SD"},"type":"Feature","geometry":null},{"properties":{"zip":"33605","id":"aofij69ae112","state":"FL"},"type":"Feature","geometry":null},{"properties":{"zip":"78219","id":"aofij6bbn32r","state":"TX"},"type":"Feature","geometry":null},{"properties":{"zip":"58701","id":"aofij62wa2ko","state":"ND"},"type":"Feature","geometry":null},{"properties":{"zip":"33778","id":"aofij62uj0d5","state":"FL"},"type":"Feature","geometry":null},{"properties":{"zip":"37407","id":"aofij6b343q6","state":"TN"},"type":"Feature","geometry":null},{"properties":{"zip":"37932","id":"aofij6bhdws0","state":"TN"},"type":"Feature","geometry":null},{"properties":{"zip":"37421","id":"aofij69s4t4k","state":"TN"},"type":"Feature","geometry":null},{"properties":{"zip":"65803","id":"aofij5xr7i9k","state":"MO"},"type":"Feature","geometry":null},{"properties":{"zip":"80010","id":"aofij668tlnr","state":"CO"},"type":"Feature","geometry":null},{"properties":{"zip":"37343","id":"aofij6501247","state":"TN"},"type":"Feature","geometry":null},{"properties":{"zip":"35758","id":"aofij622piji","state":"AL"},"type":"Feature","geometry":null},{"properties":{"zip":"12401","id":"aofij671vigp","state":"NY"},"type":"Feature","geometry":null},{"properties":{"zip":"44333","id":"aofij5wi0cdz","state":"OH"},"type":"Feature","geometry":null},{"properties":{"zip":"90248","id":"aofij6638lu4","state":"CA"},"type":"Feature","geometry":null}],"is_temporal":false,"author":{"url":null,"metadata":null,"contact_name":null,"contact_address":null,"source":null,"contact_phone":null},"source":null,"pagination":{"sort":null,"start":0,"total":1122,"limit":1000000},"state":"processing","tags":"","published":"2014-08-17T22:44:18-04:00","id":480171}