{"type":"FeatureCollection","data_type":"Dataset","url_type":null,"permissions":[{"permissions":{"download":true,"view":true},"group_id":"everyone"}],"classification":null,"title":"Central Visayas (Municipalities and Provinces)","count":132,"stream_id":480376,"contributor":{"url":"http://geocommons.com/users/101908","name":"ksuarez"},"data_attributes":null,"calculation_params":null,"icon_link":null,"link":"http://geocommons.com/overlays/480376.json","extent":[122.672,9.13422,124.575,11.3278],"geometry_types":["point"],"unique_name":null,"name":"Central Visayas (Municipalities and Provinces)","feature_count":132,"description":"","next_feature":null,"is_raster":false,"short_classification":"Y","stats":{"latitude":{"count":100,"max":11.32781113,"variance":0.251516287051696,"mean":9.96748041274243,"counts_by_value":{"9.830665085":1,"9.742496119":1,"10.12493821":1,"9.526289338":1,"10.11991425":1,"9.612571752":1,"9.721654866":1,"9.696430277":1,"9.240356623":1,"10.04385427":1,"10.27433335":1,"9.241201526":1,"10.05144126":1,"10.01268912":1,"10.59591992":1,"10.00264804":1,"9.972864528":1,"9.757190501":1,"9.615003033":1,"9.694130627":1,"9.654915407":1,"9.717661291":1,"9.619036087":1,"10.17186637":1,"10.10964965":1,"9.835040953":1,"9.568034715":1,"9.294414776":1,"9.754425101":1,"9.589938926":1,"9.428781561":1,"9.912823682":1,"10.60514839":1,"11.03129133":1,"9.176191414":1,"10.34832938":1,"9.634509671":1,"9.434255442":1,"9.941432527":1,"9.847404821":1,"9.638513918":1,"9.77761553":1,"10.53099548":1,"9.898512279":1,"10.19383883":1,"9.710460426":1,"9.141261918":1,"10.40013629":1,"10.30205353":1,"9.52124759":1,"10.37990075":1,"11.32781113":1,"9.507192908":1,"9.907475932":1,"9.647810736":1,"9.204325644":1,"10.17175973":1,"9.936167606":1,"9.968296074":1,"9.750982446":1,"9.258970711":1,"9.9051478":1,"11.27423884":1,"9.582809252":1,"9.805116701":1,"9.607352899":1,"9.78411457":1,"9.872258181":1,"10.17672675":1,"9.677674074":1,"10.67178918":1,"10.46585451":1,"9.720874083":1,"10.01508157":1,"10.0695625":1,"10.67274236":1,"10.77191675":1,"9.668721682":1,"9.886916859":1,"10.65616836":1,"10.41819258":1,"9.798594901":1,"9.464457039":1,"9.902736628":1,"10.35192364":1,"10.27362482":1,"9.82811216":1,"9.813889594":1,"9.801140816":1,"10.17663558":1,"9.841767283":1,"11.13931769":1,"9.694351691":1,"10.26012754":1,"11.14055959":1,"10.84644254":1,"10.24235988":1,"9.84254383":1,"9.760794314":1,"10.47096548":1},"list":[9.634509671,9.968296074,9.721654866,9.750982446,9.898512279,10.19383883,9.434255442,9.760794314,9.78411457,9.907475932,10.60514839,9.872258181,9.582809252,9.241201526,9.84254383,9.612571752,10.47096548,9.757190501,11.14055959,10.10964965,9.464457039,9.801140816,9.52124759,10.17186637,9.710460426,9.798594901,11.03129133,9.638513918,10.84644254,10.04385427,9.886916859,9.830665085,10.34832938,10.11991425,9.835040953,10.59591992,9.847404821,10.67178918,10.37990075,9.936167606,10.46585451,10.40013629,10.26012754,9.694130627,9.720874083,11.32781113,9.902736628,9.805116701,9.972864528,10.53099548,9.204325644,9.607352899,9.654915407,9.742496119,9.294414776,10.05144126,9.258970711,9.668721682,9.589938926,10.17663558,9.77761553,10.01508157,9.696430277,10.17175973,10.01268912,10.0695625,10.27362482,9.240356623,9.141261918,9.615003033,10.41819258,9.619036087,9.647810736,9.813889594,9.717661291,9.9051478,11.27423884,9.677674074,10.35192364,9.694351691,9.176191414,9.754425101,11.13931769,10.30205353,9.941432527,10.24235988,9.526289338,9.428781561,9.568034715,9.82811216,10.77191675,10.27433335,10.67274236,10.12493821,10.00264804,9.912823682,9.507192908,10.17672675,10.65616836,9.841767283],"stdev":0.501513994871226,"min":9.134219768,"median":9.886916859},"longitude":{"count":100,"max":124.5753804,"variance":0.197524400717386,"mean":123.772724808333,"counts_by_value":{"123.4544479":1,"123.0985741":1,"123.1726986":1,"123.828582":1,"123.4613148":1,"123.9975751":1,"124.501694":1,"123.4717558":1,"123.9212446":1,"123.0268845":1,"124.3850397":1,"124.463969":1,"122.9243862":1,"123.4954297":1,"124.2297168":1,"124.205109":1,"123.9706511":1,"123.7826257":1,"123.2122205":1,"123.5356732":1,"123.384859":1,"123.0412689":1,"124.3298952":1,"123.5787723":1,"123.0433468":1,"123.634279":1,"123.6562506":1,"123.9917652":1,"123.7512066":1,"124.1499636":1,"123.3488463":1,"123.1277861":1,"123.3660026":1,"123.6031489":1,"123.9625743":1,"123.966326":1,"124.2908111":1,"124.4340382":1,"123.8463763":1,"123.1548616":1,"124.1146846":1,"123.6841909":1,"123.9821761":1,"124.1248287":1,"123.847762":1,"122.6715077":1,"124.0206538":1,"123.203208":1,"123.8233139":1,"123.9554556":1,"122.823919":1,"123.6341821":1,"124.0992851":1,"123.9055403":1,"123.9994973":1,"123.7777818":1,"124.5245411":1,"123.6174142":1,"124.5581041":1,"123.9784492":1,"123.9476305":1,"123.3316262":1,"124.5324719":1,"123.4124251":1,"123.7183275":1,"123.550594":1,"123.6766761":1,"123.9293421":1,"124.124099":1,"123.2775796":1,"124.4170304":1,"123.7329248":1,"123.8303545":1,"123.4439971":1,"123.9001728":1,"123.0582949":1,"123.8738175":1,"123.6314368":1,"123.9725259":1,"124.2885857":1,"124.0367284":1,"123.2113467":1,"123.4477501":1,"123.9462366":1,"123.2552442":1,"124.1366506":1,"124.3420634":1,"123.4170012":1,"123.9399858":1,"124.0425099":1,"123.9897904":1,"124.4306375":1,"123.4233833":1,"124.1622881":1,"124.5753804":1,"124.3601688":1,"124.1128265":1,"124.0304859":1,"123.9486963":1,"124.0003241":1},"list":[123.966326,123.4477501,123.4613148,123.384859,124.4306375,123.5787723,123.1726986,124.5581041,123.9055403,123.550594,123.8233139,123.0582949,123.9212446,123.2552442,123.4233833,123.0268845,123.7826257,123.9994973,123.6841909,123.5356732,122.6715077,124.1248287,122.823919,124.4170304,124.124099,123.0433468,123.9975751,123.4439971,123.9917652,124.1622881,123.8738175,124.501694,123.203208,123.6341821,124.205109,123.9784492,124.0367284,123.9821761,123.8463763,124.0304859,123.9554556,123.9625743,123.9486963,123.9293421,123.9001728,124.0003241,124.2908111,123.4954297,124.2297168,123.9462366,123.2113467,123.828582,124.1499636,124.3850397,123.2775796,123.4717558,123.634279,124.2885857,123.3488463,123.2122205,124.463969,124.1128265,124.3420634,124.1366506,123.1277861,123.1548616,123.9897904,123.6031489,123.6174142,124.0992851,123.9725259,124.0206538,124.0425099,123.8303545,122.9243862,124.5245411,123.7329248,123.3660026,123.9399858,123.0985741,123.6562506,123.847762,123.9706511,123.7777818,123.4170012,123.7183275,123.4124251,123.0412689,123.7512066,124.3601688,124.5324719,123.6314368,124.4340382,124.5753804,123.4544479,124.1146846,123.3316262,123.6766761,124.3298952,123.9476305],"stdev":0.444437172969798,"min":122.6715077,"median":123.8544792}},"features":[{"properties":{"latitude":9.634509671,"municipality":"Alburquerque","longitude":123.966326,"id":"aofunkxmmzkx","province":"BOHOL"},"type":"Feature","geometry":{"type":"Point","coordinates":[123.966326,9.634509671]}},{"properties":{"latitude":9.968296074,"municipality":"Alcantara","longitude":123.4477501,"id":"aofunkos9c3h","province":"CEBU"},"type":"Feature","geometry":{"type":"Point","coordinates":[123.4477501,9.968296074]}},{"properties":{"latitude":9.721654866,"municipality":"Alcoy","longitude":123.4613148,"id":"aofunkqwzp51","province":"CEBU"},"type":"Feature","geometry":{"type":"Point","coordinates":[123.4613148,9.721654866]}},{"properties":{"latitude":9.750982446,"municipality":"Alegria","longitude":123.384859,"id":"aofunkwf4zfv","province":"CEBU"},"type":"Feature","geometry":{"type":"Point","coordinates":[123.384859,9.750982446]}},{"properties":{"latitude":9.898512279,"municipality":"Alicia","longitude":124.4306375,"id":"aofunl2o2ch6","province":"BOHOL"},"type":"Feature","geometry":{"type":"Point","coordinates":[124.4306375,9.898512279]}},{"properties":{"latitude":10.19383883,"municipality":"Aloguinsan","longitude":123.5787723,"id":"aofunl08heac","province":"CEBU"},"type":"Feature","geometry":{"type":"Point","coordinates":[123.5787723,10.19383883]}},{"properties":{"latitude":9.434255442,"municipality":"Amlan","longitude":123.1726986,"id":"aofunl3h57hy","province":"NEGROS ORIENTAL"},"type":"Feature","geometry":{"type":"Point","coordinates":[123.1726986,9.434255442]}},{"properties":{"latitude":9.760794314,"municipality":"Anda","longitude":124.5581041,"id":"aofunkqzp0v0","province":"BOHOL"},"type":"Feature","geometry":{"type":"Point","coordinates":[124.5581041,9.760794314]}},{"properties":{"latitude":9.78411457,"municipality":"Antiquera","longitude":123.9055403,"id":"aofunkykn9cj","province":"BOHOL"},"type":"Feature","geometry":{"type":"Point","coordinates":[123.9055403,9.78411457]}},{"properties":{"latitude":9.907475932,"municipality":"Argao","longitude":123.550594,"id":"aofunl0f48uv","province":"CEBU"},"type":"Feature","geometry":{"type":"Point","coordinates":[123.550594,9.907475932]}},{"properties":{"latitude":10.60514839,"municipality":"Asturias","longitude":123.8233139,"id":"aofunkv3f2gh","province":"CEBU"},"type":"Feature","geometry":{"type":"Point","coordinates":[123.8233139,10.60514839]}},{"properties":{"latitude":9.872258181,"municipality":"Ayungon","longitude":123.0582949,"id":"aofunl3l2qip","province":"NEGROS ORIENTAL"},"type":"Feature","geometry":{"type":"Point","coordinates":[123.0582949,9.872258181]}},{"properties":{"latitude":9.582809252,"municipality":"Baclayon","longitude":123.9212446,"id":"aofunl1sbjrw","province":"BOHOL"},"type":"Feature","geometry":{"type":"Point","coordinates":[123.9212446,9.582809252]}},{"properties":{"latitude":9.241201526,"municipality":"Bacong","longitude":123.2552442,"id":"aofunkp1e5mh","province":"NEGROS ORIENTAL"},"type":"Feature","geometry":{"type":"Point","coordinates":[123.2552442,9.241201526]}},{"properties":{"latitude":9.84254383,"municipality":"Badian","longitude":123.4233833,"id":"aofunl315r6s","province":"CEBU"},"type":"Feature","geometry":{"type":"Point","coordinates":[123.4233833,9.84254383]}},{"properties":{"latitude":9.612571752,"municipality":"Bais","longitude":123.0268845,"id":"aofunkpprw2e","province":"NEGROS ORIENTAL"},"type":"Feature","geometry":{"type":"Point","coordinates":[123.0268845,9.612571752]}},{"properties":{"latitude":10.47096548,"municipality":"Balamban","longitude":123.7826257,"id":"aofunkysrrx4","province":"CEBU"},"type":"Feature","geometry":{"type":"Point","coordinates":[123.7826257,10.47096548]}},{"properties":{"latitude":9.757190501,"municipality":"Balilihan","longitude":123.9994973,"id":"aofunkr311ty","province":"BOHOL"},"type":"Feature","geometry":{"type":"Point","coordinates":[123.9994973,9.757190501]}},{"properties":{"latitude":11.14055959,"municipality":"Bantayan","longitude":123.6841909,"id":"aofunkx1n4q0","province":"CEBU"},"type":"Feature","geometry":{"type":"Point","coordinates":[123.6841909,11.14055959]}},{"properties":{"latitude":10.10964965,"municipality":"Barili","longitude":123.5356732,"id":"aofunl05105j","province":"CEBU"},"type":"Feature","geometry":{"type":"Point","coordinates":[123.5356732,10.10964965]}},{"properties":{"latitude":9.464457039,"municipality":"Basay","longitude":122.6715077,"id":"aofunkry8208","province":"NEGROS ORIENTAL"},"type":"Feature","geometry":{"type":"Point","coordinates":[122.6715077,9.464457039]}},{"properties":{"latitude":9.801140816,"municipality":"Batuan","longitude":124.1248287,"id":"aofunl2l0djx","province":"BOHOL"},"type":"Feature","geometry":{"type":"Point","coordinates":[124.1248287,9.801140816]}},{"properties":{"latitude":9.52124759,"municipality":"Bayawan","longitude":122.823919,"id":"aofunkz5lpn0","province":"NEGROS ORIENTAL"},"type":"Feature","geometry":{"type":"Point","coordinates":[122.823919,9.52124759]}},{"properties":{"latitude":10.17186637,"municipality":"Bien Unido","longitude":124.4170304,"id":"aofunkrdj4rs","province":"BOHOL"},"type":"Feature","geometry":{"type":"Point","coordinates":[124.4170304,10.17186637]}},{"properties":{"latitude":9.710460426,"municipality":"Bilar","longitude":124.124099,"id":"aofunkpn19dz","province":"BOHOL"},"type":"Feature","geometry":{"type":"Point","coordinates":[124.124099,9.710460426]}},{"properties":{"latitude":9.798594901,"municipality":"Bindoy","longitude":123.0433468,"id":"aofunkpm1l0r","province":"NEGROS ORIENTAL"},"type":"Feature","geometry":{"type":"Point","coordinates":[123.0433468,9.798594901]}},{"properties":{"latitude":11.03129133,"municipality":"Bogo","longitude":123.9975751,"id":"aofunkslmyr0","province":"CEBU"},"type":"Feature","geometry":{"type":"Point","coordinates":[123.9975751,11.03129133]}},{"properties":{"latitude":9.638513918,"municipality":"Boljoon","longitude":123.4439971,"id":"aofunku6d1w5","province":"CEBU"},"type":"Feature","geometry":{"type":"Point","coordinates":[123.4439971,9.638513918]}},{"properties":{"latitude":10.84644254,"municipality":"Borbon","longitude":123.9917652,"id":"aofunl2fe5pw","province":"CEBU"},"type":"Feature","geometry":{"type":"Point","coordinates":[123.9917652,10.84644254]}},{"properties":{"latitude":10.04385427,"municipality":"Buenavista","longitude":124.1622881,"id":"aofunktmesp7","province":"BOHOL"},"type":"Feature","geometry":{"type":"Point","coordinates":[124.1622881,10.04385427]}},{"properties":{"latitude":9.886916859,"municipality":"Calape","longitude":123.8738175,"id":"aofunks72j14","province":"BOHOL"},"type":"Feature","geometry":{"type":"Point","coordinates":[123.8738175,9.886916859]}},{"properties":{"latitude":9.830665085,"municipality":"Candijay","longitude":124.501694,"id":"aofunksmpghf","province":"BOHOL"},"type":"Feature","geometry":{"type":"Point","coordinates":[124.501694,9.830665085]}},{"properties":{"latitude":10.34832938,"municipality":"Canlaon","longitude":123.203208,"id":"aofunkr2a7km","province":"NEGROS ORIENTAL"},"type":"Feature","geometry":{"type":"Point","coordinates":[123.203208,10.34832938]}},{"properties":{"latitude":10.11991425,"municipality":"Carcar","longitude":123.6341821,"id":"aofunl1hbhsy","province":"CEBU"},"type":"Feature","geometry":{"type":"Point","coordinates":[123.6341821,10.11991425]}},{"properties":{"latitude":9.835040953,"municipality":"Carmen","longitude":124.205109,"id":"aofunkyitmqq","province":"BOHOL"},"type":"Feature","geometry":{"type":"Point","coordinates":[124.205109,9.835040953]}},{"properties":{"latitude":10.59591992,"municipality":"Carmen","longitude":123.9784492,"id":"aofunl19mxx2","province":"CEBU"},"type":"Feature","geometry":{"type":"Point","coordinates":[123.9784492,10.59591992]}},{"properties":{"latitude":9.847404821,"municipality":"Catigbian","longitude":124.0367284,"id":"aofunkxqgv7g","province":"BOHOL"},"type":"Feature","geometry":{"type":"Point","coordinates":[124.0367284,9.847404821]}},{"properties":{"latitude":10.67178918,"municipality":"Catmon","longitude":123.9821761,"id":"aofunl0p1uc7","province":"CEBU"},"type":"Feature","geometry":{"type":"Point","coordinates":[123.9821761,10.67178918]}},{"properties":{"latitude":10.37990075,"municipality":"Cebu City","longitude":123.8463763,"id":"aofunl2j47xf","province":"CEBU"},"type":"Feature","geometry":{"type":"Point","coordinates":[123.8463763,10.37990075]}},{"properties":{"latitude":9.936167606,"municipality":"Clarin","longitude":124.0304859,"id":"aofunkwctg03","province":"BOHOL"},"type":"Feature","geometry":{"type":"Point","coordinates":[124.0304859,9.936167606]}},{"properties":{"latitude":10.46585451,"municipality":"Compostela","longitude":123.9554556,"id":"aofunkyafkl3","province":"CEBU"},"type":"Feature","geometry":{"type":"Point","coordinates":[123.9554556,10.46585451]}},{"properties":{"latitude":10.40013629,"municipality":"Consolacion","longitude":123.9625743,"id":"aofunkxhiyln","province":"CEBU"},"type":"Feature","geometry":{"type":"Point","coordinates":[123.9625743,10.40013629]}},{"properties":{"latitude":10.26012754,"municipality":"Cordoba","longitude":123.9486963,"id":"aofunkp8bviz","province":"CEBU"},"type":"Feature","geometry":{"type":"Point","coordinates":[123.9486963,10.26012754]}},{"properties":{"latitude":9.694130627,"municipality":"Corella","longitude":123.9293421,"id":"aofunkzju8sj","province":"BOHOL"},"type":"Feature","geometry":{"type":"Point","coordinates":[123.9293421,9.694130627]}},{"properties":{"latitude":9.720874083,"municipality":"Cortes","longitude":123.9001728,"id":"aofunksjjqwg","province":"BOHOL"},"type":"Feature","geometry":{"type":"Point","coordinates":[123.9001728,9.720874083]}},{"properties":{"latitude":11.32781113,"municipality":"Daanbantayan","longitude":124.0003241,"id":"aofunl4h5z8v","province":"CEBU"},"type":"Feature","geometry":{"type":"Point","coordinates":[124.0003241,11.32781113]}},{"properties":{"latitude":9.902736628,"municipality":"Dagohoy","longitude":124.2908111,"id":"aofunkpewup8","province":"BOHOL"},"type":"Feature","geometry":{"type":"Point","coordinates":[124.2908111,9.902736628]}},{"properties":{"latitude":9.805116701,"municipality":"Dalaguete","longitude":123.4954297,"id":"aofunkunv3k3","province":"CEBU"},"type":"Feature","geometry":{"type":"Point","coordinates":[123.4954297,9.805116701]}},{"properties":{"latitude":9.972864528,"municipality":"Danao","longitude":124.2297168,"id":"aofunkp32i74","province":"BOHOL"},"type":"Feature","geometry":{"type":"Point","coordinates":[124.2297168,9.972864528]}},{"properties":{"latitude":10.53099548,"municipality":"Danao City","longitude":123.9462366,"id":"aofunkqzome4","province":"CEBU"},"type":"Feature","geometry":{"type":"Point","coordinates":[123.9462366,10.53099548]}},{"properties":{"latitude":9.204325644,"municipality":"Dauin","longitude":123.2113467,"id":"aofunl0it45u","province":"NEGROS ORIENTAL"},"type":"Feature","geometry":{"type":"Point","coordinates":[123.2113467,9.204325644]}},{"properties":{"latitude":9.607352899,"municipality":"Dauis","longitude":123.828582,"id":"aofunksscsb8","province":"BOHOL"},"type":"Feature","geometry":{"type":"Point","coordinates":[123.828582,9.607352899]}},{"properties":{"latitude":9.654915407,"municipality":"Dimiao","longitude":124.1499636,"id":"aofunl1ueho4","province":"BOHOL"},"type":"Feature","geometry":{"type":"Point","coordinates":[124.1499636,9.654915407]}},{"properties":{"latitude":9.742496119,"municipality":"Duero","longitude":124.3850397,"id":"aofunl403jjx","province":"BOHOL"},"type":"Feature","geometry":{"type":"Point","coordinates":[124.3850397,9.742496119]}},{"properties":{"latitude":9.294414776,"municipality":"Dumaguete City","longitude":123.2775796,"id":"aofunl4ld7ul","province":"NEGROS ORIENTAL"},"type":"Feature","geometry":{"type":"Point","coordinates":[123.2775796,9.294414776]}},{"properties":{"latitude":10.05144126,"municipality":"Dumanjug","longitude":123.4717558,"id":"aofunl0wu9o9","province":"CEBU"},"type":"Feature","geometry":{"type":"Point","coordinates":[123.4717558,10.05144126]}},{"properties":{"latitude":9.258970711,"municipality":"Enrique Villanueva","longitude":123.634279,"id":"aofunl1j35ds","province":"SIQUIJOR"},"type":"Feature","geometry":{"type":"Point","coordinates":[123.634279,9.258970711]}},{"properties":{"latitude":9.668721682,"municipality":"Garcia Hernandez","longitude":124.2885857,"id":"aofunl1rckfg","province":"BOHOL"},"type":"Feature","geometry":{"type":"Point","coordinates":[124.2885857,9.668721682]}},{"properties":{"latitude":9.589938926,"municipality":"Ginatilan","longitude":123.3488463,"id":"aofunkpm93ph","province":"CEBU"},"type":"Feature","geometry":{"type":"Point","coordinates":[123.3488463,9.589938926]}},{"properties":{"latitude":10.17663558,"municipality":"Guihulngan","longitude":123.2122205,"id":"aofunl32d4j3","province":"NEGROS ORIENTAL"},"type":"Feature","geometry":{"type":"Point","coordinates":[123.2122205,10.17663558]}},{"properties":{"latitude":9.77761553,"municipality":"Guindulman","longitude":124.463969,"id":"aofunkwezqbv","province":"BOHOL"},"type":"Feature","geometry":{"type":"Point","coordinates":[124.463969,9.77761553]}},{"properties":{"latitude":10.01508157,"municipality":"Inabanga","longitude":124.1128265,"id":"aofunkqejb11","province":"BOHOL"},"type":"Feature","geometry":{"type":"Point","coordinates":[124.1128265,10.01508157]}},{"properties":{"latitude":9.696430277,"municipality":"Jagna","longitude":124.3420634,"id":"aofunl2qgel3","province":"BOHOL"},"type":"Feature","geometry":{"type":"Point","coordinates":[124.3420634,9.696430277]}},{"properties":{"latitude":10.17175973,"municipality":"Jetafe","longitude":124.1366506,"id":"aofunl00ksja","province":"BOHOL"},"type":"Feature","geometry":{"type":"Point","coordinates":[124.1366506,10.17175973]}},{"properties":{"latitude":10.01268912,"municipality":"Jimalalud","longitude":123.1277861,"id":"aofunkumbbxt","province":"NEGROS ORIENTAL"},"type":"Feature","geometry":{"type":"Point","coordinates":[123.1277861,10.01268912]}},{"properties":{"latitude":10.0695625,"municipality":"La Libertad","longitude":123.1548616,"id":"aofunkuvnpex","province":"NEGROS ORIENTAL"},"type":"Feature","geometry":{"type":"Point","coordinates":[123.1548616,10.0695625]}},{"properties":{"latitude":10.27362482,"municipality":"Lapu-Lapu City","longitude":123.9897904,"id":"aofunl3k2bui","province":"CEBU"},"type":"Feature","geometry":{"type":"Point","coordinates":[123.9897904,10.27362482]}},{"properties":{"latitude":9.240356623,"municipality":"Larena","longitude":123.6031489,"id":"aofunks1qbfs","province":"SIQUIJOR"},"type":"Feature","geometry":{"type":"Point","coordinates":[123.6031489,9.240356623]}},{"properties":{"latitude":9.141261918,"municipality":"Lazi","longitude":123.6174142,"id":"aofunktmxzv3","province":"SIQUIJOR"},"type":"Feature","geometry":{"type":"Point","coordinates":[123.6174142,9.141261918]}},{"properties":{"latitude":9.615003033,"municipality":"Lila","longitude":124.0992851,"id":"aofunkpplfqi","province":"BOHOL"},"type":"Feature","geometry":{"type":"Point","coordinates":[124.0992851,9.615003033]}},{"properties":{"latitude":10.41819258,"municipality":"Liloan","longitude":123.9725259,"id":"aofunkquc0d3","province":"CEBU"},"type":"Feature","geometry":{"type":"Point","coordinates":[123.9725259,10.41819258]}},{"properties":{"latitude":9.619036087,"municipality":"Loay","longitude":124.0206538,"id":"aofunl177q4n","province":"BOHOL"},"type":"Feature","geometry":{"type":"Point","coordinates":[124.0206538,9.619036087]}},{"properties":{"latitude":9.647810736,"municipality":"Loboc","longitude":124.0425099,"id":"aofunkygscka","province":"BOHOL"},"type":"Feature","geometry":{"type":"Point","coordinates":[124.0425099,9.647810736]}},{"properties":{"latitude":9.813889594,"municipality":"Loon","longitude":123.8303545,"id":"aofunkxsxasg","province":"BOHOL"},"type":"Feature","geometry":{"type":"Point","coordinates":[123.8303545,9.813889594]}},{"properties":{"latitude":9.717661291,"municipality":"Mabinay","longitude":122.9243862,"id":"aofunksjxzz6","province":"NEGROS ORIENTAL"},"type":"Feature","geometry":{"type":"Point","coordinates":[122.9243862,9.717661291]}},{"properties":{"latitude":9.9051478,"municipality":"Mabini","longitude":124.5245411,"id":"aofunl28ypjq","province":"BOHOL"},"type":"Feature","geometry":{"type":"Point","coordinates":[124.5245411,9.9051478]}},{"properties":{"latitude":11.27423884,"municipality":"Madridejos","longitude":123.7329248,"id":"aofunkt0xtkb","province":"CEBU"},"type":"Feature","geometry":{"type":"Point","coordinates":[123.7329248,11.27423884]}},{"properties":{"latitude":9.677674074,"municipality":"Malabuyoc","longitude":123.3660026,"id":"aofunks8adk0","province":"CEBU"},"type":"Feature","geometry":{"type":"Point","coordinates":[123.3660026,9.677674074]}},{"properties":{"latitude":10.35192364,"municipality":"Mandaue","longitude":123.9399858,"id":"aofunl3nmgwg","province":"CEBU"},"type":"Feature","geometry":{"type":"Point","coordinates":[123.9399858,10.35192364]}},{"properties":{"latitude":9.694351691,"municipality":"Manjuyod","longitude":123.0985741,"id":"aofunkw97dvq","province":"NEGROS ORIENTAL"},"type":"Feature","geometry":{"type":"Point","coordinates":[123.0985741,9.694351691]}},{"properties":{"latitude":9.176191414,"municipality":"Maria","longitude":123.6562506,"id":"aofunl070dxo","province":"SIQUIJOR"},"type":"Feature","geometry":{"type":"Point","coordinates":[123.6562506,9.176191414]}},{"properties":{"latitude":9.754425101,"municipality":"Maribojoc","longitude":123.847762,"id":"aofunkv12xx1","province":"BOHOL"},"type":"Feature","geometry":{"type":"Point","coordinates":[123.847762,9.754425101]}},{"properties":{"latitude":11.13931769,"municipality":"Medellin","longitude":123.9706511,"id":"aofunktuc6ly","province":"CEBU"},"type":"Feature","geometry":{"type":"Point","coordinates":[123.9706511,11.13931769]}},{"properties":{"latitude":10.30205353,"municipality":"Mingalanilla","longitude":123.7777818,"id":"aofunl3rplor","province":"CEBU"},"type":"Feature","geometry":{"type":"Point","coordinates":[123.7777818,10.30205353]}},{"properties":{"latitude":9.941432527,"municipality":"Moalboal","longitude":123.4170012,"id":"aofunktpu8zm","province":"CEBU"},"type":"Feature","geometry":{"type":"Point","coordinates":[123.4170012,9.941432527]}},{"properties":{"latitude":10.24235988,"municipality":"Naga","longitude":123.7183275,"id":"aofunl3fy3ms","province":"CEBU"},"type":"Feature","geometry":{"type":"Point","coordinates":[123.7183275,10.24235988]}},{"properties":{"latitude":9.526289338,"municipality":"Oslob","longitude":123.4124251,"id":"aofunl3uq5jx","province":"CEBU"},"type":"Feature","geometry":{"type":"Point","coordinates":[123.4124251,9.526289338]}},{"properties":{"latitude":9.428781561,"municipality":"Pamplona","longitude":123.0412689,"id":"aofunkxwsoam","province":"NEGROS ORIENTAL"},"type":"Feature","geometry":{"type":"Point","coordinates":[123.0412689,9.428781561]}},{"properties":{"latitude":9.568034715,"municipality":"Panglao","longitude":123.7512066,"id":"aofunl056c4j","province":"BOHOL"},"type":"Feature","geometry":{"type":"Point","coordinates":[123.7512066,9.568034715]}},{"properties":{"latitude":9.82811216,"municipality":"Pilar","longitude":124.3601688,"id":"aofunkvvuey4","province":"BOHOL"},"type":"Feature","geometry":{"type":"Point","coordinates":[124.3601688,9.82811216]}},{"properties":{"latitude":10.77191675,"municipality":"Pilar","longitude":124.5324719,"id":"aofunkw7dxf1","province":"CEBU"},"type":"Feature","geometry":{"type":"Point","coordinates":[124.5324719,10.77191675]}},{"properties":{"latitude":10.27433335,"municipality":"Pinamungahan","longitude":123.6314368,"id":"aofunkoyonih","province":"CEBU"},"type":"Feature","geometry":{"type":"Point","coordinates":[123.6314368,10.27433335]}},{"properties":{"latitude":10.67274236,"municipality":"Poro","longitude":124.4340382,"id":"aofunkxss7bs","province":"CEBU"},"type":"Feature","geometry":{"type":"Point","coordinates":[124.4340382,10.67274236]}},{"properties":{"latitude":10.12493821,"municipality":"President Carlos P. Garcia","longitude":124.5753804,"id":"aofunl2ehn2l","province":"BOHOL"},"type":"Feature","geometry":{"type":"Point","coordinates":[124.5753804,10.12493821]}},{"properties":{"latitude":10.00264804,"municipality":"Ronda","longitude":123.4544479,"id":"aofunkunaey5","province":"CEBU"},"type":"Feature","geometry":{"type":"Point","coordinates":[123.4544479,10.00264804]}},{"properties":{"latitude":9.912823682,"municipality":"Sagbayan","longitude":124.1146846,"id":"aofunkt0cwre","province":"BOHOL"},"type":"Feature","geometry":{"type":"Point","coordinates":[124.1146846,9.912823682]}},{"properties":{"latitude":9.507192908,"municipality":"Samboan","longitude":123.3316262,"id":"aofunkov3iq8","province":"CEBU"},"type":"Feature","geometry":{"type":"Point","coordinates":[123.3316262,9.507192908]}},{"properties":{"latitude":10.17672675,"municipality":"San Fernando","longitude":123.6766761,"id":"aofunl3u77bl","province":"CEBU"},"type":"Feature","geometry":{"type":"Point","coordinates":[123.6766761,10.17672675]}},{"properties":{"latitude":10.65616836,"municipality":"San Francisco","longitude":124.3298952,"id":"aofunko441ad","province":"CEBU"},"type":"Feature","geometry":{"type":"Point","coordinates":[124.3298952,10.65616836]}},{"properties":{"latitude":9.841767283,"municipality":"San Isidro","longitude":123.9476305,"id":"aofunl1t5vdd","province":"BOHOL"},"type":"Feature","geometry":{"type":"Point","coordinates":[123.9476305,9.841767283]}},{"properties":{"latitude":9.4126856,"municipality":"San Jose","longitude":123.2136888,"id":"aofunkv4hizs","province":"NEGROS ORIENTAL"},"type":"Feature","geometry":{"type":"Point","coordinates":[123.2136888,9.4126856]}},{"properties":{"latitude":9.150350285,"municipality":"San Juan","longitude":123.5075843,"id":"aofunl1elc8v","province":"SIQUIJOR"},"type":"Feature","geometry":{"type":"Point","coordinates":[123.5075843,9.150350285]}},{"properties":{"latitude":9.972113585,"municipality":"San Miguel","longitude":124.3320499,"id":"aofunl4352g5","province":"BOHOL"},"type":"Feature","geometry":{"type":"Point","coordinates":[124.3320499,9.972113585]}},{"properties":{"latitude":10.99937622,"municipality":"San Remigio","longitude":123.9276454,"id":"aofunl47bhlf","province":"CEBU"},"type":"Feature","geometry":{"type":"Point","coordinates":[123.9276454,10.99937622]}},{"properties":{"latitude":9.29217628,"municipality":"Santa Catalina","longitude":122.9948165,"id":"aofunkt2cldy","province":"NEGROS ORIENTAL"},"type":"Feature","geometry":{"type":"Point","coordinates":[122.9948165,9.29217628]}},{"properties":{"latitude":11.18324227,"municipality":"Santa Fe","longitude":123.7958324,"id":"aofunkuxbqif","province":"CEBU"},"type":"Feature","geometry":{"type":"Point","coordinates":[123.7958324,11.18324227]}},{"properties":{"latitude":9.459186826,"municipality":"Santander","longitude":123.3296078,"id":"aofunkzg305r","province":"CEBU"},"type":"Feature","geometry":{"type":"Point","coordinates":[123.3296078,9.459186826]}},{"properties":{"latitude":9.719602982,"municipality":"Sevilla","longitude":124.0410969,"id":"aofunl2zgsyx","province":"BOHOL"},"type":"Feature","geometry":{"type":"Point","coordinates":[124.0410969,9.719602982]}},{"properties":{"latitude":9.134219768,"municipality":"Siaton","longitude":123.0194703,"id":"aofunl0jf4g1","province":"NEGROS ORIENTAL"},"type":"Feature","geometry":{"type":"Point","coordinates":[123.0194703,9.134219768]}},{"properties":{"latitude":10.03528053,"municipality":"Sibonga","longitude":123.5700587,"id":"aofunkxzvzb7","province":"CEBU"},"type":"Feature","geometry":{"type":"Point","coordinates":[123.5700587,10.03528053]}},{"properties":{"latitude":9.354884132,"municipality":"Sibulan","longitude":123.1574464,"id":"aofunkukrlfl","province":"NEGROS ORIENTAL"},"type":"Feature","geometry":{"type":"Point","coordinates":[123.1574464,9.354884132]}},{"properties":{"latitude":9.798668624,"municipality":"Sierra Bullones","longitude":124.3020302,"id":"aofunkophw14","province":"BOHOL"},"type":"Feature","geometry":{"type":"Point","coordinates":[124.3020302,9.798668624]}},{"properties":{"latitude":9.687782684,"municipality":"Sikatuna","longitude":123.9799709,"id":"aofunkz5ixmi","province":"BOHOL"},"type":"Feature","geometry":{"type":"Point","coordinates":[123.9799709,9.687782684]}},{"properties":{"latitude":9.182487189,"municipality":"Siquijor","longitude":123.5319332,"id":"aofunky3rfqr","province":"SIQUIJOR"},"type":"Feature","geometry":{"type":"Point","coordinates":[123.5319332,9.182487189]}},{"properties":{"latitude":10.75370101,"municipality":"Sogod","longitude":123.9879957,"id":"aofunkwmgl7m","province":"CEBU"},"type":"Feature","geometry":{"type":"Point","coordinates":[123.9879957,10.75370101]}},{"properties":{"latitude":10.93303426,"municipality":"Tabogon","longitude":124.0028813,"id":"aofunky58cxq","province":"CEBU"},"type":"Feature","geometry":{"type":"Point","coordinates":[124.0028813,10.93303426]}},{"properties":{"latitude":10.84965386,"municipality":"Tabuelan","longitude":123.9097399,"id":"aofunkz0sk4t","province":"CEBU"},"type":"Feature","geometry":{"type":"Point","coordinates":[123.9097399,10.84965386]}},{"properties":{"latitude":9.66249838,"municipality":"Tagbilaran City","longitude":123.8674696,"id":"aofunl08u08u","province":"BOHOL"},"type":"Feature","geometry":{"type":"Point","coordinates":[123.8674696,9.66249838]}},{"properties":{"latitude":10.13977886,"municipality":"Talibon","longitude":124.3152257,"id":"aofunkpwcufm","province":"BOHOL"},"type":"Feature","geometry":{"type":"Point","coordinates":[124.3152257,10.13977886]}},{"properties":{"latitude":10.28237856,"municipality":"Talisay","longitude":123.8249315,"id":"aofunkwpfj9o","province":"CEBU"},"type":"Feature","geometry":{"type":"Point","coordinates":[123.8249315,10.28237856]}},{"properties":{"latitude":9.478618755,"municipality":"Tanjay","longitude":123.0361618,"id":"aofunks9dw62","province":"NEGROS ORIENTAL"},"type":"Feature","geometry":{"type":"Point","coordinates":[123.0361618,9.478618755]}},{"properties":{"latitude":9.958591005,"municipality":"Tayasan","longitude":123.0882511,"id":"aofunl1mqyhd","province":"NEGROS ORIENTAL"},"type":"Feature","geometry":{"type":"Point","coordinates":[123.0882511,9.958591005]}},{"properties":{"latitude":10.36085718,"municipality":"Toledo","longitude":123.6791841,"id":"aofunkwjf6xh","province":"CEBU"},"type":"Feature","geometry":{"type":"Point","coordinates":[123.6791841,10.36085718]}},{"properties":{"latitude":10.05126678,"municipality":"Trinidad","longitude":124.3276838,"id":"aofunkxid6co","province":"BOHOL"},"type":"Feature","geometry":{"type":"Point","coordinates":[124.3276838,10.05126678]}},{"properties":{"latitude":9.921691195,"municipality":"Tubigon","longitude":123.9657248,"id":"aofunkqm6snr","province":"BOHOL"},"type":"Feature","geometry":{"type":"Point","coordinates":[123.9657248,9.921691195]}},{"properties":{"latitude":10.72296232,"municipality":"Tuburan","longitude":123.8544792,"id":"aofunkvr1o0d","province":"CEBU"},"type":"Feature","geometry":{"type":"Point","coordinates":[123.8544792,10.72296232]}},{"properties":{"latitude":10.66418642,"municipality":"Tudela","longitude":124.4813809,"id":"aofunkot0k69","province":"CEBU"},"type":"Feature","geometry":{"type":"Point","coordinates":[124.4813809,10.66418642]}},{"properties":{"latitude":10.02511038,"municipality":"Ubay","longitude":124.475633,"id":"aofunkvldrbo","province":"BOHOL"},"type":"Feature","geometry":{"type":"Point","coordinates":[124.475633,10.02511038]}},{"properties":{"latitude":9.663377494,"municipality":"Valencia","longitude":124.2131681,"id":"aofunkvlg8tg","province":"BOHOL"},"type":"Feature","geometry":{"type":"Point","coordinates":[124.2131681,9.663377494]}},{"properties":{"latitude":9.290036782,"municipality":"Valencia","longitude":123.1697006,"id":"aofunkriqwjd","province":"NEGROS ORIENTAL"},"type":"Feature","geometry":{"type":"Point","coordinates":[123.1697006,9.290036782]}},{"properties":{"latitude":10.34174889,"municipality":"Vallehermoso","longitude":123.2938463,"id":"aofunksjwwa3","province":"NEGROS ORIENTAL"},"type":"Feature","geometry":{"type":"Point","coordinates":[123.2938463,10.34174889]}},{"properties":{"latitude":9.145187212,"municipality":"Zamboanguita","longitude":123.1951086,"id":"aofunl2madht","province":"NEGROS ORIENTAL"},"type":"Feature","geometry":{"type":"Point","coordinates":[123.1951086,9.145187212]}}],"is_temporal":false,"author":{"url":"","metadata":"","contact_name":"","contact_address":"","source":"","contact_phone":""},"source":"","pagination":{"sort":null,"start":0,"total":132,"limit":1000000},"state":"complete","tags":"central,philippines,region,vii,visayas","published":"2014-08-17T23:03:08-04:00","id":480376}