{"type":"FeatureCollection","data_type":"Dataset","url_type":null,"permissions":[{"permissions":{"download":true,"view":true},"group_id":"everyone"}],"classification":null,"title":"Tiny zip codes for bowen","count":299,"stream_id":4804,"contributor":{"url":"http://geocommons.com/users/26","name":"matt"},"data_attributes":null,"calculation_params":null,"icon_link":null,"link":"http://geocommons.com/overlays/4804.json","extent":[-88.3057,31.4169,-85.1656,34.9804],"geometry_types":["point"],"unique_name":null,"name":"Tiny zip codes for bowen","feature_count":299,"description":"","next_feature":null,"is_raster":false,"short_classification":"Y","stats":{"zip":{"max":36040,"mean":35517.0200668896,"variance":112669.75798523,"stdev":335.663161495614,"min":35004,"median":35555},"region":{"max":1,"mean":1.0,"variance":0.0,"stdev":0.0,"min":1,"median":1},"long":{"max":-85.165605,"mean":-86.8057836020068,"variance":0.460230107758637,"stdev":0.678402614793484,"min":-88.305747,"median":-86.764995},"unknown":{"max":0.01093,"mean":0.00195483612040134,"variance":4.84030660057013e-06,"stdev":0.00220006968084425,"min":2.7e-05,"median":0.001111}},"features":[{"properties":{"zip":35004,"region":1,"county":"ACMAR","id":"a6fwkc79lsl7","long":-86.51557,"unknown":0.001499,"state":"AL"},"type":"Feature","geometry":{"type":"Point","coordinates":[-86.51557,33.584132]}},{"properties":{"zip":35005,"region":1,"county":"ADAMSVILLE","id":"a6fwkc6qg0lr","long":-86.959727,"unknown":0.002627,"state":"AL"},"type":"Feature","geometry":{"type":"Point","coordinates":[-86.959727,33.588437]}},{"properties":{"zip":35006,"region":1,"county":"ADGER","id":"a6fwkc086in3","long":-87.167455,"unknown":0.000793,"state":"AL"},"type":"Feature","geometry":{"type":"Point","coordinates":[-87.167455,33.434277]}},{"properties":{"zip":35007,"region":1,"county":"KEYSTONE","id":"a6fwkc32bauu","long":-86.812861,"unknown":0.003519,"state":"AL"},"type":"Feature","geometry":{"type":"Point","coordinates":[-86.812861,33.236868]}},{"properties":{"zip":35010,"region":1,"county":"NEW SITE","id":"a6fwkc2fhics","long":-85.951086,"unknown":0.004935,"state":"AL"},"type":"Feature","geometry":{"type":"Point","coordinates":[-85.951086,32.941445]}},{"properties":{"zip":35014,"region":1,"county":"ALPINE","id":"a6fwkc78emb4","long":-86.208934,"unknown":0.000758,"state":"AL"},"type":"Feature","geometry":{"type":"Point","coordinates":[-86.208934,33.331165]}},{"properties":{"zip":35016,"region":1,"county":"ARAB","id":"a6fwkc1rqut5","long":-86.489638,"unknown":0.003378,"state":"AL"},"type":"Feature","geometry":{"type":"Point","coordinates":[-86.489638,34.328339]}},{"properties":{"zip":35019,"region":1,"county":"BAILEYTON","id":"a6fwkc0cl9gm","long":-86.621299,"unknown":0.000441,"state":"AL"},"type":"Feature","geometry":{"type":"Point","coordinates":[-86.621299,34.268298]}},{"properties":{"zip":35020,"region":1,"county":"BESSEMER","id":"a6fwkc64e8mr","long":-86.947547,"unknown":0.010035,"state":"AL"},"type":"Feature","geometry":{"type":"Point","coordinates":[-86.947547,33.409002]}},{"properties":{"zip":35023,"region":1,"county":"HUEYTOWN","id":"a6fwkc99x24n","long":-86.999607,"unknown":0.00982,"state":"AL"},"type":"Feature","geometry":{"type":"Point","coordinates":[-86.999607,33.414625]}},{"properties":{"zip":35031,"region":1,"county":"BLOUNTSVILLE","id":"a6fwkc4v2yvt","long":-86.568628,"unknown":0.002242,"state":"AL"},"type":"Feature","geometry":{"type":"Point","coordinates":[-86.568628,34.092937]}},{"properties":{"zip":35033,"region":1,"county":"BREMEN","id":"a6fwkbxklkql","long":-87.004281,"unknown":0.000853,"state":"AL"},"type":"Feature","geometry":{"type":"Point","coordinates":[-87.004281,33.973664]}},{"properties":{"zip":35034,"region":1,"county":"BRENT","id":"a6fwkc30bk99","long":-87.211387,"unknown":0.000938,"state":"AL"},"type":"Feature","geometry":{"type":"Point","coordinates":[-87.211387,32.93567]}},{"properties":{"zip":35035,"region":1,"county":"BRIERFIELD","id":"a6fwkc3m0cw8","long":-86.951672,"unknown":0.000317,"state":"AL"},"type":"Feature","geometry":{"type":"Point","coordinates":[-86.951672,33.042747]}},{"properties":{"zip":35040,"region":1,"county":"CALERA","id":"a6fwkc022rys","long":-86.755987,"unknown":0.001157,"state":"AL"},"type":"Feature","geometry":{"type":"Point","coordinates":[-86.755987,33.1098]}},{"properties":{"zip":35042,"region":1,"county":"CENTREVILLE","id":"a6fwkc9lob0x","long":-87.11924,"unknown":0.001213,"state":"AL"},"type":"Feature","geometry":{"type":"Point","coordinates":[-87.11924,32.950324]}},{"properties":{"zip":35043,"region":1,"county":"CHELSEA","id":"a6fwkc6tnwu2","long":-86.614132,"unknown":0.001183,"state":"AL"},"type":"Feature","geometry":{"type":"Point","coordinates":[-86.614132,33.371582]}},{"properties":{"zip":35044,"region":1,"county":"COOSA PINES","id":"a6fwkc43lnja","long":-86.337622,"unknown":0.001976,"state":"AL"},"type":"Feature","geometry":{"type":"Point","coordinates":[-86.337622,33.266928]}},{"properties":{"zip":35045,"region":1,"county":"CLANTON","id":"a6fwkc0zbumn","long":-86.642472,"unknown":0.003462,"state":"AL"},"type":"Feature","geometry":{"type":"Point","coordinates":[-86.642472,32.835532]}},{"properties":{"zip":35049,"region":1,"county":"CLEVELAND","id":"a6fwkc3gwfdx","long":-86.559355,"unknown":0.000586,"state":"AL"},"type":"Feature","geometry":{"type":"Point","coordinates":[-86.559355,33.992106]}},{"properties":{"zip":35051,"region":1,"county":"COLUMBIANA","id":"a6fwkbynkrky","long":-86.616145,"unknown":0.00111,"state":"AL"},"type":"Feature","geometry":{"type":"Point","coordinates":[-86.616145,33.176964]}},{"properties":{"zip":35053,"region":1,"county":"CRANE HILL","id":"a6fwkc9dei3p","long":-87.048395,"unknown":0.000562,"state":"AL"},"type":"Feature","geometry":{"type":"Point","coordinates":[-87.048395,34.082117]}},{"properties":{"zip":35054,"region":1,"county":"CROPWELL","id":"a6fwkbx8fv1m","long":-86.280026,"unknown":0.001032,"state":"AL"},"type":"Feature","geometry":{"type":"Point","coordinates":[-86.280026,33.506448]}},{"properties":{"zip":35055,"region":1,"county":"CULLMAN","id":"a6fwkc4h69gg","long":-86.829777,"unknown":0.007847,"state":"AL"},"type":"Feature","geometry":{"type":"Point","coordinates":[-86.829777,34.176146]}},{"properties":{"zip":35061,"region":1,"county":"DOLOMITE","id":"a6fwkbwjaluf","long":-86.956435,"unknown":0.000365,"state":"AL"},"type":"Feature","geometry":{"type":"Point","coordinates":[-86.956435,33.465424]}},{"properties":{"zip":35062,"region":1,"county":"DORA","id":"a6fwkbuii68b","long":-87.040148,"unknown":0.002727,"state":"AL"},"type":"Feature","geometry":{"type":"Point","coordinates":[-87.040148,33.734947]}},{"properties":{"zip":35063,"region":1,"county":"EMPIRE","id":"a6fwkcakj1m0","long":-87.016139,"unknown":0.000601,"state":"AL"},"type":"Feature","geometry":{"type":"Point","coordinates":[-87.016139,33.825589]}},{"properties":{"zip":35064,"region":1,"county":"FAIRFIELD","id":"a6fwkc30x1y4","long":-86.918262,"unknown":0.002996,"state":"AL"},"type":"Feature","geometry":{"type":"Point","coordinates":[-86.918262,33.473494]}},{"properties":{"zip":35068,"region":1,"county":"COALBURG","id":"a6fwkc7gtxur","long":-86.813614,"unknown":0.001462,"state":"AL"},"type":"Feature","geometry":{"type":"Point","coordinates":[-86.813614,33.611283]}},{"properties":{"zip":35071,"region":1,"county":"GARDENDALE","id":"a6fwkbzbpe4y","long":-86.822481,"unknown":0.004447,"state":"AL"},"type":"Feature","geometry":{"type":"Point","coordinates":[-86.822481,33.71891]}},{"properties":{"zip":35072,"region":1,"county":"GOODWATER","id":"a6fwkbyosnkj","long":-86.078149,"unknown":0.000944,"state":"AL"},"type":"Feature","geometry":{"type":"Point","coordinates":[-86.078149,33.074642]}},{"properties":{"zip":35073,"region":1,"county":"ALDEN","id":"a6fwkc19z38r","long":-86.948221,"unknown":0.001096,"state":"AL"},"type":"Feature","geometry":{"type":"Point","coordinates":[-86.948221,33.63356]}},{"properties":{"zip":35077,"region":1,"county":"HANCEVILLE","id":"a6fwkc6be9ph","long":-86.784844,"unknown":0.002521,"state":"AL"},"type":"Feature","geometry":{"type":"Point","coordinates":[-86.784844,34.051569]}},{"properties":{"zip":35078,"region":1,"county":"HARPERSVILLE","id":"a6fwkbxfibls","long":-86.429441,"unknown":0.001214,"state":"AL"},"type":"Feature","geometry":{"type":"Point","coordinates":[-86.429441,33.36746]}},{"properties":{"zip":35079,"region":1,"county":"HAYDEN","id":"a6fwkc457dte","long":-86.81767,"unknown":0.001617,"state":"AL"},"type":"Feature","geometry":{"type":"Point","coordinates":[-86.81767,33.885806]}},{"properties":{"zip":35080,"region":1,"county":"HELENA","id":"a6fwkc0fv4ws","long":-86.813786,"unknown":0.00246,"state":"AL"},"type":"Feature","geometry":{"type":"Point","coordinates":[-86.813786,33.316978]}},{"properties":{"zip":35083,"region":1,"county":"HOLLY POND","id":"a6fwkc2r4m7h","long":-86.617441,"unknown":0.00095,"state":"AL"},"type":"Feature","geometry":{"type":"Point","coordinates":[-86.617441,34.190085]}},{"properties":{"zip":35085,"region":1,"county":"JEMISON","id":"a6fwkc5k42es","long":-86.718052,"unknown":0.001782,"state":"AL"},"type":"Feature","geometry":{"type":"Point","coordinates":[-86.718052,32.980539]}},{"properties":{"zip":35087,"region":1,"county":"JOPPA","id":"a6fwkbvhqnja","long":-86.551939,"unknown":0.000244,"state":"AL"},"type":"Feature","geometry":{"type":"Point","coordinates":[-86.551939,34.283739]}},{"properties":{"zip":35089,"region":1,"county":"KELLYTON","id":"a6fwkc12and8","long":-86.048397,"unknown":0.000392,"state":"AL"},"type":"Feature","geometry":{"type":"Point","coordinates":[-86.048397,32.979068]}},{"properties":{"zip":35091,"region":1,"county":"KIMBERLY","id":"a6fwkc95tpq1","long":-86.808417,"unknown":0.000259,"state":"AL"},"type":"Feature","geometry":{"type":"Point","coordinates":[-86.808417,33.768355]}},{"properties":{"zip":35094,"region":1,"county":"LEEDS","id":"a6fwkc7mppe4","long":-86.574824,"unknown":0.002579,"state":"AL"},"type":"Feature","geometry":{"type":"Point","coordinates":[-86.574824,33.528333]}},{"properties":{"zip":35096,"region":1,"county":"LINCOLN","id":"a6fwkc8vzgc6","long":-86.111152,"unknown":0.001246,"state":"AL"},"type":"Feature","geometry":{"type":"Point","coordinates":[-86.111152,33.605913]}},{"properties":{"zip":35098,"region":1,"county":"LOGAN","id":"a6fwkc5kcprt","long":-87.038115,"unknown":0.000589,"state":"AL"},"type":"Feature","geometry":{"type":"Point","coordinates":[-87.038115,34.184079]}},{"properties":{"zip":35111,"region":1,"county":"MC CALLA","id":"a6fwkc2zyts4","long":-87.102379,"unknown":0.002016,"state":"AL"},"type":"Feature","geometry":{"type":"Point","coordinates":[-87.102379,33.284546]}},{"properties":{"zip":35114,"region":1,"county":"MAYLENE","id":"a6fwkbuwjvyp","long":-86.872745,"unknown":0.000922,"state":"AL"},"type":"Feature","geometry":{"type":"Point","coordinates":[-86.872745,33.231694]}},{"properties":{"zip":35115,"region":1,"county":"MONTEVALLO","id":"a6fwkca0r24b","long":-86.862228,"unknown":0.00288,"state":"AL"},"type":"Feature","geometry":{"type":"Point","coordinates":[-86.862228,33.124765]}},{"properties":{"zip":35116,"region":1,"county":"MORRIS","id":"a6fwkbvhimr0","long":-86.772551,"unknown":0.000896,"state":"AL"},"type":"Feature","geometry":{"type":"Point","coordinates":[-86.772551,33.739172]}},{"properties":{"zip":35117,"region":1,"county":"MOUNT OLIVE","id":"a6fwkc15vet1","long":-86.87171,"unknown":0.000951,"state":"AL"},"type":"Feature","geometry":{"type":"Point","coordinates":[-86.87171,33.67678]}},{"properties":{"zip":35118,"region":1,"county":"SYLVAN SPRINGS","id":"a6fwkby1of2m","long":-87.043998,"unknown":0.000977,"state":"AL"},"type":"Feature","geometry":{"type":"Point","coordinates":[-87.043998,33.540696]}},{"properties":{"zip":35120,"region":1,"county":"ODENVILLE","id":"a6fwkc9amw5z","long":-86.408952,"unknown":0.000278,"state":"AL"},"type":"Feature","geometry":{"type":"Point","coordinates":[-86.408952,33.675611]}},{"properties":{"zip":35121,"region":1,"county":"ONEONTA","id":"a6fwkc5d1zxl","long":-86.474118,"unknown":0.002217,"state":"AL"},"type":"Feature","geometry":{"type":"Point","coordinates":[-86.474118,33.925858]}},{"properties":{"zip":35124,"region":1,"county":"INDIAN SPRINGS","id":"a6fwkc3e1c9q","long":-86.806176,"unknown":0.001834,"state":"AL"},"type":"Feature","geometry":{"type":"Point","coordinates":[-86.806176,33.31046]}},{"properties":{"zip":35125,"region":1,"county":"PELL CITY","id":"a6fwkbw9wskq","long":-86.343151,"unknown":0.00445,"state":"AL"},"type":"Feature","geometry":{"type":"Point","coordinates":[-86.343151,33.597889]}},{"properties":{"zip":35126,"region":1,"county":"DIXIANA","id":"a6fwkcaddtwt","long":-86.656542,"unknown":0.004224,"state":"AL"},"type":"Feature","geometry":{"type":"Point","coordinates":[-86.656542,33.708131]}},{"properties":{"zip":35127,"region":1,"county":"PLEASANT GROVE","id":"a6fwkc3osl1q","long":-86.976586,"unknown":0.002093,"state":"AL"},"type":"Feature","geometry":{"type":"Point","coordinates":[-86.976586,33.488336]}},{"properties":{"zip":35130,"region":1,"county":"QUINTON","id":"a6fwkc1wmjwd","long":-87.10066,"unknown":0.000544,"state":"AL"},"type":"Feature","geometry":{"type":"Point","coordinates":[-87.10066,33.656065]}},{"properties":{"zip":35131,"region":1,"county":"RAGLAND","id":"a6fwkbv4022u","long":-86.1619,"unknown":0.000692,"state":"AL"},"type":"Feature","geometry":{"type":"Point","coordinates":[-86.1619,33.736677]}},{"properties":{"zip":35133,"region":1,"county":"REMLAP","id":"a6fwkc1tyoq1","long":-86.641662,"unknown":0.001488,"state":"AL"},"type":"Feature","geometry":{"type":"Point","coordinates":[-86.641662,33.846204]}},{"properties":{"zip":35135,"region":1,"county":"RIVERSIDE","id":"a6fwkc5a4qze","long":-86.198341,"unknown":0.000248,"state":"AL"},"type":"Feature","geometry":{"type":"Point","coordinates":[-86.198341,33.608832]}},{"properties":{"zip":35136,"region":1,"county":"ROCKFORD","id":"a6fwkc6jb5cp","long":-86.240006,"unknown":0.00045,"state":"AL"},"type":"Feature","geometry":{"type":"Point","coordinates":[-86.240006,32.877957]}},{"properties":{"zip":35143,"region":1,"county":"SHELBY","id":"a6fwkc06z4ac","long":-86.553606,"unknown":0.000457,"state":"AL"},"type":"Feature","geometry":{"type":"Point","coordinates":[-86.553606,33.078483]}},{"properties":{"zip":35146,"region":1,"county":"SPRINGVILLE","id":"a6fwkc4i2nha","long":-86.439407,"unknown":0.002159,"state":"AL"},"type":"Feature","geometry":{"type":"Point","coordinates":[-86.439407,33.738647]}},{"properties":{"zip":35147,"region":1,"county":"STERRETT","id":"a6fwkc2mhbro","long":-86.491732,"unknown":0.000153,"state":"AL"},"type":"Feature","geometry":{"type":"Point","coordinates":[-86.491732,33.446103]}},{"properties":{"zip":35148,"region":1,"county":"SUMITON","id":"a6fwkbxj29fx","long":-87.044545,"unknown":0.000759,"state":"AL"},"type":"Feature","geometry":{"type":"Point","coordinates":[-87.044545,33.768005]}},{"properties":{"zip":35150,"region":1,"county":"SYLACAUGA","id":"a6fwkbze8wzq","long":-86.271257,"unknown":0.006045,"state":"AL"},"type":"Feature","geometry":{"type":"Point","coordinates":[-86.271257,33.171675]}},{"properties":{"zip":35160,"region":1,"county":"TALLADEGA","id":"a6fwkbx6y2ee","long":-86.113352,"unknown":0.00737,"state":"AL"},"type":"Feature","geometry":{"type":"Point","coordinates":[-86.113352,33.435445]}},{"properties":{"zip":35171,"region":1,"county":"THORSBY","id":"a6fwkc84x78p","long":-86.746724,"unknown":0.001022,"state":"AL"},"type":"Feature","geometry":{"type":"Point","coordinates":[-86.746724,32.923755]}},{"properties":{"zip":35172,"region":1,"county":"TRAFFORD","id":"a6fwkbw5wt40","long":-86.743414,"unknown":0.000225,"state":"AL"},"type":"Feature","geometry":{"type":"Point","coordinates":[-86.743414,33.819038]}},{"properties":{"zip":35173,"region":1,"county":"TRUSSVILLE","id":"a6fwkbux46e7","long":-86.598068,"unknown":0.003308,"state":"AL"},"type":"Feature","geometry":{"type":"Point","coordinates":[-86.598068,33.633932]}},{"properties":{"zip":35175,"region":1,"county":"UNION GROVE","id":"a6fwkc6ul9j4","long":-86.462793,"unknown":0.001218,"state":"AL"},"type":"Feature","geometry":{"type":"Point","coordinates":[-86.462793,34.409345]}},{"properties":{"zip":35176,"region":1,"county":"VANDIVER","id":"a6fwkc43o3ae","long":-86.501278,"unknown":0.000264,"state":"AL"},"type":"Feature","geometry":{"type":"Point","coordinates":[-86.501278,33.480704]}},{"properties":{"zip":35178,"region":1,"county":"VINCENT","id":"a6fwkc4hpx5s","long":-86.399425,"unknown":7.3e-05,"state":"AL"},"type":"Feature","geometry":{"type":"Point","coordinates":[-86.399425,33.401049]}},{"properties":{"zip":35179,"region":1,"county":"VINEMONT","id":"a6fwkc2dl2dn","long":-86.912512,"unknown":0.002191,"state":"AL"},"type":"Feature","geometry":{"type":"Point","coordinates":[-86.912512,34.262121]}},{"properties":{"zip":35180,"region":1,"county":"WARRIOR","id":"a6fwkc19w6l2","long":-86.819849,"unknown":0.000131,"state":"AL"},"type":"Feature","geometry":{"type":"Point","coordinates":[-86.819849,33.852862]}},{"properties":{"zip":35183,"region":1,"county":"WEOGUFKA","id":"a6fwkc9dj2uw","long":-86.304203,"unknown":0.000309,"state":"AL"},"type":"Feature","geometry":{"type":"Point","coordinates":[-86.304203,33.02381]}},{"properties":{"zip":35184,"region":1,"county":"WEST BLOCTON","id":"a6fwkcap3jww","long":-87.13694,"unknown":0.001306,"state":"AL"},"type":"Feature","geometry":{"type":"Point","coordinates":[-87.13694,33.142431]}},{"properties":{"zip":35186,"region":1,"county":"WILSONVILLE","id":"a6fwkbwninss","long":-86.529894,"unknown":0.001293,"state":"AL"},"type":"Feature","geometry":{"type":"Point","coordinates":[-86.529894,33.229255]}},{"properties":{"zip":35188,"region":1,"county":"WOODSTOCK","id":"a6fwkc3epuel","long":-87.163469,"unknown":0.000171,"state":"AL"},"type":"Feature","geometry":{"type":"Point","coordinates":[-87.163469,33.169808]}},{"properties":{"zip":35203,"region":1,"county":"BIRMINGHAM","id":"a6fwkc948pdb","long":-86.806626,"unknown":0.001006,"state":"AL"},"type":"Feature","geometry":{"type":"Point","coordinates":[-86.806626,33.520994]}},{"properties":{"zip":35204,"region":1,"county":"BIRMINGHAM","id":"a6fwkbw1v4iq","long":-86.837198,"unknown":0.004503,"state":"AL"},"type":"Feature","geometry":{"type":"Point","coordinates":[-86.837198,33.51795]}},{"properties":{"zip":35205,"region":1,"county":"BIRMINGHAM","id":"a6fwkbxyueop","long":-86.805937,"unknown":0.005698,"state":"AL"},"type":"Feature","geometry":{"type":"Point","coordinates":[-86.805937,33.495144]}},{"properties":{"zip":35206,"region":1,"county":"BIRMINGHAM","id":"a6fwkc9efynp","long":-86.719854,"unknown":0.005457,"state":"AL"},"type":"Feature","geometry":{"type":"Point","coordinates":[-86.719854,33.567797]}},{"properties":{"zip":35207,"region":1,"county":"BIRMINGHAM","id":"a6fwkc8kywvc","long":-86.815344,"unknown":0.00344,"state":"AL"},"type":"Feature","geometry":{"type":"Point","coordinates":[-86.815344,33.559383]}},{"properties":{"zip":35208,"region":1,"county":"BIRMINGHAM","id":"a6fwkc76e03t","long":-86.879884,"unknown":0.004783,"state":"AL"},"type":"Feature","geometry":{"type":"Point","coordinates":[-86.879884,33.497658]}},{"properties":{"zip":35209,"region":1,"county":"HOMEWOOD","id":"a6fwkc8shcqe","long":-86.806738,"unknown":0.006181,"state":"AL"},"type":"Feature","geometry":{"type":"Point","coordinates":[-86.806738,33.469624]}},{"properties":{"zip":35210,"region":1,"county":"IRONDALE","id":"a6fwkc4qm9pn","long":-86.685697,"unknown":0.003724,"state":"AL"},"type":"Feature","geometry":{"type":"Point","coordinates":[-86.685697,33.532797]}},{"properties":{"zip":35211,"region":1,"county":"BIRMINGHAM","id":"a6fwkc36knbw","long":-86.85904,"unknown":0.008869,"state":"AL"},"type":"Feature","geometry":{"type":"Point","coordinates":[-86.85904,33.481565]}},{"properties":{"zip":35212,"region":1,"county":"BIRMINGHAM","id":"a6fwkbvby5km","long":-86.749524,"unknown":0.004421,"state":"AL"},"type":"Feature","geometry":{"type":"Point","coordinates":[-86.749524,33.540883]}},{"properties":{"zip":35213,"region":1,"county":"CRESTLINE HEIGHT","id":"a6fwkc3lxx3z","long":-86.742108,"unknown":0.003265,"state":"AL"},"type":"Feature","geometry":{"type":"Point","coordinates":[-86.742108,33.508195]}},{"properties":{"zip":35214,"region":1,"county":"BIRMINGHAM","id":"a6fwkc1zp6ht","long":-86.886989,"unknown":0.005765,"state":"AL"},"type":"Feature","geometry":{"type":"Point","coordinates":[-86.886989,33.555445]}},{"properties":{"zip":35215,"region":1,"county":"CENTER POINT","id":"a6fwkbwk1csv","long":-86.693197,"unknown":0.010855,"state":"AL"},"type":"Feature","geometry":{"type":"Point","coordinates":[-86.693197,33.635447]}},{"properties":{"zip":35216,"region":1,"county":"VESTAVIA HILLS","id":"a6fwkc4fxn4x","long":-86.790425,"unknown":0.007233,"state":"AL"},"type":"Feature","geometry":{"type":"Point","coordinates":[-86.790425,33.41531]}},{"properties":{"zip":35217,"region":1,"county":"BIRMINGHAM","id":"a6fwkc4dhiyv","long":-86.764995,"unknown":0.004298,"state":"AL"},"type":"Feature","geometry":{"type":"Point","coordinates":[-86.764995,33.5887]}},{"properties":{"zip":35218,"region":1,"county":"BIRMINGHAM","id":"a6fwkby0pp2n","long":-86.892993,"unknown":0.003004,"state":"AL"},"type":"Feature","geometry":{"type":"Point","coordinates":[-86.892993,33.505972]}},{"properties":{"zip":35221,"region":1,"county":"BIRMINGHAM","id":"a6fwkc38owc3","long":-86.893493,"unknown":0.001448,"state":"AL"},"type":"Feature","geometry":{"type":"Point","coordinates":[-86.893493,33.452316]}},{"properties":{"zip":35222,"region":1,"county":"BIRMINGHAM","id":"a6fwkc35jze0","long":-86.766579,"unknown":0.002484,"state":"AL"},"type":"Feature","geometry":{"type":"Point","coordinates":[-86.766579,33.521859]}},{"properties":{"zip":35223,"region":1,"county":"MOUNTAIN BROOK","id":"a6fwkbxadysg","long":-86.736584,"unknown":0.002751,"state":"AL"},"type":"Feature","geometry":{"type":"Point","coordinates":[-86.736584,33.488726]}},{"properties":{"zip":35224,"region":1,"county":"BIRMINGHAM","id":"a6fwkbv2xog9","long":-86.934193,"unknown":0.001954,"state":"AL"},"type":"Feature","geometry":{"type":"Point","coordinates":[-86.934193,33.519126]}},{"properties":{"zip":35226,"region":1,"county":"BLUFF PARK","id":"a6fwkc6bj72v","long":-86.831257,"unknown":0.005938,"state":"AL"},"type":"Feature","geometry":{"type":"Point","coordinates":[-86.831257,33.403675]}},{"properties":{"zip":35228,"region":1,"county":"MIDFIELD","id":"a6fwkc2ce4vx","long":-86.914703,"unknown":0.0023,"state":"AL"},"type":"Feature","geometry":{"type":"Point","coordinates":[-86.914703,33.462446]}},{"properties":{"zip":35233,"region":1,"county":"BIRMINGHAM","id":"a6fwkc8szaz2","long":-86.800257,"unknown":0.000208,"state":"AL"},"type":"Feature","geometry":{"type":"Point","coordinates":[-86.800257,33.506161]}},{"properties":{"zip":35234,"region":1,"county":"BIRMINGHAM","id":"a6fwkc4i6uu3","long":-86.80685,"unknown":0.002705,"state":"AL"},"type":"Feature","geometry":{"type":"Point","coordinates":[-86.80685,33.53775]}},{"properties":{"zip":35235,"region":1,"county":"CENTER POINT","id":"a6fwkc8jb8dz","long":-86.661051,"unknown":0.003928,"state":"AL"},"type":"Feature","geometry":{"type":"Point","coordinates":[-86.661051,33.618045]}},{"properties":{"zip":35242,"region":1,"county":"SHOAL CREEK","id":"a6fwkbulynwr","long":-86.705511,"unknown":0.004016,"state":"AL"},"type":"Feature","geometry":{"type":"Point","coordinates":[-86.705511,33.401559]}},{"properties":{"zip":35243,"region":1,"county":"CAHABA HEIGHTS","id":"a6fwkc8rz26t","long":-86.743676,"unknown":0.00324,"state":"AL"},"type":"Feature","geometry":{"type":"Point","coordinates":[-86.743676,33.446053]}},{"properties":{"zip":35244,"region":1,"county":"HOOVER","id":"a6fwkbwtvrh8","long":-86.776381,"unknown":0.002415,"state":"AL"},"type":"Feature","geometry":{"type":"Point","coordinates":[-86.776381,33.371776]}},{"properties":{"zip":35401,"region":1,"county":"TUSCALOOSA","id":"a6fwkbwh78cn","long":-87.562666,"unknown":0.010425,"state":"AL"},"type":"Feature","geometry":{"type":"Point","coordinates":[-87.562666,33.196891]}},{"properties":{"zip":35404,"region":1,"county":"HOLT","id":"a6fwkbx6x08r","long":-87.488079,"unknown":0.005444,"state":"AL"},"type":"Feature","geometry":{"type":"Point","coordinates":[-87.488079,33.210914]}},{"properties":{"zip":35405,"region":1,"county":"TUSCALOOSA","id":"a6fwkbvul2g4","long":-87.514435,"unknown":0.005856,"state":"AL"},"type":"Feature","geometry":{"type":"Point","coordinates":[-87.514435,33.161704]}},{"properties":{"zip":35406,"region":1,"county":"TUSCALOOSA","id":"a6fwkbwu6miv","long":-87.536035,"unknown":0.003113,"state":"AL"},"type":"Feature","geometry":{"type":"Point","coordinates":[-87.536035,33.272174]}},{"properties":{"zip":35441,"region":1,"county":"STEWART","id":"a6fwkc7a161b","long":-87.708558,"unknown":0.000432,"state":"AL"},"type":"Feature","geometry":{"type":"Point","coordinates":[-87.708558,32.872354]}},{"properties":{"zip":35442,"region":1,"county":"ALICEVILLE","id":"a6fwkc2fwhrf","long":-88.166689,"unknown":0.001286,"state":"AL"},"type":"Feature","geometry":{"type":"Point","coordinates":[-88.166689,33.122813]}},{"properties":{"zip":35443,"region":1,"county":"BOLIGEE","id":"a6fwkc6kf87r","long":-88.026652,"unknown":0.000266,"state":"AL"},"type":"Feature","geometry":{"type":"Point","coordinates":[-88.026652,32.774646]}},{"properties":{"zip":35444,"region":1,"county":"BROOKWOOD","id":"a6fwkc3fq7t0","long":-87.309025,"unknown":0.000574,"state":"AL"},"type":"Feature","geometry":{"type":"Point","coordinates":[-87.309025,33.277523]}},{"properties":{"zip":35446,"region":1,"county":"BUHL","id":"a6fwkc0utwd0","long":-87.718886,"unknown":0.000411,"state":"AL"},"type":"Feature","geometry":{"type":"Point","coordinates":[-87.718886,33.249448]}},{"properties":{"zip":35447,"region":1,"county":"CARROLLTON","id":"a6fwkbvd4h20","long":-88.132122,"unknown":0.001239,"state":"AL"},"type":"Feature","geometry":{"type":"Point","coordinates":[-88.132122,33.248506]}},{"properties":{"zip":35452,"region":1,"county":"COKER","id":"a6fwkc65n51g","long":-87.636528,"unknown":0.001422,"state":"AL"},"type":"Feature","geometry":{"type":"Point","coordinates":[-87.636528,33.252612]}},{"properties":{"zip":35453,"region":1,"county":"COTTONDALE","id":"a6fwkbx8ds4t","long":-87.387051,"unknown":0.00117,"state":"AL"},"type":"Feature","geometry":{"type":"Point","coordinates":[-87.387051,33.176667]}},{"properties":{"zip":35456,"region":1,"county":"DUNCANVILLE","id":"a6fwkc8agk4l","long":-87.494977,"unknown":0.001365,"state":"AL"},"type":"Feature","geometry":{"type":"Point","coordinates":[-87.494977,33.082815]}},{"properties":{"zip":35457,"region":1,"county":"ECHOLA","id":"a6fwkc5qd6vg","long":-87.807202,"unknown":5.5e-05,"state":"AL"},"type":"Feature","geometry":{"type":"Point","coordinates":[-87.807202,33.316559]}},{"properties":{"zip":35458,"region":1,"county":"ELROD","id":"a6fwkc12qvw6","long":-87.801429,"unknown":0.0002,"state":"AL"},"type":"Feature","geometry":{"type":"Point","coordinates":[-87.801429,33.343678]}},{"properties":{"zip":35459,"region":1,"county":"EMELLE","id":"a6fwkbzh464a","long":-88.305747,"unknown":0.000122,"state":"AL"},"type":"Feature","geometry":{"type":"Point","coordinates":[-88.305747,32.754963]}},{"properties":{"zip":35460,"region":1,"county":"EPES","id":"a6fwkbvsiv8e","long":-88.161443,"unknown":0.000344,"state":"AL"},"type":"Feature","geometry":{"type":"Point","coordinates":[-88.161443,32.763371]}},{"properties":{"zip":35461,"region":1,"county":"ETHELSVILLE","id":"a6fwkc6df7bb","long":-88.221987,"unknown":0.000178,"state":"AL"},"type":"Feature","geometry":{"type":"Point","coordinates":[-88.221987,33.386816]}},{"properties":{"zip":35462,"region":1,"county":"EUTAW","id":"a6fwkc7a7fsg","long":-87.930297,"unknown":0.00163,"state":"AL"},"type":"Feature","geometry":{"type":"Point","coordinates":[-87.930297,32.888871]}},{"properties":{"zip":35463,"region":1,"county":"FOSTERS","id":"a6fwkc9foz8i","long":-87.735688,"unknown":0.00052,"state":"AL"},"type":"Feature","geometry":{"type":"Point","coordinates":[-87.735688,33.135859]}},{"properties":{"zip":35464,"region":1,"county":"GAINESVILLE","id":"a6fwkc4uh9sr","long":-88.271558,"unknown":0.00026,"state":"AL"},"type":"Feature","geometry":{"type":"Point","coordinates":[-88.271558,32.908364]}},{"properties":{"zip":35466,"region":1,"county":"GORDO","id":"a6fwkc0ygp37","long":-87.900504,"unknown":0.001072,"state":"AL"},"type":"Feature","geometry":{"type":"Point","coordinates":[-87.900504,33.346917]}},{"properties":{"zip":35469,"region":1,"county":"KNOXVILLE","id":"a6fwkc6p3s4q","long":-87.791855,"unknown":9.2e-05,"state":"AL"},"type":"Feature","geometry":{"type":"Point","coordinates":[-87.791855,32.982423]}},{"properties":{"zip":35470,"region":1,"county":"COATOPA","id":"a6fwkc08xdvf","long":-88.173592,"unknown":0.001499,"state":"AL"},"type":"Feature","geometry":{"type":"Point","coordinates":[-88.173592,32.588509]}},{"properties":{"zip":35474,"region":1,"county":"CYPRESS","id":"a6fwkc68amwx","long":-87.615134,"unknown":0.000658,"state":"AL"},"type":"Feature","geometry":{"type":"Point","coordinates":[-87.615134,32.978853]}},{"properties":{"zip":35476,"region":1,"county":"NORTHPORT","id":"a6fwkc83wgus","long":-87.591441,"unknown":0.004978,"state":"AL"},"type":"Feature","geometry":{"type":"Point","coordinates":[-87.591441,33.283425]}},{"properties":{"zip":35480,"region":1,"county":"RALPH","id":"a6fwkbuvowz5","long":-87.744984,"unknown":0.000229,"state":"AL"},"type":"Feature","geometry":{"type":"Point","coordinates":[-87.744984,33.062868]}},{"properties":{"zip":35481,"region":1,"county":"REFORM","id":"a6fwkbw7the0","long":-88.020277,"unknown":0.001005,"state":"AL"},"type":"Feature","geometry":{"type":"Point","coordinates":[-88.020277,33.395945]}},{"properties":{"zip":35490,"region":1,"county":"VANCE","id":"a6fwkc7q7j58","long":-87.257362,"unknown":0.000305,"state":"AL"},"type":"Feature","geometry":{"type":"Point","coordinates":[-87.257362,33.17498]}},{"properties":{"zip":35501,"region":1,"county":"JASPER","id":"a6fwkc22v2gy","long":-87.249144,"unknown":0.007573,"state":"AL"},"type":"Feature","geometry":{"type":"Point","coordinates":[-87.249144,33.871672]}},{"properties":{"zip":35540,"region":1,"county":"ADDISON","id":"a6fwkc9zo5ae","long":-87.194766,"unknown":0.000808,"state":"AL"},"type":"Feature","geometry":{"type":"Point","coordinates":[-87.194766,34.205571]}},{"properties":{"zip":35541,"region":1,"county":"ARLEY","id":"a6fwkbuiie2g","long":-87.182761,"unknown":0.000655,"state":"AL"},"type":"Feature","geometry":{"type":"Point","coordinates":[-87.182761,34.063234]}},{"properties":{"zip":35542,"region":1,"county":"BANKSTON","id":"a6fwkc8tdvn4","long":-87.68965,"unknown":0.000161,"state":"AL"},"type":"Feature","geometry":{"type":"Point","coordinates":[-87.68965,33.70083]}},{"properties":{"zip":35543,"region":1,"county":"BEAR CREEK","id":"a6fwkcalznlp","long":-87.686083,"unknown":0.000928,"state":"AL"},"type":"Feature","geometry":{"type":"Point","coordinates":[-87.686083,34.213469]}},{"properties":{"zip":35544,"region":1,"county":"BEAVERTON","id":"a6fwkc6pdqkz","long":-88.01567,"unknown":0.000251,"state":"AL"},"type":"Feature","geometry":{"type":"Point","coordinates":[-88.01567,33.942877]}},{"properties":{"zip":35546,"region":1,"county":"BERRY","id":"a6fwkbxovnef","long":-87.622563,"unknown":0.001209,"state":"AL"},"type":"Feature","geometry":{"type":"Point","coordinates":[-87.622563,33.694485]}},{"properties":{"zip":35548,"region":1,"county":"BRILLIANT","id":"a6fwkc0qvl6i","long":-87.756315,"unknown":0.000622,"state":"AL"},"type":"Feature","geometry":{"type":"Point","coordinates":[-87.756315,34.037702]}},{"properties":{"zip":35549,"region":1,"county":"CARBON HILL","id":"a6fwkc3s7vbq","long":-87.540328,"unknown":0.00089,"state":"AL"},"type":"Feature","geometry":{"type":"Point","coordinates":[-87.540328,33.909252]}},{"properties":{"zip":35550,"region":1,"county":"CORDOVA","id":"a6fwkbvlgxl7","long":-87.18406,"unknown":0.001305,"state":"AL"},"type":"Feature","geometry":{"type":"Point","coordinates":[-87.18406,33.768033]}},{"properties":{"zip":35552,"region":1,"county":"DETROIT","id":"a6fwkc444epl","long":-88.16063,"unknown":0.000232,"state":"AL"},"type":"Feature","geometry":{"type":"Point","coordinates":[-88.16063,34.010874]}},{"properties":{"zip":35553,"region":1,"county":"DOUBLE SPRINGS","id":"a6fwkc1sk27e","long":-87.397431,"unknown":0.001187,"state":"AL"},"type":"Feature","geometry":{"type":"Point","coordinates":[-87.397431,34.138682]}},{"properties":{"zip":35554,"region":1,"county":"ELDRIDGE","id":"a6fwkcaqhpcg","long":-87.619397,"unknown":0.000104,"state":"AL"},"type":"Feature","geometry":{"type":"Point","coordinates":[-87.619397,33.931546]}},{"properties":{"zip":35555,"region":1,"county":"FAYETTE","id":"a6fwkc82ke30","long":-87.834647,"unknown":0.002667,"state":"AL"},"type":"Feature","geometry":{"type":"Point","coordinates":[-87.834647,33.697397]}},{"properties":{"zip":35563,"region":1,"county":"GUIN","id":"a6fwkbxllfmx","long":-87.90238,"unknown":0.000977,"state":"AL"},"type":"Feature","geometry":{"type":"Point","coordinates":[-87.90238,33.967624]}},{"properties":{"zip":35564,"region":1,"county":"HACKLEBURG","id":"a6fwkc50n5e2","long":-87.860762,"unknown":0.0007,"state":"AL"},"type":"Feature","geometry":{"type":"Point","coordinates":[-87.860762,34.267803]}},{"properties":{"zip":35565,"region":1,"county":"HALEYVILLE","id":"a6fwkcaksmej","long":-87.593811,"unknown":0.002262,"state":"AL"},"type":"Feature","geometry":{"type":"Point","coordinates":[-87.593811,34.231423]}},{"properties":{"zip":35570,"region":1,"county":"HAMILTON","id":"a6fwkc22kp2d","long":-88.008521,"unknown":0.002768,"state":"AL"},"type":"Feature","geometry":{"type":"Point","coordinates":[-88.008521,34.153413]}},{"properties":{"zip":35571,"region":1,"county":"HODGES","id":"a6fwkbw7704p","long":-87.959023,"unknown":0.000197,"state":"AL"},"type":"Feature","geometry":{"type":"Point","coordinates":[-87.959023,34.341664]}},{"properties":{"zip":35572,"region":1,"county":"HOUSTON","id":"a6fwkc3ol32l","long":-87.26183,"unknown":0.000106,"state":"AL"},"type":"Feature","geometry":{"type":"Point","coordinates":[-87.26183,34.118042]}},{"properties":{"zip":35574,"region":1,"county":"KENNEDY","id":"a6fwkc3v2s8l","long":-88.05172,"unknown":0.000895,"state":"AL"},"type":"Feature","geometry":{"type":"Point","coordinates":[-88.05172,33.574964]}},{"properties":{"zip":35575,"region":1,"county":"LYNN","id":"a6fwkbyeowg4","long":-87.539814,"unknown":0.00044,"state":"AL"},"type":"Feature","geometry":{"type":"Point","coordinates":[-87.539814,34.052984]}},{"properties":{"zip":35576,"region":1,"county":"MILLPORT","id":"a6fwkc9dh4c9","long":-88.200003,"unknown":0.000566,"state":"AL"},"type":"Feature","geometry":{"type":"Point","coordinates":[-88.200003,33.54013]}},{"properties":{"zip":35578,"region":1,"county":"NAUVOO","id":"a6fwkbx76czv","long":-87.432449,"unknown":0.001238,"state":"AL"},"type":"Feature","geometry":{"type":"Point","coordinates":[-87.432449,33.929859]}},{"properties":{"zip":35579,"region":1,"county":"OAKMAN","id":"a6fwkbyginlb","long":-87.368574,"unknown":0.000916,"state":"AL"},"type":"Feature","geometry":{"type":"Point","coordinates":[-87.368574,33.700174]}},{"properties":{"zip":35580,"region":1,"county":"PARRISH","id":"a6fwkc2yfiiy","long":-87.265773,"unknown":0.001182,"state":"AL"},"type":"Feature","geometry":{"type":"Point","coordinates":[-87.265773,33.721307]}},{"properties":{"zip":35581,"region":1,"county":"PHIL CAMPBELL","id":"a6fwkc4ocbg8","long":-87.715431,"unknown":0.001323,"state":"AL"},"type":"Feature","geometry":{"type":"Point","coordinates":[-87.715431,34.347018]}},{"properties":{"zip":35582,"region":1,"county":"RED BAY","id":"a6fwkc1enecz","long":-88.112914,"unknown":0.001277,"state":"AL"},"type":"Feature","geometry":{"type":"Point","coordinates":[-88.112914,34.451259]}},{"properties":{"zip":35585,"region":1,"county":"SPRUCE PINE","id":"a6fwkbys75l9","long":-87.712149,"unknown":0.000115,"state":"AL"},"type":"Feature","geometry":{"type":"Point","coordinates":[-87.712149,34.384796]}},{"properties":{"zip":35586,"region":1,"county":"SULLIGENT","id":"a6fwkc9dfeee","long":-88.150774,"unknown":0.001111,"state":"AL"},"type":"Feature","geometry":{"type":"Point","coordinates":[-88.150774,33.8549]}},{"properties":{"zip":35587,"region":1,"county":"TOWNLEY","id":"a6fwkc6src5t","long":-87.437248,"unknown":0.00045,"state":"AL"},"type":"Feature","geometry":{"type":"Point","coordinates":[-87.437248,33.84702]}},{"properties":{"zip":35592,"region":1,"county":"VERNON","id":"a6fwkcasz0qb","long":-88.097919,"unknown":0.001176,"state":"AL"},"type":"Feature","geometry":{"type":"Point","coordinates":[-88.097919,33.761285]}},{"properties":{"zip":35593,"region":1,"county":"VINA","id":"a6fwkbvt6uin","long":-88.077422,"unknown":0.00022,"state":"AL"},"type":"Feature","geometry":{"type":"Point","coordinates":[-88.077422,34.37116]}},{"properties":{"zip":35594,"region":1,"county":"WINFIELD","id":"a6fwkc8cbgl1","long":-87.79716,"unknown":0.001671,"state":"AL"},"type":"Feature","geometry":{"type":"Point","coordinates":[-87.79716,33.930256]}},{"properties":{"zip":35601,"region":1,"county":"DECATUR","id":"a6fwkbzhgfzf","long":-86.98868,"unknown":0.009082,"state":"AL"},"type":"Feature","geometry":{"type":"Point","coordinates":[-86.98868,34.589599]}},{"properties":{"zip":35603,"region":1,"county":"DECATUR","id":"a6fwkc90lhqd","long":-87.000389,"unknown":0.00442,"state":"AL"},"type":"Feature","geometry":{"type":"Point","coordinates":[-87.000389,34.548417]}},{"properties":{"zip":35610,"region":1,"county":"ANDERSON","id":"a6fwkc5usqpj","long":-87.272327,"unknown":0.000505,"state":"AL"},"type":"Feature","geometry":{"type":"Point","coordinates":[-87.272327,34.951777]}},{"properties":{"zip":35611,"region":1,"county":"ATHENS","id":"a6fwkbxb75aw","long":-86.970733,"unknown":0.008771,"state":"AL"},"type":"Feature","geometry":{"type":"Point","coordinates":[-86.970733,34.803604]}},{"properties":{"zip":35616,"region":1,"county":"CHEROKEE","id":"a6fwkc2fovjc","long":-87.972445,"unknown":0.001191,"state":"AL"},"type":"Feature","geometry":{"type":"Point","coordinates":[-87.972445,34.744188]}},{"properties":{"zip":35618,"region":1,"county":"COURTLAND","id":"a6fwkbvymlgx","long":-87.314255,"unknown":0.000676,"state":"AL"},"type":"Feature","geometry":{"type":"Point","coordinates":[-87.314255,34.671866]}},{"properties":{"zip":35619,"region":1,"county":"DANVILLE","id":"a6fwkc2pnj83","long":-87.053187,"unknown":0.001142,"state":"AL"},"type":"Feature","geometry":{"type":"Point","coordinates":[-87.053187,34.452189]}},{"properties":{"zip":35620,"region":1,"county":"ELKMONT","id":"a6fwkc0tyo2c","long":-86.910452,"unknown":0.001983,"state":"AL"},"type":"Feature","geometry":{"type":"Point","coordinates":[-86.910452,34.915241]}},{"properties":{"zip":35621,"region":1,"county":"EVA","id":"a6fwkc67legy","long":-86.704427,"unknown":0.000984,"state":"AL"},"type":"Feature","geometry":{"type":"Point","coordinates":[-86.704427,34.347778]}},{"properties":{"zip":35622,"region":1,"county":"FALKVILLE","id":"a6fwkc6ax3jt","long":-86.913086,"unknown":0.001334,"state":"AL"},"type":"Feature","geometry":{"type":"Point","coordinates":[-86.913086,34.347653]}},{"properties":{"zip":35630,"region":1,"county":"FLORENCE","id":"a6fwkc4khgk8","long":-87.655985,"unknown":0.009584,"state":"AL"},"type":"Feature","geometry":{"type":"Point","coordinates":[-87.655985,34.830547]}},{"properties":{"zip":35633,"region":1,"county":"FLORENCE","id":"a6fwkc7rm6co","long":-87.739778,"unknown":0.004078,"state":"AL"},"type":"Feature","geometry":{"type":"Point","coordinates":[-87.739778,34.882471]}},{"properties":{"zip":35640,"region":1,"county":"HARTSELLE","id":"a6fwkc8mcbka","long":-86.924235,"unknown":0.004446,"state":"AL"},"type":"Feature","geometry":{"type":"Point","coordinates":[-86.924235,34.448206]}},{"properties":{"zip":35643,"region":1,"county":"HILLSBORO","id":"a6fwkc485gec","long":-87.180379,"unknown":0.000487,"state":"AL"},"type":"Feature","geometry":{"type":"Point","coordinates":[-87.180379,34.64763]}},{"properties":{"zip":35645,"region":1,"county":"KILLEN","id":"a6fwkcaez7du","long":-87.508185,"unknown":0.00291,"state":"AL"},"type":"Feature","geometry":{"type":"Point","coordinates":[-87.508185,34.901632]}},{"properties":{"zip":35646,"region":1,"county":"LEIGHTON","id":"a6fwkc21ucwl","long":-87.522133,"unknown":0.000754,"state":"AL"},"type":"Feature","geometry":{"type":"Point","coordinates":[-87.522133,34.710982]}},{"properties":{"zip":35647,"region":1,"county":"LESTER","id":"a6fwkc1y348y","long":-87.143396,"unknown":0.000769,"state":"AL"},"type":"Feature","geometry":{"type":"Point","coordinates":[-87.143396,34.918364]}},{"properties":{"zip":35648,"region":1,"county":"LEXINGTON","id":"a6fwkc0udrj1","long":-87.393519,"unknown":0.000555,"state":"AL"},"type":"Feature","geometry":{"type":"Point","coordinates":[-87.393519,34.955924]}},{"properties":{"zip":35650,"region":1,"county":"MOULTON","id":"a6fwkbwaq7pv","long":-87.222385,"unknown":0.004279,"state":"AL"},"type":"Feature","geometry":{"type":"Point","coordinates":[-87.222385,34.505836]}},{"properties":{"zip":35651,"region":1,"county":"MOUNT HOPE","id":"a6fwkbunnj77","long":-87.451453,"unknown":0.000451,"state":"AL"},"type":"Feature","geometry":{"type":"Point","coordinates":[-87.451453,34.462969]}},{"properties":{"zip":35652,"region":1,"county":"ROGERSVILLE","id":"a6fwkbw8ecar","long":-87.323671,"unknown":0.001614,"state":"AL"},"type":"Feature","geometry":{"type":"Point","coordinates":[-87.323671,34.849544]}},{"properties":{"zip":35653,"region":1,"county":"RUSSELLVILLE","id":"a6fwkbzn0j7z","long":-87.725726,"unknown":0.004397,"state":"AL"},"type":"Feature","geometry":{"type":"Point","coordinates":[-87.725726,34.506568]}},{"properties":{"zip":35660,"region":1,"county":"SHEFFIELD","id":"a6fwkc04beht","long":-87.697057,"unknown":0.002644,"state":"AL"},"type":"Feature","geometry":{"type":"Point","coordinates":[-87.697057,34.757829]}},{"properties":{"zip":35661,"region":1,"county":"MUSCLE SHOALS","id":"a6fwkc9kdq63","long":-87.630443,"unknown":0.002915,"state":"AL"},"type":"Feature","geometry":{"type":"Point","coordinates":[-87.630443,34.756136]}},{"properties":{"zip":35670,"region":1,"county":"SOMERVILLE","id":"a6fwkc9p7s0f","long":-86.800931,"unknown":0.001283,"state":"AL"},"type":"Feature","geometry":{"type":"Point","coordinates":[-86.800931,34.499548]}},{"properties":{"zip":35671,"region":1,"county":"TANNER","id":"a6fwkc9g1wfp","long":-86.989152,"unknown":0.000638,"state":"AL"},"type":"Feature","geometry":{"type":"Point","coordinates":[-86.989152,34.713037]}},{"properties":{"zip":35672,"region":1,"county":"TOWN CREEK","id":"a6fwkbzbatrr","long":-87.426195,"unknown":0.00224,"state":"AL"},"type":"Feature","geometry":{"type":"Point","coordinates":[-87.426195,34.649138]}},{"properties":{"zip":35673,"region":1,"county":"TRINITY","id":"a6fwkc0hvv9s","long":-87.09127,"unknown":0.000435,"state":"AL"},"type":"Feature","geometry":{"type":"Point","coordinates":[-87.09127,34.591771]}},{"properties":{"zip":35674,"region":1,"county":"TUSCUMBIA","id":"a6fwkc7wl7sb","long":-87.683259,"unknown":0.004425,"state":"AL"},"type":"Feature","geometry":{"type":"Point","coordinates":[-87.683259,34.687432]}},{"properties":{"zip":35677,"region":1,"county":"WATERLOO","id":"a6fwkbxadumd","long":-87.962412,"unknown":0.00047,"state":"AL"},"type":"Feature","geometry":{"type":"Point","coordinates":[-87.962412,34.93568]}},{"properties":{"zip":35739,"region":1,"county":"ARDMORE","id":"a6fwkc51fztu","long":-86.834612,"unknown":0.00047,"state":"AL"},"type":"Feature","geometry":{"type":"Point","coordinates":[-86.834612,34.980447]}},{"properties":{"zip":35740,"region":1,"county":"BRIDGEPORT","id":"a6fwkbxxuwfq","long":-85.727681,"unknown":0.000987,"state":"AL"},"type":"Feature","geometry":{"type":"Point","coordinates":[-85.727681,34.944638]}},{"properties":{"zip":35741,"region":1,"county":"BROWNSBORO","id":"a6fwkbyiqkeu","long":-86.468703,"unknown":0.000444,"state":"AL"},"type":"Feature","geometry":{"type":"Point","coordinates":[-86.468703,34.716733]}},{"properties":{"zip":35744,"region":1,"county":"DUTTON","id":"a6fwkbvbgaem","long":-85.906729,"unknown":0.00073,"state":"AL"},"type":"Feature","geometry":{"type":"Point","coordinates":[-85.906729,34.604558]}},{"properties":{"zip":35745,"region":1,"county":"ESTILLFORK","id":"a6fwkbxtphby","long":-86.171571,"unknown":0.000178,"state":"AL"},"type":"Feature","geometry":{"type":"Point","coordinates":[-86.171571,34.913017]}},{"properties":{"zip":35746,"region":1,"county":"FACKLER","id":"a6fwkc4dqqpj","long":-85.984648,"unknown":9.8e-05,"state":"AL"},"type":"Feature","geometry":{"type":"Point","coordinates":[-85.984648,34.82589]}},{"properties":{"zip":35747,"region":1,"county":"GRANT","id":"a6fwkc2gwlwm","long":-86.259041,"unknown":0.002065,"state":"AL"},"type":"Feature","geometry":{"type":"Point","coordinates":[-86.259041,34.495902]}},{"properties":{"zip":35748,"region":1,"county":"GURLEY","id":"a6fwkc1uc0h6","long":-86.394028,"unknown":0.001149,"state":"AL"},"type":"Feature","geometry":{"type":"Point","coordinates":[-86.394028,34.713964]}},{"properties":{"zip":35749,"region":1,"county":"HARVEST","id":"a6fwkbvc6g68","long":-86.749929,"unknown":0.001411,"state":"AL"},"type":"Feature","geometry":{"type":"Point","coordinates":[-86.749929,34.82732]}},{"properties":{"zip":35750,"region":1,"county":"HAZEL GREEN","id":"a6fwkc1fp36x","long":-86.593484,"unknown":0.001918,"state":"AL"},"type":"Feature","geometry":{"type":"Point","coordinates":[-86.593484,34.949627]}},{"properties":{"zip":35751,"region":1,"county":"HOLLYTREE","id":"a6fwkbze0ttm","long":-86.233627,"unknown":6.4e-05,"state":"AL"},"type":"Feature","geometry":{"type":"Point","coordinates":[-86.233627,34.798979]}},{"properties":{"zip":35752,"region":1,"county":"HOLLYWOOD","id":"a6fwkbumpk3p","long":-85.953173,"unknown":0.000504,"state":"AL"},"type":"Feature","geometry":{"type":"Point","coordinates":[-85.953173,34.730428]}},{"properties":{"zip":35754,"region":1,"county":"LACEYS SPRING","id":"a6fwkcaqaz3a","long":-86.612869,"unknown":0.001742,"state":"AL"},"type":"Feature","geometry":{"type":"Point","coordinates":[-86.612869,34.499647]}},{"properties":{"zip":35755,"region":1,"county":"LANGSTON","id":"a6fwkc9cis9r","long":-86.10563,"unknown":0.000258,"state":"AL"},"type":"Feature","geometry":{"type":"Point","coordinates":[-86.10563,34.497831]}},{"properties":{"zip":35758,"region":1,"county":"TRIANA","id":"a6fwkbyza3nt","long":-86.750951,"unknown":0.006038,"state":"AL"},"type":"Feature","geometry":{"type":"Point","coordinates":[-86.750951,34.713409]}},{"properties":{"zip":35759,"region":1,"county":"MERIDIANVILLE","id":"a6fwkc6acij6","long":-86.578879,"unknown":0.000643,"state":"AL"},"type":"Feature","geometry":{"type":"Point","coordinates":[-86.578879,34.861779]}},{"properties":{"zip":35760,"region":1,"county":"NEW HOPE","id":"a6fwkbyxkbl2","long":-86.3961,"unknown":0.001009,"state":"AL"},"type":"Feature","geometry":{"type":"Point","coordinates":[-86.3961,34.549445]}},{"properties":{"zip":35761,"region":1,"county":"NEW MARKET","id":"a6fwkc86mu9s","long":-86.448742,"unknown":0.001442,"state":"AL"},"type":"Feature","geometry":{"type":"Point","coordinates":[-86.448742,34.899991]}},{"properties":{"zip":35763,"region":1,"county":"BIG COVE","id":"a6fwkc6xfb5i","long":-86.466577,"unknown":0.000781,"state":"AL"},"type":"Feature","geometry":{"type":"Point","coordinates":[-86.466577,34.612859]}},{"properties":{"zip":35764,"region":1,"county":"PAINT ROCK","id":"a6fwkbzoj55e","long":-86.332562,"unknown":0.000137,"state":"AL"},"type":"Feature","geometry":{"type":"Point","coordinates":[-86.332562,34.667122]}},{"properties":{"zip":35765,"region":1,"county":"PISGAH","id":"a6fwkc21pxct","long":-85.803044,"unknown":0.00092,"state":"AL"},"type":"Feature","geometry":{"type":"Point","coordinates":[-85.803044,34.688601]}},{"properties":{"zip":35766,"region":1,"county":"PRINCETON","id":"a6fwkbymmysp","long":-86.250068,"unknown":6.8e-05,"state":"AL"},"type":"Feature","geometry":{"type":"Point","coordinates":[-86.250068,34.840217]}},{"properties":{"zip":35768,"region":1,"county":"HYTOP","id":"a6fwkcarxeg0","long":-86.051336,"unknown":0.004191,"state":"AL"},"type":"Feature","geometry":{"type":"Point","coordinates":[-86.051336,34.67227]}},{"properties":{"zip":35771,"region":1,"county":"SECTION","id":"a6fwkcatik2z","long":-85.994002,"unknown":0.000641,"state":"AL"},"type":"Feature","geometry":{"type":"Point","coordinates":[-85.994002,34.543275]}},{"properties":{"zip":35772,"region":1,"county":"STEVENSON","id":"a6fwkbxq34c2","long":-85.850803,"unknown":0.001289,"state":"AL"},"type":"Feature","geometry":{"type":"Point","coordinates":[-85.850803,34.876885]}},{"properties":{"zip":35773,"region":1,"county":"TONEY","id":"a6fwkc4eoeyn","long":-86.699951,"unknown":0.001473,"state":"AL"},"type":"Feature","geometry":{"type":"Point","coordinates":[-86.699951,34.911644]}},{"properties":{"zip":35774,"region":1,"county":"TRENTON","id":"a6fwkc7fwnkx","long":-86.291264,"unknown":9.4e-05,"state":"AL"},"type":"Feature","geometry":{"type":"Point","coordinates":[-86.291264,34.740065]}},{"properties":{"zip":35775,"region":1,"county":"VALHERMOSO SPRIN","id":"a6fwkc6q4lqm","long":-86.678,"unknown":0.000165,"state":"AL"},"type":"Feature","geometry":{"type":"Point","coordinates":[-86.678,34.538145]}},{"properties":{"zip":35776,"region":1,"county":"WOODVILLE","id":"a6fwkbulgc66","long":-86.22961,"unknown":0.00055,"state":"AL"},"type":"Feature","geometry":{"type":"Point","coordinates":[-86.22961,34.668927]}},{"properties":{"zip":35801,"region":1,"county":"HUNTSVILLE","id":"a6fwkbw2ua1f","long":-86.567318,"unknown":0.006314,"state":"AL"},"type":"Feature","geometry":{"type":"Point","coordinates":[-86.567318,34.726866]}},{"properties":{"zip":35802,"region":1,"county":"HUNTSVILLE","id":"a6fwkbuytno4","long":-86.560347,"unknown":0.005214,"state":"AL"},"type":"Feature","geometry":{"type":"Point","coordinates":[-86.560347,34.667922]}},{"properties":{"zip":35803,"region":1,"county":"HUNTSVILLE","id":"a6fwkc1cbq4g","long":-86.55096,"unknown":0.005786,"state":"AL"},"type":"Feature","geometry":{"type":"Point","coordinates":[-86.55096,34.620506]}},{"properties":{"zip":35805,"region":1,"county":"HUNTSVILLE","id":"a6fwkc8gus01","long":-86.616493,"unknown":0.006097,"state":"AL"},"type":"Feature","geometry":{"type":"Point","coordinates":[-86.616493,34.705943]}},{"properties":{"zip":35806,"region":1,"county":"HUNTSVILLE","id":"a6fwkc4b4c67","long":-86.670411,"unknown":0.002505,"state":"AL"},"type":"Feature","geometry":{"type":"Point","coordinates":[-86.670411,34.744765]}},{"properties":{"zip":35808,"region":1,"county":"HUNTSVILLE","id":"a6fwkc3pj5hb","long":-86.653821,"unknown":0.001234,"state":"AL"},"type":"Feature","geometry":{"type":"Point","coordinates":[-86.653821,34.684525]}},{"properties":{"zip":35810,"region":1,"county":"HUNTSVILLE","id":"a6fwkc8l4ky0","long":-86.609063,"unknown":0.008141,"state":"AL"},"type":"Feature","geometry":{"type":"Point","coordinates":[-86.609063,34.778378]}},{"properties":{"zip":35811,"region":1,"county":"HUNTSVILLE","id":"a6fwkbx8f9kb","long":-86.543786,"unknown":0.004704,"state":"AL"},"type":"Feature","geometry":{"type":"Point","coordinates":[-86.543786,34.778949]}},{"properties":{"zip":35816,"region":1,"county":"HUNTSVILLE","id":"a6fwkbvbysa9","long":-86.624948,"unknown":0.0034,"state":"AL"},"type":"Feature","geometry":{"type":"Point","coordinates":[-86.624948,34.738864]}},{"properties":{"zip":35824,"region":1,"county":"HUNTSVILLE","id":"a6fwkc43p5l2","long":-86.729486,"unknown":0.000191,"state":"AL"},"type":"Feature","geometry":{"type":"Point","coordinates":[-86.729486,34.658321]}},{"properties":{"zip":35901,"region":1,"county":"SOUTHSIDE","id":"a6fwkbx3cbeb","long":-86.010279,"unknown":0.01093,"state":"AL"},"type":"Feature","geometry":{"type":"Point","coordinates":[-86.010279,33.997248]}},{"properties":{"zip":35903,"region":1,"county":"HOKES BLUFF","id":"a6fwkbylhoqs","long":-85.928724,"unknown":0.004964,"state":"AL"},"type":"Feature","geometry":{"type":"Point","coordinates":[-85.928724,33.997057]}},{"properties":{"zip":35904,"region":1,"county":"GADSDEN","id":"a6fwkc9tc831","long":-86.049479,"unknown":0.001733,"state":"AL"},"type":"Feature","geometry":{"type":"Point","coordinates":[-86.049479,34.021694]}},{"properties":{"zip":35905,"region":1,"county":"GLENCOE","id":"a6fwkc3x41vk","long":-85.927586,"unknown":0.001053,"state":"AL"},"type":"Feature","geometry":{"type":"Point","coordinates":[-85.927586,33.956787]}},{"properties":{"zip":35950,"region":1,"county":"ALBERTVILLE","id":"a6fwkc3zte2x","long":-86.206447,"unknown":0.005205,"state":"AL"},"type":"Feature","geometry":{"type":"Point","coordinates":[-86.206447,34.273859]}},{"properties":{"zip":35952,"region":1,"county":"SNEAD","id":"a6fwkc32k6n9","long":-86.350879,"unknown":0.002344,"state":"AL"},"type":"Feature","geometry":{"type":"Point","coordinates":[-86.350879,34.042916]}},{"properties":{"zip":35953,"region":1,"county":"ASHVILLE","id":"a6fwkbwvd4gh","long":-86.255167,"unknown":0.001482,"state":"AL"},"type":"Feature","geometry":{"type":"Point","coordinates":[-86.255167,33.837366]}},{"properties":{"zip":35954,"region":1,"county":"ATTALLA","id":"a6fwkbxq6zpz","long":-86.096717,"unknown":0.002946,"state":"AL"},"type":"Feature","geometry":{"type":"Point","coordinates":[-86.096717,34.029597]}},{"properties":{"zip":35957,"region":1,"county":"BOAZ","id":"a6fwkbwd1ftp","long":-86.148003,"unknown":0.004196,"state":"AL"},"type":"Feature","geometry":{"type":"Point","coordinates":[-86.148003,34.173686]}},{"properties":{"zip":35958,"region":1,"county":"BRYANT","id":"a6fwkbztytfx","long":-85.632445,"unknown":0.000421,"state":"AL"},"type":"Feature","geometry":{"type":"Point","coordinates":[-85.632445,34.945026]}},{"properties":{"zip":35959,"region":1,"county":"CEDAR BLUFF","id":"a6fwkc453uyg","long":-85.602567,"unknown":0.000885,"state":"AL"},"type":"Feature","geometry":{"type":"Point","coordinates":[-85.602567,34.241662]}},{"properties":{"zip":35960,"region":1,"county":"CENTRE","id":"a6fwkc2khpya","long":-85.609229,"unknown":0.002548,"state":"AL"},"type":"Feature","geometry":{"type":"Point","coordinates":[-85.609229,34.111592]}},{"properties":{"zip":35961,"region":1,"county":"COLLINSVILLE","id":"a6fwkc2fwfvo","long":-85.861969,"unknown":0.000803,"state":"AL"},"type":"Feature","geometry":{"type":"Point","coordinates":[-85.861969,34.267957]}},{"properties":{"zip":35962,"region":1,"county":"CROSSVILLE","id":"a6fwkc348cjs","long":-86.030575,"unknown":0.001206,"state":"AL"},"type":"Feature","geometry":{"type":"Point","coordinates":[-86.030575,34.258784]}},{"properties":{"zip":35963,"region":1,"county":"DAWSON","id":"a6fwkc0oqjqe","long":-85.929161,"unknown":0.000379,"state":"AL"},"type":"Feature","geometry":{"type":"Point","coordinates":[-85.929161,34.356838]}},{"properties":{"zip":35966,"region":1,"county":"FLAT ROCK","id":"a6fwkc1o6kzj","long":-85.708372,"unknown":0.00053,"state":"AL"},"type":"Feature","geometry":{"type":"Point","coordinates":[-85.708372,34.807598]}},{"properties":{"zip":35967,"region":1,"county":"FORT PAYNE","id":"a6fwkbx5hj7w","long":-85.712394,"unknown":0.003933,"state":"AL"},"type":"Feature","geometry":{"type":"Point","coordinates":[-85.712394,34.436792]}},{"properties":{"zip":35971,"region":1,"county":"FYFFE","id":"a6fwkbx7sao0","long":-85.928849,"unknown":0.000855,"state":"AL"},"type":"Feature","geometry":{"type":"Point","coordinates":[-85.928849,34.437284]}},{"properties":{"zip":35972,"region":1,"county":"GALLANT","id":"a6fwkc55hefc","long":-86.234606,"unknown":8.3e-05,"state":"AL"},"type":"Feature","geometry":{"type":"Point","coordinates":[-86.234606,33.997586]}},{"properties":{"zip":35973,"region":1,"county":"GAYLESVILLE","id":"a6fwkc44ec5y","long":-85.558893,"unknown":0.000567,"state":"AL"},"type":"Feature","geometry":{"type":"Point","coordinates":[-85.558893,34.357324]}},{"properties":{"zip":35974,"region":1,"county":"GERALDINE","id":"a6fwkbv6ylxp","long":-86.040393,"unknown":0.000814,"state":"AL"},"type":"Feature","geometry":{"type":"Point","coordinates":[-86.040393,34.343864]}},{"properties":{"zip":35975,"region":1,"county":"GROVEOAK","id":"a6fwkc13b8jf","long":-86.040023,"unknown":0.000272,"state":"AL"},"type":"Feature","geometry":{"type":"Point","coordinates":[-86.040023,34.435874]}},{"properties":{"zip":35976,"region":1,"county":"GUNTERSVILLE","id":"a6fwkbvus2l2","long":-86.305463,"unknown":0.00278,"state":"AL"},"type":"Feature","geometry":{"type":"Point","coordinates":[-86.305463,34.32193]}},{"properties":{"zip":35978,"region":1,"county":"HENAGAR","id":"a6fwkc3pmq3l","long":-85.727381,"unknown":0.000736,"state":"AL"},"type":"Feature","geometry":{"type":"Point","coordinates":[-85.727381,34.618604]}},{"properties":{"zip":35979,"region":1,"county":"HIGDON","id":"a6fwkc2o4dsz","long":-85.622507,"unknown":0.000328,"state":"AL"},"type":"Feature","geometry":{"type":"Point","coordinates":[-85.622507,34.873247]}},{"properties":{"zip":35980,"region":1,"county":"HORTON","id":"a6fwkbymiiu0","long":-86.317318,"unknown":0.001038,"state":"AL"},"type":"Feature","geometry":{"type":"Point","coordinates":[-86.317318,34.190033]}},{"properties":{"zip":35981,"region":1,"county":"IDER","id":"a6fwkc8dkt32","long":-85.641577,"unknown":0.001277,"state":"AL"},"type":"Feature","geometry":{"type":"Point","coordinates":[-85.641577,34.735059]}},{"properties":{"zip":35983,"region":1,"county":"LEESBURG","id":"a6fwkbx71cpe","long":-85.77051,"unknown":0.000789,"state":"AL"},"type":"Feature","geometry":{"type":"Point","coordinates":[-85.77051,34.191083]}},{"properties":{"zip":35984,"region":1,"county":"MENTONE","id":"a6fwkc0e3kt1","long":-85.577728,"unknown":0.000519,"state":"AL"},"type":"Feature","geometry":{"type":"Point","coordinates":[-85.577728,34.587236]}},{"properties":{"zip":35986,"region":1,"county":"RAINSVILLE","id":"a6fwkbxlipdp","long":-85.844605,"unknown":0.001856,"state":"AL"},"type":"Feature","geometry":{"type":"Point","coordinates":[-85.844605,34.498884]}},{"properties":{"zip":35987,"region":1,"county":"STEELE","id":"a6fwkbxaxrsx","long":-86.228929,"unknown":0.000453,"state":"AL"},"type":"Feature","geometry":{"type":"Point","coordinates":[-86.228929,33.941679]}},{"properties":{"zip":35988,"region":1,"county":"SYLVANIA","id":"a6fwkc9kgz78","long":-85.792128,"unknown":0.000574,"state":"AL"},"type":"Feature","geometry":{"type":"Point","coordinates":[-85.792128,34.558962]}},{"properties":{"zip":35989,"region":1,"county":"VALLEY HEAD","id":"a6fwkbvkcr0y","long":-85.627208,"unknown":0.0003,"state":"AL"},"type":"Feature","geometry":{"type":"Point","coordinates":[-85.627208,34.5697]}},{"properties":{"zip":36003,"region":1,"county":"AUTAUGAVILLE","id":"a6fwkcars9a5","long":-86.714938,"unknown":0.000654,"state":"AL"},"type":"Feature","geometry":{"type":"Point","coordinates":[-86.714938,32.462462]}},{"properties":{"zip":36004,"region":1,"county":"EUFAULA","id":"a6fwkc8d1985","long":-85.239657,"unknown":0.000661,"state":"AL"},"type":"Feature","geometry":{"type":"Point","coordinates":[-85.239657,31.786701]}},{"properties":{"zip":36005,"region":1,"county":"BANKS","id":"a6fwkc69p527","long":-85.799844,"unknown":0.00046,"state":"AL"},"type":"Feature","geometry":{"type":"Point","coordinates":[-85.799844,31.836792]}},{"properties":{"zip":36006,"region":1,"county":"BILLINGSLEY","id":"a6fwkc38rlnb","long":-86.716301,"unknown":0.000463,"state":"AL"},"type":"Feature","geometry":{"type":"Point","coordinates":[-86.716301,32.610578]}},{"properties":{"zip":36009,"region":1,"county":"BRANTLEY","id":"a6fwkc30wihg","long":-86.274343,"unknown":0.000649,"state":"AL"},"type":"Feature","geometry":{"type":"Point","coordinates":[-86.274343,31.570963]}},{"properties":{"zip":36010,"region":1,"county":"BRUNDIDGE","id":"a6fwkbx022fc","long":-85.817668,"unknown":0.001069,"state":"AL"},"type":"Feature","geometry":{"type":"Point","coordinates":[-85.817668,31.701324]}},{"properties":{"zip":36013,"region":1,"county":"CECIL","id":"a6fwkc3obnfl","long":-86.011241,"unknown":0.000101,"state":"AL"},"type":"Feature","geometry":{"type":"Point","coordinates":[-86.011241,32.300891]}},{"properties":{"zip":36016,"region":1,"county":"CLAYTON","id":"a6fwkbzxz8wd","long":-85.450932,"unknown":0.000769,"state":"AL"},"type":"Feature","geometry":{"type":"Point","coordinates":[-85.450932,31.887413]}},{"properties":{"zip":36017,"region":1,"county":"CLIO","id":"a6fwkbwpwl1w","long":-85.590419,"unknown":0.000787,"state":"AL"},"type":"Feature","geometry":{"type":"Point","coordinates":[-85.590419,31.68521]}},{"properties":{"zip":36022,"region":1,"county":"DEATSVILLE","id":"a6fwkc0nu8nm","long":-86.338211,"unknown":0.001463,"state":"AL"},"type":"Feature","geometry":{"type":"Point","coordinates":[-86.338211,32.613405]}},{"properties":{"zip":36024,"region":1,"county":"ECLECTIC","id":"a6fwkbxdxtat","long":-86.031614,"unknown":0.001511,"state":"AL"},"type":"Feature","geometry":{"type":"Point","coordinates":[-86.031614,32.65419]}},{"properties":{"zip":36025,"region":1,"county":"ELMORE","id":"a6fwkbvgacbd","long":-86.316134,"unknown":0.000771,"state":"AL"},"type":"Feature","geometry":{"type":"Point","coordinates":[-86.316134,32.545378]}},{"properties":{"zip":36026,"region":1,"county":"EQUALITY","id":"a6fwkc13rakb","long":-86.105064,"unknown":0.000277,"state":"AL"},"type":"Feature","geometry":{"type":"Point","coordinates":[-86.105064,32.813908]}},{"properties":{"zip":36027,"region":1,"county":"EUFAULA","id":"a6fwkc6mqo5h","long":-85.165605,"unknown":0.003512,"state":"AL"},"type":"Feature","geometry":{"type":"Point","coordinates":[-85.165605,31.905063]}},{"properties":{"zip":36028,"region":1,"county":"DOZIER","id":"a6fwkc2zvtqe","long":-86.366315,"unknown":0.000183,"state":"AL"},"type":"Feature","geometry":{"type":"Point","coordinates":[-86.366315,31.506614]}},{"properties":{"zip":36029,"region":1,"county":"FITZPATRICK","id":"a6fwkc5wpteq","long":-85.888329,"unknown":0.000182,"state":"AL"},"type":"Feature","geometry":{"type":"Point","coordinates":[-85.888329,32.151607]}},{"properties":{"zip":36030,"region":1,"county":"FOREST HOME","id":"a6fwkc26htas","long":-86.786377,"unknown":0.000378,"state":"AL"},"type":"Feature","geometry":{"type":"Point","coordinates":[-86.786377,31.85318]}},{"properties":{"zip":36031,"region":1,"county":"FORT DAVIS","id":"a6fwkc8jftp9","long":-85.700688,"unknown":0.000221,"state":"AL"},"type":"Feature","geometry":{"type":"Point","coordinates":[-85.700688,32.28945]}},{"properties":{"zip":36032,"region":1,"county":"FORT DEPOSIT","id":"a6fwkc62iiak","long":-86.576142,"unknown":0.000603,"state":"AL"},"type":"Feature","geometry":{"type":"Point","coordinates":[-86.576142,31.995979]}},{"properties":{"zip":36033,"region":1,"county":"GEORGIANA","id":"a6fwkc28z4r3","long":-86.733965,"unknown":0.000909,"state":"AL"},"type":"Feature","geometry":{"type":"Point","coordinates":[-86.733965,31.628662]}},{"properties":{"zip":36034,"region":1,"county":"GLENWOOD","id":"a6fwkc9ca44p","long":-86.170972,"unknown":2.7e-05,"state":"AL"},"type":"Feature","geometry":{"type":"Point","coordinates":[-86.170972,31.664143]}},{"properties":{"zip":36035,"region":1,"county":"GOSHEN","id":"a6fwkc2ssik7","long":-86.104851,"unknown":0.000509,"state":"AL"},"type":"Feature","geometry":{"type":"Point","coordinates":[-86.104851,31.82497]}},{"properties":{"zip":36036,"region":1,"county":"GRADY","id":"a6fwkbxa1s7q","long":-86.129246,"unknown":0.000448,"state":"AL"},"type":"Feature","geometry":{"type":"Point","coordinates":[-86.129246,32.019397]}},{"properties":{"zip":36037,"region":1,"county":"GREENVILLE","id":"a6fwkc43hjmj","long":-86.622919,"unknown":0.00383,"state":"AL"},"type":"Feature","geometry":{"type":"Point","coordinates":[-86.622919,31.810036]}},{"properties":{"zip":36038,"region":1,"county":"GANTT","id":"a6fwkcau3l4b","long":-86.419836,"unknown":0.000816,"state":"AL"},"type":"Feature","geometry":{"type":"Point","coordinates":[-86.419836,31.416909]}},{"properties":{"zip":36039,"region":1,"county":"HARDAWAY","id":"a6fwkc38ky3o","long":-85.883837,"unknown":8.8e-05,"state":"AL"},"type":"Feature","geometry":{"type":"Point","coordinates":[-85.883837,32.312939]}},{"properties":{"zip":36040,"region":1,"county":"HAYNEVILLE","id":"a6fwkc5prpae","long":-86.654994,"unknown":0.00124,"state":"AL"},"type":"Feature","geometry":{"type":"Point","coordinates":[-86.654994,32.195707]}}],"is_temporal":false,"author":{"url":"","metadata":"","contact_name":"","contact_address":"","source":"","contact_phone":""},"source":"","pagination":{"sort":null,"start":0,"total":299,"limit":1000000},"state":"complete","tags":"tag","published":"2014-08-11T04:54:03-04:00","id":4804}