{"type":"FeatureCollection","data_type":"Dataset","url_type":null,"permissions":[{"permissions":{"download":true,"view":true},"group_id":"everyone"}],"classification":null,"title":"New York Dept of Corrections, New York State Adult Correctional Institutions, New York, 3.2008 ","count":78,"stream_id":482,"contributor":{"url":"http://geocommons.com/users/2","name":"data"},"data_attributes":null,"calculation_params":null,"icon_link":null,"link":"http://geocommons.com/overlays/482.json","extent":[-79.4355,40.5505,-73.43,49.2903],"geometry_types":["point"],"unique_name":null,"name":"New York Dept of Corrections, New York State Adult Correctional Institutions, New York, 3.2008 ","feature_count":78,"description":"This dataset displays the locations of all the Adult Correctional Facilities in the state of New York as of 3.2008. This includes both female and male institutions.\n","next_feature":null,"is_raster":false,"short_classification":"Y","stats":{"lon":{"max":-73.429999,"mean":-75.0919191282051,"variance":2.85978313751837,"stdev":1.6910893345765,"min":-79.435481,"median":-74.228705},"lat":{"max":49.290302,"mean":42.4786894871795,"variance":2.36234262890763,"stdev":1.53699142122122,"min":40.550523,"median":42.407177}},"features":[{"properties":{"city":"Ray Brook","lon":-74.093366,"zip":"12977-0110","facility":"Adirondack Correctional Facility","id":"a6558g3lw90z","address":"Box 110, Rt 86","lat":49.290302,"state":"NY"},"type":"Feature","geometry":{"type":"Point","coordinates":[-74.093366,49.290302]}},{"properties":{"city":"Albion","lon":-78.214509,"zip":"14411-9399","facility":"Albion Correctional Facility","id":"a6558gbpbfln","address":"3595 State School Road","lat":43.24438,"state":"NY"},"type":"Feature","geometry":{"type":"Point","coordinates":[-78.214509,43.24438]}},{"properties":{"city":"Altona","lon":-73.659855,"zip":"12910-2090","facility":"Altona Correctional Facility","id":"a6558fyyusv7","address":"555 Devils Den Road","lat":44.892725,"state":"NY"},"type":"Feature","geometry":{"type":"Point","coordinates":[-73.659855,44.892725]}},{"properties":{"city":"East Elmhurst","lon":-73.883161,"zip":11370,"facility":"Anna M. Kross Center (AMKC)","id":"a6558g0xqjiw","address":"18-18 Hazen Street","lat":40.790803,"state":"NY"},"type":"Feature","geometry":{"type":"Point","coordinates":[-73.883161,40.790803]}},{"properties":{"city":"Staten Island","lon":-74.228705,"zip":"10309-1101","facility":"Arthur Kill Correctional Facility","id":"a6558g8dnvsz","address":"2911 Arthur Kill Road","lat":40.550523,"state":"NY"},"type":"Feature","geometry":{"type":"Point","coordinates":[-74.228705,40.550523]}},{"properties":{"city":"Attica","lon":-78.272012,"zip":"14011-0149","facility":"Attica Correctional Facility","id":"a6558g0z22vw","address":"Exchange St","lat":42.849511,"state":"NY"},"type":"Feature","geometry":{"type":"Point","coordinates":[-78.272012,42.849511]}},{"properties":{"city":"Auburn","lon":-76.57326,"zip":"13021-1800","facility":"Auburn Correctional Facility","id":"a6558g01g2bo","address":"135 State Street","lat":42.934771,"state":"NY"},"type":"Feature","geometry":{"type":"Point","coordinates":[-76.57326,42.934771]}},{"properties":{"city":"Malone","lon":-74.324085,"zip":"12953-0020","facility":"Bare Hill Correctional Facility","id":"a6558g939gjg","address":"181 Brand Road","lat":44.878561,"state":"NY"},"type":"Feature","geometry":{"type":"Point","coordinates":[-74.324085,44.878561]}},{"properties":{"city":"New York","lon":-74.006976,"zip":"10011-2678","facility":"Bayview Correctional Facility","id":"a6558gb0uh7n","address":"550 West 20th Street","lat":40.746217,"state":"NY"},"type":"Feature","geometry":{"type":"Point","coordinates":[-74.006976,40.746217]}},{"properties":{"city":"Beacon","lon":-73.950756,"zip":"12508-0780","facility":"Beacon Correctional Facility","id":"a6558g5sn2gk","address":"50 Camp Beacon Rd","lat":41.522119,"state":"NY"},"type":"Feature","geometry":{"type":"Point","coordinates":[-73.950756,41.522119]}},{"properties":{"city":"Bedford Hills","lon":-73.680805,"zip":"10507-2400","facility":"Bedford Hills Correctional Facility","id":"a6558gb1levv","address":"247 Harris Road","lat":41.237658,"state":"NY"},"type":"Feature","geometry":{"type":"Point","coordinates":[-73.680805,41.237658]}},{"properties":{"city":"Alden","lon":-78.542911,"zip":"14004-0300","facility":"Buffalo Correctional Facility","id":"a6558gdwsp39","address":"3052 Wende Rd","lat":42.931315,"state":"NY"},"type":"Feature","geometry":{"type":"Point","coordinates":[-78.542911,42.931315]}},{"properties":{"city":"Red Creek","lon":-76.725433,"zip":"13143-0388","facility":"Butler Correctional Facility","id":"a6558g84e34q","address":"Westbury Cutoff Rd","lat":43.219626,"state":"NY"},"type":"Feature","geometry":{"type":"Point","coordinates":[-76.725433,43.219626]}},{"properties":{"city":"Cape Vincent","lon":-76.188602,"zip":"13618-0599","facility":"Cape Vincent Correctional Facility","id":"a6558gc051h4","address":"Rte. 12E","lat":44.198066,"state":"NY"},"type":"Feature","geometry":{"type":"Point","coordinates":[-76.188602,44.198066]}},{"properties":{"city":"Moravia","lon":-76.396249,"zip":"13118-1150","facility":"Cayuga Correctional Facility","id":"a6558gasipf5","address":"Rte. 38A","lat":42.721852,"state":"NY"},"type":"Feature","geometry":{"type":"Point","coordinates":[-76.396249,42.721852]}},{"properties":{"city":"Chateaugay","lon":-74.056482,"zip":"12920-0320","facility":"Chateaugay Correctional Facility","id":"a6558gc465sn","address":"State Route 11","lat":44.92564,"state":"NY"},"type":"Feature","geometry":{"type":"Point","coordinates":[-74.056482,44.92564]}},{"properties":{"city":"Dannemora","lon":-73.71717,"zip":"12929-2000","facility":"Clinton Correctional Facility","id":"a6558ga053ex","address":"Cook Street","lat":44.724484,"state":"NY"},"type":"Feature","geometry":{"type":"Point","coordinates":[-73.71717,44.724484]}},{"properties":{"city":"Collins","lon":-78.937561,"zip":"14034-0490","facility":"Collins Correctional Facility","id":"a6558g5tizkb","address":"Middle Rd","lat":42.488649,"state":"NY"},"type":"Feature","geometry":{"type":"Point","coordinates":[-78.937561,42.488649]}},{"properties":{"city":"West Coxsackie","lon":-73.836528,"zip":"12051-0200","facility":"Coxsackie Correctional Facility","id":"a6558g2w79ma","address":"Rte. 9W","lat":42.343528,"state":"NY"},"type":"Feature","geometry":{"type":"Point","coordinates":[-73.836528,42.343528]}},{"properties":{"city":"Fishkill","lon":-73.945005,"zip":"12524-0445","facility":"Downstate Correctional Facility","id":"a6558gbyoo2f","address":"122 Red Schoolhouse Rd","lat":41.532576,"state":"NY"},"type":"Feature","geometry":{"type":"Point","coordinates":[-73.945005,41.532576]}},{"properties":{"city":"Napanoch","lon":-74.36198,"zip":"12458-0338","facility":"Eastern NY Correctional Facility","id":"a6558gak9l08","address":"Institution Rd","lat":41.741237,"state":"NY"},"type":"Feature","geometry":{"type":"Point","coordinates":[-74.36198,41.741237]}},{"properties":{"city":"New York","lon":-73.937258,"zip":"10032-4398","facility":"Edgecombe Correctional Facility","id":"a6558g853j6o","address":"611 Edgecombe Avenue","lat":40.836018,"state":"NY"},"type":"Feature","geometry":{"type":"Point","coordinates":[-73.937258,40.836018]}},{"properties":{"city":"Elmira","lon":-76.83108,"zip":"14902-0500","facility":"Elmira Correctional Facility","id":"a6558g6g9boi","address":"1879 Davis St","lat":42.114795,"state":"NY"},"type":"Feature","geometry":{"type":"Point","coordinates":[-76.83108,42.114795]}},{"properties":{"city":"East Elmhurst","lon":-73.883161,"zip":11370,"facility":"Eric M. Taylor Center (EMTC) Formerly known as CIFM","id":"a6558g31tdis","address":"10-10 Hazen Street","lat":40.790803,"state":"NY"},"type":"Feature","geometry":{"type":"Point","coordinates":[-73.883161,40.790803]}},{"properties":{"city":"Beacon","lon":-73.945143,"zip":"12508-0307","facility":"Fishkill Correctional Facility","id":"a6558fzxpaw6","address":"Prospect Street","lat":41.532578,"state":"NY"},"type":"Feature","geometry":{"type":"Point","coordinates":[-73.945143,41.532578]}},{"properties":{"city":"Romulus","lon":-76.840238,"zip":14541,"facility":"Five Points Correctional Facility","id":"a6558fzqnh0v","address":"State Route 96","lat":42.711354,"state":"NY"},"type":"Feature","geometry":{"type":"Point","coordinates":[-76.840238,42.711354]}},{"properties":{"city":"Malone","lon":-74.313727,"zip":"12953-0010","facility":"Franklin Correctional Facility","id":"a6558gag3yy4","address":"Bare Hill Road, P.O. Box 10","lat":44.868415,"state":"NY"},"type":"Feature","geometry":{"type":"Point","coordinates":[-74.313727,44.868415]}},{"properties":{"city":"Bronx","lon":-73.90076,"zip":"10457-8398","facility":"Fulton Correctional Facility","id":"a6558g0ntaff","address":"1511 Fulton Avenue","lat":40.837041,"state":"NY"},"type":"Feature","geometry":{"type":"Point","coordinates":[-73.90076,40.837041]}},{"properties":{"city":"East Elmhurst","lon":-73.883161,"zip":11370,"facility":"George Motchan Detention Center (GMDC)","id":"a6558gbwys3v","address":"15-15 Hazen Street","lat":40.790803,"state":"NY"},"type":"Feature","geometry":{"type":"Point","coordinates":[-73.883161,40.790803]}},{"properties":{"city":"East Elmhurst","lon":-73.883161,"zip":11370,"facility":"George R. Vierno Center (GRVC)","id":"a6558ga1dly9","address":"09-09 Hazen Street","lat":40.790803,"state":"NY"},"type":"Feature","geometry":{"type":"Point","coordinates":[-73.883161,40.790803]}},{"properties":{"city":"Gouverneur","lon":-75.441984,"zip":"13642-0370","facility":"Gouverneur Correctional Facility","id":"a6558gcwv5ho","address":"Scotch Settlement Rd.","lat":44.339916,"state":"NY"},"type":"Feature","geometry":{"type":"Point","coordinates":[-75.441984,44.339916]}},{"properties":{"city":"Gowanda","lon":-78.937125,"zip":"14070-0350","facility":"Gowanda Correctional Facility","id":"a6558g0i18cl","address":"South Road","lat":42.489123,"state":"NY"},"type":"Feature","geometry":{"type":"Point","coordinates":[-78.937125,42.489123]}},{"properties":{"city":"Comstock","lon":-73.433655,"zip":12821,"facility":"Great Meadow Correctional Facility","id":"a6558g7elzfp","address":"11739 StBox 51","lat":43.457396,"state":"NY"},"type":"Feature","geometry":{"type":"Point","coordinates":[-73.433655,43.457396]}},{"properties":{"city":"Stormville","lon":-73.716525,"zip":12582,"facility":"Green Haven Correctional Facility","id":"a6558fznmfmq","address":"","lat":41.58033,"state":"NY"},"type":"Feature","geometry":{"type":"Point","coordinates":[-73.716525,41.58033]}},{"properties":{"city":"Coxsackie","lon":-73.823621,"zip":"12051-0008","facility":"Greene Correctional Facility","id":"a6558gcgx6uh","address":"P. O. Box 8","lat":42.345747,"state":"NY"},"type":"Feature","geometry":{"type":"Point","coordinates":[-73.823621,42.345747]}},{"properties":{"city":"Sonyea","lon":-77.836325,"zip":14556,"facility":"Groveland Correctional Facility","id":"a6558fya1n7z","address":"7000 Sonyea Road","lat":42.682451,"state":"NY"},"type":"Feature","geometry":{"type":"Point","coordinates":[-77.836325,42.682451]}},{"properties":{"city":"Johnstown","lon":-74.298345,"zip":12095,"facility":"Hale Creek ASACTC","id":"a6558g3e788z","address":"279 Maloney Road","lat":43.01347,"state":"NY"},"type":"Feature","geometry":{"type":"Point","coordinates":[-74.298345,43.01347]}},{"properties":{"city":"Hudson","lon":-73.793123,"zip":"12534-0576","facility":"Hudson Correctional Facility","id":"a6558g8i74rd","address":"Box 576","lat":42.244047,"state":"NY"},"type":"Feature","geometry":{"type":"Point","coordinates":[-73.793123,42.244047]}},{"properties":{"city":"East Elmhurst","lon":-73.883161,"zip":11370,"facility":"James A. Thomas Center (JATC)","id":"a6558g4dndg5","address":"14-14 Hazen Street","lat":40.790803,"state":"NY"},"type":"Feature","geometry":{"type":"Point","coordinates":[-73.883161,40.790803]}},{"properties":{"city":"Brocton","lon":-79.435481,"zip":14716,"facility":"Lakeview Shock Incarceration C. F.","id":"a6558gcgxzj5","address":"P.O. Box T","lat":42.407177,"state":"NY"},"type":"Feature","geometry":{"type":"Point","coordinates":[-79.435481,42.407177]}},{"properties":{"city":"New York","lon":-73.950452,"zip":"10026-4398","facility":"Lincoln Correctional Facility","id":"a6558fxqa543","address":"31-33 West 110th Street","lat":40.797439,"state":"NY"},"type":"Feature","geometry":{"type":"Point","coordinates":[-73.950452,40.797439]}},{"properties":{"city":"Sonyea","lon":-77.823761,"zip":"14556-0049","facility":"Livingston Correctional Facility","id":"a6558gdq3fwq","address":"Route 36, Sonyea Road","lat":42.685638,"state":"NY"},"type":"Feature","geometry":{"type":"Point","coordinates":[-77.823761,42.685638]}},{"properties":{"city":"Lyon Mountain","lon":-73.909458,"zip":"12952-0276","facility":"Lyon Mountain Correctional Facility","id":"a6558gbija15","address":"Box 276","lat":44.730726,"state":"NY"},"type":"Feature","geometry":{"type":"Point","coordinates":[-73.909458,44.730726]}},{"properties":{"city":"New York","lon":-74.000781,"zip":10013,"facility":"Manhattan Detention Complex (MDC)","id":"a6558g6gsro2","address":"125 White Street","lat":40.716894,"state":"NY"},"type":"Feature","geometry":{"type":"Point","coordinates":[-74.000781,40.716894]}},{"properties":{"city":"Marcy","lon":-75.311128,"zip":13403,"facility":"Marcy Correctional Facility","id":"a6558g4dyhh3","address":"P.O. Box 5000","lat":43.162736,"state":"NY"},"type":"Feature","geometry":{"type":"Point","coordinates":[-75.311128,43.162736]}},{"properties":{"city":"Warwick","lon":-74.300198,"zip":"10990-0900","facility":"Mid-Orange Correctional Facility","id":"a6558gcxzs6v","address":"900 Kings Highway","lat":41.276479,"state":"NY"},"type":"Feature","geometry":{"type":"Point","coordinates":[-74.300198,41.276479]}},{"properties":{"city":"Marcy","lon":-75.297021,"zip":"13403-0216","facility":"Mid-State Correctional Facility","id":"a6558fzipkep","address":"P.O. Box 216","lat":43.168125,"state":"NY"},"type":"Feature","geometry":{"type":"Point","coordinates":[-75.297021,43.168125]}},{"properties":{"city":"Rome","lon":-75.484708,"zip":13440,"facility":"Mohawk Correctional Facility","id":"a6558fyd6mtz","address":"6100 School Road","lat":43.184392,"state":"NY"},"type":"Feature","geometry":{"type":"Point","coordinates":[-75.484708,43.184392]}},{"properties":{"city":"Beaver Dams","lon":-77.017159,"zip":"14812-9718","facility":"Monterey Shock Incarceration Corr. Fac.","id":"a6558fy6yeqf","address":"2150 Evergreen Hill Road","lat":42.337256,"state":"NY"},"type":"Feature","geometry":{"type":"Point","coordinates":[-77.017159,42.337256]}},{"properties":{"city":"Mineville","lon":-73.533244,"zip":"12956-0999","facility":"Moriah Shock Incarceration Corr. Fac.","id":"a6558g8m05xe","address":"P.0. Box 999","lat":44.106907,"state":"NY"},"type":"Feature","geometry":{"type":"Point","coordinates":[-73.533244,44.106907]}},{"properties":{"city":"Wilton","lon":-73.748096,"zip":"12831-5071","facility":"Mt. McGregor Correctional Facility","id":"a6558fzw4tub","address":"1000 Mt. McGregor Road","lat":43.201302,"state":"NY"},"type":"Feature","geometry":{"type":"Point","coordinates":[-73.748096,43.201302]}},{"properties":{"city":"East Elmhurst","lon":-73.883161,"zip":11370,"facility":"North Infirmary Command (NIC)","id":"a6558g074w15","address":"15-00 Hazen Street","lat":40.790803,"state":"NY"},"type":"Feature","geometry":{"type":"Point","coordinates":[-73.883161,40.790803]}},{"properties":{"city":"Ogdensburg","lon":-75.445301,"zip":"13669-2288","facility":"Ogdensburg Correctional Facility","id":"a6558g6p79kf","address":"One Correction Way","lat":44.725275,"state":"NY"},"type":"Feature","geometry":{"type":"Point","coordinates":[-75.445301,44.725275]}},{"properties":{"city":"Rome","lon":-75.484708,"zip":13440,"facility":"Oneida Correctional Facility","id":"a6558g1pj37z","address":"6100 School Road","lat":43.184392,"state":"NY"},"type":"Feature","geometry":{"type":"Point","coordinates":[-75.484708,43.184392]}},{"properties":{"city":"Albion","lon":-78.220163,"zip":14411,"facility":"Orleans Correctional Facility","id":"a6558gaab8k8","address":"35-31 Gaines Basin Road","lat":43.244122,"state":"NY"},"type":"Feature","geometry":{"type":"Point","coordinates":[-78.220163,43.244122]}},{"properties":{"city":"East Elmhurst","lon":-73.883161,"zip":11370,"facility":"Otis Bantum Correctional Center (OBCC)","id":"a6558g1g1kwm","address":"16-00 Hazen Street","lat":40.790803,"state":"NY"},"type":"Feature","geometry":{"type":"Point","coordinates":[-73.883161,40.790803]}},{"properties":{"city":"Otisville","lon":-74.52735,"zip":"10963-0008","facility":"Otisville Correctional Facility","id":"a6558g5tt0r8","address":"Box 8","lat":41.496402,"state":"NY"},"type":"Feature","geometry":{"type":"Point","coordinates":[-74.52735,41.496402]}},{"properties":{"city":"Long Island City","lon":-73.933865,"zip":"11101-3081","facility":"Queensboro Correctional Facility","id":"a6558g501hgx","address":"47-04 Van Dam Street","lat":40.742767,"state":"NY"},"type":"Feature","geometry":{"type":"Point","coordinates":[-73.933865,40.742767]}},{"properties":{"city":"Ogdensburg","lon":-75.434311,"zip":13669,"facility":"Riverview Correctional Facility","id":"a6558gainlmr","address":"P.O. Box 158","lat":44.716828,"state":"NY"},"type":"Feature","geometry":{"type":"Point","coordinates":[-75.434311,44.716828]}},{"properties":{"city":"East Elmhurst","lon":-73.883161,"zip":11370,"facility":"Robert N. Davoren Complex (RNDC) Formerly known as ARDC","id":"a6558fy1v8nt","address":"11-11 Hazen Street","lat":40.790803,"state":"NY"},"type":"Feature","geometry":{"type":"Point","coordinates":[-73.883161,40.790803]}},{"properties":{"city":"Rochester","lon":-77.616668,"zip":"14608-2499","facility":"Rochester Correctional Facility","id":"a6558g7zo6m3","address":"470 Ford Street","lat":43.143716,"state":"NY"},"type":"Feature","geometry":{"type":"Point","coordinates":[-77.616668,43.143716]}},{"properties":{"city":"East Elmhurst","lon":-73.883161,"zip":11370,"facility":"Rose M. Singer Center (RMSC)","id":"a6558gahpzhb","address":"19-19 Hazen Street","lat":40.790803,"state":"NY"},"type":"Feature","geometry":{"type":"Point","coordinates":[-73.883161,40.790803]}},{"properties":{"city":"Wallkill","lon":-74.163489,"zip":"12589-0750","facility":"Shawangunk Correctional Facility","id":"a6558gbw8esb","address":"750 Prison Road","lat":41.628077,"state":"NY"},"type":"Feature","geometry":{"type":"Point","coordinates":[-74.163489,41.628077]}},{"properties":{"city":"Ossining","lon":-73.867764,"zip":"10562-5442","facility":"Sing Sing Correctional Facility","id":"a6558g8dlxxh","address":"354 Hunter Street","lat":41.151271,"state":"NY"},"type":"Feature","geometry":{"type":"Point","coordinates":[-73.867764,41.151271]}},{"properties":{"city":"Pine City","lon":-76.796633,"zip":14871,"facility":"Southport Correctional Facility","id":"a6558gb4oz05","address":"Institution Road","lat":42.05067,"state":"NY"},"type":"Feature","geometry":{"type":"Point","coordinates":[-76.796633,42.05067]}},{"properties":{"city":"Fallsburg","lon":-74.590112,"zip":"12733-0116","facility":"Sullivan Correctional Facility","id":"a6558fxzl6jj","address":"Riverside Drive","lat":41.742476,"state":"NY"},"type":"Feature","geometry":{"type":"Point","coordinates":[-74.590112,41.742476]}},{"properties":{"city":"Summit","lon":-74.536823,"zip":"12175-9608","facility":"Summit Shock Incarceration C. F.","id":"a6558gd7q6bd","address":"Dibbles Road","lat":42.564314,"state":"NY"},"type":"Feature","geometry":{"type":"Point","coordinates":[-74.536823,42.564314]}},{"properties":{"city":"Bedford Hills","lon":-73.680352,"zip":"10507-2498","facility":"Taconic Correctional Facility","id":"a6558g1sr513","address":"250 Harris Road","lat":41.239701,"state":"NY"},"type":"Feature","geometry":{"type":"Point","coordinates":[-73.680352,41.239701]}},{"properties":{"city":"Napanoch","lon":-74.355985,"zip":12458,"facility":"Ulster Correctional Facility","id":"a6558g6936um","address":"P.O. Box 800, Berme Road","lat":41.743448,"state":"NY"},"type":"Feature","geometry":{"type":"Point","coordinates":[-74.355985,41.743448]}},{"properties":{"city":"Malone","lon":-74.32409,"zip":12953,"facility":"Upstate Correctional Facility","id":"a6558g6qdn6y","address":"309 Bare Hill Road","lat":44.886166,"state":"NY"},"type":"Feature","geometry":{"type":"Point","coordinates":[-74.32409,44.886166]}},{"properties":{"city":"Bronx","lon":-73.877237,"zip":10474,"facility":"Vernon C. Bain Center (VCBC)","id":"a6558g3bzn14","address":"1 Halleck Street","lat":40.801352,"state":"NY"},"type":"Feature","geometry":{"type":"Point","coordinates":[-73.877237,40.801352]}},{"properties":{"city":"Wallkill","lon":-74.163451,"zip":"12589-0286","facility":"Wallkill Correctional Facility","id":"a6558g3a8u86","address":"Box G","lat":41.635958,"state":"NY"},"type":"Feature","geometry":{"type":"Point","coordinates":[-74.163451,41.635958]}},{"properties":{"city":"Comstock","lon":-73.429999,"zip":"12821-0180","facility":"Washington Correctional Facility","id":"a6558fz2lqto","address":"Box 180, 72 Lock 11 Lane","lat":43.468695,"state":"NY"},"type":"Feature","geometry":{"type":"Point","coordinates":[-73.429999,43.468695]}},{"properties":{"city":"Watertown","lon":-75.908192,"zip":"13601-9340","facility":"Watertown Correctional Facility","id":"a6558g54boxd","address":"23147 Swan Road","lat":43.924283,"state":"NY"},"type":"Feature","geometry":{"type":"Point","coordinates":[-75.908192,43.924283]}},{"properties":{"city":"Alden","lon":-78.557403,"zip":"14004-1187","facility":"Wende Correctional Facility","id":"a6558ge37ctb","address":"3622 Wende Road","lat":42.935484,"state":"NY"},"type":"Feature","geometry":{"type":"Point","coordinates":[-78.557403,42.935484]}},{"properties":{"city":"East Elmhurst","lon":-73.883161,"zip":11370,"facility":"West Facility (WF)","id":"a6558fydoyov","address":"16-06 Hazen Street","lat":40.790803,"state":"NY"},"type":"Feature","geometry":{"type":"Point","coordinates":[-73.883161,40.790803]}},{"properties":{"city":"Woodbourne","lon":-74.591546,"zip":12788,"facility":"Woodbourne Correctional Facility","id":"a6558g5nobu0","address":"Riverside Drive","lat":41.753313,"state":"NY"},"type":"Feature","geometry":{"type":"Point","coordinates":[-74.591546,41.753313]}},{"properties":{"city":"Attica","lon":-78.259994,"zip":14011,"facility":"Wyoming Correctional Facility","id":"a6558fytclcw","address":"P.O. Box 501, Dunbar Road","lat":42.849548,"state":"NY"},"type":"Feature","geometry":{"type":"Point","coordinates":[-78.259994,42.849548]}}],"is_temporal":false,"author":{"url":"http://www.docs.state.ny.us/","metadata":"","contact_name":"","contact_address":"","source":"New York Dept of Corrections","contact_phone":""},"source":"http://www.docs.state.ny.us/","pagination":{"sort":null,"start":0,"total":78,"limit":1000000},"state":"complete","tags":"correctional,corrections,enforcement,institution,law,new,prisons,york","published":"2008-05-07T12:00:00Z","id":482}