{"type":"FeatureCollection","state":"complete","icon_link":null,"title":"zsp_poverty_incidence2009-53def3069c942","count":16,"geometry_types":[],"unique_name":null,"pagination":{"sort":null,"start":0,"limit":1000000,"total":16},"feature_count":16,"data_type":"Dataset","stats":{"geocode":{"max":98316000,"mean":98308500.0,"stdev":4760.95228569523,"median":98309000,"variance":22666666.6666667,"min":98301000},"new_rank":{"max":16,"mean":8.5,"stdev":4.76095228569523,"median":9,"variance":22.6666666666667,"min":1},"old_composite_index":{"max":0.6419,"mean":0.578575,"stdev":0.0414553012291553,"median":0.5774,"variance":0.001718542,"min":0.5038},"old_rank":{"max":16,"mean":8.5,"stdev":4.76095228569523,"median":9,"variance":22.6666666666667,"min":1},"new_composite_index":{"max":0.80945,"mean":0.647533125,"stdev":0.09359179221269,"median":0.62149,"variance":0.00875942356958333,"min":0.52059},"poverty_incidence_actual_data":{"max":69,"mean":49.4375,"stdev":11.7585075583596,"median":48,"variance":138.2625,"min":32}},"next_feature":null,"is_raster":false,"link":"http://geocommons.com/overlays/482845.json","short_classification":"Y","name":"zsp_poverty_incidence2009-53def3069c942","is_temporal":false,"description":"","permissions":[{"group_id":"everyone","permissions":{"download":true,"view":true}}],"classification":null,"published":"2015-08-29T13:51:29-04:00","extent":[0.0,0.0,0.0,0.0],"features":[{"properties":{"geocode":98307000,"column_10":null,"region":"Zamboanga Peninsula (Region IX)","new_rank":1,"geo_score":0.0,"municipality":"MABUHAY","old_composite_index":0.6189,"old_rank":4,"id":"aov4bf22lu7b","province":"ZAMBOANGA SIBUGAY","new_composite_index":0.80945,"geo_precision":"unmatched","poverty_incidence_actual_data":69},"type":"Feature","geometry":null},{"properties":{"geocode":98314000,"column_10":null,"region":"Zamboanga Peninsula (Region IX)","new_rank":2,"geo_score":0.0,"municipality":"TALUSAN","old_composite_index":0.6197,"old_rank":3,"id":"aov4bf3uc50f","province":"ZAMBOANGA SIBUGAY","new_composite_index":0.79536,"geo_precision":"unmatched","poverty_incidence_actual_data":67},"type":"Feature","geometry":null},{"properties":{"geocode":98311000,"column_10":null,"region":"Zamboanga Peninsula (Region IX)","new_rank":3,"geo_score":0.0,"municipality":"PAYAO","old_composite_index":0.5969,"old_rank":7,"id":"aov4bex8hhue","province":"ZAMBOANGA SIBUGAY","new_composite_index":0.75497,"geo_precision":"unmatched","poverty_incidence_actual_data":63},"type":"Feature","geometry":null},{"properties":{"geocode":98310000,"column_10":null,"region":"Zamboanga Peninsula (Region IX)","new_rank":4,"geo_score":0.0,"municipality":"OLUTANGA","old_composite_index":0.6039,"old_rank":6,"id":"aov4bepvvwjb","province":"ZAMBOANGA SIBUGAY","new_composite_index":0.75123,"geo_precision":"unmatched","poverty_incidence_actual_data":62},"type":"Feature","geometry":null},{"properties":{"geocode":98316000,"column_10":null,"region":"Zamboanga Peninsula (Region IX)","new_rank":5,"geo_score":0.0,"municipality":"TUNGAWAN","old_composite_index":0.569,"old_rank":10,"id":"aov4bespytt4","province":"ZAMBOANGA SIBUGAY","new_composite_index":0.71929,"geo_precision":"unmatched","poverty_incidence_actual_data":60},"type":"Feature","geometry":null},{"properties":{"geocode":98301000,"column_10":null,"region":"Zamboanga Peninsula (Region IX)","new_rank":6,"geo_score":0.0,"municipality":"ALICIA","old_composite_index":0.5665,"old_rank":11,"id":"aov4besofqjb","province":"ZAMBOANGA SIBUGAY","new_composite_index":0.67456,"geo_precision":"unmatched","poverty_incidence_actual_data":54},"type":"Feature","geometry":null},{"properties":{"geocode":98313000,"column_10":null,"region":"Zamboanga Peninsula (Region IX)","new_rank":7,"geo_score":0.0,"municipality":"SIAY","old_composite_index":0.5757,"old_rank":9,"id":"aov4beo875hs","province":"ZAMBOANGA SIBUGAY","new_composite_index":0.63568,"geo_precision":"unmatched","poverty_incidence_actual_data":48},"type":"Feature","geometry":null},{"properties":{"geocode":98303000,"column_10":null,"region":"Zamboanga Peninsula (Region IX)","new_rank":8,"geo_score":0.0,"municipality":"DIPLAHAN","old_composite_index":0.6053,"old_rank":5,"id":"aov4berpay4x","province":"ZAMBOANGA SIBUGAY","new_composite_index":0.62149,"geo_precision":"unmatched","poverty_incidence_actual_data":44},"type":"Feature","geometry":null},{"properties":{"geocode":98312000,"column_10":null,"region":"Zamboanga Peninsula (Region IX)","new_rank":9,"geo_score":0.0,"municipality":"ROSELLER LIM","old_composite_index":0.5038,"old_rank":16,"id":"aov4bestb63h","province":"ZAMBOANGA SIBUGAY","new_composite_index":0.62147,"geo_precision":"unmatched","poverty_incidence_actual_data":51},"type":"Feature","geometry":null},{"properties":{"geocode":98308000,"column_10":null,"region":"Zamboanga Peninsula (Region IX)","new_rank":10,"geo_score":0.0,"municipality":"MALANGAS","old_composite_index":0.6276,"old_rank":2,"id":"aov4betyho0k","province":"ZAMBOANGA SIBUGAY","new_composite_index":0.6109,"geo_precision":"unmatched","poverty_incidence_actual_data":41},"type":"Feature","geometry":null},{"properties":{"geocode":98302000,"column_10":null,"region":"Zamboanga Peninsula (Region IX)","new_rank":11,"geo_score":0.0,"municipality":"BUUG","old_composite_index":0.6419,"old_rank":1,"id":"aov4beyknrn5","province":"ZAMBOANGA SIBUGAY","new_composite_index":0.61081,"geo_precision":"unmatched","poverty_incidence_actual_data":40},"type":"Feature","geometry":null},{"properties":{"geocode":98315000,"column_10":null,"region":"Zamboanga Peninsula (Region IX)","new_rank":12,"geo_score":0.0,"municipality":"TITAY","old_composite_index":0.5349,"old_rank":14,"id":"aov4beoapesg","province":"ZAMBOANGA SIBUGAY","new_composite_index":0.59354,"geo_precision":"unmatched","poverty_incidence_actual_data":45},"type":"Feature","geometry":null},{"properties":{"geocode":98304000,"column_10":null,"region":"Zamboanga Peninsula (Region IX)","new_rank":13,"geo_score":0.0,"municipality":"IMELDA","old_composite_index":0.5466,"old_rank":13,"id":"aov4beo7eysb","province":"ZAMBOANGA SIBUGAY","new_composite_index":0.57765,"geo_precision":"unmatched","poverty_incidence_actual_data":42},"type":"Feature","geometry":null},{"properties":{"geocode":98309000,"column_10":null,"region":"Zamboanga Peninsula (Region IX)","new_rank":14,"geo_score":0.0,"municipality":"NAGA","old_composite_index":0.5638,"old_rank":12,"id":"aov4bewkf52p","province":"ZAMBOANGA SIBUGAY","new_composite_index":0.54277,"geo_precision":"unmatched","poverty_incidence_actual_data":36},"type":"Feature","geometry":null},{"properties":{"geocode":98306000,"column_10":null,"region":"Zamboanga Peninsula (Region IX)","new_rank":15,"geo_score":0.0,"municipality":"KABASALAN","old_composite_index":0.5053,"old_rank":15,"id":"aov4bewbrnkj","province":"ZAMBOANGA SIBUGAY","new_composite_index":0.52077,"geo_precision":"unmatched","poverty_incidence_actual_data":37},"type":"Feature","geometry":null},{"properties":{"geocode":98305000,"column_10":null,"region":"Zamboanga Peninsula (Region IX)","new_rank":16,"geo_score":0.0,"municipality":"IPIL","old_composite_index":0.5774,"old_rank":8,"id":"aov4bezt6wvh","province":"ZAMBOANGA SIBUGAY","new_composite_index":0.52059,"geo_precision":"unmatched","poverty_incidence_actual_data":32},"type":"Feature","geometry":null}],"url_type":null,"author":{"metadata":null,"url":"","contact_name":null,"contact_address":null,"contact_phone":null,"source":null},"source":"","stream_id":482845,"tags":"","contributor":{"url":"http://geocommons.com/users/103068","name":"edujadenip"},"id":482845,"data_attributes":null,"calculation_params":null}