{"type":"FeatureCollection","data_type":"Dataset","url_type":null,"permissions":[{"permissions":{"download":true,"view":true},"group_id":"everyone"}],"classification":null,"title":"Locations of Captive Cervids (Deer and Elk) Herds, Iowa, 2005","count":326,"stream_id":4829,"contributor":{"url":"http://geocommons.com/users/139","name":"Burkey"},"data_attributes":null,"calculation_params":null,"icon_link":null,"link":"http://geocommons.com/overlays/4829.json","extent":[-95.8415,40.6101,-90.1889,43.4688],"geometry_types":["point"],"unique_name":null,"name":"Locations of Captive Cervids (Deer and Elk) Herds, Iowa, 2005","feature_count":326,"description":"Abstract:\n    This file contains the known locations of captive cervid (deer and elk) herds in Iowa. \nPurpose:\n    This digital, geographically referenced data set was developed by the Iowa Department of Natural Resources to carry out agency responsibilities related to management, protection, and development of Iowa's natural resources.","next_feature":null,"is_raster":false,"short_classification":"Y","stats":{},"features":[{"properties":{"PRESERVE":"5K Elk Ranch","CERVIDTYPE":"Elk","id":"a62d4bm65i38","COUNTY":"MITCHELL"},"type":"Feature","geometry":{"type":"Point","coordinates":[-92.8497817579241,43.4197223115675]}},{"properties":{"PRESERVE":"Al Fuller","CERVIDTYPE":"Deer","id":"a62d4bnur04l","COUNTY":"LINN"},"type":"Feature","geometry":{"type":"Point","coordinates":[-91.7365754178389,42.114227702664]}},{"properties":{"PRESERVE":"Alan deNeui","CERVIDTYPE":"Deer","id":"a62d4bpkia8e","COUNTY":"BREMER"},"type":"Feature","geometry":{"type":"Point","coordinates":[-92.419380804692,42.7877724806727]}},{"properties":{"PRESERVE":"Alton Snyder","CERVIDTYPE":"Deer","id":"a62d4bzd4vxf","COUNTY":"MONTGOMERY"},"type":"Feature","geometry":{"type":"Point","coordinates":[-95.252619113024,40.9847897093555]}},{"properties":{"PRESERVE":"Alvin Sindt","CERVIDTYPE":"Deer","id":"a62d4bkbde86","COUNTY":"MUSCATINE"},"type":"Feature","geometry":{"type":"Point","coordinates":[-91.1051996823247,41.4392671477531]}},{"properties":{"PRESERVE":"Anthony Funk","CERVIDTYPE":"Deer","id":"a62d4bnyju5z","COUNTY":"WAYNE"},"type":"Feature","geometry":{"type":"Point","coordinates":[-93.495627634902,40.820514786248]}},{"properties":{"PRESERVE":"Antler Ridge Elk Ranch","CERVIDTYPE":"Elk","id":"a62d4bw6i8gq","COUNTY":"LINN"},"type":"Feature","geometry":{"type":"Point","coordinates":[-91.5502221897979,41.8978925119456]}},{"properties":{"PRESERVE":"Arnie Stroberg","CERVIDTYPE":"Deer","id":"a62d4ble07w4","COUNTY":"MITCHELL"},"type":"Feature","geometry":{"type":"Point","coordinates":[-92.7924552380082,43.2981209152083]}},{"properties":{"PRESERVE":"Arnold &amp; Marlene Duvall","CERVIDTYPE":"Deer","id":"a62d4bpgcs32","COUNTY":"WARREN"},"type":"Feature","geometry":{"type":"Point","coordinates":[-93.3868628051158,41.2055476806233]}},{"properties":{"PRESERVE":"Austin &amp; Erin Novak","CERVIDTYPE":"Deer","id":"a62d4bpe1i55","COUNTY":"LINN"},"type":"Feature","geometry":{"type":"Point","coordinates":[-91.7734464892256,42.2522154682084]}},{"properties":{"PRESERVE":"Awesome Antlers Unlimited","CERVIDTYPE":"Elk","id":"a62d4boabd9c","COUNTY":"TAMA"},"type":"Feature","geometry":{"type":"Point","coordinates":[-92.3910378824562,41.8741230849395]}},{"properties":{"PRESERVE":"Barry McGrew","CERVIDTYPE":"Elk","id":"a62d4bycyfpp","COUNTY":"TAMA"},"type":"Feature","geometry":{"type":"Point","coordinates":[-92.3910428319137,41.8741274973488]}},{"properties":{"PRESERVE":"Barry McGrew","CERVIDTYPE":"Deer","id":"a62d4bwu9zyv","COUNTY":"TAMA"},"type":"Feature","geometry":{"type":"Point","coordinates":[-92.3912160435932,41.8739489424253]}},{"properties":{"PRESERVE":"Barry McGrew","CERVIDTYPE":"","id":"a62d4bn6vc8n","COUNTY":"TAMA"},"type":"Feature","geometry":{"type":"Point","coordinates":[-92.3911812555466,41.8740000358749]}},{"properties":{"PRESERVE":"Barry McGrew","CERVIDTYPE":"Deer","id":"a62d4bs42fxy","COUNTY":"TAMA"},"type":"Feature","geometry":{"type":"Point","coordinates":[-92.3552990551306,41.9085725445581]}},{"properties":{"PRESERVE":"Bill Colwell","CERVIDTYPE":"","id":"a62d4bk3jyw5","COUNTY":"BLACK HAWK"},"type":"Feature","geometry":{"type":"Point","coordinates":[-92.4871316343361,42.5166514940773]}},{"properties":{"PRESERVE":"Bill Stanley","CERVIDTYPE":"","id":"a62d4brfhc6m","COUNTY":"POLK"},"type":"Feature","geometry":{"type":"Point","coordinates":[-93.4447118953889,41.6441696418317]}},{"properties":{"PRESERVE":"Bill Stanley","CERVIDTYPE":"Elk","id":"a62d4bonajj7","COUNTY":"POLK"},"type":"Feature","geometry":{"type":"Point","coordinates":[-93.4447956639869,41.6441693178308]}},{"properties":{"PRESERVE":"Black Eagle Elk Ranch","CERVIDTYPE":"Elk","id":"a62d4c088sk1","COUNTY":"BLACK HAWK"},"type":"Feature","geometry":{"type":"Point","coordinates":[-92.356146640582,42.3810682292087]}},{"properties":{"PRESERVE":"Bob &amp; Dave King","CERVIDTYPE":"","id":"a62d4bw7mnet","COUNTY":"FLOYD"},"type":"Feature","geometry":{"type":"Point","coordinates":[-92.7308933273169,43.1118751026478]}},{"properties":{"PRESERVE":"Bob Hitch","CERVIDTYPE":"Elk","id":"a62d4btja6s2","COUNTY":"TAYLOR"},"type":"Feature","geometry":{"type":"Point","coordinates":[-94.7526866376024,40.6345008482832]}},{"properties":{"PRESERVE":"Bob Hitch - JJ &amp; RR","CERVIDTYPE":"","id":"a62d4blk0ldd","COUNTY":"TAYLOR"},"type":"Feature","geometry":{"type":"Point","coordinates":[-94.7526725312114,40.6345151234628]}},{"properties":{"PRESERVE":"Bonnie Blanchard","CERVIDTYPE":"Deer","id":"a62d4btkrnvm","COUNTY":"DALLAS"},"type":"Feature","geometry":{"type":"Point","coordinates":[-94.1871397161772,41.580602231287]}},{"properties":{"PRESERVE":"Boone River Elk Farm","CERVIDTYPE":"Elk","id":"a62d4bmm4n0l","COUNTY":"HAMILTON"},"type":"Feature","geometry":{"type":"Point","coordinates":[-93.8139712997153,42.4771868932557]}},{"properties":{"PRESERVE":"Brad Erger","CERVIDTYPE":"Deer","id":"a62d4bw1nst4","COUNTY":"BUCHANAN"},"type":"Feature","geometry":{"type":"Point","coordinates":[-91.7787785591124,42.3437398977628]}},{"properties":{"PRESERVE":"Brian &amp; Linda McLaughlin","CERVIDTYPE":"","id":"a62d4bmecfbn","COUNTY":"DECATUR"},"type":"Feature","geometry":{"type":"Point","coordinates":[-93.7244575343728,40.7251159329876]}},{"properties":{"PRESERVE":"Brian McLaughlin","CERVIDTYPE":"Elk","id":"a62d4bps6ued","COUNTY":"DECATUR"},"type":"Feature","geometry":{"type":"Point","coordinates":[-93.7328159335328,40.694270442485]}},{"properties":{"PRESERVE":"Brian Michel","CERVIDTYPE":"Deer","id":"a62d4bkrb7e5","COUNTY":"WASHINGTON"},"type":"Feature","geometry":{"type":"Point","coordinates":[-91.5705116743236,41.4682735363841]}},{"properties":{"PRESERVE":"Brian Vinchattle","CERVIDTYPE":"Deer","id":"a62d4bq8ybkn","COUNTY":"WEBSTER"},"type":"Feature","geometry":{"type":"Point","coordinates":[-94.0555955639789,42.2546199617426]}},{"properties":{"PRESERVE":"Bruce &amp; Kris Quick","CERVIDTYPE":"Deer","id":"a62d4bksypnx","COUNTY":"RINGGOLD"},"type":"Feature","geometry":{"type":"Point","coordinates":[-94.1848914530327,40.8552192417615]}},{"properties":{"PRESERVE":"Bruce Hanson","CERVIDTYPE":"Elk","id":"a62d4bwkcr93","COUNTY":"KOSSUTH"},"type":"Feature","geometry":{"type":"Point","coordinates":[-94.0326779393073,43.0867136311231]}},{"properties":{"PRESERVE":"Bruce Hanson","CERVIDTYPE":"","id":"a62d4br4i94w","COUNTY":"KOSSUTH"},"type":"Feature","geometry":{"type":"Point","coordinates":[-94.0324741556065,43.0868158802401]}},{"properties":{"PRESERVE":"Bugle Ridge Elk Ranch","CERVIDTYPE":"Elk","id":"a62d4br80yt3","COUNTY":"MONROE"},"type":"Feature","geometry":{"type":"Point","coordinates":[-92.6957481127075,40.9391643791801]}},{"properties":{"PRESERVE":"Carl J. Eddy","CERVIDTYPE":"Deer","id":"a62d4bpquteu","COUNTY":"BUCHANAN"},"type":"Feature","geometry":{"type":"Point","coordinates":[-91.8208013642074,42.4327257386584]}},{"properties":{"PRESERVE":"Carroll County Coservation Board","CERVIDTYPE":"Deer","id":"a62d4bu1ccxl","COUNTY":"CARROLL"},"type":"Feature","geometry":{"type":"Point","coordinates":[-94.8573212423059,42.0856831673702]}},{"properties":{"PRESERVE":"Cedar River Elk Farm","CERVIDTYPE":"Elk","id":"a62d4bsfpqlp","COUNTY":"BLACK HAWK"},"type":"Feature","geometry":{"type":"Point","coordinates":[-92.1412066078504,42.3257067168025]}},{"properties":{"PRESERVE":"Cedar View Elk Ranch","CERVIDTYPE":"Elk","id":"a62d4bp0d3o6","COUNTY":"CLAYTON"},"type":"Feature","geometry":{"type":"Point","coordinates":[-91.4496681096444,42.902942312654]}},{"properties":{"PRESERVE":"Chad Machart","CERVIDTYPE":"Deer","id":"a62d4bqgas8w","COUNTY":"JONES"},"type":"Feature","geometry":{"type":"Point","coordinates":[-91.2854609412484,42.111291374037]}},{"properties":{"PRESERVE":"Charles Green","CERVIDTYPE":"Elk","id":"a62d4bw8b06i","COUNTY":"ADAIR"},"type":"Feature","geometry":{"type":"Point","coordinates":[-94.3955465339829,41.2111817656903]}},{"properties":{"PRESERVE":"Charlotte Gaylord","CERVIDTYPE":"Deer","id":"a62d4bxm788q","COUNTY":"LEE"},"type":"Feature","geometry":{"type":"Point","coordinates":[-91.3645608352784,40.630397485258]}},{"properties":{"PRESERVE":"Childers Farm","CERVIDTYPE":"Elk","id":"a62d4buh94es","COUNTY":"POLK"},"type":"Feature","geometry":{"type":"Point","coordinates":[-93.4826214728583,41.5840862326931]}},{"properties":{"PRESERVE":"Chuck Gross","CERVIDTYPE":"Elk","id":"a62d4bp15h6k","COUNTY":"POTTAWATTAMIE"},"type":"Feature","geometry":{"type":"Point","coordinates":[-95.203075897833,41.4391248787556]}},{"properties":{"PRESERVE":"Cindy Clingan","CERVIDTYPE":"Deer","id":"a62d4bzsai85","COUNTY":"KEOKUK"},"type":"Feature","geometry":{"type":"Point","coordinates":[-92.3528452648454,41.3808884597977]}},{"properties":{"PRESERVE":"Clare Hoven","CERVIDTYPE":"Elk","id":"a62d4bmvg58x","COUNTY":"MONROE"},"type":"Feature","geometry":{"type":"Point","coordinates":[-92.6957688348621,40.9391644335288]}},{"properties":{"PRESERVE":"Clayton County Conservation Board","CERVIDTYPE":"Deer","id":"a62d4bv8t9om","COUNTY":"CLAYTON"},"type":"Feature","geometry":{"type":"Point","coordinates":[-91.4408348354315,42.8387816739535]}},{"properties":{"PRESERVE":"Collora's Critters","CERVIDTYPE":"Deer","id":"a62d4bl7m5v1","COUNTY":"HENRY"},"type":"Feature","geometry":{"type":"Point","coordinates":[-91.569113810597,40.9609360010298]}},{"properties":{"PRESERVE":"Crawford County Conservation Board","CERVIDTYPE":"Deer","id":"a62d4bwuavnt","COUNTY":"CRAWFORD"},"type":"Feature","geometry":{"type":"Point","coordinates":[-95.4414701679805,42.0283307916788]}},{"properties":{"PRESERVE":"D &amp; J Antlered Acres","CERVIDTYPE":"Deer","id":"a62d4bs13edu","COUNTY":"LEE"},"type":"Feature","geometry":{"type":"Point","coordinates":[-91.3003334883875,40.7267686586387]}},{"properties":{"PRESERVE":"Dale &amp; Dean Olson","CERVIDTYPE":"Elk","id":"a62d4bl66a8c","COUNTY":"WINNESHIEK"},"type":"Feature","geometry":{"type":"Point","coordinates":[-91.7035707330883,43.2978231489704]}},{"properties":{"PRESERVE":"Dale Helgeland","CERVIDTYPE":"Deer","id":"a62d4bnacvtg","COUNTY":"WINNEBAGO"},"type":"Feature","geometry":{"type":"Point","coordinates":[-93.7595563184346,43.3066854049949]}},{"properties":{"PRESERVE":"Dan Ferber/Sam Metzger","CERVIDTYPE":"Elk","id":"a62d4bnxygu0","COUNTY":"ADAIR"},"type":"Feature","geometry":{"type":"Point","coordinates":[-94.4126445466269,41.2039821826468]}},{"properties":{"PRESERVE":"Dan Lonneman","CERVIDTYPE":"Elk","id":"a62d4bm6t9e3","COUNTY":"OSCEOLA"},"type":"Feature","geometry":{"type":"Point","coordinates":[-95.8415399546095,43.26536710827]}},{"properties":{"PRESERVE":"Dan Towers","CERVIDTYPE":"","id":"a62d4bwkhk6s","COUNTY":"GREENE"},"type":"Feature","geometry":{"type":"Point","coordinates":[-94.5682443770269,41.984119027944]}},{"properties":{"PRESERVE":"Dan Towers","CERVIDTYPE":"Elk","id":"a62d4btv9rlu","COUNTY":"GREENE"},"type":"Feature","geometry":{"type":"Point","coordinates":[-94.5700813206275,42.1183972921591]}},{"properties":{"PRESERVE":"Dark Horse Elk Ranch","CERVIDTYPE":"Elk","id":"a62d4bxz9cx6","COUNTY":"KOSSUTH"},"type":"Feature","geometry":{"type":"Point","coordinates":[-94.0083402486607,43.4302892759929]}},{"properties":{"PRESERVE":"Darrell Gutz","CERVIDTYPE":"Deer","id":"a62d4br1hy5r","COUNTY":"CALHOUN"},"type":"Feature","geometry":{"type":"Point","coordinates":[-94.6321259993265,42.5170116477905]}},{"properties":{"PRESERVE":"Darrell Rhoades","CERVIDTYPE":"Elk","id":"a62d4bkikxz1","COUNTY":"WAPELLO"},"type":"Feature","geometry":{"type":"Point","coordinates":[-92.3490290616711,40.9409192753327]}},{"properties":{"PRESERVE":"Darwin Ruehlow","CERVIDTYPE":"Elk","id":"a62d4bo57ymm","COUNTY":"MITCHELL"},"type":"Feature","geometry":{"type":"Point","coordinates":[-92.7910814395139,43.2982373009524]}},{"properties":{"PRESERVE":"Darwin Ruehlow","CERVIDTYPE":"","id":"a62d4bl6fp7p","COUNTY":"MITCHELL"},"type":"Feature","geometry":{"type":"Point","coordinates":[-92.7910544901264,43.2982568859076]}},{"properties":{"PRESERVE":"Dave Plotz","CERVIDTYPE":"Deer","id":"a62d4btzp139","COUNTY":"IOWA"},"type":"Feature","geometry":{"type":"Point","coordinates":[-92.0961387144861,41.7859224298497]}},{"properties":{"PRESERVE":"David Hill","CERVIDTYPE":"Deer","id":"a62d4bqzpbdd","COUNTY":"BUCHANAN"},"type":"Feature","geometry":{"type":"Point","coordinates":[-91.8329085012841,42.4299918594901]}},{"properties":{"PRESERVE":"David Hosch","CERVIDTYPE":"Deer","id":"a62d4bo02fgi","COUNTY":"JONES"},"type":"Feature","geometry":{"type":"Point","coordinates":[-91.1034216719819,42.2241871671016]}},{"properties":{"PRESERVE":"David King","CERVIDTYPE":"Elk","id":"a62d4brg3cxj","COUNTY":"FLOYD"},"type":"Feature","geometry":{"type":"Point","coordinates":[-92.7308991388405,43.1118553782038]}},{"properties":{"PRESERVE":"David L. Smith","CERVIDTYPE":"Elk","id":"a62d4bng5qda","COUNTY":"HARDIN"},"type":"Feature","geometry":{"type":"Point","coordinates":[-93.2623592013285,42.5035854908439]}},{"properties":{"PRESERVE":"David Wilhelmi","CERVIDTYPE":"Deer","id":"a62d4bkqyav3","COUNTY":"LINN"},"type":"Feature","geometry":{"type":"Point","coordinates":[-91.7653538763706,42.1793861717475]}},{"properties":{"PRESERVE":"Dean Isaacson","CERVIDTYPE":"Elk","id":"a62d4blyojll","COUNTY":"BOONE"},"type":"Feature","geometry":{"type":"Point","coordinates":[-93.832367186975,41.868763985402]}},{"properties":{"PRESERVE":"Dean Ryherd","CERVIDTYPE":"Deer","id":"a62d4bm2t5ff","COUNTY":"TAMA"},"type":"Feature","geometry":{"type":"Point","coordinates":[-92.7072986748657,42.1668816066475]}},{"properties":{"PRESERVE":"Deb Bailey","CERVIDTYPE":"Deer","id":"a62d4bniw7bt","COUNTY":"CLAYTON"},"type":"Feature","geometry":{"type":"Point","coordinates":[-91.2841850639304,42.7480394323019]}},{"properties":{"PRESERVE":"Delaware County Conservation Board","CERVIDTYPE":"Deer","id":"a62d4blo9wym","COUNTY":"MADISON"},"type":"Feature","geometry":{"type":"Point","coordinates":[-93.844444704467,41.2056904604118]}},{"properties":{"PRESERVE":"Delbert  Lindstrom","CERVIDTYPE":"","id":"a62d4bxso62f","COUNTY":"HOWARD"},"type":"Feature","geometry":{"type":"Point","coordinates":[-92.1414523993232,43.3862399794075]}},{"properties":{"PRESERVE":"Delbert Lindstrom","CERVIDTYPE":"Elk","id":"a62d4bws9p4x","COUNTY":"HOWARD"},"type":"Feature","geometry":{"type":"Point","coordinates":[-92.1414520370989,43.3862656086193]}},{"properties":{"PRESERVE":"Denise Smith","CERVIDTYPE":"Deer","id":"a62d4bxj3gif","COUNTY":"MUSCATINE"},"type":"Feature","geometry":{"type":"Point","coordinates":[-91.3046730888091,41.4833444558618]}},{"properties":{"PRESERVE":"Dennis &amp; Nancy Osborn","CERVIDTYPE":"Deer","id":"a62d4bqz4xwa","COUNTY":"BLACK HAWK"},"type":"Feature","geometry":{"type":"Point","coordinates":[-92.493456880812,42.6349739792132]}},{"properties":{"PRESERVE":"Dennis Ciavarelli","CERVIDTYPE":"Elk","id":"a62d4bzd5fzv","COUNTY":"MITCHELL"},"type":"Feature","geometry":{"type":"Point","coordinates":[-92.7292634225625,43.4279493626955]}},{"properties":{"PRESERVE":"Dennis Ciaveralli","CERVIDTYPE":"","id":"a62d4bs9qhkj","COUNTY":"MITCHELL"},"type":"Feature","geometry":{"type":"Point","coordinates":[-92.7293105851075,43.4279494748885]}},{"properties":{"PRESERVE":"Dennis Cooper","CERVIDTYPE":"Deer","id":"a62d4bvwonq0","COUNTY":"MONTGOMERY"},"type":"Feature","geometry":{"type":"Point","coordinates":[-94.9847488665509,40.9906431978903]}},{"properties":{"PRESERVE":"Dennis Weaver","CERVIDTYPE":"Deer","id":"a62d4brm2adp","COUNTY":"FAYETTE"},"type":"Feature","geometry":{"type":"Point","coordinates":[-91.8826903369631,42.7010793931958]}},{"properties":{"PRESERVE":"Deo Gloria Elk Ranch","CERVIDTYPE":"Elk","id":"a62d4blkm9kz","COUNTY":"MAHASKA"},"type":"Feature","geometry":{"type":"Point","coordinates":[-92.6703936811581,41.48177743262]}},{"properties":{"PRESERVE":"Dick Heiken","CERVIDTYPE":"Deer","id":"a62d4by3t5af","COUNTY":"WARREN"},"type":"Feature","geometry":{"type":"Point","coordinates":[-93.5965310971597,41.4602601538847]}},{"properties":{"PRESERVE":"Don &amp; Phyllis Childers","CERVIDTYPE":"","id":"a62d4btqs5qu","COUNTY":"POLK"},"type":"Feature","geometry":{"type":"Point","coordinates":[-93.4826287438356,41.5840847528691]}},{"properties":{"PRESERVE":"Don Berg","CERVIDTYPE":"Elk","id":"a62d4bv3e6jp","COUNTY":"WAPELLO"},"type":"Feature","geometry":{"type":"Point","coordinates":[-92.3457637726905,41.0429977626228]}},{"properties":{"PRESERVE":"Don Childers","CERVIDTYPE":"Elk","id":"a62d4bvac0lj","COUNTY":"POLK"},"type":"Feature","geometry":{"type":"Point","coordinates":[-93.4824840886165,41.5840868091308]}},{"properties":{"PRESERVE":"Donald &amp; Ronette Silver","CERVIDTYPE":"Deer","id":"a62d4bmpoy7a","COUNTY":"LINN"},"type":"Feature","geometry":{"type":"Point","coordinates":[-91.4815218764891,42.170048654863]}},{"properties":{"PRESERVE":"Donald Huebner","CERVIDTYPE":"Deer","id":"a62d4bp1z8yb","COUNTY":"LEE"},"type":"Feature","geometry":{"type":"Point","coordinates":[-91.3649993335526,40.6304036910257]}},{"properties":{"PRESERVE":"Donald Stevens","CERVIDTYPE":"Deer","id":"a62d4bmwvl73","COUNTY":"JEFFERSON"},"type":"Feature","geometry":{"type":"Point","coordinates":[-92.0473535577737,40.9622194330913]}},{"properties":{"PRESERVE":"Douglas Pagel","CERVIDTYPE":"Deer","id":"a62d4bml49q4","COUNTY":"FAYETTE"},"type":"Feature","geometry":{"type":"Point","coordinates":[-92.0221724984193,42.8207257463713]}},{"properties":{"PRESERVE":"Doyle Ruth","CERVIDTYPE":"Elk","id":"a62d4bua3mcm","COUNTY":"ADAIR"},"type":"Feature","geometry":{"type":"Point","coordinates":[-94.4167855172613,41.2032123640606]}},{"properties":{"PRESERVE":"Dwayne Eilers &amp; Karen Baethke","CERVIDTYPE":"Deer","id":"a62d4bu5my9u","COUNTY":"BLACK HAWK"},"type":"Feature","geometry":{"type":"Point","coordinates":[-92.280614369886,42.5572676468087]}},{"properties":{"PRESERVE":"East Fork Elk Ranch","CERVIDTYPE":"Elk","id":"a62d4bxegefz","COUNTY":"EMMET"},"type":"Feature","geometry":{"type":"Point","coordinates":[-94.5499336542566,43.4104761385338]}},{"properties":{"PRESERVE":"Eddie Schuver","CERVIDTYPE":"Deer","id":"a62d4bknqczg","COUNTY":"HANCOCK"},"type":"Feature","geometry":{"type":"Point","coordinates":[-93.5561147455709,42.9516647562037]}},{"properties":{"PRESERVE":"Edward Brehm","CERVIDTYPE":"Deer","id":"a62d4bkxmxg3","COUNTY":"DUBUQUE"},"type":"Feature","geometry":{"type":"Point","coordinates":[-90.6648114678395,42.5009414144307]}},{"properties":{"PRESERVE":"Eric Aleksich","CERVIDTYPE":"Deer","id":"a62d4bm073sl","COUNTY":"WEBSTER"},"type":"Feature","geometry":{"type":"Point","coordinates":[-93.9961249992733,42.3395152484999]}},{"properties":{"PRESERVE":"Fayette County Conservation Board","CERVIDTYPE":"Deer","id":"a62d4bw77jg9","COUNTY":"FAYETTE"},"type":"Feature","geometry":{"type":"Point","coordinates":[-91.8388665481242,42.8639892524495]}},{"properties":{"PRESERVE":"Frank Abben","CERVIDTYPE":"Deer","id":"a62d4bm3auwu","COUNTY":"JONES"},"type":"Feature","geometry":{"type":"Point","coordinates":[-91.2820307144993,42.1109199670594]}},{"properties":{"PRESERVE":"Frank Blaine","CERVIDTYPE":"Elk","id":"a62d4bwt9ce9","COUNTY":"KEOKUK"},"type":"Feature","geometry":{"type":"Point","coordinates":[-92.3484756173889,41.2157010947357]}},{"properties":{"PRESERVE":"Frank Reitsma","CERVIDTYPE":"Elk","id":"a62d4bt3q8ge","COUNTY":"MAHASKA"},"type":"Feature","geometry":{"type":"Point","coordinates":[-92.6787284203071,41.4915142021481]}},{"properties":{"PRESERVE":"Fred Huebner","CERVIDTYPE":"Deer","id":"a62d4boa7kkg","COUNTY":"KEOKUK"},"type":"Feature","geometry":{"type":"Point","coordinates":[-92.0371161194269,41.4965427116494]}},{"properties":{"PRESERVE":"Frederick C. Huebner","CERVIDTYPE":"Deer","id":"a62d4bz7hb1q","COUNTY":"KEOKUK"},"type":"Feature","geometry":{"type":"Point","coordinates":[-92.0371161194269,41.4965427116494]}},{"properties":{"PRESERVE":"Frederick Huebner","CERVIDTYPE":"Deer","id":"a62d4bsb4xcp","COUNTY":"KEOKUK"},"type":"Feature","geometry":{"type":"Point","coordinates":[-92.1195190523579,41.4714056846982]}},{"properties":{"PRESERVE":"Garrels Elk Farm","CERVIDTYPE":"Elk","id":"a62d4buvan0c","COUNTY":"HENRY"},"type":"Feature","geometry":{"type":"Point","coordinates":[-91.5106392641647,40.9705736856358]}},{"properties":{"PRESERVE":"Gary Barrett","CERVIDTYPE":"Elk","id":"a62d4bsr1kfh","COUNTY":"EMMET"},"type":"Feature","geometry":{"type":"Point","coordinates":[-94.5505232349858,43.4104681446861]}},{"properties":{"PRESERVE":"Gary Blazek","CERVIDTYPE":"","id":"a62d4brt7yap","COUNTY":"ADAMS"},"type":"Feature","geometry":{"type":"Point","coordinates":[-94.5696599278701,41.0308829656034]}},{"properties":{"PRESERVE":"Gary Blazek","CERVIDTYPE":"Elk","id":"a62d4bued54v","COUNTY":"ADAMS"},"type":"Feature","geometry":{"type":"Point","coordinates":[-94.5702209636994,41.0305885564442]}},{"properties":{"PRESERVE":"Gary Meinders","CERVIDTYPE":"Elk","id":"a62d4bort2w4","COUNTY":"KOSSUTH"},"type":"Feature","geometry":{"type":"Point","coordinates":[-94.0086767001617,43.2854716953461]}},{"properties":{"PRESERVE":"Gary Schnitzler","CERVIDTYPE":"Elk","id":"a62d4bsi0r4k","COUNTY":"WINNESHIEK"},"type":"Feature","geometry":{"type":"Point","coordinates":[-91.8893701137789,43.4408796572679]}},{"properties":{"PRESERVE":"Gary Van Dyke","CERVIDTYPE":"Deer","id":"a62d4bzlo9uu","COUNTY":"KEOKUK"},"type":"Feature","geometry":{"type":"Point","coordinates":[-92.1191795301373,41.2034638956741]}},{"properties":{"PRESERVE":"Gary Yawn","CERVIDTYPE":"Elk","id":"a62d4bqoewyg","COUNTY":"WARREN"},"type":"Feature","geometry":{"type":"Point","coordinates":[-93.7746095742739,41.1834613143188]}},{"properties":{"PRESERVE":"Gaylan D. Carpenter","CERVIDTYPE":"Deer","id":"a62d4byla836","COUNTY":"BREMER"},"type":"Feature","geometry":{"type":"Point","coordinates":[-92.4302448021175,42.7874270241717]}},{"properties":{"PRESERVE":"Gene Benischek","CERVIDTYPE":"Deer","id":"a62d4br88qib","COUNTY":"JACKSON"},"type":"Feature","geometry":{"type":"Point","coordinates":[-90.8505557120238,42.079169281549]}},{"properties":{"PRESERVE":"George Burrell","CERVIDTYPE":"Deer","id":"a62d4bw9ir1y","COUNTY":"IOWA"},"type":"Feature","geometry":{"type":"Point","coordinates":[-92.0956661272397,41.7859187195539]}},{"properties":{"PRESERVE":"Gerald Slessor","CERVIDTYPE":"Deer","id":"a62d4bqaizuz","COUNTY":"CHICKASAW"},"type":"Feature","geometry":{"type":"Point","coordinates":[-92.4934153444615,42.9505470072053]}},{"properties":{"PRESERVE":"Greg Kenyon","CERVIDTYPE":"Elk","id":"a62d4bwqhcce","COUNTY":"GUTHRIE"},"type":"Feature","geometry":{"type":"Point","coordinates":[-94.6293304260882,41.7209322410316]}},{"properties":{"PRESERVE":"Hanke's Elk R Us","CERVIDTYPE":"Elk","id":"a62d4btshjmy","COUNTY":"MITCHELL"},"type":"Feature","geometry":{"type":"Point","coordinates":[-92.6838975191197,43.417006615507]}},{"properties":{"PRESERVE":"Harold Bruns","CERVIDTYPE":"Deer","id":"a62d4bppcmdj","COUNTY":"LEE"},"type":"Feature","geometry":{"type":"Point","coordinates":[-91.1982359548496,40.6848312850825]}},{"properties":{"PRESERVE":"Harold Cubbage","CERVIDTYPE":"Elk","id":"a62d4bpubxsm","COUNTY":"JEFFERSON"},"type":"Feature","geometry":{"type":"Point","coordinates":[-92.132530313687,40.9230276964812]}},{"properties":{"PRESERVE":"Harold Lindaman","CERVIDTYPE":"Deer","id":"a62d4bqe1857","COUNTY":"GRUNDY"},"type":"Feature","geometry":{"type":"Point","coordinates":[-92.9530364803205,42.469872497279]}},{"properties":{"PRESERVE":"Henry Bohlen","CERVIDTYPE":"Elk","id":"a62d4bzy5wol","COUNTY":"DES MOINES"},"type":"Feature","geometry":{"type":"Point","coordinates":[-91.1971003382652,40.8364477756962]}},{"properties":{"PRESERVE":"Herb Dols","CERVIDTYPE":"","id":"a62d4bnuhvyq","COUNTY":"DALLAS"},"type":"Feature","geometry":{"type":"Point","coordinates":[-94.1887447629988,41.5806393296452]}},{"properties":{"PRESERVE":"Herb Dols","CERVIDTYPE":"Elk","id":"a62d4bqqt6au","COUNTY":"DALLAS"},"type":"Feature","geometry":{"type":"Point","coordinates":[-94.1887299861434,41.5806178830873]}},{"properties":{"PRESERVE":"Herbert Wendling","CERVIDTYPE":"Deer","id":"a62d4bwp0e10","COUNTY":"BUCHANAN"},"type":"Feature","geometry":{"type":"Point","coordinates":[-91.8314354918787,42.4314057902364]}},{"properties":{"PRESERVE":"Hitaga Winds Inc.","CERVIDTYPE":"Elk","id":"a62d4bkf60c8","COUNTY":"LINN"},"type":"Feature","geometry":{"type":"Point","coordinates":[-91.772544677191,42.2495685575106]}},{"properties":{"PRESERVE":"Hoven's Haven Elk Farm","CERVIDTYPE":"Elk","id":"a62d4bmxhi7s","COUNTY":"MONROE"},"type":"Feature","geometry":{"type":"Point","coordinates":[-92.6989338168406,40.9670975680835]}},{"properties":{"PRESERVE":"Howard &amp; Eric Myers","CERVIDTYPE":"Elk","id":"a62d4bm1bc9g","COUNTY":"HAMILTON"},"type":"Feature","geometry":{"type":"Point","coordinates":[-93.8140372974647,42.4771864232062]}},{"properties":{"PRESERVE":"Howard County Conservation Board","CERVIDTYPE":"Deer","id":"a62d4box5iyb","COUNTY":"HOWARD"},"type":"Feature","geometry":{"type":"Point","coordinates":[-92.1322123130275,43.3772350111664]}},{"properties":{"PRESERVE":"Howard Goettsch","CERVIDTYPE":"Deer","id":"a62d4bmqyppu","COUNTY":"SCOTT"},"type":"Feature","geometry":{"type":"Point","coordinates":[-90.6233638461918,41.7226229559494]}},{"properties":{"PRESERVE":"Irv Behnke","CERVIDTYPE":"Deer","id":"a62d4braqsuw","COUNTY":"DUBUQUE"},"type":"Feature","geometry":{"type":"Point","coordinates":[-90.7023499759614,42.4619834795261]}},{"properties":{"PRESERVE":"Ivan Eden","CERVIDTYPE":"Deer","id":"a62d4bwn5izb","COUNTY":"JONES"},"type":"Feature","geometry":{"type":"Point","coordinates":[-91.0728290250215,42.0804640956386]}},{"properties":{"PRESERVE":"JJ &amp; RR Farms","CERVIDTYPE":"Elk","id":"a62d4bwbali8","COUNTY":"TAYLOR"},"type":"Feature","geometry":{"type":"Point","coordinates":[-94.7526664302882,40.6345168687086]}},{"properties":{"PRESERVE":"James Becker","CERVIDTYPE":"Deer","id":"a62d4brsobb0","COUNTY":"LINN"},"type":"Feature","geometry":{"type":"Point","coordinates":[-91.7649704152243,42.1807119976512]}},{"properties":{"PRESERVE":"James Carter","CERVIDTYPE":"Deer","id":"a62d4bjzu4wz","COUNTY":"KEOKUK"},"type":"Feature","geometry":{"type":"Point","coordinates":[-92.1792064171801,41.333709012271]}},{"properties":{"PRESERVE":"James Jorgensen","CERVIDTYPE":"Deer","id":"a62d4bn1helh","COUNTY":"HANCOCK"},"type":"Feature","geometry":{"type":"Point","coordinates":[-93.5532303606942,43.1739972428827]}},{"properties":{"PRESERVE":"James Stauffer","CERVIDTYPE":"Deer","id":"a62d4bpgxv43","COUNTY":"BUTLER"},"type":"Feature","geometry":{"type":"Point","coordinates":[-92.6413399629537,42.8442600343791]}},{"properties":{"PRESERVE":"Jason Hubbage","CERVIDTYPE":"Elk","id":"a62d4c07cbvg","COUNTY":"JEFFERSON"},"type":"Feature","geometry":{"type":"Point","coordinates":[-91.880568811046,40.9047715944765]}},{"properties":{"PRESERVE":"Jason Wegner","CERVIDTYPE":"Deer","id":"a62d4bpabxcq","COUNTY":"CHICKASAW"},"type":"Feature","geometry":{"type":"Point","coordinates":[-92.3176603130037,43.0589786231066]}},{"properties":{"PRESERVE":"Jeff &amp; Linda Wilson","CERVIDTYPE":"Deer","id":"a62d4bw254l3","COUNTY":"LINN"},"type":"Feature","geometry":{"type":"Point","coordinates":[-91.391444012671,41.9212535165534]}},{"properties":{"PRESERVE":"Jeff &amp; Peni Tussey","CERVIDTYPE":"Elk","id":"a62d4bmbwu87","COUNTY":"ADAIR"},"type":"Feature","geometry":{"type":"Point","coordinates":[-94.2504284709345,41.1572365004265]}},{"properties":{"PRESERVE":"Jeff &amp; Penny Tussey","CERVIDTYPE":"","id":"a62d4bykkdyf","COUNTY":"ADAIR"},"type":"Feature","geometry":{"type":"Point","coordinates":[-94.2502198860239,41.1573987421464]}},{"properties":{"PRESERVE":"Jeff Brimeyer","CERVIDTYPE":"Deer","id":"a62d4bpkouyu","COUNTY":"SCOTT"},"type":"Feature","geometry":{"type":"Point","coordinates":[-90.3974979555768,41.6234219356944]}},{"properties":{"PRESERVE":"Jeff Fritz","CERVIDTYPE":"Deer","id":"a62d4bjuete1","COUNTY":"JEFFERSON"},"type":"Feature","geometry":{"type":"Point","coordinates":[-91.8169520275208,41.1373145789719]}},{"properties":{"PRESERVE":"Jeff Helvick","CERVIDTYPE":"Elk","id":"a62d4bo2a5as","COUNTY":"HUMBOLDT"},"type":"Feature","geometry":{"type":"Point","coordinates":[-94.1577659357079,42.8447434931376]}},{"properties":{"PRESERVE":"Jeff Shipley","CERVIDTYPE":"Elk","id":"a62d4bnipg67","COUNTY":"KEOKUK"},"type":"Feature","geometry":{"type":"Point","coordinates":[-92.1726027168929,41.3251997929687]}},{"properties":{"PRESERVE":"Jeff Williams","CERVIDTYPE":"Deer","id":"a62d4blintjb","COUNTY":"LINN"},"type":"Feature","geometry":{"type":"Point","coordinates":[-91.7739757834759,42.2523793683768]}},{"properties":{"PRESERVE":"Jerramy Paxton","CERVIDTYPE":"Elk","id":"a62d4bos6cj4","COUNTY":"KEOKUK"},"type":"Feature","geometry":{"type":"Point","coordinates":[-92.1590366583162,41.1990168907176]}},{"properties":{"PRESERVE":"Jerry Greiner","CERVIDTYPE":"Deer","id":"a62d4bv0z2hs","COUNTY":"WASHINGTON"},"type":"Feature","geometry":{"type":"Point","coordinates":[-91.7638836777664,41.3319589053491]}},{"properties":{"PRESERVE":"Jim &amp; Duane Bosier","CERVIDTYPE":"Elk","id":"a62d4bqrscq9","COUNTY":"BLACK HAWK"},"type":"Feature","geometry":{"type":"Point","coordinates":[-92.3563797647005,42.3810695351856]}},{"properties":{"PRESERVE":"Jim Conger","CERVIDTYPE":"Elk","id":"a62d4bufc2hp","COUNTY":"KEOKUK"},"type":"Feature","geometry":{"type":"Point","coordinates":[-92.1172215588333,41.2113711247761]}},{"properties":{"PRESERVE":"Jim Hoven","CERVIDTYPE":"Elk","id":"a62d4btvbq6p","COUNTY":"MONROE"},"type":"Feature","geometry":{"type":"Point","coordinates":[-92.6989546192015,40.9670819083357]}},{"properties":{"PRESERVE":"Jim Keiser","CERVIDTYPE":"Elk","id":"a62d4byo0zmk","COUNTY":"IOWA"},"type":"Feature","geometry":{"type":"Point","coordinates":[-92.08588826067,41.7819019442232]}},{"properties":{"PRESERVE":"Jim Kerndt","CERVIDTYPE":"Deer","id":"a62d4buh4baj","COUNTY":"ALLAMAKEE"},"type":"Feature","geometry":{"type":"Point","coordinates":[-91.3553514644634,43.3911136737011]}},{"properties":{"PRESERVE":"Jo Hull","CERVIDTYPE":"Elk","id":"a62d4by6beyq","COUNTY":"BOONE"},"type":"Feature","geometry":{"type":"Point","coordinates":[-93.8207397148709,42.1273110212073]}},{"properties":{"PRESERVE":"Jody Grant","CERVIDTYPE":"Deer","id":"a62d4bxzerhx","COUNTY":"CERRO GORDO"},"type":"Feature","geometry":{"type":"Point","coordinates":[-93.4385405636897,42.9967625182144]}},{"properties":{"PRESERVE":"Joe Kramer","CERVIDTYPE":"Deer","id":"a62d4bkrad52","COUNTY":"SHELBY"},"type":"Feature","geometry":{"type":"Point","coordinates":[-95.2678036265763,41.6057331425258]}},{"properties":{"PRESERVE":"Joe Meder","CERVIDTYPE":"Deer","id":"a62d4bli2ad9","COUNTY":"JOHNSON"},"type":"Feature","geometry":{"type":"Point","coordinates":[-91.4837841097834,41.8189561331644]}},{"properties":{"PRESERVE":"Joe Raschendorfer","CERVIDTYPE":"Deer","id":"a62d4brx5u9q","COUNTY":"DES MOINES"},"type":"Feature","geometry":{"type":"Point","coordinates":[-91.1995937776119,40.8115918137636]}},{"properties":{"PRESERVE":"John B. DeMuth","CERVIDTYPE":"Deer","id":"a62d4bzwyq52","COUNTY":"BUCHANAN"},"type":"Feature","geometry":{"type":"Point","coordinates":[-91.8207946558475,42.4330829072467]}},{"properties":{"PRESERVE":"John Bauer","CERVIDTYPE":"Deer","id":"a62d4bsy5d4v","COUNTY":"DUBUQUE"},"type":"Feature","geometry":{"type":"Point","coordinates":[-90.9578910721042,42.6019946041145]}},{"properties":{"PRESERVE":"John Duehr","CERVIDTYPE":"Deer","id":"a62d4byd8a4z","COUNTY":"ALLAMAKEE"},"type":"Feature","geometry":{"type":"Point","coordinates":[-91.3127176566458,43.1599577949688]}},{"properties":{"PRESERVE":"John Duehr","CERVIDTYPE":"Elk","id":"a62d4bwtke9i","COUNTY":"ALLAMAKEE"},"type":"Feature","geometry":{"type":"Point","coordinates":[-91.3125008549558,43.159954598492]}},{"properties":{"PRESERVE":"Joseph Frederick","CERVIDTYPE":"Deer","id":"a62d4bkdl5ez","COUNTY":"DUBUQUE"},"type":"Feature","geometry":{"type":"Point","coordinates":[-90.8377861375578,42.515669121098]}},{"properties":{"PRESERVE":"Joseph Loomis","CERVIDTYPE":"Deer","id":"a62d4bx6a3pp","COUNTY":"MONONA"},"type":"Feature","geometry":{"type":"Point","coordinates":[-95.7848075446439,41.9086122749955]}},{"properties":{"PRESERVE":"Judi &amp; Sam Collora","CERVIDTYPE":"Deer","id":"a62d4bzjw4x1","COUNTY":"HENRY"},"type":"Feature","geometry":{"type":"Point","coordinates":[-91.5872731941013,40.9583268951159]}},{"properties":{"PRESERVE":"K &amp; M Ranch, Inc","CERVIDTYPE":"Elk","id":"a62d4bsb3t8r","COUNTY":"DECATUR"},"type":"Feature","geometry":{"type":"Point","coordinates":[-93.7332285525931,40.6942678162556]}},{"properties":{"PRESERVE":"K M Ranch","CERVIDTYPE":"","id":"a62d4brylllv","COUNTY":"DECATUR"},"type":"Feature","geometry":{"type":"Point","coordinates":[-93.7332334372704,40.6942682387182]}},{"properties":{"PRESERVE":"Karl Lundgren","CERVIDTYPE":"Deer","id":"a62d4bs2cd84","COUNTY":"MONTGOMERY"},"type":"Feature","geometry":{"type":"Point","coordinates":[-95.2505166650339,40.9832765616797]}},{"properties":{"PRESERVE":"Keiser Elk Farm","CERVIDTYPE":"Elk","id":"a62d4byjtgm5","COUNTY":"IOWA"},"type":"Feature","geometry":{"type":"Point","coordinates":[-92.0858244036496,41.7819014373072]}},{"properties":{"PRESERVE":"Ken Johanningmeier","CERVIDTYPE":"Deer","id":"a62d4by47ztd","COUNTY":"CLAYTON"},"type":"Feature","geometry":{"type":"Point","coordinates":[-91.1995908708828,42.8885786035129]}},{"properties":{"PRESERVE":"Ken Paxton","CERVIDTYPE":"Elk","id":"a62d4bvu7qe2","COUNTY":"KEOKUK"},"type":"Feature","geometry":{"type":"Point","coordinates":[-92.1588616655542,41.198977741956]}},{"properties":{"PRESERVE":"Kendall Thedens","CERVIDTYPE":"","id":"a62d4bq8c4j0","COUNTY":"BUCHANAN"},"type":"Feature","geometry":{"type":"Point","coordinates":[-91.8698646399281,42.320991176371]}},{"properties":{"PRESERVE":"Kendall Thedens","CERVIDTYPE":"Elk","id":"a62d4bv21n5c","COUNTY":"BUCHANAN"},"type":"Feature","geometry":{"type":"Point","coordinates":[-91.8698657660682,42.3209283606486]}},{"properties":{"PRESERVE":"Kenneth Caylor","CERVIDTYPE":"Deer","id":"a62d4bxxkpp4","COUNTY":"LUCAS"},"type":"Feature","geometry":{"type":"Point","coordinates":[-93.3109435630035,41.0224103114434]}},{"properties":{"PRESERVE":"Kenneth E. Caylor","CERVIDTYPE":"Deer","id":"a62d4bor4843","COUNTY":"LUCAS"},"type":"Feature","geometry":{"type":"Point","coordinates":[-93.3296504512422,41.0049984521096]}},{"properties":{"PRESERVE":"Kenneth McLaughlin","CERVIDTYPE":"Elk","id":"a62d4blci470","COUNTY":"DECATUR"},"type":"Feature","geometry":{"type":"Point","coordinates":[-93.7332538924969,40.6942676549246]}},{"properties":{"PRESERVE":"Kenneth Pieper","CERVIDTYPE":"Deer","id":"a62d4brm5bhl","COUNTY":"ADAIR"},"type":"Feature","geometry":{"type":"Point","coordinates":[-94.3505273972214,41.4300777247524]}},{"properties":{"PRESERVE":"Kenny Johaningmier","CERVIDTYPE":"Elk","id":"a62d4bsbmssb","COUNTY":"CLAYTON"},"type":"Feature","geometry":{"type":"Point","coordinates":[-91.2381529122653,42.9269689978889]}},{"properties":{"PRESERVE":"Kevin Koster","CERVIDTYPE":"Elk","id":"a62d4bobijd0","COUNTY":"MITCHELL"},"type":"Feature","geometry":{"type":"Point","coordinates":[-92.8497818222113,43.4196966799039]}},{"properties":{"PRESERVE":"Kevin Massmann","CERVIDTYPE":"Deer","id":"a62d4bzbsx8l","COUNTY":"OBRIEN"},"type":"Feature","geometry":{"type":"Point","coordinates":[-95.7435909404103,42.9566357217171]}},{"properties":{"PRESERVE":"Kim Culbertson","CERVIDTYPE":"Elk","id":"a62d4buwqn6u","COUNTY":"DUBUQUE"},"type":"Feature","geometry":{"type":"Point","coordinates":[-90.8018018879163,42.601247298914]}},{"properties":{"PRESERVE":"King's Nature Ranch","CERVIDTYPE":"Elk","id":"a62d4bpbs6p2","COUNTY":"FLOYD"},"type":"Feature","geometry":{"type":"Point","coordinates":[-92.7308640385942,43.1118809296275]}},{"properties":{"PRESERVE":"LaVerne Westercamp","CERVIDTYPE":"Deer","id":"a62d4btxmuog","COUNTY":"VAN BUREN"},"type":"Feature","geometry":{"type":"Point","coordinates":[-91.7204272046757,40.6196930159864]}},{"properties":{"PRESERVE":"Laboratory Animal Resources","CERVIDTYPE":"Deer","id":"a62d4bpfu2zv","COUNTY":"STORY"},"type":"Feature","geometry":{"type":"Point","coordinates":[-93.6197078532725,42.0354223345761]}},{"properties":{"PRESERVE":"Larry Baker","CERVIDTYPE":"Deer","id":"a62d4bv1x8ki","COUNTY":"PALO ALTO"},"type":"Feature","geometry":{"type":"Point","coordinates":[-94.6414662359886,42.9553480761635]}},{"properties":{"PRESERVE":"Larry Bryan","CERVIDTYPE":"Deer","id":"a62d4brncs66","COUNTY":"ADAIR"},"type":"Feature","geometry":{"type":"Point","coordinates":[-94.3498170395703,41.4385276553065]}},{"properties":{"PRESERVE":"Larry Hamor, Jr.","CERVIDTYPE":"Deer","id":"a62d4bn6z4ea","COUNTY":"TAMA"},"type":"Feature","geometry":{"type":"Point","coordinates":[-92.5360495138134,41.9231143991136]}},{"properties":{"PRESERVE":"Larry Schwennen","CERVIDTYPE":"Deer","id":"a62d4brfyhjo","COUNTY":"BUCHANAN"},"type":"Feature","geometry":{"type":"Point","coordinates":[-91.8314354918787,42.4314057902364]}},{"properties":{"PRESERVE":"Larry Stark","CERVIDTYPE":"Deer","id":"a62d4bove687","COUNTY":"HAMILTON"},"type":"Feature","geometry":{"type":"Point","coordinates":[-93.8343441045315,42.4742856292757]}},{"properties":{"PRESERVE":"Larry Usher","CERVIDTYPE":"","id":"a62d4bk05cy5","COUNTY":"CHICKASAW"},"type":"Feature","geometry":{"type":"Point","coordinates":[-92.4922376755053,43.0339467070451]}},{"properties":{"PRESERVE":"Larry Usher","CERVIDTYPE":"Elk","id":"a62d4bzv4rlp","COUNTY":"CHICKASAW"},"type":"Feature","geometry":{"type":"Point","coordinates":[-92.4922301079641,43.0339482568889]}},{"properties":{"PRESERVE":"Larry Usher","CERVIDTYPE":"Deer","id":"a62d4bs3arp5","COUNTY":"CHICKASAW"},"type":"Feature","geometry":{"type":"Point","coordinates":[-92.4922376769475,43.0339467003651]}},{"properties":{"PRESERVE":"Lawrence &amp; Karen Schminke","CERVIDTYPE":"","id":"a62d4bmk4sbh","COUNTY":"HAMILTON"},"type":"Feature","geometry":{"type":"Point","coordinates":[-93.8328246641662,42.2683042581568]}},{"properties":{"PRESERVE":"Lawrence Schminke","CERVIDTYPE":"Elk","id":"a62d4braq7ct","COUNTY":"HAMILTON"},"type":"Feature","geometry":{"type":"Point","coordinates":[-93.8323419174791,42.2682535459246]}},{"properties":{"PRESERVE":"Layton Flower Elk Farm","CERVIDTYPE":"Elk","id":"a62d4bqn6upi","COUNTY":"POTTAWATTAMIE"},"type":"Feature","geometry":{"type":"Point","coordinates":[-95.2024536734231,41.4394545364617]}},{"properties":{"PRESERVE":"Linda &amp; Edward Leslein","CERVIDTYPE":"Deer","id":"a62d4bn2d6kn","COUNTY":"DUBUQUE"},"type":"Feature","geometry":{"type":"Point","coordinates":[-90.8384410326508,42.5158444568615]}},{"properties":{"PRESERVE":"Linda Molyneux","CERVIDTYPE":"Deer","id":"a62d4bqqr3fn","COUNTY":"WAYNE"},"type":"Feature","geometry":{"type":"Point","coordinates":[-93.1560391657912,40.7692347377359]}},{"properties":{"PRESERVE":"Lindstrom Farm","CERVIDTYPE":"Elk","id":"a62d4bpno48g","COUNTY":"WINNESHIEK"},"type":"Feature","geometry":{"type":"Point","coordinates":[-92.0547100569996,43.4586550252111]}},{"properties":{"PRESERVE":"Lizzard Creek Elk Farm","CERVIDTYPE":"Elk","id":"a62d4blmpf0d","COUNTY":"HUMBOLDT"},"type":"Feature","geometry":{"type":"Point","coordinates":[-94.4409814080058,42.6968663790002]}},{"properties":{"PRESERVE":"Lloyd Johaningmier","CERVIDTYPE":"Elk","id":"a62d4br9zicy","COUNTY":"ALLAMAKEE"},"type":"Feature","geometry":{"type":"Point","coordinates":[-91.3135931182214,43.1281809280736]}},{"properties":{"PRESERVE":"Lonesome Oak Elk Ranch","CERVIDTYPE":"Elk","id":"a62d4bqgprzr","COUNTY":"DUBUQUE"},"type":"Feature","geometry":{"type":"Point","coordinates":[-90.8017725253294,42.6012880038361]}},{"properties":{"PRESERVE":"Lonneman Wapiti Acres","CERVIDTYPE":"Elk","id":"a62d4bwx5ne6","COUNTY":"OSCEOLA"},"type":"Feature","geometry":{"type":"Point","coordinates":[-95.8415049226847,43.2653679787583]}},{"properties":{"PRESERVE":"Lynn Pacovsky","CERVIDTYPE":"Deer","id":"a62d4bz67qth","COUNTY":"CHICKASAW"},"type":"Feature","geometry":{"type":"Point","coordinates":[-92.3168872065066,43.0600896850571]}},{"properties":{"PRESERVE":"Marvin Engel","CERVIDTYPE":"Deer","id":"a62d4bnuiw1z","COUNTY":"BUENA VISTA"},"type":"Feature","geometry":{"type":"Point","coordinates":[-94.9732722902613,42.6530425835728]}},{"properties":{"PRESERVE":"Marvin Oyer","CERVIDTYPE":"Deer","id":"a62d4bn9141g","COUNTY":"CLARKE"},"type":"Feature","geometry":{"type":"Point","coordinates":[-93.7050741726339,41.1357424400349]}},{"properties":{"PRESERVE":"Mary Shirazi","CERVIDTYPE":"Deer","id":"a62d4broumlk","COUNTY":"JOHNSON"},"type":"Feature","geometry":{"type":"Point","coordinates":[-91.4834693693942,41.8189519841936]}},{"properties":{"PRESERVE":"McGrew Taxidermy, Whitetail Unlimited","CERVIDTYPE":"Deer","id":"a62d4bxy5juo","COUNTY":"TAMA"},"type":"Feature","geometry":{"type":"Point","coordinates":[-92.3909885681708,41.8741207310262]}},{"properties":{"PRESERVE":"Meinders Elk Farm","CERVIDTYPE":"Elk","id":"a62d4br5gbqy","COUNTY":"KOSSUTH"},"type":"Feature","geometry":{"type":"Point","coordinates":[-94.0086416180088,43.2854720045562]}},{"properties":{"PRESERVE":"Mel Sampson","CERVIDTYPE":"Elk","id":"a62d4bl3mztu","COUNTY":"WRIGHT"},"type":"Feature","geometry":{"type":"Point","coordinates":[-93.9031587423035,42.6252444770398]}},{"properties":{"PRESERVE":"Melvin Richards","CERVIDTYPE":"Elk","id":"a62d4bxxtzc5","COUNTY":"RINGGOLD"},"type":"Feature","geometry":{"type":"Point","coordinates":[-94.1837301860962,40.8461640672905]}},{"properties":{"PRESERVE":"Melvin Richards","CERVIDTYPE":"","id":"a62d4bzrqhob","COUNTY":"RINGGOLD"},"type":"Feature","geometry":{"type":"Point","coordinates":[-94.1859530167762,40.8555290546658]}},{"properties":{"PRESERVE":"Merle Tritch","CERVIDTYPE":"Elk","id":"a62d4btl97d5","COUNTY":"WORTH"},"type":"Feature","geometry":{"type":"Point","coordinates":[-93.3886994577263,43.3645205339111]}},{"properties":{"PRESERVE":"Michael Escher","CERVIDTYPE":"Deer","id":"a62d4bwhii9v","COUNTY":"WASHINGTON"},"type":"Feature","geometry":{"type":"Point","coordinates":[-91.7060238138308,41.4717062297084]}},{"properties":{"PRESERVE":"Michael Laabs","CERVIDTYPE":"Deer","id":"a62d4brr2fp1","COUNTY":"GUTHRIE"},"type":"Feature","geometry":{"type":"Point","coordinates":[-94.3367900649271,41.8309091954071]}},{"properties":{"PRESERVE":"Mike Mikesh","CERVIDTYPE":"Elk","id":"a62d4blwku12","COUNTY":"BLACK HAWK"},"type":"Feature","geometry":{"type":"Point","coordinates":[-92.1412408035308,42.3257326094104]}},{"properties":{"PRESERVE":"Milt Ulfers","CERVIDTYPE":"","id":"a62d4bw18jui","COUNTY":"BUTLER"},"type":"Feature","geometry":{"type":"Point","coordinates":[-92.7936076647065,42.745696721011]}},{"properties":{"PRESERVE":"Milt Ulfers","CERVIDTYPE":"Elk","id":"a62d4buyd685","COUNTY":"BUTLER"},"type":"Feature","geometry":{"type":"Point","coordinates":[-92.7936081978718,42.7455367872198]}},{"properties":{"PRESERVE":"Mitch Mueller","CERVIDTYPE":"Deer","id":"a62d4bsa3wp0","COUNTY":"BREMER"},"type":"Feature","geometry":{"type":"Point","coordinates":[-92.4302448021175,42.7874270241717]}},{"properties":{"PRESERVE":"Monroe County Conservation Board","CERVIDTYPE":"Deer","id":"a62d4bzb81v4","COUNTY":"MONROE"},"type":"Feature","geometry":{"type":"Point","coordinates":[-92.7798202644952,41.0323135480445]}},{"properties":{"PRESERVE":"Monte Steinfeldt","CERVIDTYPE":"Elk","id":"a62d4bv17y0v","COUNTY":"WINNEBAGO"},"type":"Feature","geometry":{"type":"Point","coordinates":[-93.9103902831218,43.429325950535]}},{"properties":{"PRESERVE":"Monte Steinfeldt","CERVIDTYPE":"","id":"a62d4bnbkt66","COUNTY":"WINNEBAGO"},"type":"Feature","geometry":{"type":"Point","coordinates":[-93.9103041012684,43.4293266355298]}},{"properties":{"PRESERVE":"Myron &amp; Jo Hull","CERVIDTYPE":"","id":"a62d4bq384bg","COUNTY":"BOONE"},"type":"Feature","geometry":{"type":"Point","coordinates":[-93.8206815820457,42.1272607228235]}},{"properties":{"PRESERVE":"Neil Bryan","CERVIDTYPE":"Deer","id":"a62d4btgh85a","COUNTY":"ADAIR"},"type":"Feature","geometry":{"type":"Point","coordinates":[-94.350398101862,41.4380765399258]}},{"properties":{"PRESERVE":"North Ridge Elk Acres","CERVIDTYPE":"Elk","id":"a62d4bv4g1nw","COUNTY":"KOSSUTH"},"type":"Feature","geometry":{"type":"Point","coordinates":[-94.2156008658551,43.1955106334763]}},{"properties":{"PRESERVE":"North Star Hunting Preserve","CERVIDTYPE":"Deer","id":"a62d4bzthgoz","COUNTY":"TAMA"},"type":"Feature","geometry":{"type":"Point","coordinates":[-92.6995976234552,41.9967425803642]}},{"properties":{"PRESERVE":"Oak Creek Elk Ranch","CERVIDTYPE":"Elk","id":"a62d4bzlopkg","COUNTY":"WAPELLO"},"type":"Feature","geometry":{"type":"Point","coordinates":[-92.3459503079019,41.0432855891599]}},{"properties":{"PRESERVE":"Oakridge Elk Farm","CERVIDTYPE":"Elk","id":"a62d4buuzisx","COUNTY":"BOONE"},"type":"Feature","geometry":{"type":"Point","coordinates":[-93.9289724203216,42.0065715149037]}},{"properties":{"PRESERVE":"Oakridge Elk Farm","CERVIDTYPE":"Elk","id":"a62d4bliihw1","COUNTY":"MITCHELL"},"type":"Feature","geometry":{"type":"Point","coordinates":[-92.9331566401823,43.4127172714965]}},{"properties":{"PRESERVE":"Orville O'Connell","CERVIDTYPE":"Deer","id":"a62d4bz3w0l8","COUNTY":"WEBSTER"},"type":"Feature","geometry":{"type":"Point","coordinates":[-94.2018975651176,42.5241595786699]}},{"properties":{"PRESERVE":"Pagels Star Wind Exotics","CERVIDTYPE":"Deer","id":"a62d4bk4sjf0","COUNTY":"FAYETTE"},"type":"Feature","geometry":{"type":"Point","coordinates":[-92.021148141617,42.7839045422618]}},{"properties":{"PRESERVE":"Paxton's Elk &amp; Exotics","CERVIDTYPE":"Elk","id":"a62d4bq47115","COUNTY":"KEOKUK"},"type":"Feature","geometry":{"type":"Point","coordinates":[-92.1588454310934,41.198987349587]}},{"properties":{"PRESERVE":"Perry Fletcher","CERVIDTYPE":"Deer","id":"a62d4bznyi4w","COUNTY":"LOUISA"},"type":"Feature","geometry":{"type":"Point","coordinates":[-91.1846454661503,41.1812219735215]}},{"properties":{"PRESERVE":"Pete Marshall","CERVIDTYPE":"Deer","id":"a62d4brpqsmy","COUNTY":"MONTGOMERY"},"type":"Feature","geometry":{"type":"Point","coordinates":[-95.0962912467953,40.9929380585074]}},{"properties":{"PRESERVE":"Pine Ridge Hunting Preserve","CERVIDTYPE":"Deer","id":"a62d4brw92wt","COUNTY":"DAVIS"},"type":"Feature","geometry":{"type":"Point","coordinates":[-92.4292677055934,40.8125990032348]}},{"properties":{"PRESERVE":"Ponderosa Farms","CERVIDTYPE":"Elk","id":"a62d4bs6rual","COUNTY":"ADAIR"},"type":"Feature","geometry":{"type":"Point","coordinates":[-94.388266430672,41.1580174266096]}},{"properties":{"PRESERVE":"Quarry Creek Farms","CERVIDTYPE":"Elk","id":"a62d4bww6wlg","COUNTY":"DES MOINES"},"type":"Feature","geometry":{"type":"Point","coordinates":[-91.2075465728096,40.7366129757458]}},{"properties":{"PRESERVE":"R &amp; K Ranch","CERVIDTYPE":"Elk","id":"a62d4br5bvrm","COUNTY":"DES MOINES"},"type":"Feature","geometry":{"type":"Point","coordinates":[-91.1450637621618,41.008272046607]}},{"properties":{"PRESERVE":"Raleigh Buckmaster","CERVIDTYPE":"Fallow Deer","id":"a62d4bq5t1aa","COUNTY":"ALLAMAKEE"},"type":"Feature","geometry":{"type":"Point","coordinates":[-91.1200089714242,43.3116098565667]}},{"properties":{"PRESERVE":"Randy &amp; Denise Wiese","CERVIDTYPE":"Deer","id":"a62d4bt6ix3m","COUNTY":"POLK"},"type":"Feature","geometry":{"type":"Point","coordinates":[-93.4655454241325,41.6375274461169]}},{"properties":{"PRESERVE":"Randy &amp; Diane Ruth","CERVIDTYPE":"Deer","id":"a62d4bvvslb5","COUNTY":"BREMER"},"type":"Feature","geometry":{"type":"Point","coordinates":[-92.4952580989247,42.8627183184812]}},{"properties":{"PRESERVE":"Randy &amp; Mary Hanke","CERVIDTYPE":"Elk","id":"a62d4bpq66tf","COUNTY":"MITCHELL"},"type":"Feature","geometry":{"type":"Point","coordinates":[-92.6839663906408,43.4170068066891]}},{"properties":{"PRESERVE":"Raven Ridge Elk Ranch","CERVIDTYPE":"Elk","id":"a62d4btz0fyd","COUNTY":"BOONE"},"type":"Feature","geometry":{"type":"Point","coordinates":[-93.831938850896,41.8690904161148]}},{"properties":{"PRESERVE":"Ray Patrilla","CERVIDTYPE":"Deer","id":"a62d4bzho7bs","COUNTY":"BENTON"},"type":"Feature","geometry":{"type":"Point","coordinates":[-91.9487303912318,42.192897010576]}},{"properties":{"PRESERVE":"Raymond Eserhaut ,Jr.","CERVIDTYPE":"Deer","id":"a62d4bsuvrw6","COUNTY":"MUSCATINE"},"type":"Feature","geometry":{"type":"Point","coordinates":[-91.0915017638782,41.4422992671247]}},{"properties":{"PRESERVE":"Renee Covington","CERVIDTYPE":"Deer","id":"a62d4bvf0mqb","COUNTY":"JONES"},"type":"Feature","geometry":{"type":"Point","coordinates":[-91.1109736600473,42.2247804490367]}},{"properties":{"PRESERVE":"Renee Kidman","CERVIDTYPE":"Deer","id":"a62d4bz2ktka","COUNTY":"POLK"},"type":"Feature","geometry":{"type":"Point","coordinates":[-93.6703178774734,41.738902201162]}},{"properties":{"PRESERVE":"Ribbon Rock Elk Farm","CERVIDTYPE":"Elk","id":"a62d4bwrfofy","COUNTY":"GREENE"},"type":"Feature","geometry":{"type":"Point","coordinates":[-94.5700828713431,42.1184600995437]}},{"properties":{"PRESERVE":"Richard Garrels","CERVIDTYPE":"Elk","id":"a62d4bpqk7je","COUNTY":"HENRY"},"type":"Feature","geometry":{"type":"Point","coordinates":[-91.511430782057,40.9706301126872]}},{"properties":{"PRESERVE":"Richard Garrels","CERVIDTYPE":"","id":"a62d4btmik7y","COUNTY":"HENRY"},"type":"Feature","geometry":{"type":"Point","coordinates":[-91.5106447409192,40.9705751207855]}},{"properties":{"PRESERVE":"Richard Tiffany","CERVIDTYPE":"Deer","id":"a62d4bmwmvxp","COUNTY":"LOUISA"},"type":"Feature","geometry":{"type":"Point","coordinates":[-91.3852846378328,41.2962982670049]}},{"properties":{"PRESERVE":"Richard Wiese","CERVIDTYPE":"Deer","id":"a62d4bvxylus","COUNTY":"BUCHANAN"},"type":"Feature","geometry":{"type":"Point","coordinates":[-91.7783222861079,42.3433915413331]}},{"properties":{"PRESERVE":"Rick Brooks","CERVIDTYPE":"Deer","id":"a62d4bk64e91","COUNTY":"WRIGHT"},"type":"Feature","geometry":{"type":"Point","coordinates":[-93.6803001481206,42.8638155183635]}},{"properties":{"PRESERVE":"Rick Diemer","CERVIDTYPE":"Deer","id":"a62d4bkwupdk","COUNTY":"POTTAWATTAMIE"},"type":"Feature","geometry":{"type":"Point","coordinates":[-95.3256545377161,41.3764858018891]}},{"properties":{"PRESERVE":"Rick Rannels","CERVIDTYPE":"","id":"a62d4bxaobef","COUNTY":"HOWARD"},"type":"Feature","geometry":{"type":"Point","coordinates":[-92.4396182932944,43.4688043307659]}},{"properties":{"PRESERVE":"River Ridge Elk Ranch","CERVIDTYPE":"Elk","id":"a62d4bva96lo","COUNTY":"HUMBOLDT"},"type":"Feature","geometry":{"type":"Point","coordinates":[-94.157721397917,42.8447439432719]}},{"properties":{"PRESERVE":"Roar N River Elk Ranch","CERVIDTYPE":"Elk","id":"a62d4bz7avmf","COUNTY":"WRIGHT"},"type":"Feature","geometry":{"type":"Point","coordinates":[-93.9031594163473,42.6252911311551]}},{"properties":{"PRESERVE":"Robert Deegan","CERVIDTYPE":"Fallow Deer","id":"a62d4bvffj41","COUNTY":"JACKSON"},"type":"Feature","geometry":{"type":"Point","coordinates":[-90.7299970145415,42.1884627374413]}},{"properties":{"PRESERVE":"Robert E. West","CERVIDTYPE":"Deer","id":"a62d4bu8j1pf","COUNTY":"SCOTT"},"type":"Feature","geometry":{"type":"Point","coordinates":[-90.6784158454864,41.4791618118967]}},{"properties":{"PRESERVE":"Robert Hitch","CERVIDTYPE":"Deer","id":"a62d4bmyqntd","COUNTY":"TAYLOR"},"type":"Feature","geometry":{"type":"Point","coordinates":[-94.7506881717434,40.6611431554249]}},{"properties":{"PRESERVE":"Robert Mitchell","CERVIDTYPE":"Deer","id":"a62d4bo71uw3","COUNTY":"LOUISA"},"type":"Feature","geometry":{"type":"Point","coordinates":[-91.1846192017144,41.1821728579531]}},{"properties":{"PRESERVE":"Robert Schultz","CERVIDTYPE":"","id":"a62d4btodgn7","COUNTY":"BUTLER"},"type":"Feature","geometry":{"type":"Point","coordinates":[-92.7802304796116,42.8986247616237]}},{"properties":{"PRESERVE":"Robert Schultz","CERVIDTYPE":"Elk","id":"a62d4by0ke9u","COUNTY":"BUTLER"},"type":"Feature","geometry":{"type":"Point","coordinates":[-92.7802304796116,42.8986247616237]}},{"properties":{"PRESERVE":"Robert Thuerauf","CERVIDTYPE":"Elk","id":"a62d4bvc2btd","COUNTY":"LINN"},"type":"Feature","geometry":{"type":"Point","coordinates":[-91.550307683028,41.8978307619318]}},{"properties":{"PRESERVE":"Robert West","CERVIDTYPE":"Deer","id":"a62d4buewcw0","COUNTY":"SCOTT"},"type":"Feature","geometry":{"type":"Point","coordinates":[-90.6079330063987,41.5740023276174]}},{"properties":{"PRESERVE":"Robert, Marlene, Russell, &amp; Karla Hammes","CERVIDTYPE":"Elk","id":"a62d4bz3orzs","COUNTY":"KEOKUK"},"type":"Feature","geometry":{"type":"Point","coordinates":[-92.3557313255828,41.3018222589461]}},{"properties":{"PRESERVE":"Rock Creek Elk Farm","CERVIDTYPE":"Elk","id":"a62d4bk40c3l","COUNTY":"KEOKUK"},"type":"Feature","geometry":{"type":"Point","coordinates":[-92.1174283427432,41.2113727092045]}},{"properties":{"PRESERVE":"Rod Schmidt","CERVIDTYPE":"Elk","id":"a62d4bkgqut1","COUNTY":"WAYNE"},"type":"Feature","geometry":{"type":"Point","coordinates":[-93.4417300898884,40.6101002516826]}},{"properties":{"PRESERVE":"Rodney &amp; Janice Hess","CERVIDTYPE":"Deer","id":"a62d4bx1qulm","COUNTY":"ALLAMAKEE"},"type":"Feature","geometry":{"type":"Point","coordinates":[-91.3517834102686,43.3910623171552]}},{"properties":{"PRESERVE":"Rodney Hess","CERVIDTYPE":"Elk","id":"a62d4buluqae","COUNTY":"ALLAMAKEE"},"type":"Feature","geometry":{"type":"Point","coordinates":[-91.2606078647682,43.3731295270158]}},{"properties":{"PRESERVE":"Roger &amp; Pam Jagerson","CERVIDTYPE":"","id":"a62d4bk9yevg","COUNTY":"POLK"},"type":"Feature","geometry":{"type":"Point","coordinates":[-93.8149955016502,41.8621129117685]}},{"properties":{"PRESERVE":"Roger Ferriss","CERVIDTYPE":"Deer","id":"a62d4br6u91b","COUNTY":"TAMA"},"type":"Feature","geometry":{"type":"Point","coordinates":[-92.5344840859915,42.0535316562861]}},{"properties":{"PRESERVE":"Roger Jagerson","CERVIDTYPE":"Elk","id":"a62d4bk4aimb","COUNTY":"POLK"},"type":"Feature","geometry":{"type":"Point","coordinates":[-93.8153880971312,41.8621099501529]}},{"properties":{"PRESERVE":"Ronald &amp; Sarah Holst","CERVIDTYPE":"Deer","id":"a62d4bmjpqrx","COUNTY":"BUCHANAN"},"type":"Feature","geometry":{"type":"Point","coordinates":[-91.7838841173679,42.3431072321828]}},{"properties":{"PRESERVE":"Ronald Turner","CERVIDTYPE":"Deer","id":"a62d4bpv1vp7","COUNTY":"TAMA"},"type":"Feature","geometry":{"type":"Point","coordinates":[-92.3577164311545,42.2143670840646]}},{"properties":{"PRESERVE":"Ronnie Miller","CERVIDTYPE":"Deer","id":"a62d4bugrbfr","COUNTY":"CLAYTON"},"type":"Feature","geometry":{"type":"Point","coordinates":[-91.3699662251812,43.0495481075535]}},{"properties":{"PRESERVE":"Ross Copeland","CERVIDTYPE":"Elk","id":"a62d4bz7v742","COUNTY":"DES MOINES"},"type":"Feature","geometry":{"type":"Point","coordinates":[-91.144866455826,41.0079565413445]}},{"properties":{"PRESERVE":"Ryan Westercamp","CERVIDTYPE":"Deer","id":"a62d4by1vup0","COUNTY":"VAN BUREN"},"type":"Feature","geometry":{"type":"Point","coordinates":[-91.9940141733739,40.7598012189956]}},{"properties":{"PRESERVE":"S &amp; K Elk Ranch","CERVIDTYPE":"Elk","id":"a62d4bz5wpfi","COUNTY":"ADAIR"},"type":"Feature","geometry":{"type":"Point","coordinates":[-94.432484704571,41.2625254676542]}},{"properties":{"PRESERVE":"Sam Collora","CERVIDTYPE":"Deer","id":"a62d4bmkk9uq","COUNTY":"HENRY"},"type":"Feature","geometry":{"type":"Point","coordinates":[-91.5692513413685,40.9608689335696]}},{"properties":{"PRESERVE":"Sam Metzger","CERVIDTYPE":"Elk","id":"a62d4buh010o","COUNTY":"KOSSUTH"},"type":"Feature","geometry":{"type":"Point","coordinates":[-94.0086767001617,43.2854716953461]}},{"properties":{"PRESERVE":"Sam Metzger Farm","CERVIDTYPE":"Elk","id":"a62d4bpfkr9r","COUNTY":"ADAIR"},"type":"Feature","geometry":{"type":"Point","coordinates":[-94.4116665063853,41.204059605779]}},{"properties":{"PRESERVE":"Sid Moore","CERVIDTYPE":"Elk","id":"a62d4bmamdg6","COUNTY":"KEOKUK"},"type":"Feature","geometry":{"type":"Point","coordinates":[-92.1193684462445,41.4716744742213]}},{"properties":{"PRESERVE":"Sid Moore, Little Creek Elk","CERVIDTYPE":"","id":"a62d4bvzhvev","COUNTY":"KEOKUK"},"type":"Feature","geometry":{"type":"Point","coordinates":[-92.119302819661,41.4717228387995]}},{"properties":{"PRESERVE":"Southern Winds","CERVIDTYPE":"Deer","id":"a62d4bs4sffw","COUNTY":"DECATUR"},"type":"Feature","geometry":{"type":"Point","coordinates":[-93.7698273155516,40.6755930749556]}},{"properties":{"PRESERVE":"Stacy Fox","CERVIDTYPE":"Deer","id":"a62d4bp8m0i0","COUNTY":"DES MOINES"},"type":"Feature","geometry":{"type":"Point","coordinates":[-91.3209815282073,40.8443802112766]}},{"properties":{"PRESERVE":"Stan Eimers","CERVIDTYPE":"Elk","id":"a62d4byc34lm","COUNTY":"KOSSUTH"},"type":"Feature","geometry":{"type":"Point","coordinates":[-94.2157620201756,43.1954295347442]}},{"properties":{"PRESERVE":"Stan Eimers","CERVIDTYPE":"","id":"a62d4blasnkq","COUNTY":"KOSSUTH"},"type":"Feature","geometry":{"type":"Point","coordinates":[-94.2156128234561,43.1955361733512]}},{"properties":{"PRESERVE":"Stephen Drake","CERVIDTYPE":"Deer","id":"a62d4bvg3c0l","COUNTY":"CEDAR"},"type":"Feature","geometry":{"type":"Point","coordinates":[-91.2624065429814,41.6735919194886]}},{"properties":{"PRESERVE":"Steve Daugherty","CERVIDTYPE":"Elk","id":"a62d4bq76iat","COUNTY":"DES MOINES"},"type":"Feature","geometry":{"type":"Point","coordinates":[-91.2075748055383,40.7365721319484]}},{"properties":{"PRESERVE":"Steve Freiburger","CERVIDTYPE":"Deer","id":"a62d4bsnv16k","COUNTY":"DUBUQUE"},"type":"Feature","geometry":{"type":"Point","coordinates":[-90.8373872344923,42.3414373756047]}},{"properties":{"PRESERVE":"Steve Neeley","CERVIDTYPE":"Elk","id":"a62d4blvv7yt","COUNTY":"MITCHELL"},"type":"Feature","geometry":{"type":"Point","coordinates":[-92.9331862045551,43.4127387918308]}},{"properties":{"PRESERVE":"Steve Steinmeyer","CERVIDTYPE":"Deer","id":"a62d4btkx6sp","COUNTY":"GRUNDY"},"type":"Feature","geometry":{"type":"Point","coordinates":[-92.7915619149022,42.3764013794328]}},{"properties":{"PRESERVE":"Steven Jackson","CERVIDTYPE":"Deer","id":"a62d4bkw5o4s","COUNTY":"CEDAR"},"type":"Feature","geometry":{"type":"Point","coordinates":[-91.2624065429814,41.6735919194886]}},{"properties":{"PRESERVE":"Sunset Ridge Ranch, Inc.","CERVIDTYPE":"Elk","id":"a62d4bnsed6u","COUNTY":"DECATUR"},"type":"Feature","geometry":{"type":"Point","coordinates":[-93.7328159335328,40.694270442485]}},{"properties":{"PRESERVE":"Teague Ranch","CERVIDTYPE":"Deer","id":"a62d4bngapvt","COUNTY":"DECATUR"},"type":"Feature","geometry":{"type":"Point","coordinates":[-93.8593481426919,40.7839563769644]}},{"properties":{"PRESERVE":"Ted Heimer","CERVIDTYPE":"Deer","id":"a62d4bw693js","COUNTY":"MITCHELL"},"type":"Feature","geometry":{"type":"Point","coordinates":[-92.729186235066,43.4280076143189]}},{"properties":{"PRESERVE":"Terrance O'Laughlin","CERVIDTYPE":"Deer","id":"a62d4bzg7yea","COUNTY":"BUCHANAN"},"type":"Feature","geometry":{"type":"Point","coordinates":[-91.7275640874494,42.5146288508001]}},{"properties":{"PRESERVE":"Terry &amp; Wendy Webster","CERVIDTYPE":"Deer","id":"a62d4bsvqmfi","COUNTY":"BUCHANAN"},"type":"Feature","geometry":{"type":"Point","coordinates":[-91.8314354918787,42.4314057902364]}},{"properties":{"PRESERVE":"Thomas Bucknell","CERVIDTYPE":"Deer","id":"a62d4bnjybue","COUNTY":"FLOYD"},"type":"Feature","geometry":{"type":"Point","coordinates":[-92.7228046040282,43.0532104968345]}},{"properties":{"PRESERVE":"Thomas Lindecker","CERVIDTYPE":"Deer","id":"a62d4bmu8yq1","COUNTY":"DUBUQUE"},"type":"Feature","geometry":{"type":"Point","coordinates":[-90.8382208611292,42.5158403049113]}},{"properties":{"PRESERVE":"Tic Ridge Elk","CERVIDTYPE":"Elk","id":"a62d4bqeasuo","COUNTY":"KEOKUK"},"type":"Feature","geometry":{"type":"Point","coordinates":[-92.1590364160161,41.1990358246157]}},{"properties":{"PRESERVE":"Tim Burres","CERVIDTYPE":"Deer","id":"a62d4brtek3t","COUNTY":"HUMBOLDT"},"type":"Feature","geometry":{"type":"Point","coordinates":[-94.029034911343,42.6900855675558]}},{"properties":{"PRESERVE":"Tim Garstang","CERVIDTYPE":"Deer","id":"a62d4bsvgyov","COUNTY":"SCOTT"},"type":"Feature","geometry":{"type":"Point","coordinates":[-90.7007524293703,41.7132621230339]}},{"properties":{"PRESERVE":"Timber Dream Ranch","CERVIDTYPE":"Elk","id":"a62d4bslvj6h","COUNTY":"POLK"},"type":"Feature","geometry":{"type":"Point","coordinates":[-93.8149556131613,41.8621130217568]}},{"properties":{"PRESERVE":"Timber Ghost","CERVIDTYPE":"Deer","id":"a62d4c095ch1","COUNTY":"DES MOINES"},"type":"Feature","geometry":{"type":"Point","coordinates":[-91.2372855304582,40.9398004449539]}},{"properties":{"PRESERVE":"Timothy Downs","CERVIDTYPE":"Deer","id":"a62d4bsdepvn","COUNTY":"BUTLER"},"type":"Feature","geometry":{"type":"Point","coordinates":[-92.6146818404396,42.688809506841]}},{"properties":{"PRESERVE":"Tom Brakke","CERVIDTYPE":"Deer","id":"a62d4bpraucu","COUNTY":"CERRO GORDO"},"type":"Feature","geometry":{"type":"Point","coordinates":[-93.3556752620919,43.1707496443063]}},{"properties":{"PRESERVE":"Tom Brakke","CERVIDTYPE":"","id":"a62d4bwxe76w","COUNTY":"CERRO GORDO"},"type":"Feature","geometry":{"type":"Point","coordinates":[-93.4058623257522,43.2137659357923]}},{"properties":{"PRESERVE":"Tom Kladivo","CERVIDTYPE":"Deer","id":"a62d4buqor3y","COUNTY":"TAMA"},"type":"Feature","geometry":{"type":"Point","coordinates":[-92.5192037654799,42.1972297367473]}},{"properties":{"PRESERVE":"Tom Matuska","CERVIDTYPE":"Deer","id":"a62d4bq34h11","COUNTY":"DICKINSON"},"type":"Feature","geometry":{"type":"Point","coordinates":[-95.145588696653,43.4276229827648]}},{"properties":{"PRESERVE":"Tom R. Brakke","CERVIDTYPE":"Deer","id":"a62d4bp0brg3","COUNTY":"CERRO GORDO"},"type":"Feature","geometry":{"type":"Point","coordinates":[-93.4058513416661,43.2137669969849]}},{"properties":{"PRESERVE":"Tony &amp; Annette Thomas","CERVIDTYPE":"Deer","id":"a62d4bks9wgm","COUNTY":"LOUISA"},"type":"Feature","geometry":{"type":"Point","coordinates":[-91.1852616476966,41.1817073291634]}},{"properties":{"PRESERVE":"Twin Oaks Elk Farm","CERVIDTYPE":"Elk","id":"a62d4bpg0kvk","COUNTY":"GUTHRIE"},"type":"Feature","geometry":{"type":"Point","coordinates":[-94.6292666457375,41.7209331454421]}},{"properties":{"PRESERVE":"Ulfers Elk Ranch","CERVIDTYPE":"Elk","id":"a62d4bybeybo","COUNTY":"BUTLER"},"type":"Feature","geometry":{"type":"Point","coordinates":[-92.8899275610733,42.7181474908431]}},{"properties":{"PRESERVE":"Valley Meadows Elk Ranch","CERVIDTYPE":"Elk","id":"a62d4bzi4jsk","COUNTY":"ALLAMAKEE"},"type":"Feature","geometry":{"type":"Point","coordinates":[-91.3548033966613,43.3910608607068]}},{"properties":{"PRESERVE":"Velvet Valley Elk Ranch","CERVIDTYPE":"Elk","id":"a62d4bmmotca","COUNTY":"KEOKUK"},"type":"Feature","geometry":{"type":"Point","coordinates":[-92.172458942562,41.3251987598736]}},{"properties":{"PRESERVE":"Vincent Jungers","CERVIDTYPE":"Deer","id":"a62d4bzmzws2","COUNTY":"DUBUQUE"},"type":"Feature","geometry":{"type":"Point","coordinates":[-90.8386555871158,42.516011487131]}},{"properties":{"PRESERVE":"W. H. Jack, Jr.","CERVIDTYPE":"Deer","id":"a62d4bk6wged","COUNTY":"TAMA"},"type":"Feature","geometry":{"type":"Point","coordinates":[-92.3557299913071,41.9085749575155]}},{"properties":{"PRESERVE":"Wallace Rhinehart","CERVIDTYPE":"Deer","id":"a62d4bkvmjbj","COUNTY":"POWESHIEK"},"type":"Feature","geometry":{"type":"Point","coordinates":[-92.4169910025141,41.7367427938934]}},{"properties":{"PRESERVE":"Wayne Volkl","CERVIDTYPE":"Elk","id":"a62d4bzdx640","COUNTY":"LINN"},"type":"Feature","geometry":{"type":"Point","coordinates":[-91.6367834577464,42.246539944307]}},{"properties":{"PRESERVE":"Wild Life Lakes Elk Farm II","CERVIDTYPE":"Elk","id":"a62d4bppol1c","COUNTY":"DES MOINES"},"type":"Feature","geometry":{"type":"Point","coordinates":[-91.1967929488398,40.8365927562616]}},{"properties":{"PRESERVE":"Wild Rose Preserve","CERVIDTYPE":"Deer","id":"a62d4bjsaab6","COUNTY":"WAYNE"},"type":"Feature","geometry":{"type":"Point","coordinates":[-93.5300728910693,40.7500420439418]}},{"properties":{"PRESERVE":"Willard Mourer","CERVIDTYPE":"Deer","id":"a62d4buzmagb","COUNTY":"JEFFERSON"},"type":"Feature","geometry":{"type":"Point","coordinates":[-92.1194872452426,41.0011222302299]}},{"properties":{"PRESERVE":"William Archer","CERVIDTYPE":"Deer","id":"a62d4bzalt6z","COUNTY":"CLINTON"},"type":"Feature","geometry":{"type":"Point","coordinates":[-90.1889060575449,41.8450481347246]}},{"properties":{"PRESERVE":"William Colwell","CERVIDTYPE":"Deer","id":"a62d4bsbwtv4","COUNTY":"BLACK HAWK"},"type":"Feature","geometry":{"type":"Point","coordinates":[-92.4872498250224,42.5166214067298]}},{"properties":{"PRESERVE":"William Hancock","CERVIDTYPE":"Elk","id":"a62d4bobgahu","COUNTY":"WAPELLO"},"type":"Feature","geometry":{"type":"Point","coordinates":[-92.2923544550442,40.9430355636553]}},{"properties":{"PRESERVE":"William Wood","CERVIDTYPE":"Deer","id":"a62d4btk48ri","COUNTY":"JOHNSON"},"type":"Feature","geometry":{"type":"Point","coordinates":[-91.7737489888044,41.653387875842]}},{"properties":{"PRESERVE":"Willis Ott","CERVIDTYPE":"Elk","id":"a62d4bn8vt75","COUNTY":"CLAYTON"},"type":"Feature","geometry":{"type":"Point","coordinates":[-91.4496685838655,42.9029233891116]}},{"properties":{"PRESERVE":"Windy Ridge Elk Farm","CERVIDTYPE":"Elk","id":"a62d4bxpdf8m","COUNTY":"RINGGOLD"},"type":"Feature","geometry":{"type":"Point","coordinates":[-94.1837043256316,40.8461643330175]}},{"properties":{"PRESERVE":"Windy Ridge Elk Ranch","CERVIDTYPE":"Elk","id":"a62d4bxvd60v","COUNTY":"HAMILTON"},"type":"Feature","geometry":{"type":"Point","coordinates":[-93.8323449372006,42.2684833262346]}}],"is_temporal":false,"author":{"url":"http://www.igsb.uiowa.edu/nrgislibx/gishome.htm","metadata":"http://ftp://ftp.igsb.uiowa.edu/gis_library/ia_state/biologic_ecologic/mammal/deer-elk_farms.htm","contact_name":"","contact_address":"","source":"Iowa DNR, Geological Survey","contact_phone":""},"source":"http://www.igsb.uiowa.edu/nrgislibx/gishome.htm","pagination":{"sort":null,"start":0,"total":326,"limit":1000000},"state":"complete","tags":"agriculture,cervids,deer,elk,enviroment,herds,iowa","published":"2005-02-15T12:00:00Z","id":4829}