{"type":"FeatureCollection","data_type":"Dataset","url_type":null,"permissions":[{"permissions":{"download":true,"view":true},"group_id":"everyone"}],"classification":null,"title":"North Carolina Dept of Corrections, North Carolina State Adult Correctional Institutions, North Carolina, 3.2008 ","count":74,"stream_id":483,"contributor":{"url":"http://geocommons.com/users/2","name":"data"},"data_attributes":null,"calculation_params":null,"icon_link":null,"link":"http://geocommons.com/overlays/483.json","extent":[-83.0051,34.2379,-76.3105,65.3849],"geometry_types":["point"],"unique_name":null,"name":"North Carolina Dept of Corrections, North Carolina State Adult Correctional Institutions, North Carolina, 3.2008 ","feature_count":74,"description":"This dataset displays the locations of all the Adult Correctional Facilities in the state of North Carolina as of 3.2008. This includes both female and male institutions.\n","next_feature":null,"is_raster":false,"short_classification":"Y","stats":{"lon":{"max":-76.310548,"mean":-79.3637132972973,"variance":2.87813355408569,"stdev":1.69650627882295,"min":-83.005083,"median":-79.073931},"zip":{"max":28814,"mean":28067.8513513513,"variance":231347.662532395,"stdev":480.986135488743,"min":27105,"median":28135},"lat":{"max":65.384929,"mean":35.9307398513513,"variance":12.33929744684,"stdev":3.51273361455719,"min":34.237875,"median":35.620713}},"features":[{"properties":{"city":"New London","lon":-80.137325,"zip":28127,"facility":"Albemarle Correctional Institution","id":"a64d4rq2fy1s","address":"44150 Airport Road","lat":35.416016,"state":"NC"},"type":"Feature","geometry":{"type":"Point","coordinates":[-80.137325,35.416016]}},{"properties":{"city":"Taylorsville","lon":-81.176908,"zip":28681,"facility":"Alexander Correctional Institution","id":"a64d4s22wo2w","address":"633 Old Landfill Road","lat":35.884647,"state":"NC"},"type":"Feature","geometry":{"type":"Point","coordinates":[-81.176908,35.884647]}},{"properties":{"city":"Polkton","lon":-80.178714,"zip":28135,"facility":"Anson Correctional Center","id":"a64d4rzpt7aa","address":"1019 Old Prison Camp Rd.","lat":34.988409,"state":"NC"},"type":"Feature","geometry":{"type":"Point","coordinates":[-80.178714,34.988409]}},{"properties":{"city":"Spruce Pine","lon":-82.001187,"zip":28657,"facility":"Avery/Mitchell Correctional Institution","id":"a64d4ruo391k","address":"600 Amity Park Road","lat":35.925242,"state":"NC"},"type":"Feature","geometry":{"type":"Point","coordinates":[-82.001187,35.925242]}},{"properties":{"city":"Windsor","lon":-76.908539,"zip":27983,"facility":"Bertie Correctional Institution","id":"a64d4rvinuk1","address":"218 Cooper Hill Rd","lat":35.969247,"state":"NC"},"type":"Feature","geometry":{"type":"Point","coordinates":[-76.908539,35.969247]}},{"properties":{"city":"Black Mountain","lon":-82.324394,"zip":28711,"facility":"Black Mountain Correctional Center for Women","id":"a64d4ruwwior","address":"1449 North Fork Road","lat":35.627676,"state":"NC"},"type":"Feature","geometry":{"type":"Point","coordinates":[-82.324394,35.627676]}},{"properties":{"city":"Elizabethtown","lon":-78.627397,"zip":28337,"facility":"Bladen Correctional Center","id":"a64d4rybmozi","address":"5853 US 701 North","lat":34.58058,"state":"NC"},"type":"Feature","geometry":{"type":"Point","coordinates":[-78.627397,34.58058]}},{"properties":{"city":"Polkton","lon":-80.178714,"zip":28135,"facility":"Brown Creek Correctional Institution","id":"a64d4rz3py9i","address":"246 Prison Camp Rd","lat":34.988409,"state":"NC"},"type":"Feature","geometry":{"type":"Point","coordinates":[-80.178714,34.988409]}},{"properties":{"city":"Asheville","lon":-82.611725,"zip":28814,"facility":"Buncombe Correctional Center","id":"a64d4rxhptaq","address":"Hwy 251 North","lat":35.663572,"state":"NC"},"type":"Feature","geometry":{"type":"Point","coordinates":[-82.611725,35.663572]}},{"properties":{"city":"Mt. Pleasant","lon":-80.412643,"zip":28124,"facility":"Cabarrus Correctional Center","id":"a64d4rs7v2gi","address":"130 Dutch Road","lat":35.397811,"state":"NC"},"type":"Feature","geometry":{"type":"Point","coordinates":[-80.412643,35.397811]}},{"properties":{"city":"Hudson","lon":-81.520911,"zip":28638,"facility":"Caldwell Correctional Center","id":"a64d4rr6pwxa","address":"480 Pleasant Hill Road","lat":35.855286,"state":"NC"},"type":"Feature","geometry":{"type":"Point","coordinates":[-81.520911,35.855286]}},{"properties":{"city":"Tillery","lon":-77.45478,"zip":27887,"facility":"Caledonia Correctional Institution","id":"a64d4rtt2ej6","address":"2787 Caledonia Drive","lat":36.301609,"state":"NC"},"type":"Feature","geometry":{"type":"Point","coordinates":[-77.45478,36.301609]}},{"properties":{"city":"Newport","lon":-76.84549,"zip":28579,"facility":"Carteret Correctional Center","id":"a64d4rp0qsm3","address":"1084 Orange Street","lat":34.781933,"state":"NC"},"type":"Feature","geometry":{"type":"Point","coordinates":[-76.84549,34.781933]}},{"properties":{"city":"Yanceyville","lon":-79.342285,"zip":27379,"facility":"Caswell Correctional Center","id":"a64d4ryxyjnx","address":"444 County Home Road","lat":36.418906,"state":"NC"},"type":"Feature","geometry":{"type":"Point","coordinates":[-79.342285,36.418906]}},{"properties":{"city":"Newton","lon":-81.209443,"zip":28658,"facility":"Catawba Correctional Center","id":"a64d4rv37oh6","address":"1347 Prison Camp Road","lat":35.615853,"state":"NC"},"type":"Feature","geometry":{"type":"Point","coordinates":[-81.209443,35.615853]}},{"properties":{"city":"Raleigh","lon":-78.655514,"zip":27606,"facility":"Central Prison","id":"a64d4rson6gz","address":"1300 Western Boulevard","lat":35.777554,"state":"NC"},"type":"Feature","geometry":{"type":"Point","coordinates":[-78.655514,35.777554]}},{"properties":{"city":"Charlotte","lon":-80.92097,"zip":28208,"facility":"Charlotte Correctional Center","id":"a64d4s1olojz","address":"4100 Meadow Oak Drive","lat":35.193337,"state":"NC"},"type":"Feature","geometry":{"type":"Point","coordinates":[-80.92097,35.193337]}},{"properties":{"city":"Shelby","lon":-81.484153,"zip":28150,"facility":"Cleveland Correctional Center","id":"a64d4rpukry5","address":"260 Kemper Road","lat":35.282616,"state":"NC"},"type":"Feature","geometry":{"type":"Point","coordinates":[-81.484153,35.282616]}},{"properties":{"city":"Brunswick","lon":-78.719873,"zip":28424,"facility":"Columbus Correctional Institution","id":"a64d4s0uuszf","address":"1255 Prison Camp Road","lat":34.278382,"state":"NC"},"type":"Feature","geometry":{"type":"Point","coordinates":[-78.719873,34.278382]}},{"properties":{"city":"Asheville","lon":-82.61559,"zip":28814,"facility":"Craggy Correctional Center","id":"a64d4rwvntyl","address":"Box 8909","lat":35.662827,"state":"NC"},"type":"Feature","geometry":{"type":"Point","coordinates":[-82.61559,35.662827]}},{"properties":{"city":"Vanceboro","lon":-77.118003,"zip":28586,"facility":"Craven Correctional Institution","id":"a64d4rxdhopp","address":"600 Alligator Road","lat":35.316944,"state":"NC"},"type":"Feature","geometry":{"type":"Point","coordinates":[-77.118003,35.316944]}},{"properties":{"city":"Lexington","lon":-80.229395,"zip":27292,"facility":"Davidson Correctional Center","id":"a64d4s3xucpt","address":"1400 Thomason Street","lat":35.814954,"state":"NC"},"type":"Feature","geometry":{"type":"Point","coordinates":[-80.229395,35.814954]}},{"properties":{"city":"Kenansville","lon":-77.980923,"zip":28349,"facility":"Duplin Correctional Center","id":"a64d4rx2t0u1","address":"Hwy 11 South","lat":34.945038,"state":"NC"},"type":"Feature","geometry":{"type":"Point","coordinates":[-77.980923,34.945038]}},{"properties":{"city":"Durham","lon":-78.926145,"zip":27705,"facility":"Durham Correctional Center","id":"a64d4ruxpnpf","address":"3900 Guess Road","lat":36.065718,"state":"NC"},"type":"Feature","geometry":{"type":"Point","coordinates":[-78.926145,36.065718]}},{"properties":{"city":"Maury","lon":-77.598703,"zip":28554,"facility":"Eastern Correctional Institution","id":"a64d4rsmpy9x","address":"2821 Hwy 903","lat":35.478124,"state":"NC"},"type":"Feature","geometry":{"type":"Point","coordinates":[-77.598703,35.478124]}},{"properties":{"city":"Morganton","lon":-81.682621,"zip":28655,"facility":"Foothills Correctional Institution","id":"a64d4rxn5kj9","address":"5150 Western Avenue","lat":35.679157,"state":"NC"},"type":"Feature","geometry":{"type":"Point","coordinates":[-81.682621,35.679157]}},{"properties":{"city":"Winston-Salem","lon":-80.262661,"zip":27105,"facility":"Forsyth Correctional Center","id":"a64d4rrcc9qm","address":"307 Craft Drive","lat":36.144699,"state":"NC"},"type":"Feature","geometry":{"type":"Point","coordinates":[-80.262661,36.144699]}},{"properties":{"city":"Rocky Mount","lon":-77.771254,"zip":27802,"facility":"Fountain Correctional Center for Women","id":"a64d4s4abhjp","address":"300 Fountain School Rd","lat":35.996571,"state":"NC"},"type":"Feature","geometry":{"type":"Point","coordinates":[-77.771254,35.996571]}},{"properties":{"city":"Bunn","lon":-78.263796,"zip":27508,"facility":"Franklin Correctional Center","id":"a64d4rwpe5fj","address":"5918 Hwy 39 South","lat":35.975133,"state":"NC"},"type":"Feature","geometry":{"type":"Point","coordinates":[-78.263796,35.975133]}},{"properties":{"city":"Dallas","lon":-81.194102,"zip":28034,"facility":"Gaston Correctional Center","id":"a64d4rt157jk","address":"1025 Cherryville Highway","lat":35.31363,"state":"NC"},"type":"Feature","geometry":{"type":"Point","coordinates":[-81.194102,35.31363]}},{"properties":{"city":"Gatesville","lon":-76.636932,"zip":27938,"facility":"Gates Correctional Center","id":"a64d4rotrctk","address":"Box 385","lat":36.351703,"state":"NC"},"type":"Feature","geometry":{"type":"Point","coordinates":[-76.636932,36.351703]}},{"properties":{"city":"Maury","lon":-77.597272,"zip":28554,"facility":"Greene Correctional Institution","id":"a64d4s1rjfyv","address":"2699 Highway 903","lat":35.480513,"state":"NC"},"type":"Feature","geometry":{"type":"Point","coordinates":[-77.597272,35.480513]}},{"properties":{"city":"McLeansville","lon":-79.701246,"zip":27301,"facility":"Guilford Correctional Center","id":"a64d4ryz6mta","address":"4250 Camp Burton Road","lat":36.116089,"state":"NC"},"type":"Feature","geometry":{"type":"Point","coordinates":[-79.701246,36.116089]}},{"properties":{"city":"Lillington","lon":-78.800826,"zip":27546,"facility":"Harnett Correctional Institution","id":"a64d4s0dp6hd","address":"1210 E. McNeil Street","lat":35.387968,"state":"NC"},"type":"Feature","geometry":{"type":"Point","coordinates":[-78.800826,35.387968]}},{"properties":{"city":"Waynesville","lon":-83.005083,"zip":28786,"facility":"Haywood Correctional Center","id":"a64d4s3bijnf","address":"141 Hemlock Street","lat":35.47188,"state":"NC"},"type":"Feature","geometry":{"type":"Point","coordinates":[-83.005083,35.47188]}},{"properties":{"city":"McCain","lon":-79.341275,"zip":28361,"facility":"Hoke Correctional Institution","id":"a64d4rz1fjj5","address":"Old Hwy 211","lat":35.052008,"state":"NC"},"type":"Feature","geometry":{"type":"Point","coordinates":[-79.341275,35.052008]}},{"properties":{"city":"Swan Quarter","lon":-76.334225,"zip":27885,"facility":"Hyde Correctional Center","id":"a64d4rzan5t1","address":"620 Prison Road","lat":35.494412,"state":"NC"},"type":"Feature","geometry":{"type":"Point","coordinates":[-76.334225,35.494412]}},{"properties":{"city":"Smithfield","lon":-78.328671,"zip":27577,"facility":"Johnston Correctional Institution","id":"a64d4rrwqo85","address":"2465 U.S. 70","lat":35.557486,"state":"NC"},"type":"Feature","geometry":{"type":"Point","coordinates":[-78.328671,35.557486]}},{"properties":{"city":"Polkton","lon":-80.178714,"zip":28135,"facility":"Lanesboro Correctional Institution","id":"a64d4s0i6pvn","address":"552 Prison Camp Rd","lat":34.988409,"state":"NC"},"type":"Feature","geometry":{"type":"Point","coordinates":[-80.178714,34.988409]}},{"properties":{"city":"Lincolnton","lon":-81.235396,"zip":28092,"facility":"Lincoln Correctional Center","id":"a64d4rq6dclu","address":"464 Roper Drive","lat":35.484023,"state":"NC"},"type":"Feature","geometry":{"type":"Point","coordinates":[-81.235396,35.484023]}},{"properties":{"city":"Lumberton","lon":-79.054782,"zip":28359,"facility":"Lumberton Correctional Institution","id":"a64d4rzz6bkm","address":"Sanchez Drive","lat":34.587372,"state":"NC"},"type":"Feature","geometry":{"type":"Point","coordinates":[-79.054782,34.587372]}},{"properties":{"city":"Marion","lon":-81.946892,"zip":28752,"facility":"Marion Correctional Institution","id":"a64d4rqsdme3","address":"355 Old Glenwood Road","lat":35.64023,"state":"NC"},"type":"Feature","geometry":{"type":"Point","coordinates":[-81.946892,35.64023]}},{"properties":{"city":"Hookerton","lon":-77.607619,"zip":28538,"facility":"Maury Correctional Institution","id":"a64d4rrxmqyz","address":"2568 Moore Rouse Rd.","lat":35.448697,"state":"NC"},"type":"Feature","geometry":{"type":"Point","coordinates":[-77.607619,35.448697]}},{"properties":{"city":"Hoffman","lon":-79.606837,"zip":28347,"facility":"Morrison Correctional Institution","id":"a64d4ry35y8k","address":"1573 McDonald Church Road","lat":35.021605,"state":"NC"},"type":"Feature","geometry":{"type":"Point","coordinates":[-79.606837,35.021605]}},{"properties":{"city":"Spruce Pine","lon":-82.002027,"zip":28777,"facility":"Mountain View Correctional Institution","id":"a64d4rzyhmh7","address":"545 Amity Park Road","lat":35.931453,"state":"NC"},"type":"Feature","geometry":{"type":"Point","coordinates":[-82.002027,35.931453]}},{"properties":{"city":"Raleigh","lon":-78.621034,"zip":27610,"facility":"N.C. Correctional Institution for Women","id":"a64d4s0dzxq6","address":"1034 Bragg Street","lat":35.764633,"state":"NC"},"type":"Feature","geometry":{"type":"Point","coordinates":[-78.621034,35.764633]}},{"properties":{"city":"Nashville","lon":-78.015149,"zip":27856,"facility":"Nash Correctional Institution","id":"a64d4ruwt9ef","address":"2869 US 64 Alt","lat":35.969094,"state":"NC"},"type":"Feature","geometry":{"type":"Point","coordinates":[-78.015149,35.969094]}},{"properties":{"city":"Goldsboro","lon":-78.036425,"zip":27530,"facility":"Neuse Correctional Institution","id":"a64d4s32v7gt","address":"710 Stevens Mill Road","lat":35.387825,"state":"NC"},"type":"Feature","geometry":{"type":"Point","coordinates":[-78.036425,35.387825]}},{"properties":{"city":"Wilmington","lon":-77.922913,"zip":28402,"facility":"New Hanover Correctional Center","id":"a64d4rs95bcf","address":"330 Division Drive","lat":34.26669,"state":"NC"},"type":"Feature","geometry":{"type":"Point","coordinates":[-77.922913,34.26669]}},{"properties":{"city":"Lexington","lon":-80.229395,"zip":27292,"facility":"North Piedmont Correctional Center for Women","id":"a64d4ry8tt9u","address":"1420 Raleigh Road","lat":35.814954,"state":"NC"},"type":"Feature","geometry":{"type":"Point","coordinates":[-80.229395,35.814954]}},{"properties":{"city":"Jackson","lon":-77.430691,"zip":27845,"facility":"Odom Correctional Institution","id":"a64d4rt6mvi6","address":"485 Odom Road","lat":36.328827,"state":"NC"},"type":"Feature","geometry":{"type":"Point","coordinates":[-77.430691,36.328827]}},{"properties":{"city":"Hillsborough","lon":-79.101057,"zip":27278,"facility":"Orange Correctional Center","id":"a64d4s3avum0","address":"2110 Clarence Walters Road","lat":36.053114,"state":"NC"},"type":"Feature","geometry":{"type":"Point","coordinates":[-79.101057,36.053114]}},{"properties":{"city":"Bayboro","lon":-76.771013,"zip":28515,"facility":"Pamlico Correctional Institution","id":"a64d4s14mzbj","address":"601 North Third Street","lat":35.160215,"state":"NC"},"type":"Feature","geometry":{"type":"Point","coordinates":[-76.771013,35.160215]}},{"properties":{"city":"Elizabeth City","lon":-76.310548,"zip":27906,"facility":"Pasquotank Correctional Institution","id":"a64d4rpw4v4j","address":"527 Commerce Drive","lat":36.360701,"state":"NC"},"type":"Feature","geometry":{"type":"Point","coordinates":[-76.310548,36.360701]}},{"properties":{"city":"Burgaw","lon":-77.937476,"zip":28425,"facility":"Pender Correctional Institution","id":"a64d4rqt5i46","address":"906 Penderlea Hwy","lat":34.554588,"state":"NC"},"type":"Feature","geometry":{"type":"Point","coordinates":[-77.937476,34.554588]}},{"properties":{"city":"Salisbury","lon":-80.545464,"zip":28147,"facility":"Piedmont Correctional Institution","id":"a64d4rt9xewe","address":"1245 Camp Road","lat":35.621544,"state":"NC"},"type":"Feature","geometry":{"type":"Point","coordinates":[-80.545464,35.621544]}},{"properties":{"city":"Butner","lon":-78.805229,"zip":27509,"facility":"Polk Correctional Institution","id":"a64d4s2qxpzq","address":"1001 Veazey Road","lat":36.138902,"state":"NC"},"type":"Feature","geometry":{"type":"Point","coordinates":[-78.805229,36.138902]}},{"properties":{"city":"Raleigh","lon":-78.623857,"zip":27610,"facility":"Raleigh Correctional Center for Women","id":"a64d4rum29b0","address":"1201 South State Street","lat":35.764245,"state":"NC"},"type":"Feature","geometry":{"type":"Point","coordinates":[-78.623857,35.764245]}},{"properties":{"city":"Asheboro","lon":-79.824541,"zip":27204,"facility":"Randolph Correctional Center","id":"a64d4ru2ex8r","address":"2760 US Hwy 220 Bus","lat":35.668265,"state":"NC"},"type":"Feature","geometry":{"type":"Point","coordinates":[-79.824541,35.668265]}},{"properties":{"city":"Lumberton","lon":-79.073931,"zip":28358,"facility":"Robeson Correctional Center","id":"a64d4s23kber","address":"NC Hwy 711","lat":34.624525,"state":"NC"},"type":"Feature","geometry":{"type":"Point","coordinates":[-79.073931,34.624525]}},{"properties":{"city":"Salisbury","lon":-80.534137,"zip":28144,"facility":"Rowan Correctional Center","id":"a64d4rrdj3dw","address":"4750 South Main St","lat":35.620713,"state":"NC"},"type":"Feature","geometry":{"type":"Point","coordinates":[-80.534137,35.620713]}},{"properties":{"city":"Spindale","lon":-81.91451,"zip":28160,"facility":"Rutherford Correctional Center","id":"a64d4rz91rqq","address":"901 Ledbetter Road","lat":35.365151,"state":"NC"},"type":"Feature","geometry":{"type":"Point","coordinates":[-81.91451,35.365151]}},{"properties":{"city":"Clinton","lon":-78.340822,"zip":28328,"facility":"Sampson Correctional Institution","id":"a64d4s0zp8c6","address":"700 Northwest Blvd.","lat":35.012965,"state":"NC"},"type":"Feature","geometry":{"type":"Point","coordinates":[-78.340822,35.012965]}},{"properties":{"city":"Sanford","lon":-79.159335,"zip":27330,"facility":"Sanford Correctional Center","id":"a64d4rs0ypnm","address":"417 Advancement Center Road","lat":35.4721,"state":"NC"},"type":"Feature","geometry":{"type":"Point","coordinates":[-79.159335,35.4721]}},{"properties":{"city":"Laurinburg","lon":-79.364932,"zip":28352,"facility":"Scotland Correctional Institution","id":"a64d4rycy4ob","address":"22385 McGirt's Bridge Road","lat":34.811746,"state":"NC"},"type":"Feature","geometry":{"type":"Point","coordinates":[-79.364932,34.811746]}},{"properties":{"city":"Troy","lon":-79.871839,"zip":27371,"facility":"Southern Correctional Institution","id":"a64d4s3jxck4","address":"272 Glen Road","lat":35.379273,"state":"NC"},"type":"Feature","geometry":{"type":"Point","coordinates":[-79.871839,35.379273]}},{"properties":{"city":"Tillery","lon":-77.462845,"zip":27887,"facility":"Tillery Correctional Center","id":"a64d4rvzh414","address":"2731 Caledonia Drive","lat":36.290895,"state":"NC"},"type":"Feature","geometry":{"type":"Point","coordinates":[-77.462845,36.290895]}},{"properties":{"city":"Butner","lon":-78.805229,"zip":27509,"facility":"Umstead Correctional Center","id":"a64d4rxlnsrs","address":"West D Street","lat":36.138902,"state":"NC"},"type":"Feature","geometry":{"type":"Point","coordinates":[-78.805229,36.138902]}},{"properties":{"city":"Monroe","lon":-80.521848,"zip":28110,"facility":"Union Correctional Center","id":"a64d4rt6yfzp","address":"200 Southerland Avenue","lat":34.981499,"state":"NC"},"type":"Feature","geometry":{"type":"Point","coordinates":[-80.521848,34.981499]}},{"properties":{"city":"Raleigh","lon":-78.617558,"zip":27610,"facility":"Wake Correctional Center","id":"a64d4rz3y50w","address":"1000 Rock Quarry Road","lat":35.765282,"state":"NC"},"type":"Feature","geometry":{"type":"Point","coordinates":[-78.617558,35.765282]}},{"properties":{"city":"Manson","lon":-78.270881,"zip":27553,"facility":"Warren Correctional Institution","id":"a64d4ryqdhg9","address":"Collins Road","lat":36.416885,"state":"NC"},"type":"Feature","geometry":{"type":"Point","coordinates":[-78.270881,36.416885]}},{"properties":{"city":"Goldsboro","lon":-78.034986,"zip":27530,"facility":"Wayne Correctional Center","id":"a64d4rq0gzom","address":"700 Stevens Mill Road","lat":65.384929,"state":"NC"},"type":"Feature","geometry":{"type":"Point","coordinates":[-78.034986,65.384929]}},{"properties":{"city":"North Wilkesboro","lon":-81.132383,"zip":28659,"facility":"Wilkes Correctional Center","id":"a64d4ryzwysa","address":"404 Statesville Road","lat":36.164684,"state":"NC"},"type":"Feature","geometry":{"type":"Point","coordinates":[-81.132383,36.164684]}},{"properties":{"city":"Wilmington","lon":-77.902801,"zip":28406,"facility":"Wilmington Residential Facility for Women","id":"a64d4ryo53q4","address":"76 Darlington Ave","lat":34.237875,"state":"NC"},"type":"Feature","geometry":{"type":"Point","coordinates":[-77.902801,34.237875]}}],"is_temporal":false,"author":{"url":"http://www.doc.state.nc.us/","metadata":"","contact_name":"","contact_address":"","source":"North Carolina Dept of Corrections","contact_phone":""},"source":"http://www.doc.state.nc.us/","pagination":{"sort":null,"start":0,"total":74,"limit":1000000},"state":"complete","tags":"carolina,correctional,corrections,enforcement,institution,law,north,prisons","published":"2008-05-07T12:00:00Z","id":483}