{"type":"FeatureCollection","data_type":"Dataset","url_type":null,"permissions":[{"permissions":{"download":true,"view":true},"group_id":"everyone"}],"classification":null,"title":"Ohio Dept of Corrections, Ohio State Adult Correctional Institutions, Ohio, 3.2008 ","count":27,"stream_id":485,"contributor":{"url":"http://geocommons.com/users/2","name":"data"},"data_attributes":null,"calculation_params":null,"icon_link":null,"link":"http://geocommons.com/overlays/485.json","extent":[-83001700.0,38.8746,-80.5769,41.6801],"geometry_types":["point"],"unique_name":null,"name":"Ohio Dept of Corrections, Ohio State Adult Correctional Institutions, Ohio, 3.2008 ","feature_count":27,"description":"This dataset displays the locations of all the Adult Correctional Facilities in the state of Ohio as of 3.2008. This includes both female and male institutions.\n","next_feature":null,"is_raster":false,"short_classification":"Y","stats":{"lon":{"max":-80.576867,"mean":-3074218.27188015,"variance":255158330448357.0,"stdev":15973676.1720137,"min":-83001739,"median":-83.106409},"zip":{"max":45801,"mean":44312.2962962963,"variance":1062588.75498576,"stdev":1030.81945799726,"min":43040,"median":44044},"lat":{"max":41.68006,"mean":40.2095257037037,"variance":0.54971071079491,"stdev":0.741424784313898,"min":38.874562,"median":39.920499}},"features":[{"properties":{"city":"Lima","lon":-84.100627,"zip":45801,"facility":"ALLEN CORRECTIONAL INSTITUTION","id":"a659r8tszjv7","address":"2338 North West Street","lat":40.781683,"state":"OH"},"type":"Feature","geometry":{"type":"Point","coordinates":[-84.100627,40.781683]}},{"properties":{"city":"St. Clairsville","lon":-80.9765,"zip":43950,"facility":"BELMONT CORRECTIONAL INSTITUTION","id":"a659r8urwhx1","address":"68518 Bannock Road","lat":40.084955,"state":"OH"},"type":"Feature","geometry":{"type":"Point","coordinates":[-80.9765,40.084955]}},{"properties":{"city":"Chillicothe","lon":-83.01143,"zip":45601,"facility":"CHILLICOTHE CORRECTIONAL INSTITUTION","id":"a659r8vmg888","address":"15802 State Route 104 North","lat":39.374348,"state":"OH"},"type":"Feature","geometry":{"type":"Point","coordinates":[-83.01143,39.374348]}},{"properties":{"city":"Orient","lon":-83.14916,"zip":43146,"facility":"CORRECTIONAL RECEPTION CENTER","id":"a659r8itwvih","address":"11271 State Route 762","lat":39.800154,"state":"OH"},"type":"Feature","geometry":{"type":"Point","coordinates":[-83.14916,39.800154]}},{"properties":{"city":"Columbus","lon":-83.014992,"zip":43223,"facility":"Corrections Medical Center","id":"a659r8v2n6nw","address":"1990 Harmon Avenue","lat":39.920499,"state":"OH"},"type":"Feature","geometry":{"type":"Point","coordinates":[-83.014992,39.920499]}},{"properties":{"city":"Dayton","lon":-84.256454,"zip":45417,"facility":"DAYTON CORRECTIONAL INSTITUTION","id":"a659r8ma7byv","address":"4104 Germantown Street","lat":39.728507,"state":"OH"},"type":"Feature","geometry":{"type":"Point","coordinates":[-84.256454,39.728507]}},{"properties":{"city":"Grafton","lon":-82.015936,"zip":44044,"facility":"Grafton Correctional Institution","id":"a659r8sr1dj1","address":"2500 South Avon Beldon Road","lat":41.283242,"state":"OH"},"type":"Feature","geometry":{"type":"Point","coordinates":[-82.015936,41.283242]}},{"properties":{"city":"Nelsonville","lon":-82.225926,"zip":45764,"facility":"HOCKING CORRECTIONAL FACILITY","id":"a659r8pq9dvl","address":"16759 Snake Hollow Road","lat":39.470356,"state":"OH"},"type":"Feature","geometry":{"type":"Point","coordinates":[-82.225926,39.470356]}},{"properties":{"city":"Lebanon","lon":-84.307954,"zip":45036,"facility":"LEBANON CORRECTIONAL INSTITUTION","id":"a659r8uy3eke","address":"P. O. Box 56","lat":39.434317,"state":"OH"},"type":"Feature","geometry":{"type":"Point","coordinates":[-84.307954,39.434317]}},{"properties":{"city":"London","lon":-83.469642,"zip":43140,"facility":"LONDON CORRECTIONAL INSTITUTION","id":"a659r8itkv66","address":"1580 State Route 56","lat":39.910131,"state":"OH"},"type":"Feature","geometry":{"type":"Point","coordinates":[-83.469642,39.910131]}},{"properties":{"city":"Grafton","lon":-82.028824,"zip":44044,"facility":"Lorain Correctional Institution","id":"a659r8uvncn6","address":"2075 South Avon Beldon Road","lat":41.278002,"state":"OH"},"type":"Feature","geometry":{"type":"Point","coordinates":[-82.028824,41.278002]}},{"properties":{"city":"London","lon":-83.483962,"zip":43140,"facility":"MADISON CORRECTIONAL INSTITUTION","id":"a659r8h0m8qu","address":"P. O. Box 740","lat":39.903695,"state":"OH"},"type":"Feature","geometry":{"type":"Point","coordinates":[-83.483962,39.903695]}},{"properties":{"city":"Mansfield","lon":-82.509221,"zip":44901,"facility":"MANSFIELD CORRECTIONAL INSTITUTION","id":"a659r8mu0dew","address":"P. O. Box 788","lat":40.7916,"state":"OH"},"type":"Feature","geometry":{"type":"Point","coordinates":[-82.509221,40.7916]}},{"properties":{"city":"Marion","lon":-83.114973,"zip":43302,"facility":"MARION CORRECTIONAL INSTITUTION","id":"a659r8k36s13","address":"P. O. Box 57","lat":40.618026,"state":"OH"},"type":"Feature","geometry":{"type":"Point","coordinates":[-83.114973,40.618026]}},{"properties":{"city":"Marion","lon":-83.106409,"zip":43302,"facility":"NORTH CENTRAL CORRECTIONAL INSTITUTION","id":"a659r8l9znmb","address":"670 Marion-Williamsport Road","lat":40.618575,"state":"OH"},"type":"Feature","geometry":{"type":"Point","coordinates":[-83.106409,40.618575]}},{"properties":{"city":"Caldwell","lon":-81.551748,"zip":43724,"facility":"Noble Correctional Institution","id":"a659r8jwulz1","address":"15708 McConnelsville Road","lat":39.744123,"state":"OH"},"type":"Feature","geometry":{"type":"Point","coordinates":[-81.551748,39.744123]}},{"properties":{"city":"Lima","lon":-84.100056,"zip":45801,"facility":"Oakwood Correctional Facility","id":"a659r8ssjlty","address":"3200 N. West Street","lat":40.774937,"state":"OH"},"type":"Feature","geometry":{"type":"Point","coordinates":[-84.100056,40.774937]}},{"properties":{"city":"Marysville","lon":-83.393567,"zip":43040,"facility":"Ohio Reformatory for Women","id":"a659r8mn2ngt","address":"1479 Collins Avenue","lat":40.222106,"state":"OH"},"type":"Feature","geometry":{"type":"Point","coordinates":[-83.393567,40.222106]}},{"properties":{"city":"Youngstown","lon":-80.576867,"zip":44505,"facility":"Ohio State Penitentiary","id":"a659r8r4012t","address":"878 Coitsville-Hubbard Road","lat":41.109438,"state":"OH"},"type":"Feature","geometry":{"type":"Point","coordinates":[-80.576867,41.109438]}},{"properties":{"city":"Orient","lon":-83.153567,"zip":43146,"facility":"PICKAWAY CORRECTIONAL INSTITUTION","id":"a659r8gss5aw","address":"11781 St. Route 762","lat":39.792119,"state":"OH"},"type":"Feature","geometry":{"type":"Point","coordinates":[-83.153567,39.792119]}},{"properties":{"city":"Chillicothe","lon":-83001739,"zip":45601,"facility":"ROSS CORRECTIONAL INSTITUTION","id":"a659r8kkfdz7","address":"16149 State Rt. 104","lat":39.369164,"state":"OH"},"type":"Feature","geometry":{"type":"Point","coordinates":[-83001739.0,39.369164]}},{"properties":{"city":"Mansfield","lon":-82.50049,"zip":44901,"facility":"Richland Correctional Institution","id":"a659r8kzq1lv","address":"1001 Olivesburg Road","lat":40.786795,"state":"OH"},"type":"Feature","geometry":{"type":"Point","coordinates":[-82.50049,40.786795]}},{"properties":{"city":"Lucasville","lon":-82.970377,"zip":45699,"facility":"SOUTHERN OHIO CORRECTIONAL FACILITY","id":"a659r8hec3q0","address":"1724 St. Rt. 728","lat":38.874562,"state":"OH"},"type":"Feature","geometry":{"type":"Point","coordinates":[-82.970377,38.874562]}},{"properties":{"city":"Lancaster","lon":-82.626255,"zip":43130,"facility":"Southeastern Correctional Institution","id":"a659r8udlwgr","address":"5900 B.I.S. Road","lat":39.642247,"state":"OH"},"type":"Feature","geometry":{"type":"Point","coordinates":[-82.626255,39.642247]}},{"properties":{"city":"Leavittsburg","lon":-80.886505,"zip":44430,"facility":"TRUMBULL CORRECTIONAL INSTITUTION","id":"a659r8h4uivx","address":"5701 Burnett Road","lat":41.230473,"state":"OH"},"type":"Feature","geometry":{"type":"Point","coordinates":[-80.886505,41.230473]}},{"properties":{"city":"Toledo","lon":-83.509777,"zip":43608,"facility":"Toledo Correctional Institution","id":"a659r8ibyaec","address":"2001 East Central Avenue","lat":41.68006,"state":"OH"},"type":"Feature","geometry":{"type":"Point","coordinates":[-83.509777,41.68006]}},{"properties":{"city":"Lebanon","lon":-84.299545,"zip":45036,"facility":"WARREN CORRECTIONAL INSTITUTION","id":"a659r8v1o3cp","address":"5787 State Route 63","lat":39.43308,"state":"OH"},"type":"Feature","geometry":{"type":"Point","coordinates":[-84.299545,39.43308]}}],"is_temporal":false,"author":{"url":"http://www.drc.state.oh.us/","metadata":"","contact_name":"","contact_address":"","source":"Ohio Dept of Corrections","contact_phone":""},"source":"http://www.drc.state.oh.us/","pagination":{"sort":null,"start":0,"total":27,"limit":1000000},"state":"complete","tags":"correctional,corrections,enforcement,institution,law,ohio,prisons","published":"2008-05-07T12:00:00Z","id":485}