{"type":"FeatureCollection","state":"complete","icon_link":null,"title":"La Crosse Kwik Trips","count":26,"geometry_types":["point"],"unique_name":null,"pagination":{"sort":null,"start":0,"limit":1000000,"total":26},"feature_count":26,"data_type":"Dataset","stats":{"latitude":{"max":43.949768,"stdev":0.0458112284026029,"mean":43.8469973461538,"median":43.847734,"min":43.764219,"variance":0.00209866864775545},"storenumber":{"max":870,"stdev":181.739598157533,"mean":653.192307692308,"median":750,"min":311,"variance":33029.2815384615},"longitude":{"max":-91.09986,"stdev":0.0378914681600558,"mean":-91.2302512692308,"median":-91.23031,"min":-91.305,"variance":0.00143576335932452}},"next_feature":null,"is_raster":false,"link":"http://geocommons.com/overlays/485560.json","short_classification":"Y","name":"La Crosse Kwik Trips","is_temporal":false,"description":"Geolocations of Kwik Trip stores in La Crosse area","permissions":[{"group_id":"everyone","permissions":{"download":true,"view":true}}],"classification":null,"published":"2014-08-25T16:00:00Z","extent":[-91.305,43.7642,-91.0999,43.9498],"features":[{"properties":{"city":"La Crescent","sells_lng":"False","sells_def":"False","storename":"Kwik Trip #614","zip":"55947","latitude":43.833282,"sells_cng":"False","sells_diesel":"True","storenumber":614,"phone":"507-895-8700","longitude":-91.30223,"sells_biodiesel":"True","sells_e85":"False","id":"apdi0kgsxpxt","address":"216 N 4th St","sells_gas":"True","state":"MN"},"type":"Feature","geometry":{"type":"Point","coordinates":[-91.30223,43.833282]}},{"properties":{"city":"La Crescent","sells_lng":"False","sells_def":"False","storename":"Kwik Trip #437","zip":"55947","latitude":43.825833,"sells_cng":"False","sells_diesel":"True","storenumber":437,"phone":"507-895-8710","longitude":-91.305,"sells_biodiesel":"True","sells_e85":"True","id":"apdi0kqok856","address":"319 S 3rd St","sells_gas":"True","state":"MN"},"type":"Feature","geometry":{"type":"Point","coordinates":[-91.305,43.825833]}},{"properties":{"city":"Holmen","sells_lng":"False","sells_def":"False","storename":"Kwik Trip #311","zip":"54636","latitude":43.949768,"sells_cng":"False","sells_diesel":"True","storenumber":311,"phone":"608-526-3010","longitude":-91.25994,"sells_biodiesel":"False","sells_e85":"False","id":"apdi0kqeasg8","address":"1550 South Holmen Drive","sells_gas":"True","state":"WI"},"type":"Feature","geometry":{"type":"Point","coordinates":[-91.25994,43.949768]}},{"properties":{"city":"La Crosse","sells_lng":"False","sells_def":"False","storename":"Kwik Trip #391","zip":"54603","latitude":43.842762,"sells_cng":"False","sells_diesel":"True","storenumber":391,"phone":"608-785-1600","longitude":-91.2486,"sells_biodiesel":"False","sells_e85":"False","id":"apdi0kmesl09","address":"1333 Rose St","sells_gas":"True","state":"WI"},"type":"Feature","geometry":{"type":"Point","coordinates":[-91.2486,43.842762]}},{"properties":{"city":"La Crosse","sells_lng":"False","sells_def":"False","storename":"Kwik Trip #624","zip":"54601","latitude":43.816905,"sells_cng":"False","sells_diesel":"False","storenumber":624,"phone":"608-782-1115","longitude":-91.23859,"sells_biodiesel":"False","sells_e85":"False","id":"apdi0kastc9b","address":"530 West Ave N","sells_gas":"True","state":"WI"},"type":"Feature","geometry":{"type":"Point","coordinates":[-91.23859,43.816905]}},{"properties":{"city":"La Crosse","sells_lng":"False","sells_def":"False","storename":"Tobacco Outlet Plus #532","zip":"54603","latitude":43.8675,"sells_cng":"False","sells_diesel":"False","storenumber":532,"phone":"608-779-4433","longitude":-91.20416,"sells_biodiesel":"False","sells_e85":"False","id":"apdi0kq3l02j","address":"3525 Hwy 157","sells_gas":"True","state":"WI"},"type":"Feature","geometry":{"type":"Point","coordinates":[-91.20416,43.8675]}},{"properties":{"city":"La Crosse","sells_lng":"True","sells_def":"True","storename":"Kwik Trip #870 Alt. Fuels","zip":"54603","latitude":43.851721,"sells_cng":"True","sells_diesel":"True","storenumber":870,"phone":"855-710-3800","longitude":-91.226971,"sells_biodiesel":"True","sells_e85":"False","id":"apdi0kqp1jjo","address":"2002 Kwik Trip Way","sells_gas":"True","state":"WI"},"type":"Feature","geometry":{"type":"Point","coordinates":[-91.226971,43.851721]}},{"properties":{"city":"La Crosse","sells_lng":"False","sells_def":"False","storename":"Kwik Trip #850","zip":"54603","latitude":43.847734,"sells_cng":"False","sells_diesel":"False","storenumber":850,"phone":"608-793-6161","longitude":-91.227722,"sells_biodiesel":"False","sells_e85":"False","id":"apdi0khk8342","address":"Support Center C-Store","sells_gas":"False","state":"WI"},"type":"Feature","geometry":{"type":"Point","coordinates":[-91.227722,43.847734]}},{"properties":{"city":"La Crosse","sells_lng":"False","sells_def":"False","storename":"Kwik Trip #727","zip":"54603","latitude":43.841789,"sells_cng":"False","sells_diesel":"False","storenumber":727,"phone":"608-784-2422","longitude":-91.26093,"sells_biodiesel":"False","sells_e85":"False","id":"apdi0kbcci2e","address":"105 Clinton St","sells_gas":"True","state":"WI"},"type":"Feature","geometry":{"type":"Point","coordinates":[-91.26093,43.841789]}},{"properties":{"city":"La Crosse","sells_lng":"False","sells_def":"False","storename":"Kwik Trip #750","zip":"54601","latitude":43.764219,"sells_cng":"False","sells_diesel":"True","storenumber":750,"phone":"608-787-8803","longitude":-91.2103,"sells_biodiesel":"False","sells_e85":"False","id":"apdi0kgtsrvw","address":"4828 Mormon Coulee Rd","sells_gas":"True","state":"WI"},"type":"Feature","geometry":{"type":"Point","coordinates":[-91.2103,43.764219]}},{"properties":{"city":"La Crosse","sells_lng":"False","sells_def":"False","storename":"Kwik Trip #761","zip":"54601","latitude":43.808315,"sells_cng":"True","sells_diesel":"True","storenumber":761,"phone":"608-782-6474","longitude":-91.24974,"sells_biodiesel":"False","sells_e85":"True","id":"apdi0koavty3","address":"506 Cass St","sells_gas":"True","state":"WI"},"type":"Feature","geometry":{"type":"Point","coordinates":[-91.24974,43.808315]}},{"properties":{"city":"La Crosse","sells_lng":"False","sells_def":"False","storename":"Kwik Trip #762","zip":"54603","latitude":43.858793,"sells_cng":"False","sells_diesel":"False","storenumber":762,"phone":"608-781-2044","longitude":-91.23988,"sells_biodiesel":"False","sells_e85":"False","id":"apdi0ki48ngm","address":"1133 George St W","sells_gas":"True","state":"WI"},"type":"Feature","geometry":{"type":"Point","coordinates":[-91.23988,43.858793]}},{"properties":{"city":"La Crosse","sells_lng":"False","sells_def":"False","storename":"Kwik Trip #773","zip":"54601","latitude":43.789032,"sells_cng":"False","sells_diesel":"False","storenumber":773,"phone":"608-788-5534","longitude":-91.23798,"sells_biodiesel":"False","sells_e85":"False","id":"apdi0kiiyzt8","address":"2506 South Ave","sells_gas":"True","state":"WI"},"type":"Feature","geometry":{"type":"Point","coordinates":[-91.23798,43.789032]}},{"properties":{"city":"La Crosse","sells_lng":"False","sells_def":"False","storename":"Kwik Trip #771","zip":"54603","latitude":43.825492,"sells_cng":"False","sells_diesel":"False","storenumber":771,"phone":"608-785-2320","longitude":-91.24976,"sells_biodiesel":"False","sells_e85":"False","id":"apdi0kd7u9pe","address":"71 Copeland Ave","sells_gas":"True","state":"WI"},"type":"Feature","geometry":{"type":"Point","coordinates":[-91.24976,43.825492]}},{"properties":{"city":"La Crosse","sells_lng":"False","sells_def":"False","storename":"Kwik Trip #829","zip":"54603","latitude":43.832761,"sells_cng":"False","sells_diesel":"True","storenumber":829,"phone":"608-785-2344","longitude":-91.23995,"sells_biodiesel":"False","sells_e85":"False","id":"apdi0kfikyns","address":"507 Lang Dr","sells_gas":"True","state":"WI"},"type":"Feature","geometry":{"type":"Point","coordinates":[-91.23995,43.832761]}},{"properties":{"city":"La Crosse","sells_lng":"False","sells_def":"False","storename":"Kwik Trip #826","zip":"54601","latitude":43.7675,"sells_cng":"False","sells_diesel":"True","storenumber":826,"phone":"608-788-8664","longitude":-91.21138,"sells_biodiesel":"False","sells_e85":"False","id":"apdi0kdpbw5y","address":"4605 Mormon Coulee Rd","sells_gas":"True","state":"WI"},"type":"Feature","geometry":{"type":"Point","coordinates":[-91.21138,43.7675]}},{"properties":{"city":"La Crosse","sells_lng":"False","sells_def":"False","storename":"Kwik Trip #816","zip":"54601","latitude":43.791357,"sells_cng":"False","sells_diesel":"True","storenumber":816,"phone":"608-788-9230","longitude":-91.20979,"sells_biodiesel":"False","sells_e85":"False","id":"apdi0kdvkhj9","address":"3130 State Rd","sells_gas":"True","state":"WI"},"type":"Feature","geometry":{"type":"Point","coordinates":[-91.20979,43.791357]}},{"properties":{"city":"La Crosse","sells_lng":"False","sells_def":"False","storename":"Kwik Trip #819","zip":"54601","latitude":43.800918,"sells_cng":"False","sells_diesel":"False","storenumber":819,"phone":"608-788-5604","longitude":-91.21931,"sells_biodiesel":"False","sells_e85":"False","id":"apdi0kk5jw7o","address":"921 Losey Blvd S","sells_gas":"True","state":"WI"},"type":"Feature","geometry":{"type":"Point","coordinates":[-91.21931,43.800918]}},{"properties":{"city":"Onalaska","sells_lng":"False","sells_def":"False","storename":"Kwik Trip #767","zip":"54650","latitude":43.875993,"sells_cng":"False","sells_diesel":"True","storenumber":767,"phone":"608-783-6061","longitude":-91.23031,"sells_biodiesel":"False","sells_e85":"True","id":"apdi0kkf8wfc","address":"229 Oak Forest Dr","sells_gas":"True","state":"WI"},"type":"Feature","geometry":{"type":"Point","coordinates":[-91.23031,43.875993]}},{"properties":{"city":"Onalaska","sells_lng":"False","sells_def":"False","storename":"Kwik Trip #822","zip":"54650","latitude":43.896546,"sells_cng":"False","sells_diesel":"False","storenumber":822,"phone":"608-783-5440","longitude":-91.24009,"sells_biodiesel":"False","sells_e85":"False","id":"apdi0kboudij","address":"950 2nd Ave No","sells_gas":"True","state":"WI"},"type":"Feature","geometry":{"type":"Point","coordinates":[-91.24009,43.896546]}},{"properties":{"city":"Onalaska","sells_lng":"False","sells_def":"False","storename":"Kwik Trip #350","zip":"54650","latitude":43.873144,"sells_cng":"False","sells_diesel":"True","storenumber":350,"phone":"608-779-9364","longitude":-91.1898,"sells_biodiesel":"False","sells_e85":"False","id":"apdi0kjpcac4","address":"9421 Hwy 16","sells_gas":"True","state":"WI"},"type":"Feature","geometry":{"type":"Point","coordinates":[-91.1898,43.873144]}},{"properties":{"city":"Onalaska","sells_lng":"False","sells_def":"False","storename":"Kwik Trip #377","zip":"54650","latitude":43.883616,"sells_cng":"False","sells_diesel":"False","storenumber":377,"phone":"608-783-2433","longitude":-91.20924,"sells_biodiesel":"False","sells_e85":"False","id":"apdi0knh5ymb","address":"1802 E Main St","sells_gas":"True","state":"WI"},"type":"Feature","geometry":{"type":"Point","coordinates":[-91.20924,43.883616]}},{"properties":{"city":"Onalaska","sells_lng":"False","sells_def":"False","storename":"Kwik Trip #383","zip":"54650","latitude":43.887673,"sells_cng":"False","sells_diesel":"True","storenumber":383,"phone":"608-779-9200","longitude":-91.21957,"sells_biodiesel":"False","sells_e85":"False","id":"apdi0ko3gjyi","address":"408 Sand Lake Rd","sells_gas":"True","state":"WI"},"type":"Feature","geometry":{"type":"Point","coordinates":[-91.21957,43.887673]}},{"properties":{"city":"Onalaska","sells_lng":"False","sells_def":"False","storename":"Kwik Trip #643","zip":"54650","latitude":43.867891,"sells_cng":"False","sells_diesel":"False","storenumber":643,"phone":"608-781-3350","longitude":-91.21045,"sells_biodiesel":"False","sells_e85":"False","id":"apdi0khpaq24","address":"1276 Crossing Meadows Dr","sells_gas":"True","state":"WI"},"type":"Feature","geometry":{"type":"Point","coordinates":[-91.21045,43.867891]}},{"properties":{"city":"Onalaska","sells_lng":"False","sells_def":"False","storename":"Kwik Trip #494","zip":"54650","latitude":43.922887,"sells_cng":"False","sells_diesel":"True","storenumber":494,"phone":"608-783-4422","longitude":-91.24498,"sells_biodiesel":"False","sells_e85":"False","id":"apdi0kltclv5","address":"W6782 Abbey Rd","sells_gas":"True","state":"WI"},"type":"Feature","geometry":{"type":"Point","coordinates":[-91.24498,43.922887]}},{"properties":{"city":"West Salem","sells_lng":"False","sells_def":"False","storename":"Kwik Trip #684","zip":"54669","latitude":43.8985,"sells_cng":"False","sells_diesel":"True","storenumber":684,"phone":"608-786-2412","longitude":-91.09986,"sells_biodiesel":"False","sells_e85":"False","id":"apdi0kd69evj","address":"985 W City Highway 16","sells_gas":"True","state":"WI"},"type":"Feature","geometry":{"type":"Point","coordinates":[-91.09986,43.8985]}}],"url_type":null,"author":{"metadata":"","url":"","contact_name":"","contact_address":"","contact_phone":"","source":""},"source":"","stream_id":485560,"tags":"","contributor":{"url":"http://geocommons.com/users/104377","name":"chris.hubbuch@gmail.com"},"id":485560,"data_attributes":null,"calculation_params":null}