{"type":"FeatureCollection","data_type":"Dataset","url_type":null,"permissions":[{"permissions":{"download":true,"view":true},"group_id":"everyone"}],"classification":null,"title":"Oregon Dept of Corrections, Oregon State Adult Correctional Institutions, Oregon, 3.2008 ","count":13,"stream_id":488,"contributor":{"url":"http://geocommons.com/users/2","name":"data"},"data_attributes":null,"calculation_params":null,"icon_link":null,"link":"http://geocommons.com/overlays/488.json","extent":[-124.176,42.2446,-117.067,45.927],"geometry_types":["point"],"unique_name":null,"name":"Oregon Dept of Corrections, Oregon State Adult Correctional Institutions, Oregon, 3.2008 ","feature_count":13,"description":"This dataset displays the locations of all the Adult Correctional Facilities in the state of Oregon as of 3.2008. This includes both female and male institutions.\n","next_feature":null,"is_raster":false,"short_classification":"Y","stats":{"lon":{"max":-117.067352,"mean":-121.223967461538,"variance":5.37362374882459,"stdev":2.31810779491045,"min":-124.175945,"median":-122.636879},"zip":{"max":97914,"mean":97520.0,"variance":82640.8333333333,"stdev":287.473187155486,"min":97070,"median":97459},"lat":{"max":45.926982,"mean":44.7239749230769,"variance":0.965954467042577,"stdev":0.982829826085155,"min":42.244565,"median":44.891492}},"features":[{"properties":{"city":"Wilsonville","lon":-122.791409,"zip":97070,"facility":"Coffee Creek Correctional Facility (CCCF)","id":"a6472buzo37x","address":"24499 SW Grahams Ferry Road","lat":45.341418,"state":"OR"},"type":"Feature","geometry":{"type":"Point","coordinates":[-122.791409,45.341418]}},{"properties":{"city":"Portland","lon":-122.636879,"zip":97211,"facility":"Columbia River Correctional Institution (CRCI)","id":"a6472c0zbwpm","address":"9111 NE Sunderland Avenue","lat":45.589464,"state":"OR"},"type":"Feature","geometry":{"type":"Point","coordinates":[-122.636879,45.589464]}},{"properties":{"city":"Madras","lon":-121.051116,"zip":97741,"facility":"Deer Ridge Correctional Institution (DRCI)","id":"a6472c1pl2u2","address":"3920 East Ashwood Road","lat":44.636932,"state":"OR"},"type":"Feature","geometry":{"type":"Point","coordinates":[-121.051116,44.636932]}},{"properties":{"city":"Pendleton","lon":-118.817316,"zip":97801,"facility":"Eastern Oregon Correctional Institution (EOCI)","id":"a6472c7u3erv","address":"2500 Westgate","lat":45.671117,"state":"OR"},"type":"Feature","geometry":{"type":"Point","coordinates":[-118.817316,45.671117]}},{"properties":{"city":"Salem","lon":-122.973951,"zip":97301,"facility":"Mill Creek Correctional Facility (MCCF)","id":"a6472bvfeosc","address":"5465 Turner Road","lat":44.875473,"state":"OR"},"type":"Feature","geometry":{"type":"Point","coordinates":[-122.973951,44.875473]}},{"properties":{"city":"Salem","lon":-122.949168,"zip":97310,"facility":"Oregon State Correctional Institution (OSCI)","id":"a6472c3woxvx","address":"3405 Deer Park Drive SE","lat":44.897635,"state":"OR"},"type":"Feature","geometry":{"type":"Point","coordinates":[-122.949168,44.897635]}},{"properties":{"city":"Salem","lon":-123.003694,"zip":97310,"facility":"Oregon State Penitentiary (OSP)","id":"a6472bvblgjh","address":"2605 State Street","lat":44.932095,"state":"OR"},"type":"Feature","geometry":{"type":"Point","coordinates":[-123.003694,44.932095]}},{"properties":{"city":"Baker City","lon":-117.843765,"zip":97814,"facility":"Powder River Correctional Facility (PRCF)","id":"a6472c5uc9l6","address":"3600 - 13th Street","lat":44.791653,"state":"OR"},"type":"Feature","geometry":{"type":"Point","coordinates":[-117.843765,44.791653]}},{"properties":{"city":"Salem","lon":-122.961023,"zip":97317,"facility":"Santiam Correctional Institution (SCI)","id":"a6472c5ukb15","address":"4005 Aumsville Highway SE","lat":44.891492,"state":"OR"},"type":"Feature","geometry":{"type":"Point","coordinates":[-122.961023,44.891492]}},{"properties":{"city":"North Bend","lon":-124.175945,"zip":97459,"facility":"Shutter Creek Correctional Inst. (SCCI)","id":"a6472c5izlqv","address":"95200 Shutters Landing Lane","lat":43.533544,"state":"OR"},"type":"Feature","geometry":{"type":"Point","coordinates":[-124.175945,43.533544]}},{"properties":{"city":"Ontario","lon":-117.067352,"zip":97914,"facility":"Snake River Correctional Institution (SRCI)","id":"a6472brs9yt0","address":"777 Stanton Boulevard","lat":44.079304,"state":"OR"},"type":"Feature","geometry":{"type":"Point","coordinates":[-117.067352,44.079304]}},{"properties":{"city":"Umatilla","lon":-119.2609,"zip":97882,"facility":"Two Rivers Correctional Institution (TRCI)","id":"a6472bx7bnp7","address":"82911 Beach Access Road","lat":45.926982,"state":"OR"},"type":"Feature","geometry":{"type":"Point","coordinates":[-119.2609,45.926982]}},{"properties":{"city":"Lakeview","lon":-120.379059,"zip":97630,"facility":"Warner Creek Correctional Facility (WCCF)","id":"a6472c7hmdp9","address":"20654 Rabbit Hill Road","lat":42.244565,"state":"OR"},"type":"Feature","geometry":{"type":"Point","coordinates":[-120.379059,42.244565]}}],"is_temporal":false,"author":{"url":"http://www.oregon.gov/DOC/","metadata":"","contact_name":"","contact_address":"","source":"Oregon Dept of Corrections","contact_phone":""},"source":"http://www.oregon.gov/DOC/","pagination":{"sort":null,"start":0,"total":13,"limit":1000000},"state":"complete","tags":"correctional,corrections,enforcement,institution,law,oregon,prisons","published":"2008-05-07T12:00:00Z","id":488}