{"type":"FeatureCollection","state":"complete","icon_link":null,"title":"Plot example - Small","count":37,"geometry_types":["point"],"unique_name":null,"pagination":{"sort":null,"start":0,"limit":1000000,"total":37},"feature_count":37,"data_type":"Dataset","stats":{"lon":{"max":153.593901,"mean":150.996030162162,"stdev":2.91639260071975,"median":151.203901,"min":141.960066,"variance":8.50534580153291},"sales":{"max":85,"mean":15.8378378378378,"stdev":18.9612375262937,"median":9,"min":1,"variance":359.528528528529},"postcode":{"max":3304,"mean":2434.08108108108,"stdev":336.869689476046,"median":2486,"min":2008,"variance":113481.187687688},"sales pen":{"max":0.01785,"mean":0.00242694594594595,"stdev":0.00324076001842114,"median":0.001715,"min":7.1e-05,"variance":1.0502525496997e-05},"sales pen_tile10":{"max":10,"mean":5.62162162162162,"stdev":2.27731995692002,"median":6,"min":1,"variance":5.18618618618619},"lat":{"max":-28.195403,"mean":-32.8251440540541,"stdev":3.05001772813839,"median":-33.925133,"min":-38.214987,"variance":9.3026081419585}},"next_feature":null,"is_raster":false,"link":"http://geocommons.com/overlays/488078.json","short_classification":"Y","name":"Plot example - Small","is_temporal":false,"description":"","permissions":[{"group_id":"everyone","permissions":{"download":true,"view":true}}],"classification":null,"published":"2015-08-29T13:54:41-04:00","extent":[141.96,-38.215,153.594,-28.1954],"features":[{"properties":{"lon":151.191243,"sales":5,"postcode":2008,"sales pen":0.001486,"suburb":"DARLINGTON","sales pen_tile10":6,"id":"apm7bdwloe82","dc":"WATERLOO DELIVERY FACILITY","lat":-33.891348,"state":"NSW"},"type":"Feature","geometry":{"type":"Point","coordinates":[151.191243,-33.891348]}},{"properties":{"lon":151.21956,"sales":3,"postcode":2010,"sales pen":0.000191,"suburb":"DARLINGHURST","sales pen_tile10":2,"id":"apm7bdq9fuos","dc":"WATERLOO DELIVERY FACILITY","lat":-33.879825,"state":"NSW"},"type":"Feature","geometry":{"type":"Point","coordinates":[151.21956,-33.879825]}},{"properties":{"lon":151.226593,"sales":8,"postcode":2011,"sales pen":0.000792,"suburb":"ELIZABETH BAY","sales pen_tile10":4,"id":"apm7be0zrotq","dc":"WATERLOO DELIVERY FACILITY","lat":-33.872829,"state":"NSW"},"type":"Feature","geometry":{"type":"Point","coordinates":[151.226593,-33.872829]}},{"properties":{"lon":151.203901,"sales":2,"postcode":2016,"sales pen":0.000259,"suburb":"REDFERN","sales pen_tile10":2,"id":"apm7bdw4ve38","dc":"WATERLOO DELIVERY FACILITY","lat":-33.892778,"state":"NSW"},"type":"Feature","geometry":{"type":"Point","coordinates":[151.203901,-33.892778]}},{"properties":{"lon":151.206234,"sales":25,"postcode":2017,"sales pen":0.003355,"suburb":"ZETLAND","sales pen_tile10":8,"id":"apm7bdv7neoa","dc":"WATERLOO DELIVERY FACILITY","lat":-33.909938,"state":"NSW"},"type":"Feature","geometry":{"type":"Point","coordinates":[151.206234,-33.909938]}},{"properties":{"lon":151.213199,"sales":3,"postcode":2018,"sales pen":0.000401,"suburb":"EASTLAKES","sales pen_tile10":3,"id":"apm7bdzdfrg1","dc":"ALEXANDRIA DF","lat":-33.925133,"state":"NSW"},"type":"Feature","geometry":{"type":"Point","coordinates":[151.213199,-33.925133]}},{"properties":{"lon":151.206715,"sales":6,"postcode":2019,"sales pen":0.001609,"suburb":"BANKSMEADOW","sales pen_tile10":6,"id":"apm7bdvvz3fn","dc":"ALEXANDRIA DF","lat":-33.95742,"state":"NSW"},"type":"Feature","geometry":{"type":"Point","coordinates":[151.206715,-33.95742]}},{"properties":{"lon":151.19431,"sales":3,"postcode":2020,"sales pen":0.000474,"suburb":"MASCOT","sales pen_tile10":3,"id":"apm7be220kqj","dc":"ALEXANDRIA DF","lat":-33.931189,"state":"NSW"},"type":"Feature","geometry":{"type":"Point","coordinates":[151.19431,-33.931189]}},{"properties":{"lon":151.219357,"sales":1,"postcode":2021,"sales pen":0.000127,"suburb":"MOORE PARK","sales pen_tile10":1,"id":"apm7bdzwrbzy","dc":"WATERLOO DELIVERY FACILITY","lat":-33.893632,"state":"NSW"},"type":"Feature","geometry":{"type":"Point","coordinates":[151.219357,-33.893632]}},{"properties":{"lon":151.262502,"sales":1,"postcode":2026,"sales pen":7.1e-05,"suburb":"BONDI","sales pen_tile10":1,"id":"apm7be1uur33","dc":"WATERLOO DELIVERY FACILITY","lat":-33.893739,"state":"NSW"},"type":"Feature","geometry":{"type":"Point","coordinates":[151.262502,-33.893739]}},{"properties":{"lon":152.320879,"sales":1,"postcode":2476,"sales pen":0.001845,"suburb":"ACACIA CREEK","sales pen_tile10":6,"id":"apm7bdpv8b2p","dc":"WOODENBONG LPO","lat":-28.373331,"state":"NSW"},"type":"Feature","geometry":{"type":"Point","coordinates":[152.320879,-28.373331]}},{"properties":{"lon":153.466641,"sales":2,"postcode":2477,"sales pen":0.000361,"suburb":"EAST WARDELL","sales pen_tile10":3,"id":"apm7bdrzsboa","dc":"ALSTONVILLE DC","lat":-28.956977,"state":"NSW"},"type":"Feature","geometry":{"type":"Point","coordinates":[153.466641,-28.956977]}},{"properties":{"lon":153.593901,"sales":31,"postcode":2478,"sales pen":0.002567,"suburb":"LENNOX HEAD","sales pen_tile10":7,"id":"apm7bdthg53c","dc":"BALLINA DC","lat":-28.795715,"state":"NSW"},"type":"Feature","geometry":{"type":"Point","coordinates":[153.593901,-28.795715]}},{"properties":{"lon":153.364249,"sales":54,"postcode":2480,"sales pen":0.00281,"suburb":"BOAT HARBOUR","sales pen_tile10":7,"id":"apm7bdy9zywh","dc":"LISMORE DC","lat":-28.780311,"state":"NSW"},"type":"Feature","geometry":{"type":"Point","coordinates":[153.364249,-28.780311]}},{"properties":{"lon":153.55987,"sales":3,"postcode":2481,"sales pen":0.000633,"suburb":"TALOFA","sales pen_tile10":4,"id":"apm7bdprja6q","dc":"BYRON BAY DC","lat":-28.674223,"state":"NSW"},"type":"Feature","geometry":{"type":"Point","coordinates":[153.55987,-28.674223]}},{"properties":{"lon":153.528274,"sales":9,"postcode":2483,"sales pen":0.002022,"suburb":"BILLINUDGEL","sales pen_tile10":6,"id":"apm7be0v373j","dc":"MULLUMBIMBY DELIVERY","lat":-28.504114,"state":"NSW"},"type":"Feature","geometry":{"type":"Point","coordinates":[153.528274,-28.504114]}},{"properties":{"lon":153.277703,"sales":6,"postcode":2484,"sales pen":0.000703,"suburb":"CHILLINGHAM","sales pen_tile10":4,"id":"apm7be3yhee5","dc":"MURWILLUMBAH DC","lat":-28.31412,"state":"NSW"},"type":"Feature","geometry":{"type":"Point","coordinates":[153.277703,-28.31412]}},{"properties":{"lon":153.505049,"sales":20,"postcode":2485,"sales pen":0.002696,"suburb":"TWEED HEADS WEST","sales pen_tile10":7,"id":"apm7be4jk2p2","dc":"TWEED HEADS SOUTH DC","lat":-28.195403,"state":"NSW"},"type":"Feature","geometry":{"type":"Point","coordinates":[153.505049,-28.195403]}},{"properties":{"lon":153.479427,"sales":18,"postcode":2486,"sales pen":0.001296,"suburb":"BUNGALORA","sales pen_tile10":5,"id":"apm7bdujdbw7","dc":"TWEED HEADS SOUTH DC","lat":-28.249472,"state":"NSW"},"type":"Feature","geometry":{"type":"Point","coordinates":[153.479427,-28.249472]}},{"properties":{"lon":153.571274,"sales":9,"postcode":2487,"sales pen":0.001901,"suburb":"CASUARINA","sales pen_tile10":6,"id":"apm7bdxyh8g9","dc":"TWEED HEADS SOUTH DC","lat":-28.296652,"state":"NSW"},"type":"Feature","geometry":{"type":"Point","coordinates":[153.571274,-28.296652]}},{"properties":{"lon":153.56855,"sales":4,"postcode":2489,"sales pen":0.001395,"suburb":"POTTSVILLE","sales pen_tile10":5,"id":"apm7bdxm7f21","dc":"TWEED HEADS SOUTH DC","lat":-28.379066,"state":"NSW"},"type":"Feature","geometry":{"type":"Point","coordinates":[153.56855,-28.379066]}},{"properties":{"lon":150.87392,"sales":42,"postcode":2500,"sales pen":0.002612,"suburb":"MOUNT SAINT THOMAS","sales pen_tile10":7,"id":"apm7bdrkezp2","dc":"WOLLONGONG DC","lat":-34.442905,"state":"NSW"},"type":"Feature","geometry":{"type":"Point","coordinates":[150.87392,-34.442905]}},{"properties":{"lon":150.881602,"sales":14,"postcode":2502,"sales pen":0.00208,"suburb":"PRIMBEE","sales pen_tile10":7,"id":"apm7bdvrqb30","dc":"WOLLONGONG DC","lat":-34.500655,"state":"NSW"},"type":"Feature","geometry":{"type":"Point","coordinates":[150.881602,-34.500655]}},{"properties":{"lon":150.901651,"sales":10,"postcode":2505,"sales pen":0.003078,"suburb":"PORT KEMBLA","sales pen_tile10":8,"id":"apm7bdu5e8dr","dc":"WOLLONGONG DC","lat":-34.479473,"state":"NSW"},"type":"Feature","geometry":{"type":"Point","coordinates":[150.901651,-34.479473]}},{"properties":{"lon":150.844147,"sales":39,"postcode":2506,"sales pen":0.010873,"suburb":"BERKELEY","sales pen_tile10":10,"id":"apm7bdoje5i2","dc":"WOLLONGONG DC","lat":-34.481408,"state":"NSW"},"type":"Feature","geometry":{"type":"Point","coordinates":[150.844147,-34.481408]}},{"properties":{"lon":150.986148,"sales":3,"postcode":2508,"sales pen":0.001058,"suburb":"STANWELL PARK","sales pen_tile10":5,"id":"apm7be3ubngt","dc":"HELENSBURGH DC","lat":-34.226019,"state":"NSW"},"type":"Feature","geometry":{"type":"Point","coordinates":[150.986148,-34.226019]}},{"properties":{"lon":150.913281,"sales":4,"postcode":2516,"sales pen":0.001201,"suburb":"BULLI","sales pen_tile10":5,"id":"apm7bdsq72ke","dc":"BELLAMBI DC","lat":-34.333861,"state":"NSW"},"type":"Feature","geometry":{"type":"Point","coordinates":[150.913281,-34.333861]}},{"properties":{"lon":150.900783,"sales":10,"postcode":2517,"sales pen":0.001715,"suburb":"RUSSELL VALE","sales pen_tile10":6,"id":"apm7be2rm4ao","dc":"BELLAMBI DC","lat":-34.358093,"state":"NSW"},"type":"Feature","geometry":{"type":"Point","coordinates":[150.900783,-34.358093]}},{"properties":{"lon":150.897239,"sales":39,"postcode":2518,"sales pen":0.004691,"suburb":"CORRIMAL","sales pen_tile10":8,"id":"apm7bduix5on","dc":"BELLAMBI DC","lat":-34.371151,"state":"NSW"},"type":"Feature","geometry":{"type":"Point","coordinates":[150.897239,-34.371151]}},{"properties":{"lon":150.877689,"sales":20,"postcode":2519,"sales pen":0.002705,"suburb":"BALGOWNIE","sales pen_tile10":7,"id":"apm7bdto94oy","dc":"BELLAMBI DC","lat":-34.38859,"state":"NSW"},"type":"Feature","geometry":{"type":"Point","coordinates":[150.877689,-34.38859]}},{"properties":{"lon":150.838399,"sales":13,"postcode":2526,"sales pen":0.00203,"suburb":"CORDEAUX HEIGHTS","sales pen_tile10":6,"id":"apm7bdytcani","dc":"WOLLONGONG DC","lat":-34.439801,"state":"NSW"},"type":"Feature","geometry":{"type":"Point","coordinates":[150.838399,-34.439801]}},{"properties":{"lon":150.775031,"sales":24,"postcode":2527,"sales pen":0.003209,"suburb":"ALBION PARK","sales pen_tile10":8,"id":"apm7bdvin11s","dc":"OAK FLATS DC","lat":-34.570722,"state":"NSW"},"type":"Feature","geometry":{"type":"Point","coordinates":[150.775031,-34.570722]}},{"properties":{"lon":150.867375,"sales":54,"postcode":2528,"sales pen":0.005241,"suburb":"BARRACK POINT","sales pen_tile10":9,"id":"apm7be49ga4m","dc":"OAK FLATS DC","lat":-34.563249,"state":"NSW"},"type":"Feature","geometry":{"type":"Point","coordinates":[150.867375,-34.563249]}},{"properties":{"lon":150.836628,"sales":9,"postcode":2529,"sales pen":0.000935,"suburb":"SHELLHARBOUR CITY CENTRE","sales pen_tile10":4,"id":"apm7bdx7f0cw","dc":"OAK FLATS DC","lat":-34.564922,"state":"NSW"},"type":"Feature","geometry":{"type":"Point","coordinates":[150.836628,-34.564922]}},{"properties":{"lon":142.153594,"sales":3,"postcode":3284,"sales pen":0.001597,"suburb":"ORFORD","sales pen_tile10":6,"id":"apm7bdy4wet7","dc":"PORT FAIRY","lat":-38.214987,"state":"VIC"},"type":"Feature","geometry":{"type":"Point","coordinates":[142.153594,-38.214987]}},{"properties":{"lon":141.960066,"sales":85,"postcode":3300,"sales pen":0.01785,"suburb":"BYADUK NORTH","sales pen_tile10":10,"id":"apm7bdxb37fc","dc":"HAMILTON POST SHOP","lat":-37.880712,"state":"VIC"},"type":"Feature","geometry":{"type":"Point","coordinates":[141.960066,-37.880712]}},{"properties":{"lon":141.966132,"sales":3,"postcode":3304,"sales pen":0.001928,"suburb":"BESSIEBELLE","sales pen_tile10":6,"id":"apm7bdwm4h59","dc":"HEYWOOD","lat":-38.146567,"state":"VIC"},"type":"Feature","geometry":{"type":"Point","coordinates":[141.966132,-38.146567]}}],"url_type":null,"author":{"metadata":"","url":"","contact_name":"","contact_address":"","contact_phone":"","source":""},"source":"","stream_id":488078,"tags":"","contributor":{"url":"http://geocommons.com/users/99939","name":"tanf"},"id":488078,"data_attributes":null,"calculation_params":null}