{"type":"FeatureCollection","state":"complete","icon_link":null,"title":"boone local econ","count":25,"geometry_types":["point"],"unique_name":null,"pagination":{"sort":null,"start":0,"limit":1000000,"total":25},"feature_count":25,"data_type":"Dataset","stats":{},"next_feature":null,"is_raster":false,"link":"http://geocommons.com/overlays/488558.json","short_classification":"Y","name":"boone local econ","is_temporal":false,"description":"","permissions":[{"group_id":"everyone","permissions":{"download":true,"view":true}}],"classification":null,"published":"2015-08-29T13:54:45-04:00","extent":[-81.7818,36.1246,-81.6274,36.2229],"features":[{"properties":{"city":"Boone","name":"Dos Amigos","zip":"28607","geo_score":0.619,"street address":"187 New Market Center","phone":"828-265-1674","id":"apowbk8z2cwe","geo_precision":"street","state":"NC"},"type":"Feature","geometry":{"type":"Point","coordinates":[-81.627858,36.213305]}},{"properties":{"city":"Boone","name":"Casa Rustica","zip":"28607","geo_score":0.743,"street address":"1348 Highway 105","phone":"828-262-5128","id":"apowbk0z7q6v","geo_precision":"range","state":"NC"},"type":"Feature","geometry":{"type":"Point","coordinates":[-81.675724,36.20288]}},{"properties":{"city":"Boone","name":"Coyote Kitchen","zip":"28607","geo_score":0.585,"street address":"200 Southgate Drive","phone":"828-265-4041","id":"apowbjxb6n6m","geo_precision":"zip","state":"NC"},"type":"Feature","geometry":{"type":"Point","coordinates":[-81.683719,36.219017]}},{"properties":{"city":"Boone","name":"Caf≈Ω Portfino","zip":"28607","geo_score":1.0,"street address":"970 Rivers Street","phone":"828-264-7772","id":"apowbjukg6fb","geo_precision":"range","state":"NC"},"type":"Feature","geometry":{"type":"Point","coordinates":[-81.685568,36.217688]}},{"properties":{"city":"Boone","name":"Joy Bistro","zip":"28607","geo_score":0.635,"street address":"115 New Market Center","phone":"828-265-0500","id":"apowbk1kwr27","geo_precision":"street","state":"NC"},"type":"Feature","geometry":{"type":"Point","coordinates":[-81.627443,36.214132]}},{"properties":{"city":"Blowing Rock","name":"Mystery Hill","zip":"28605","geo_score":0.626,"street address":"129 Mystery Hill Lane","phone":"828-264-2792","id":"apowbjwkuk9f","geo_precision":"street","state":"NC"},"type":"Feature","geometry":{"type":"Point","coordinates":[-81.72055,36.124594]}},{"properties":{"city":"Boone","name":"Boone Bowling","zip":"28607","geo_score":0.615,"street address":"261 Boone Heights Drive","phone":"828-264-3166","id":"apowbju7x467","geo_precision":"street","state":"NC"},"type":"Feature","geometry":{"type":"Point","coordinates":[-81.656623,36.201803]}},{"properties":{"city":"Boone","name":"Tweetsie Railroad","zip":"28605","geo_score":0.721,"street address":"200 Tweetsie Railroad Road","phone":"828-264-9061","id":"apowbk4km2ow","geo_precision":"range","state":"NC"},"type":"Feature","geometry":{"type":"Point","coordinates":[-81.781808,36.158296]}},{"properties":{"city":"Boone","name":"Fun N' Wheels","zip":"28607","geo_score":0.671,"street address":"2788 Highway 105","phone":"828-262-3780","id":"apowbjt6cxx3","geo_precision":"street","state":"NC"},"type":"Feature","geometry":{"type":"Point","coordinates":[-81.693212,36.204788]}},{"properties":{"city":"Boone","name":"Magic Mountain Mini Golf","zip":"28607","geo_score":0.677,"street address":"1675 Highway 105","phone":"828-265-4653","id":"apowbk0qb5ni","geo_precision":"street","state":"NC"},"type":"Feature","geometry":{"type":"Point","coordinates":[-81.677433,36.20247]}},{"properties":{"city":"Boone","name":"Cortyard Boone","zip":"28607","geo_score":0.674,"street address":"1050 Highway 105","phone":"828-265-7676","id":"apowbk54qkvs","geo_precision":"street","state":"NC"},"type":"Feature","geometry":{"type":"Point","coordinates":[-81.670301,36.204879]}},{"properties":{"city":"Boone","name":"La Quinta Inn","zip":"28607","geo_score":0.653,"street address":"265 Highway 105 Extension","phone":"828-262-1234","id":"apowbjzste31","geo_precision":"street","state":"NC"},"type":"Feature","geometry":{"type":"Point","coordinates":[-81.718412,36.222944]}},{"properties":{"city":"Boone","name":"Fairfield Inn","zip":"28607","geo_score":0.806,"street address":"1060 Blowing Rock Road","phone":"828-268-0677","id":"apowbjwm7qba","geo_precision":"street","state":"NC"},"type":"Feature","geometry":{"type":"Point","coordinates":[-81.655831,36.197492]}},{"properties":{"city":"Boone","name":"Holiday Inn Express","zip":"28607","geo_score":0.806,"street address":"1943 Blowing Rock Road","phone":"828-264-2451","id":"apowbk6i5isv","geo_precision":"street","state":"NC"},"type":"Feature","geometry":{"type":"Point","coordinates":[-81.65413,36.196442]}},{"properties":{"city":"Boone","name":"Baymont Inn &amp; Suites","zip":"28607","geo_score":0.671,"street address":"1075 Highway 105","phone":"828-264-0077","id":"apowbjzxh077","geo_precision":"street","state":"NC"},"type":"Feature","geometry":{"type":"Point","coordinates":[-81.675102,36.203081]}},{"properties":{"city":"Boone","name":"Greenway Baptist Church","zip":"28607","geo_score":0.808,"street address":"880 Greenway Road","phone":"828-264-7750","id":"apowbjzfaxr6","geo_precision":"street","state":"NC"},"type":"Feature","geometry":{"type":"Point","coordinates":[-81.663356,36.198003]}},{"properties":{"city":"Boone","name":"First Baptist Church","zip":"28607","geo_score":0.619,"street address":"375 W. King Street","phone":"828-264-2441","id":"apowbk8ah6uc","geo_precision":"street","state":"NC"},"type":"Feature","geometry":{"type":"Point","coordinates":[-81.674728,36.216462]}},{"properties":{"city":"Boone","name":"Alliance Bible Fellowship","zip":"28607","geo_score":0.897,"street address":"1035 Highway 105 Bypass","phone":"828-264-8312","id":"apowbjzdmvu4","geo_precision":"range","state":"NC"},"type":"Feature","geometry":{"type":"Point","coordinates":[-81.717134,36.219448]}},{"properties":{"city":"Boone","name":"Boone United Methodist Church","zip":"28607","geo_score":0.824,"street address":"471 New Market Blvd.","phone":"828-264-6090","id":"apowbk0u04hg","geo_precision":"range","state":"NC"},"type":"Feature","geometry":{"type":"Point","coordinates":[-81.630223,36.214373]}},{"properties":{"city":"Boone","name":"St. Elizabeth of the Hill Country","zip":"28607","geo_score":1.0,"street address":"259 Pilgrams Way","phone":"828-264-8338","id":"apowbjy42p10","geo_precision":"range","state":"NC"},"type":"Feature","geometry":{"type":"Point","coordinates":[-81.6614,36.195092]}},{"properties":{"city":"Boone","name":"John B. Berry, CPA","zip":"28607","geo_score":1.0,"street address":"895 State Farm Road","phone":"828-264-5500","id":"apowbk8nqgup","geo_precision":"range","state":"NC"},"type":"Feature","geometry":{"type":"Point","coordinates":[-81.658715,36.204218]}},{"properties":{"city":"Boone","name":"Johnson, Price &amp; Sprinkle, PA","zip":"28607","geo_score":0.807,"street address":"1013 State Farm Road","phone":"828-262-0997","id":"apowbjwe7o68","geo_precision":"street","state":"NC"},"type":"Feature","geometry":{"type":"Point","coordinates":[-81.656215,36.202814]}},{"properties":{"city":"Boone","name":"Deal, Moseley &amp; Smith","zip":"28607","geo_score":0.619,"street address":"870 W. King Street","phone":"828-264-4734","id":"apowbk7utyx2","geo_precision":"street","state":"NC"},"type":"Feature","geometry":{"type":"Point","coordinates":[-81.674728,36.216462]}},{"properties":{"city":"Boone","name":"Turlington Law Firm","zip":"28607","geo_score":0.619,"street address":"890 W. King Street","phone":"828-263-8860","id":"apowbk1e5gs5","geo_precision":"street","state":"NC"},"type":"Feature","geometry":{"type":"Point","coordinates":[-81.674728,36.216462]}},{"properties":{"city":"Boone","name":"Eggers Law Firm","zip":"28607","geo_score":0.619,"street address":"737 W. King Street","phone":"828-264-3601","id":"apowbjzd2m6j","geo_precision":"street","state":"NC"},"type":"Feature","geometry":{"type":"Point","coordinates":[-81.674728,36.216462]}}],"url_type":null,"author":{"metadata":"","url":"","contact_name":"","contact_address":"","contact_phone":"","source":""},"source":"","stream_id":488558,"tags":"","contributor":{"url":"http://geocommons.com/users/85280","name":"mrmspyker"},"id":488558,"data_attributes":null,"calculation_params":null}