{"type":"FeatureCollection","state":"complete","icon_link":null,"title":"2014 Addresses for Company Location 2","count":90,"geometry_types":["point"],"unique_name":null,"pagination":{"sort":null,"start":0,"limit":1000000,"total":90},"feature_count":90,"data_type":"Dataset","stats":{},"next_feature":null,"is_raster":false,"link":"http://geocommons.com/overlays/494062.json","short_classification":"Y","name":"2014 Addresses for Company Location 2","is_temporal":false,"description":"","permissions":[{"group_id":"everyone","permissions":{"download":true,"view":true}}],"classification":null,"published":"2014-10-22T16:00:00Z","extent":[-119.152,33.5972,-117.681,34.4496],"features":[{"properties":{"name":"Cheng, Tiffany","city":"Los Angeles","geo_score":0.604,"zip code":"90012","id":"aqqspykwjxf7","address":"123 S. Figueroa St.","group":"Accountant","geo_precision":"street","state":"CA"},"type":"Feature","geometry":{"type":"Point","coordinates":[-118.253124,34.056549]}},{"properties":{"name":"Fletes, Maria","city":"Los Angeles","geo_score":0.927,"zip code":"90033","id":"aqqspyvth0v1","address":"2825 E 4th St","group":"Accountant","geo_precision":"range","state":"CA"},"type":"Feature","geometry":{"type":"Point","coordinates":[-118.205709,34.037907]}},{"properties":{"name":"Izaguirre, Marco","city":"Granada Hills","geo_score":1.0,"zip code":"91344","id":"aqqspysp2aqh","address":"16401 Knollwood Drive","group":"Accountant","geo_precision":"range","state":"CA"},"type":"Feature","geometry":{"type":"Point","coordinates":[-118.495446,34.294969]}},{"properties":{"name":"Johnson, Jill","city":"Canyon Country","geo_score":0.915,"zip code":"91387","id":"aqqspyrdsee7","address":"29905 Orchid Cove Dr","group":"Accountant","geo_precision":"range","state":"CA"},"type":"Feature","geometry":{"type":"Point","coordinates":[-118.391749,34.449564]}},{"properties":{"name":"Shiue, Wen","city":"Los Angeles","geo_score":1.0,"zip code":"90046","id":"aqqspypqek09","address":"931 N Laurel Ave","group":"Accountant","geo_precision":"range","state":"CA"},"type":"Feature","geometry":{"type":"Point","coordinates":[-118.364918,34.088266]}},{"properties":{"name":"Sichko, Tricia","city":"Los Angeles","geo_score":1.0,"zip code":"90046","id":"aqqspyxj6l4a","address":"7450 Hollywood Blvd.","group":"Accountant","geo_precision":"range","state":"CA"},"type":"Feature","geometry":{"type":"Point","coordinates":[-118.352848,34.101645]}},{"properties":{"name":"Campbell, Claudia","city":"Los Angeles","geo_score":1.0,"zip code":"90024","id":"aqqspyqmalp7","address":"10599 Wilshire Blvd.","group":"Admin Asst","geo_precision":"range","state":"CA"},"type":"Feature","geometry":{"type":"Point","coordinates":[-118.432892,34.062529]}},{"properties":{"name":"Lawson, Etienne","city":"Los Angeles","geo_score":0.585,"zip code":"90066","id":"aqqspyme38nk","address":"11801 Courtleigh Drive","group":"Admin Asst","geo_precision":"zip","state":"CA"},"type":"Feature","geometry":{"type":"Point","coordinates":[-118.298662,33.786594]}},{"properties":{"name":"Liston, David J","city":"Simi Valley","geo_score":1.0,"zip code":"93063","id":"aqqspyj0zk5p","address":"3287 Wisdom Ct","group":"Dept Head","geo_precision":"range","state":"CA"},"type":"Feature","geometry":{"type":"Point","coordinates":[-118.730934,34.294011]}},{"properties":{"name":"Berger, Celine","city":"Redondo Beach","geo_score":1.0,"zip code":"90278","id":"aqqspyp77p11","address":"1105 Harkness Lane","group":"Manager/Director","geo_precision":"range","state":"CA"},"type":"Feature","geometry":{"type":"Point","coordinates":[-118.381209,33.86519]}},{"properties":{"name":"Kontorer, Elena","city":"Manhattan Beach","geo_score":1.0,"zip code":"90266","id":"aqqspyro8m4x","address":"1311 Curtis Ave","group":"Manager/Director","geo_precision":"range","state":"CA"},"type":"Feature","geometry":{"type":"Point","coordinates":[-118.389738,33.877995]}},{"properties":{"name":"Tarasyuk, Zoya","city":"Mission Hills","geo_score":1.0,"zip code":"91345","id":"aqqspyrmzz0z","address":"15123 Hiawatha St.","group":"Manager/Director","geo_precision":"range","state":"CA"},"type":"Feature","geometry":{"type":"Point","coordinates":[-118.460768,34.259203]}},{"properties":{"name":"La, Duke","city":"Rossmoor","geo_score":1.0,"zip code":"90720","id":"aqqspyj1u88p","address":"11372 Wallingsford Road","group":"Manager/Director","geo_precision":"range","state":"CA"},"type":"Feature","geometry":{"type":"Point","coordinates":[-118.074295,33.798761]}},{"properties":{"name":"Johnson, Robert","city":"Torrance","geo_score":1.0,"zip code":"90505","id":"aqqspyulxqxg","address":"22505 Kathryn Ave","group":"SVP","geo_precision":"range","state":"CA"},"type":"Feature","geometry":{"type":"Point","coordinates":[-118.361607,33.82605]}},{"properties":{"name":"Lok, Betty","city":"La Canada Flintridge","geo_score":1.0,"zip code":"91011","id":"aqqspyq2o7dt","address":"4161 Forest Hill Drive","group":"VP","geo_precision":"range","state":"CA"},"type":"Feature","geometry":{"type":"Point","coordinates":[-118.206905,34.196488]}},{"properties":{"name":"Shibata, Sidney","city":"Rolling Hills Estates","geo_score":1.0,"zip code":"90274","id":"aqqspyrzjtww","address":"27710 Saddle Road","group":"VP","geo_precision":"range","state":"CA"},"type":"Feature","geometry":{"type":"Point","coordinates":[-118.318928,33.766469]}},{"properties":{"name":"McDermid, Susie","city":"Los Angeles","geo_score":1.0,"zip code":"90066","id":"aqqspyskfwwb","address":"3849 Sawtelle Blvd","group":"Admin Asst","geo_precision":"range","state":"CA"},"type":"Feature","geometry":{"type":"Point","coordinates":[-118.418668,34.010105]}},{"properties":{"name":"Penfold, Olivia","city":"Los Angeles","geo_score":1.0,"zip code":"90005","id":"aqqspyuci435","address":"120 Fremont Place","group":"Manager/Director","geo_precision":"range","state":"CA"},"type":"Feature","geometry":{"type":"Point","coordinates":[-118.328537,34.056166]}},{"properties":{"name":"Kooklan, Behrooz","city":"Thousand Oaks","geo_score":0.585,"zip code":"91362","id":"aqqspyi10un3","address":"490 Rye Court","group":"Manager/Director","geo_precision":"zip","state":"CA"},"type":"Feature","geometry":{"type":"Point","coordinates":[-118.823177,34.194756]}},{"properties":{"name":"Williams, Dave","city":"Los Angeles","geo_score":0.397,"zip code":"90036","id":"aqqspysw323f","address":"101 The Gove Drive","group":"Dept Head","geo_precision":"street","state":"CA"},"type":"Feature","geometry":{"type":"Point","coordinates":[-118.253616,34.092242]}},{"properties":{"name":"Baker, Timothy","city":"Los Angeles","geo_score":1.0,"zip code":"90077","id":"aqqspyst1t89","address":"2075 Linda Flora Drive","group":"VP","geo_precision":"range","state":"CA"},"type":"Feature","geometry":{"type":"Point","coordinates":[-118.466177,34.105847]}},{"properties":{"name":"Nelson, Anna","city":"Los Angeles","geo_score":0.619,"zip code":"90045","id":"aqqspyq6x4g0","address":"6321 W. 79th Street","group":"VP","geo_precision":"street","state":"CA"},"type":"Feature","geometry":{"type":"Point","coordinates":[-118.37747,33.96534]}},{"properties":{"name":"Johnson, Marcia","city":"Los Angeles","geo_score":1.0,"zip code":"90066","id":"aqqspyhuewth","address":"3450 Sawtelle Blvd.","group":"Manager/Director","geo_precision":"range","state":"CA"},"type":"Feature","geometry":{"type":"Point","coordinates":[-118.42391,34.016734]}},{"properties":{"name":"Reeder, Tasha L","city":"Culver City","geo_score":1.0,"zip code":"90230","id":"aqqspyxe3ehf","address":"11315 Playa Street","group":"Manager/Director","geo_precision":"range","state":"CA"},"type":"Feature","geometry":{"type":"Point","coordinates":[-118.393632,33.99123]}},{"properties":{"name":"Veje, Thomas A.","city":"Los Angeles","geo_score":0.602,"zip code":"90036","id":"aqqspymt6lwt","address":"326 N. Sycamore Ave.","group":"Dept Head","geo_precision":"street","state":"CA"},"type":"Feature","geometry":{"type":"Point","coordinates":[-118.342945,34.076167]}},{"properties":{"name":"Wellington, Kirk","city":"Ventura","geo_score":1.0,"zip code":"93004","id":"aqqspysilf7o","address":"1603 Daffodil Ave","group":"Manager/Director","geo_precision":"range","state":"CA"},"type":"Feature","geometry":{"type":"Point","coordinates":[-119.151566,34.277107]}},{"properties":{"name":"Greenberg, Ken","city":"Seal Beach","geo_score":1.0,"zip code":"90740","id":"aqqspyk4b590","address":"1415 Ocean Ave","group":"VP","geo_precision":"range","state":"CA"},"type":"Feature","geometry":{"type":"Point","coordinates":[-118.100772,33.737381]}},{"properties":{"name":"Hayden, Peter","city":"Laguna Hills","geo_score":0.92,"zip code":"92653","id":"aqqspyxdbjnq","address":"25132 Bautista Drive","group":"SVP","geo_precision":"range","state":"CA"},"type":"Feature","geometry":{"type":"Point","coordinates":[-117.681362,33.597207]}},{"properties":{"name":"Wix, Mark","city":"Fullerton","geo_score":1.0,"zip code":"92835","id":"aqqspyl5115b","address":"2901 San Juan Drive","group":"VP","geo_precision":"range","state":"CA"},"type":"Feature","geometry":{"type":"Point","coordinates":[-117.928709,33.905344]}},{"properties":{"name":"Ketelhut, Sarah","city":"Thousand Oaks","geo_score":0.896,"zip code":"91361","id":"aqqspyj7zilu","address":"36 Pinecrest Drive","group":"Admin Asst","geo_precision":"range","state":"CA"},"type":"Feature","geometry":{"type":"Point","coordinates":[-118.87921,34.169724]}},{"properties":{"name":"Yee, Kevin","city":"Los Angeles","geo_score":1.0,"zip code":"90025","id":"aqqspyw1i8in","address":"10537 Louisiana Ave","group":"Manager/Director","geo_precision":"range","state":"CA"},"type":"Feature","geometry":{"type":"Point","coordinates":[-118.423047,34.049824]}},{"properties":{"name":"Gazzano, Michael","city":"Los Angeles","geo_score":0.883,"zip code":"90049","id":"aqqspysg46m2","address":"12012 Goshen","group":"Manager/Director","geo_precision":"range","state":"CA"},"type":"Feature","geometry":{"type":"Point","coordinates":[-118.466489,34.04657]}},{"properties":{"name":"Krenzien, Evan","city":"Marina Del Rey","geo_score":1.0,"zip code":"90292","id":"aqqspytyg0j3","address":"804 Howard St","group":"Manager/Director","geo_precision":"range","state":"CA"},"type":"Feature","geometry":{"type":"Point","coordinates":[-118.450326,33.988022]}},{"properties":{"name":"Lemmo, Rick A","city":"Newbury Park","geo_score":0.37,"zip code":"91320","id":"aqqspyqxpt8x","address":"83 Via Ricardo","group":"SVP","geo_precision":"street","state":"CA"},"type":"Feature","geometry":{"type":"Point","coordinates":[-118.83568,34.21255]}},{"properties":{"name":"Garrison, Samuel","city":"Pasadena","geo_score":1.0,"zip code":"91106","id":"aqqspymtsiha","address":"1570 Las Lunas St.","group":"VP","geo_precision":"range","state":"CA"},"type":"Feature","geometry":{"type":"Point","coordinates":[-118.119353,34.156469]}},{"properties":{"name":"Ross, Bryce","city":"Manhattan Beach","geo_score":1.0,"zip code":"90266","id":"aqqspyu8gbr6","address":"2404 Laurel Ave.","group":"VP","geo_precision":"range","state":"CA"},"type":"Feature","geometry":{"type":"Point","coordinates":[-118.404201,33.894376]}},{"properties":{"name":"Abramson, Lauren","city":"Santa Monica","geo_score":0.916,"zip code":"90401","id":"aqqspylistjn","address":"1317 12th Street","group":"Admin Asst","geo_precision":"range","state":"CA"},"type":"Feature","geometry":{"type":"Point","coordinates":[-118.48776,34.022823]}},{"properties":{"name":"Caruso, Rick J","city":"Los Angeles","geo_score":0.366,"zip code":"90036","id":"aqqspykti4e2","address":"101 The Grove Drive","group":"Dept Head","geo_precision":"street","state":"CA"},"type":"Feature","geometry":{"type":"Point","coordinates":[-118.44686,34.101991]}},{"properties":{"name":"Wall, Darla M.","city":"Los Angeles","geo_score":1.0,"zip code":"90041","id":"aqqspyvuuq1i","address":"5312 Sierra Villa Drive","group":"Admin Asst","geo_precision":"range","state":"CA"},"type":"Feature","geometry":{"type":"Point","coordinates":[-118.221483,34.144532]}},{"properties":{"name":"Bueckert, Kaleigh","city":"Pasadena","geo_score":1.0,"zip code":"91107","id":"aqqspyobg2m9","address":"3730 Mayfair Drive","group":"Admin Asst","geo_precision":"range","state":"CA"},"type":"Feature","geometry":{"type":"Point","coordinates":[-118.070268,34.152471]}},{"properties":{"name":"Lee, Esther","city":"Los Angeles","geo_score":1.0,"zip code":"90034","id":"aqqspyqi44qq","address":"3750 Vinton Ave.","group":"Admin Asst","geo_precision":"range","state":"CA"},"type":"Feature","geometry":{"type":"Point","coordinates":[-118.404194,34.022805]}},{"properties":{"name":"Masuda, Kelly","city":"Palos Verdes Estates","geo_score":1.0,"zip code":"90274","id":"aqqspyif57fx","address":"2016 Via Acalones","group":"Dept Head","geo_precision":"range","state":"CA"},"type":"Feature","geometry":{"type":"Point","coordinates":[-118.396201,33.790318]}},{"properties":{"name":"Khosravi, Saam","city":"Los Angeles","geo_score":0.955,"zip code":"90005","id":"aqqspytc9f3o","address":"840 Hobart Blvd.","group":"Manager/Director","geo_precision":"range","state":"CA"},"type":"Feature","geometry":{"type":"Point","coordinates":[-118.305252,34.056608]}},{"properties":{"name":"Ware, Denise A","city":"Van Nuys","geo_score":1.0,"zip code":"91401","id":"aqqspyri1q2w","address":"5728 Mammoth Ave","group":"Admin Asst","geo_precision":"range","state":"CA"},"type":"Feature","geometry":{"type":"Point","coordinates":[-118.43226,34.175233]}},{"properties":{"name":"Henry, Anthony","city":"Los Angeles","geo_score":0.857,"zip code":"90036","id":"aqqspyrj32s7","address":"110 S. Fairfax Ave.","group":"Manager/Director","geo_precision":"zip","state":"CA"},"type":"Feature","geometry":{"type":"Point","coordinates":[-118.298662,33.786594]}},{"properties":{"name":"Kmiec, Kloe","city":"Sherman Oaks","geo_score":0.585,"zip code":"91423","id":"aqqspyt04202","address":"14319 Dickens St.","group":"Manager/Director","geo_precision":"zip","state":"CA"},"type":"Feature","geometry":{"type":"Point","coordinates":[-118.298662,33.786594]}},{"properties":{"name":"Simon, Matthew","city":"Manhattan Beach","geo_score":1.0,"zip code":"90266","id":"aqqspyv2h3pw","address":"201 Shell Street","group":"Manager/Director","geo_precision":"range","state":"CA"},"type":"Feature","geometry":{"type":"Point","coordinates":[-118.419965,33.90503]}},{"properties":{"name":"Burneikis, Vincent","city":"Glendale","geo_score":0.585,"zip code":"91210","id":"aqqspytdjkne","address":"589 Americana Way","group":"VP","geo_precision":"zip","state":"CA"},"type":"Feature","geometry":{"type":"Point","coordinates":[-118.298662,33.786594]}},{"properties":{"name":"Reich, William","city":"Los Angeles","geo_score":1.0,"zip code":"90077","id":"aqqspyxs33cw","address":"2101 Stradella Road","group":"VP","geo_precision":"range","state":"CA"},"type":"Feature","geometry":{"type":"Point","coordinates":[-118.460729,34.103241]}},{"properties":{"name":"Podor, Rachel","city":"Los Angeles","geo_score":0.916,"zip code":"90048","id":"aqqspywu3b4c","address":"120 South Sweetzer","group":"Manager/Director","geo_precision":"range","state":"CA"},"type":"Feature","geometry":{"type":"Point","coordinates":[-118.369929,34.073004]}},{"properties":{"name":"Haber, Christine","city":"Los Angeles","geo_score":0.585,"zip code":"90035","id":"aqqspyj1djle","address":"6134 Packard Street","group":"Manager/Director","geo_precision":"zip","state":"CA"},"type":"Feature","geometry":{"type":"Point","coordinates":[-118.298662,33.786594]}},{"properties":{"name":"Toro, Heather","city":"Westlake Village","geo_score":0.882,"zip code":"91362","id":"aqqspyx2pmhv","address":"3252 Blue Ridge Court","group":"Manager/Director","geo_precision":"range","state":"CA"},"type":"Feature","geometry":{"type":"Point","coordinates":[-118.83014,34.169597]}},{"properties":{"name":"Button, LaMonica","city":"Marina Del Rey","geo_score":0.443,"zip code":"90292","id":"aqqspymwwv9e","address":"14014 NW Passage","group":"Manager/Director","geo_precision":"street","state":"CA"},"type":"Feature","geometry":{"type":"Point","coordinates":[-118.133297,33.941477]}},{"properties":{"name":"Hall, Crystal","city":"Los Angeles","geo_score":1.0,"zip code":"90016","id":"aqqspyl5z9o0","address":"2111 Clyde Ave.","group":"Admin Asst","geo_precision":"range","state":"CA"},"type":"Feature","geometry":{"type":"Point","coordinates":[-118.365767,34.036486]}},{"properties":{"name":"La May, Nichole","city":"North Hollywood","geo_score":1.0,"zip code":"91601","id":"aqqspymf6ug9","address":"4820 Bellflower Avenue","group":"VP","geo_precision":"range","state":"CA"},"type":"Feature","geometry":{"type":"Point","coordinates":[-118.374481,34.158658]}},{"properties":{"name":"Pacheco, Carol","city":"Hacienda Heights","geo_score":1.0,"zip code":"91745","id":"aqqspykw2as6","address":"1869 Kellerton Dr","group":"Manager/Director","geo_precision":"range","state":"CA"},"type":"Feature","geometry":{"type":"Point","coordinates":[-117.96136,33.996741]}},{"properties":{"name":"Siauw, Atley","city":"Woodland Hills","geo_score":1.0,"zip code":"91367","id":"aqqspyj21g5b","address":"6209 Nita Ave","group":"Manager/Director","geo_precision":"range","state":"CA"},"type":"Feature","geometry":{"type":"Point","coordinates":[-118.613145,34.184]}},{"properties":{"name":"Gehringer, Rick","city":"Santa Monica","geo_score":1.0,"zip code":"90402","id":"aqqspyt7tt97","address":"718 Kingman Avenue","group":"SVP","geo_precision":"range","state":"CA"},"type":"Feature","geometry":{"type":"Point","coordinates":[-118.508439,34.038852]}},{"properties":{"name":"Nguyen, Dam","city":"Long Beach","geo_score":1.0,"zip code":"90808","id":"aqqspyj4wztl","address":"5274 E Wardlow Rd","group":"Manager/Director","geo_precision":"range","state":"CA"},"type":"Feature","geometry":{"type":"Point","coordinates":[-118.129377,33.818732]}},{"properties":{"name":"Tran, Valerie","city":"Culver City","geo_score":1.0,"zip code":"90230","id":"aqqspymnvqfh","address":"12025 Lucile St.","group":"Manager/Director","geo_precision":"range","state":"CA"},"type":"Feature","geometry":{"type":"Point","coordinates":[-118.406436,33.986291]}},{"properties":{"name":"Nielsen, Bret M","city":"Westlake Village","geo_score":1.0,"zip code":"91361","id":"aqqspytkni19","address":"2230 Memory Lane","group":"SVP","geo_precision":"range","state":"CA"},"type":"Feature","geometry":{"type":"Point","coordinates":[-118.843673,34.130771]}},{"properties":{"name":"Brandon, Chris","city":"Palos Verdes Estates","geo_score":1.0,"zip code":"90274","id":"aqqspyvbd1yh","address":"3633 Via La Selva","group":"VP","geo_precision":"range","state":"CA"},"type":"Feature","geometry":{"type":"Point","coordinates":[-118.367362,33.80251]}},{"properties":{"name":"Howell, Ben","city":"Los Angeles","geo_score":0.604,"zip code":"90004","id":"aqqspyvswecg","address":"212 N. Irving Blvd","group":"Dept Head","geo_precision":"street","state":"CA"},"type":"Feature","geometry":{"type":"Point","coordinates":[-118.318401,34.071287]}},{"properties":{"name":"Moskowitz, Joel","city":"Los Angeles","geo_score":0.805,"zip code":"90036","id":"aqqspylaxt99","address":"8500 Burton Way","group":"Dept Head","geo_precision":"range","state":"CA"},"type":"Feature","geometry":{"type":"Point","coordinates":[-118.37681,34.071259]}},{"properties":{"name":"Seidel, Carla","city":"Santa Monica","geo_score":1.0,"zip code":"90403","id":"aqqspytkg15p","address":"2118 Wilshire Blvd.","group":"Manager/Director","geo_precision":"range","state":"CA"},"type":"Feature","geometry":{"type":"Point","coordinates":[-118.481512,34.032577]}},{"properties":{"name":"Dunn, Sarah","city":"Los Angeles","geo_score":0.551,"zip code":"90211","id":"aqqspyqs2jo0","address":"11637 Gorham Ave.","group":"Manager/Director","geo_precision":"street","state":"CA"},"type":"Feature","geometry":{"type":"Point","coordinates":[-118.362196,33.879421]}},{"properties":{"name":"Nam, Michelle","city":"Newport Beach","geo_score":1.0,"zip code":"92660","id":"aqqspysqpbcq","address":"2994 Corte Hermosa","group":"Manager/Director","geo_precision":"range","state":"CA"},"type":"Feature","geometry":{"type":"Point","coordinates":[-117.865332,33.644354]}},{"properties":{"name":"Johnson, Judy A","city":"San Marino","geo_score":1.0,"zip code":"91108","id":"aqqspysbtt19","address":"50 Kewen Place","group":"Dept Head","geo_precision":"range","state":"CA"},"type":"Feature","geometry":{"type":"Point","coordinates":[-118.121218,34.126336]}},{"properties":{"name":"Plaza, Jacqueline","city":"Los Angeles","geo_score":0.607,"zip code":"90046","id":"aqqspywvkzv8","address":"1510 N. Laurel Avenue","group":"Manager/Director","geo_precision":"street","state":"CA"},"type":"Feature","geometry":{"type":"Point","coordinates":[-118.364822,34.085485]}},{"properties":{"name":"Nolan, Maddie","city":"Northridge","geo_score":1.0,"zip code":"91325","id":"aqqspysbq7yj","address":"17140 Osborne St.","group":"Manager/Director","geo_precision":"range","state":"CA"},"type":"Feature","geometry":{"type":"Point","coordinates":[-118.510562,34.233338]}},{"properties":{"name":"Shokrian, Galit","city":"Sherman Oaks","geo_score":0.979,"zip code":"91403","id":"aqqspyqsqvvy","address":"3501 Royal Wood Dr","group":"SVP","geo_precision":"range","state":"CA"},"type":"Feature","geometry":{"type":"Point","coordinates":[-118.472699,34.138008]}},{"properties":{"name":"Runner, Kristen","city":"Los Angeles","geo_score":0.602,"zip code":"90025","id":"aqqspyn5kpno","address":"1345 S. Westgate","group":"Admin Asst","geo_precision":"street","state":"CA"},"type":"Feature","geometry":{"type":"Point","coordinates":[-118.463468,34.047345]}},{"properties":{"name":"Greitzer, Stephanie","city":"Sherman Oaks","geo_score":0.935,"zip code":"91401","id":"aqqspyi8eid0","address":"13939 Cumpston Street","group":"Manager/Director","geo_precision":"range","state":"CA"},"type":"Feature","geometry":{"type":"Point","coordinates":[-118.435238,34.169525]}},{"properties":{"name":"Levy, Jackie","city":"Los Angeles","geo_score":1.0,"zip code":"90025","id":"aqqspylf7z4v","address":"2132 Benecia Avenue","group":"Dept Head","geo_precision":"range","state":"CA"},"type":"Feature","geometry":{"type":"Point","coordinates":[-118.419654,34.05104]}},{"properties":{"name":"Nesheiwat, Doris","city":"Sherman Oaks","geo_score":1.0,"zip code":"91403","id":"aqqspyseiams","address":"4616 Willis Ave.","group":"Manager/Director","geo_precision":"range","state":"CA"},"type":"Feature","geometry":{"type":"Point","coordinates":[-118.455242,34.157528]}},{"properties":{"name":"Colacarro, Brian","city":"Sherman Oaks","geo_score":0.585,"zip code":"91423","id":"aqqspyu52x7i","address":"14319 Dickens St","group":"VP","geo_precision":"zip","state":"CA"},"type":"Feature","geometry":{"type":"Point","coordinates":[-118.298662,33.786594]}},{"properties":{"name":"Moore, Stewart","city":"Sherman Oaks","geo_score":1.0,"zip code":"91423","id":"aqqspyxh5e1m","address":"4426 Ventura Canyon Ave.","group":"VP","geo_precision":"range","state":"CA"},"type":"Feature","geometry":{"type":"Point","coordinates":[-118.429518,34.151684]}},{"properties":{"name":"Magnemi, Alex","city":"Beverly Hills","geo_score":0.571,"zip code":"90212","id":"aqqspyu98b9l","address":"324 N. Oakhurst Drive","group":"Manager/Director","geo_precision":"street","state":"CA"},"type":"Feature","geometry":{"type":"Point","coordinates":[-118.390737,34.066444]}},{"properties":{"name":"Ramirez, Rachelle","city":"La Mirada","geo_score":1.0,"zip code":"90638","id":"aqqspykwd6ta","address":"15419 Elmbrook Drive","group":"Manager/Director","geo_precision":"range","state":"CA"},"type":"Feature","geometry":{"type":"Point","coordinates":[-118.00071,33.888561]}},{"properties":{"name":"Davis, Emily","city":"Los Angeles","geo_score":0.598,"zip code":"90025","id":"aqqspysrjz5t","address":"1330 S. Barrington Ave.","group":"Manager/Director","geo_precision":"street","state":"CA"},"type":"Feature","geometry":{"type":"Point","coordinates":[-118.460921,34.049408]}},{"properties":{"name":"Jaeger, Liz","city":"Manhattan Beach","geo_score":0.585,"zip code":"90266","id":"aqqspyuuypsj","address":"1809 Magnolia Ave.","group":"VP","geo_precision":"zip","state":"CA"},"type":"Feature","geometry":{"type":"Point","coordinates":[-118.298662,33.786594]}},{"properties":{"name":"Malkasian, Michele","city":"La Habra Heights","geo_score":1.0,"zip code":"90631","id":"aqqspyqtd4ti","address":"145 Flowerfield Lane","group":"Admin Asst","geo_precision":"range","state":"CA"},"type":"Feature","geometry":{"type":"Point","coordinates":[-117.939239,33.94745]}},{"properties":{"name":"Burgner, Daniel J","city":"Corona Del Mar","geo_score":1.0,"zip code":"92625","id":"aqqspylc8x6g","address":"6 Twin Lakes Circle","group":"Dept Head","geo_precision":"range","state":"CA"},"type":"Feature","geometry":{"type":"Point","coordinates":[-117.851665,33.609718]}},{"properties":{"name":"Shields, Nora","city":"Los Angeles","geo_score":1.0,"zip code":"90045","id":"aqqspytr9w2w","address":"8130 Chase Ave.","group":"Manager/Director","geo_precision":"range","state":"CA"},"type":"Feature","geometry":{"type":"Point","coordinates":[-118.410888,33.964734]}},{"properties":{"name":"Bronstein, Jenny","city":"Santa Monica","geo_score":0.817,"zip code":"90405","id":"aqqspysrimgo","address":"2901 4th Street Apt.","group":"Manager/Director","geo_precision":"range","state":"CA"},"type":"Feature","geometry":{"type":"Point","coordinates":[-118.477915,34.000465]}},{"properties":{"name":"Palacio, Nicole","city":"Venice","geo_score":0.816,"zip code":"90291","id":"aqqspyr90da4","address":"2715 Abbot Kinney","group":"Manager/Director","geo_precision":"street","state":"CA"},"type":"Feature","geometry":{"type":"Point","coordinates":[-118.453797,33.988462]}},{"properties":{"name":"Antisdale, David J.","city":"Glendale","geo_score":0.585,"zip code":"91210","id":"aqqspym8vj45","address":"722 Americana Way","group":"SVP","geo_precision":"zip","state":"CA"},"type":"Feature","geometry":{"type":"Point","coordinates":[-118.298662,33.786594]}},{"properties":{"name":"Cluverius, Bill","city":"Los Angeles","geo_score":1.0,"zip code":"90064","id":"aqqspysar2ds","address":"2906 Motor Ave.","group":"VP","geo_precision":"range","state":"CA"},"type":"Feature","geometry":{"type":"Point","coordinates":[-118.406901,34.039461]}},{"properties":{"name":"Optican, Todd","city":"Los Angeles","geo_score":1.0,"zip code":"90024","id":"aqqspyvw7i3r","address":"760 Thayer Ave.","group":"VP","geo_precision":"range","state":"CA"},"type":"Feature","geometry":{"type":"Point","coordinates":[-118.435072,34.067528]}},{"properties":{"name":"Antoniskis, Adam","city":"Thousand Oaks","geo_score":1.0,"zip code":"91362","id":"aqqspyvo2hdn","address":"2616 Slate Place","group":"Manager/Director","geo_precision":"range","state":"CA"},"type":"Feature","geometry":{"type":"Point","coordinates":[-118.824613,34.214916]}}],"url_type":null,"author":{"metadata":"","url":"","contact_name":"","contact_address":"","contact_phone":"","source":""},"source":"","stream_id":494062,"tags":"","contributor":{"url":"http://geocommons.com/users/107593","name":"nlamay"},"id":494062,"data_attributes":null,"calculation_params":null}