{"type":"FeatureCollection","state":"complete","icon_link":null,"title":"Senior Citizen Sites CSV","count":13,"geometry_types":["point"],"unique_name":null,"pagination":{"sort":null,"start":0,"limit":1000000,"total":13},"feature_count":13,"data_type":"Dataset","stats":{},"next_feature":null,"is_raster":false,"link":"http://geocommons.com/overlays/501594.json","short_classification":"Y","name":"Senior Citizen Sites CSV","is_temporal":false,"description":"Senior Citizen Centers in Toledo, OH.","permissions":[{"group_id":"everyone","permissions":{"download":true,"view":true}}],"classification":null,"published":"2015-08-29T13:38:18-04:00","extent":[-83.7619,41.5713,-83.4443,41.6917],"features":[{"properties":{"city":"Toledo","zip":"43609","geo_score":0.857,"agency":"Asian Resource Center","id":"aujrbpbwyxiz","geo_precision":"zip","location":"1865 Finch St","state":"Ohio"},"type":"Feature","geometry":{"type":"Point","coordinates":[-83.584234,41.624749]}},{"properties":{"city":"Toledo","zip":"43608","geo_score":0.857,"agency":"Chester Zablocki Senior Center","id":"aujrbp7ymk0d","geo_precision":"zip","location":"3015 LaGrange","state":"Ohio"},"type":"Feature","geometry":{"type":"Point","coordinates":[-83.531983,41.681648]}},{"properties":{"city":"Holland","zip":"43528","geo_score":0.857,"agency":"Spencer Township Community Center","id":"aujrbp4jwv0b","geo_precision":"zip","location":"330 Oak Terrace Blvd","state":"Ohio"},"type":"Feature","geometry":{"type":"Point","coordinates":[-83.761883,41.61033]}},{"properties":{"city":"Toledo","zip":"43605","geo_score":0.857,"agency":"East Toledo Senior Cneter","id":"aujrbpd66cas","geo_precision":"zip","location":"1001 White St","state":"Ohio"},"type":"Feature","geometry":{"type":"Point","coordinates":[-83.508482,41.652548]}},{"properties":{"city":"Toledo","zip":"43612","geo_score":0.857,"agency":"Eleanor Kahle Senior Center","id":"aujrbpavzebr","geo_precision":"zip","location":"1315 Hillcrest Dr.","state":"Ohio"},"type":"Feature","geometry":{"type":"Point","coordinates":[-83.55799,41.691716]}},{"properties":{"city":"Toledo","zip":"43612","geo_score":0.857,"agency":"Friendship Park Senior Center","id":"aujrbp676ta1","geo_precision":"zip","location":"2930 131st St","state":"Ohio"},"type":"Feature","geometry":{"type":"Point","coordinates":[-83.55799,41.691716]}},{"properties":{"city":"Oregon","zip":"43616","geo_score":0.857,"agency":"James W. Hancock Senior Center","id":"aujrbp6a9bhv","geo_precision":"zip","location":"5760 Bayshore Road","state":"Ohio"},"type":"Feature","geometry":{"type":"Point","coordinates":[-83.44433,41.656948]}},{"properties":{"city":"Toledo","zip":"43604","geo_score":0.857,"agency":"J. Frank Troy Senior Center","id":"aujrbp8v2w64","geo_precision":"zip","location":"545 Indiana Ave","state":"Ohio"},"type":"Feature","geometry":{"type":"Point","coordinates":[-83.536833,41.655798]}},{"properties":{"city":"Toledo","zip":"43614","geo_score":0.857,"agency":"Margaret L Hunt Senior Center","id":"aujrbp4unu0r","geo_precision":"zip","location":"2121 Garden Lake Parkway","state":"Ohio"},"type":"Feature","geometry":{"type":"Point","coordinates":[-83.633941,41.609041]}},{"properties":{"city":"Maumee","zip":"43537","geo_score":0.857,"agency":"Maumee Senior Center","id":"aujrbp4rpbh0","geo_precision":"zip","location":"2430 Detroit Ave","state":"Ohio"},"type":"Feature","geometry":{"type":"Point","coordinates":[-83.685036,41.571251]}},{"properties":{"city":"Toledo","zip":"43609","geo_score":0.857,"agency":"Mayores Senior Center","id":"aujrbpctz5iq","geo_precision":"zip","location":"One Aurora Gonzalez Road","state":"Ohio"},"type":"Feature","geometry":{"type":"Point","coordinates":[-83.584234,41.624749]}},{"properties":{"city":"Toledo","zip":"43604","geo_score":0.857,"agency":"Senior Centers, Inc.","id":"aujrbp9ikus1","geo_precision":"zip","location":"2308 Jefferson Ave","state":"Ohio"},"type":"Feature","geometry":{"type":"Point","coordinates":[-83.536833,41.655798]}},{"properties":{"city":"Sylvania","zip":"43560","geo_score":0.857,"agency":"Sylvania Senior Center","id":"aujrbp24cm2p","geo_precision":"zip","location":"7140 Sylvania Ave","state":"Ohio"},"type":"Feature","geometry":{"type":"Point","coordinates":[-83.742161,41.68144]}}],"url_type":null,"author":{"metadata":"","url":"","contact_name":"","contact_address":"","contact_phone":"","source":"City of Toledo, Department of Neighborhoods"},"source":"","stream_id":501594,"tags":"","contributor":{"url":"http://geocommons.com/users/113202","name":"vluse"},"id":501594,"data_attributes":null,"calculation_params":null}