{"type":"FeatureCollection","data_type":"Dataset","url_type":null,"permissions":[{"permissions":{"download":true,"view":true},"group_id":"everyone"}],"classification":null,"title":"Starbucks","count":142,"stream_id":50479,"contributor":{"url":"http://geocommons.com/users/13136","name":"ameyerth"},"data_attributes":null,"calculation_params":null,"icon_link":null,"link":"http://geocommons.com/overlays/50479.json","extent":[-87.8081,41.7661,-87.5863,42.0195],"geometry_types":["point"],"unique_name":null,"name":"Starbucks","feature_count":142,"description":"","next_feature":null,"is_raster":false,"short_classification":"Y","stats":{"geo_score":{"max":1.0,"mean":0.819978873239437,"variance":0.0345914108980122,"stdev":0.185987663295209,"min":0.321,"median":0.912}},"features":[{"properties":{"city":"Chicago","zip":"60661","geo_score":1.0,"id":"a6dyll5ucosm","geo_precision":"range","address":"1 N Halsted St","state":"IL"},"type":"Feature","geometry":{"type":"Point","coordinates":[-87.647359,41.881778]}},{"properties":{"city":"Chicago","zip":"60601","geo_score":0.805,"id":"a6dylkyk6k37","geo_precision":"range","address":"10 S Riverside Plaza","state":"IL"},"type":"Feature","geometry":{"type":"Point","coordinates":[-87.638852,41.881783]}},{"properties":{"city":"Chicago","zip":"60606","geo_score":0.619,"id":"a6dyll3tzxxs","geo_precision":"street","address":"100 S. Wacker Drive","state":"IL"},"type":"Feature","geometry":{"type":"Point","coordinates":[-87.636749,41.881264]}},{"properties":{"city":"Chicago","zip":"60657","geo_score":0.715,"id":"a6dylkso7h4v","geo_precision":"street","address":"1000 West Diversey Ave","state":"IL"},"type":"Feature","geometry":{"type":"Point","coordinates":[-87.636111,41.933159]}},{"properties":{"city":"Chicago","zip":"60662","geo_score":0.675,"id":"a6dylkqivjy1","geo_precision":"range","address":"1001 W North Ave","state":"IL"},"type":"Feature","geometry":{"type":"Point","coordinates":[-87.653106,41.91084]}},{"properties":{"city":"Chicago","zip":"60614","geo_score":0.607,"id":"a6dylkxs0bkq","geo_precision":"street","address":"1001 W. Armitage","state":"IL"},"type":"Feature","geometry":{"type":"Point","coordinates":[-87.63653,41.918357]}},{"properties":{"city":"Chicago","zip":"60607","geo_score":0.92,"id":"a6dyll3clapm","geo_precision":"range","address":"1001A West Madison Avenue","state":"IL"},"type":"Feature","geometry":{"type":"Point","coordinates":[-87.653015,41.881693]}},{"properties":{"city":"Oak Park","zip":"60301","geo_score":1.0,"id":"a6dylktiagki","geo_precision":"range","address":"1018 Lake St","state":"IL"},"type":"Feature","geometry":{"type":"Point","coordinates":[-87.800883,41.888656]}},{"properties":{"city":"Chicago","zip":"60613","geo_score":1.0,"id":"a6dylkv5uwlm","geo_precision":"range","address":"1023 West Addison Street","state":"IL"},"type":"Feature","geometry":{"type":"Point","coordinates":[-87.655565,41.947224]}},{"properties":{"city":"Chicago","zip":"60603","geo_score":0.625,"id":"a6dyll0ainq3","geo_precision":"street","address":"105 W. Adams","state":"IL"},"type":"Feature","geometry":{"type":"Point","coordinates":[-87.629352,41.879438]}},{"properties":{"city":"Chicago","zip":"60610","geo_score":0.973,"id":"a6dyll4qwzet","geo_precision":"range","address":"106 West Germania Place","state":"IL"},"type":"Feature","geometry":{"type":"Point","coordinates":[-87.631866,41.910425]}},{"properties":{"city":"Chicago","zip":"60660","geo_score":0.607,"id":"a6dyll6o5tpn","geo_precision":"street","address":"1070 W. Bryn Mawr Ave.","state":"IL"},"type":"Feature","geometry":{"type":"Point","coordinates":[-87.653705,41.983859]}},{"properties":{"city":"Chicago","zip":"60607","geo_score":1.0,"id":"a6dyll618cw9","geo_precision":"range","address":"1101 South Canal St.","state":"IL"},"type":"Feature","geometry":{"type":"Point","coordinates":[-87.639236,41.868491]}},{"properties":{"city":"Chicago","zip":"60611","geo_score":0.947,"id":"a6dylkqlwx12","geo_precision":"range","address":"111 East Chestnut","state":"IL"},"type":"Feature","geometry":{"type":"Point","coordinates":[-87.625062,41.898373]}},{"properties":{"city":"Chicago","zip":"60602","geo_score":0.625,"id":"a6dylkycy1gu","geo_precision":"street","address":"111 N. State St.","state":"IL"},"type":"Feature","geometry":{"type":"Point","coordinates":[-87.627853,41.882602]}},{"properties":{"city":"Chicago","zip":"60602","geo_score":1.0,"id":"a6dyll3guieb","geo_precision":"range","address":"111 W Washington St","state":"IL"},"type":"Feature","geometry":{"type":"Point","coordinates":[-87.631249,41.88321]}},{"properties":{"city":"Chicago","zip":"60605","geo_score":1.0,"id":"a6dyll4np4dq","geo_precision":"range","address":"1154 S Clark Street","state":"IL"},"type":"Feature","geometry":{"type":"Point","coordinates":[-87.630449,41.868008]}},{"properties":{"city":"Chicago","zip":"60614","geo_score":0.937,"id":"a6dylks8mu83","geo_precision":"range","address":"1157 W Wrightwood","state":"IL"},"type":"Feature","geometry":{"type":"Point","coordinates":[-87.657311,41.928941]}},{"properties":{"city":"Chicago","zip":"60615","geo_score":0.854,"id":"a6dylkzy0lk7","geo_precision":"range","address":"1174 East 55th Streeet","state":"IL"},"type":"Feature","geometry":{"type":"Point","coordinates":[-87.59722,41.795059]}},{"properties":{"city":"Chicago","zip":"60610","geo_score":0.976,"id":"a6dyll25fxwd","geo_precision":"range","address":"1229 N Clyborn Ave","state":"IL"},"type":"Feature","geometry":{"type":"Point","coordinates":[-87.640222,41.904315]}},{"properties":{"city":"Chicago","zip":"60614","geo_score":0.604,"id":"a6dylkxu022g","geo_precision":"street","address":"1245 W. Fullerton Ave.","state":"IL"},"type":"Feature","geometry":{"type":"Point","coordinates":[-87.631346,41.92611]}},{"properties":{"city":"Chicago","zip":"60603","geo_score":0.849,"id":"a6dylkqvx5x7","geo_precision":"range","address":"131 South Dearborn","state":"IL"},"type":"Feature","geometry":{"type":"Point","coordinates":[-87.62936,41.879999]}},{"properties":{"city":"Chicago","zip":"60607","geo_score":0.902,"id":"a6dyll0ddqql","geo_precision":"range","address":"1340 South Canal Street","state":"IL"},"type":"Feature","geometry":{"type":"Point","coordinates":[-87.639166,41.86472]}},{"properties":{"city":"Chicago","zip":"60661","geo_score":0.941,"id":"a6dylksgemp4","geo_precision":"range","address":"139 South Clinton","state":"IL"},"type":"Feature","geometry":{"type":"Point","coordinates":[-87.641138,41.880054]}},{"properties":{"city":"Chicago","zip":"60607","geo_score":0.619,"id":"a6dylku2pg5f","geo_precision":"street","address":"1430 W. Taylor St.","state":"IL"},"type":"Feature","geometry":{"type":"Point","coordinates":[-87.637802,41.869709]}},{"properties":{"city":"Chicago","zip":"60606","geo_score":0.935,"id":"a6dyll1eju0g","geo_precision":"range","address":"150 N Wacker","state":"IL"},"type":"Feature","geometry":{"type":"Point","coordinates":[-87.636826,41.88446]}},{"properties":{"city":"Chicago","zip":"60615","geo_score":0.633,"id":"a6dyll5uza88","geo_precision":"street","address":"1500 E. 53rd St","state":"IL"},"type":"Feature","geometry":{"type":"Point","coordinates":[-87.624179,41.798144]}},{"properties":{"city":"Chicago","zip":"60601","geo_score":0.607,"id":"a6dyll0slzcd","geo_precision":"street","address":"151 N. Michigan Ave.","state":"IL"},"type":"Feature","geometry":{"type":"Point","coordinates":[-87.624325,41.883238]}},{"properties":{"city":"Chicago","zip":"60611","geo_score":0.82,"id":"a6dylkvypyp7","geo_precision":"range","address":"155 E Ontario","state":"IL"},"type":"Feature","geometry":{"type":"Point","coordinates":[-87.623727,41.893344]}},{"properties":{"city":"Chicago","zip":"60622","geo_score":0.604,"id":"a6dyll6a3v9c","geo_precision":"street","address":"1588 N. Milwaukee Ave.","state":"IL"},"type":"Feature","geometry":{"type":"Point","coordinates":[-87.647624,41.89121]}},{"properties":{"city":"Chicago","zip":"60601","geo_score":1.0,"id":"a6dyll2lj0dn","geo_precision":"range","address":"161 North Clark Street","state":"IL"},"type":"Feature","geometry":{"type":"Point","coordinates":[-87.630948,41.884839]}},{"properties":{"city":"Chicago","zip":"60614","geo_score":1.0,"id":"a6dyll6h3jy3","geo_precision":"range","address":"1700 West Diversey Parkway","state":"IL"},"type":"Feature","geometry":{"type":"Point","coordinates":[-87.670825,41.932373]}},{"properties":{"city":"Chicago","zip":"60622","geo_score":1.0,"id":"a6dylktni4sl","geo_precision":"range","address":"1701 West Division Street","state":"IL"},"type":"Feature","geometry":{"type":"Point","coordinates":[-87.669944,41.903306]}},{"properties":{"city":"Chicago","zip":"60604","geo_score":0.607,"id":"a6dyll08lxog","geo_precision":"street","address":"175 W. Jackson Blvd","state":"IL"},"type":"Feature","geometry":{"type":"Point","coordinates":[-87.627676,41.878176]}},{"properties":{"city":"Chicago","zip":"60626","geo_score":0.482,"id":"a6dyll2fcpem","geo_precision":"street","address":"1763 W. Howard St.","state":"IL"},"type":"Feature","geometry":{"type":"Point","coordinates":[-87.677633,42.019428]}},{"properties":{"city":"Chicago","zip":"60601","geo_score":0.614,"id":"a6dyll0fvpdj","geo_precision":"street","address":"180 N. LaSalle St","state":"IL"},"type":"Feature","geometry":{"type":"Point","coordinates":[-87.632435,41.884472]}},{"properties":{"city":"Chicago","zip":"60613","geo_score":0.607,"id":"a6dylktkaabb","geo_precision":"street","address":"1900 W. Montrose Avenue","state":"IL"},"type":"Feature","geometry":{"type":"Point","coordinates":[-87.646231,41.961988]}},{"properties":{"city":"Chicago","zip":"60608","geo_score":0.916,"id":"a6dyll0f8c99","geo_precision":"range","address":"1940 W 33rd St","state":"IL"},"type":"Feature","geometry":{"type":"Point","coordinates":[-87.674136,41.834045]}},{"properties":{"city":"Chicago","zip":"60601","geo_score":1.0,"id":"a6dylkxdxpie","geo_precision":"range","address":"200 East Randolph St","state":"IL"},"type":"Feature","geometry":{"type":"Point","coordinates":[-87.622974,41.884291]}},{"properties":{"city":"Chicago","zip":"60606","geo_score":0.625,"id":"a6dylkvxwq5y","geo_precision":"street","address":"200 W. Adams","state":"IL"},"type":"Feature","geometry":{"type":"Point","coordinates":[-87.629352,41.879438]}},{"properties":{"city":"Chicago","zip":"60610","geo_score":0.87,"id":"a6dyll0sph1a","geo_precision":"range","address":"200-230 W North Ave","state":"IL"},"type":"Feature","geometry":{"type":"Point","coordinates":[-87.634711,41.911159]}},{"properties":{"city":"Chicago","zip":"60601","geo_score":1.0,"id":"a6dylky2j1my","geo_precision":"range","address":"202 N Michigan Ave","state":"IL"},"type":"Feature","geometry":{"type":"Point","coordinates":[-87.624511,41.885775]}},{"properties":{"city":"Chicago","zip":"60618","geo_score":1.0,"id":"a6dyll4c3ip3","geo_precision":"range","address":"2023  West Roscoe Street","state":"IL"},"type":"Feature","geometry":{"type":"Point","coordinates":[-87.679218,41.943206]}},{"properties":{"city":"Chicago","zip":"60614","geo_score":0.625,"id":"a6dyll2gfkjz","geo_precision":"street","address":"2063 N. Clark","state":"IL"},"type":"Feature","geometry":{"type":"Point","coordinates":[-87.632854,41.913174]}},{"properties":{"city":"Chicago","zip":"60606","geo_score":0.607,"id":"a6dyll0dp1pv","geo_precision":"street","address":"209 W. Jackson","state":"IL"},"type":"Feature","geometry":{"type":"Point","coordinates":[-87.633729,41.878119]}},{"properties":{"city":"Chicago","zip":"60670","geo_score":0.805,"id":"a6dylkqbm6fb","geo_precision":"range","address":"21 S Clark St","state":"IL"},"type":"Feature","geometry":{"type":"Point","coordinates":[-87.630865,41.88133]}},{"properties":{"city":"Chicago","zip":"60659","geo_score":1.0,"id":"a6dylkxgq17c","geo_precision":"range","address":"2112 W Peterson Ave","state":"IL"},"type":"Feature","geometry":{"type":"Point","coordinates":[-87.682766,41.99062]}},{"properties":{"city":"Chicago","zip":"60618","geo_score":1.0,"id":"a6dylkqsmuw7","geo_precision":"range","address":"2159 West Belmont Ave.","state":"IL"},"type":"Feature","geometry":{"type":"Point","coordinates":[-87.68197,41.939524]}},{"properties":{"city":"Chicago","zip":"60614","geo_score":0.607,"id":"a6dylkqlikh3","geo_precision":"street","address":"2200 N. Clybourn","state":"IL"},"type":"Feature","geometry":{"type":"Point","coordinates":[-87.650736,41.911787]}},{"properties":{"city":"Chicago","zip":"60614","geo_score":0.614,"id":"a6dylkrl6jx8","geo_precision":"street","address":"2200 N. Halsted","state":"IL"},"type":"Feature","geometry":{"type":"Point","coordinates":[-87.647988,41.90152]}},{"properties":{"city":"Evanston","zip":"60202","geo_score":1.0,"id":"a6dylku0w7x3","geo_precision":"range","address":"2209 W Howard St","state":"IL"},"type":"Feature","geometry":{"type":"Point","coordinates":[-87.704397,42.019233]}},{"properties":{"city":"Chicago","zip":"60601","geo_score":1.0,"id":"a6dylkyoa221","geo_precision":"range","address":"225 N Michigan Ave","state":"IL"},"type":"Feature","geometry":{"type":"Point","coordinates":[-87.624523,41.886012]}},{"properties":{"city":"Chicago","zip":"60606","geo_score":0.619,"id":"a6dyll4ld4im","geo_precision":"street","address":"227 W. Monroe","state":"IL"},"type":"Feature","geometry":{"type":"Point","coordinates":[-87.633798,41.88066]}},{"properties":{"city":"Chicago","zip":"60616","geo_score":1.0,"id":"a6dylkyb4apj","geo_precision":"range","address":"2301 S Lake Shore Dr","state":"IL"},"type":"Feature","geometry":{"type":"Point","coordinates":[-87.613399,41.852229]}},{"properties":{"city":"Chicago","zip":"60616","geo_score":0.633,"id":"a6dyll5tsaiu","geo_precision":"street","address":"2301 S. Martin Luther King Dr.","state":"IL"},"type":"Feature","geometry":{"type":"Point","coordinates":[-87.618911,41.850787]}},{"properties":{"city":"Chicago","zip":"60604","geo_score":1.0,"id":"a6dyll2bhhd2","geo_precision":"range","address":"231 S LaSalle St","state":"IL"},"type":"Feature","geometry":{"type":"Point","coordinates":[-87.632272,41.878693]}},{"properties":{"city":"Chicago","zip":"60606","geo_score":1.0,"id":"a6dylku57uri","geo_precision":"range","address":"233 South Wacker Drive","state":"IL"},"type":"Feature","geometry":{"type":"Point","coordinates":[-87.636681,41.878968]}},{"properties":{"city":"Chicago","zip":"60645","geo_score":0.365,"id":"a6dyll6ct9kc","geo_precision":"street","address":"2357 W. Howard St.","state":"IL"},"type":"Feature","geometry":{"type":"Point","coordinates":[-87.68163,42.019456]}},{"properties":{"city":"Chicago","zip":"60614","geo_score":0.973,"id":"a6dylku8qk5w","geo_precision":"range","address":"2454 Ashland Ave","state":"IL"},"type":"Feature","geometry":{"type":"Point","coordinates":[-87.668179,41.926131]}},{"properties":{"city":"Chicago","zip":"60614","geo_score":0.61,"id":"a6dylkwqo21b","geo_precision":"street","address":"2475 N. Lincoln","state":"IL"},"type":"Feature","geometry":{"type":"Point","coordinates":[-87.635503,41.916565]}},{"properties":{"city":"Chicago","zip":"60606","geo_score":0.786,"id":"a6dylkzp1br0","geo_precision":"street","address":"25 E Washington Blvd","state":"IL"},"type":"Feature","geometry":{"type":"Point","coordinates":[-87.638161,41.88319]}},{"properties":{"city":"Chicago","zip":"60611","geo_score":1.0,"id":"a6dylkzawke5","geo_precision":"range","address":"251 East Huron Street","state":"IL"},"type":"Feature","geometry":{"type":"Point","coordinates":[-87.621708,41.895002]}},{"properties":{"city":"Chicago","zip":"60614","geo_score":0.805,"id":"a6dyll0c82nn","geo_precision":"street","address":"2525 1/2 N CLARK ST","state":"IL"},"type":"Feature","geometry":{"type":"Point","coordinates":[-87.631682,41.911181]}},{"properties":{"city":"Chicago","zip":"60647","geo_score":0.602,"id":"a6dyll0kunr0","geo_precision":"street","address":"2543 N. California","state":"IL"},"type":"Feature","geometry":{"type":"Point","coordinates":[-87.697014,41.910728]}},{"properties":{"city":"Chicago","zip":"60611","geo_score":1.0,"id":"a6dyll0ywph9","geo_precision":"range","address":"255 E Grand Ave","state":"IL"},"type":"Feature","geometry":{"type":"Point","coordinates":[-87.621064,41.891788]}},{"properties":{"city":"Chicago","zip":"60614","geo_score":0.607,"id":"a6dylky6nzu7","geo_precision":"street","address":"2550 N. Clyborn","state":"IL"},"type":"Feature","geometry":{"type":"Point","coordinates":[-87.650736,41.911787]}},{"properties":{"city":"Chicago","zip":"60647","geo_score":1.0,"id":"a6dyll4ston9","geo_precision":"range","address":"2577 N Elston Ave","state":"IL"},"type":"Feature","geometry":{"type":"Point","coordinates":[-87.681855,41.928083]}},{"properties":{"city":"Oak Park","zip":"60302","geo_score":1.0,"id":"a6dylku6znfk","geo_precision":"range","address":"259 Lake St","state":"IL"},"type":"Feature","geometry":{"type":"Point","coordinates":[-87.781983,41.888237]}},{"properties":{"city":"Chicago","zip":"60647","geo_score":1.0,"id":"a6dyll2k4zjd","geo_precision":"range","address":"2656 N Elston Ave","state":"IL"},"type":"Feature","geometry":{"type":"Point","coordinates":[-87.683871,41.929582]}},{"properties":{"city":"Elmwood Park","zip":"60707","geo_score":0.614,"id":"a6dyll4lk3so","geo_precision":"street","address":"2850 N. Harlem Ave.","state":"IL"},"type":"Feature","geometry":{"type":"Point","coordinates":[-87.805748,41.908903]}},{"properties":{"city":"Cicero","zip":"60804","geo_score":0.805,"id":"a6dylkw4npkn","geo_precision":"street","address":"2901 S Cicero Ave","state":"IL"},"type":"Feature","geometry":{"type":"Point","coordinates":[-87.74354,41.822167]}},{"properties":{"city":"Chicago","zip":"60618","geo_score":1.0,"id":"a6dylkqttk37","geo_precision":"range","address":"2939 W Addison St","state":"IL"},"type":"Feature","geometry":{"type":"Point","coordinates":[-87.701306,41.94665]}},{"properties":{"city":"Chicago","zip":"60611","geo_score":0.941,"id":"a6dyll4ti8ey","geo_precision":"range","address":"30 E Hubbard","state":"IL"},"type":"Feature","geometry":{"type":"Point","coordinates":[-87.62691,41.890082]}},{"properties":{"city":"Chicago","zip":"60602","geo_score":1.0,"id":"a6dylkx7k9l4","geo_precision":"range","address":"30 N LaSalle St.","state":"IL"},"type":"Feature","geometry":{"type":"Point","coordinates":[-87.632379,41.88258]}},{"properties":{"city":"Chicago","zip":"60606","geo_score":0.941,"id":"a6dylkvox3rj","geo_precision":"range","address":"303 West Madison","state":"IL"},"type":"Feature","geometry":{"type":"Point","coordinates":[-87.635312,41.881934]}},{"properties":{"city":"Chicago","zip":"60657","geo_score":0.91,"id":"a6dyll5mgzr4","geo_precision":"range","address":"3045 Greenview","state":"IL"},"type":"Feature","geometry":{"type":"Point","coordinates":[-87.666154,41.937217]}},{"properties":{"city":"Chicago","zip":"60605","geo_score":1.0,"id":"a6dylkujmaff","geo_precision":"range","address":"31 East Roosevelt Road","state":"IL"},"type":"Feature","geometry":{"type":"Point","coordinates":[-87.626117,41.867495]}},{"properties":{"city":"Chicago","zip":"60606","geo_score":0.619,"id":"a6dylkuhn5su","geo_precision":"street","address":"311 S. Wacker Dr.","state":"IL"},"type":"Feature","geometry":{"type":"Point","coordinates":[-87.636749,41.881264]}},{"properties":{"city":"Chicago","zip":"60657","geo_score":1.0,"id":"a6dyll448cba","geo_precision":"range","address":"3184 North Clark Street","state":"IL"},"type":"Feature","geometry":{"type":"Point","coordinates":[-87.650366,41.939693]}},{"properties":{"city":"Chicago","zip":"60625","geo_score":1.0,"id":"a6dylkwo6me9","geo_precision":"range","address":"3232 W Foster Avenue","state":"IL"},"type":"Feature","geometry":{"type":"Point","coordinates":[-87.709947,41.975732]}},{"properties":{"city":"Chicago","zip":"60624","geo_score":0.607,"id":"a6dylkr3pbd6","geo_precision":"street","address":"3350 W. Roosevelt Rd.","state":"IL"},"type":"Feature","geometry":{"type":"Point","coordinates":[-87.709323,41.866364]}},{"properties":{"city":"Chicago","zip":"60657","geo_score":1.0,"id":"a6dyll2plzo8","geo_precision":"range","address":"3356 North Lincoln Avenue","state":"IL"},"type":"Feature","geometry":{"type":"Point","coordinates":[-87.670505,41.942484]}},{"properties":{"city":"Chicago","zip":"60657","geo_score":0.61,"id":"a6dylkr7totb","geo_precision":"street","address":"3358 N. Broadway","state":"IL"},"type":"Feature","geometry":{"type":"Point","coordinates":[-87.644264,41.934252]}},{"properties":{"city":"Chicago","zip":"60657","geo_score":0.604,"id":"a6dylkw8df5l","geo_precision":"street","address":"3359 N. Southport","state":"IL"},"type":"Feature","geometry":{"type":"Point","coordinates":[-87.663583,41.932931]}},{"properties":{"city":"Chicago","zip":"60601","geo_score":0.619,"id":"a6dylkqo2e4d","geo_precision":"street","address":"35 E. Wacker Dr","state":"IL"},"type":"Feature","geometry":{"type":"Point","coordinates":[-87.626347,41.886829]}},{"properties":{"city":"Chicago","zip":"60609","geo_score":0.625,"id":"a6dyll2vwh25","geo_precision":"street","address":"3506 S. State St.","state":"IL"},"type":"Feature","geometry":{"type":"Point","coordinates":[-87.626644,41.831013]}},{"properties":{"city":"Chicago","zip":"60611","geo_score":0.614,"id":"a6dylkx6fe8u","geo_precision":"street","address":"38 E. Ontario St.","state":"IL"},"type":"Feature","geometry":{"type":"Point","coordinates":[-87.628115,41.893271]}},{"properties":{"city":"Chicago","zip":"60613","geo_score":0.947,"id":"a6dyll3quvz2","geo_precision":"range","address":"3845 N Broadway","state":"IL"},"type":"Feature","geometry":{"type":"Point","coordinates":[-87.649645,41.952486]}},{"properties":{"city":"Chicago","zip":"60604","geo_score":0.614,"id":"a6dyll1pmu9z","geo_precision":"street","address":"39 S. LaSalle Street","state":"IL"},"type":"Feature","geometry":{"type":"Point","coordinates":[-87.632346,41.881275]}},{"properties":{"city":"Chicago","zip":"60610","geo_score":1.0,"id":"a6dylkrgbt7b","geo_precision":"range","address":"39 W Division St","state":"IL"},"type":"Feature","geometry":{"type":"Point","coordinates":[-87.630088,41.903921]}},{"properties":{"city":"Chicago","zip":"60661","geo_score":0.614,"id":"a6dylkwkjyz9","geo_precision":"street","address":"40 N. Clinton St.","state":"IL"},"type":"Feature","geometry":{"type":"Point","coordinates":[-87.641193,41.881859]}},{"properties":{"city":"Chicago","zip":"60601","geo_score":1.0,"id":"a6dylkqp1sbr","geo_precision":"range","address":"40 W Lake Street","state":"IL"},"type":"Feature","geometry":{"type":"Point","coordinates":[-87.629216,41.885746]}},{"properties":{"city":"Chicago","zip":"60606","geo_score":0.614,"id":"a6dyll5xv27t","geo_precision":"street","address":"400 W. Madison","state":"IL"},"type":"Feature","geometry":{"type":"Point","coordinates":[-87.633823,41.881945]}},{"properties":{"city":"Chicago","zip":"60611","geo_score":0.614,"id":"a6dylkuwesp6","geo_precision":"street","address":"401 E. Ontario","state":"IL"},"type":"Feature","geometry":{"type":"Point","coordinates":[-87.628115,41.893271]}},{"properties":{"city":"Chicago","zip":"60613","geo_score":0.61,"id":"a6dyll1svkla","geo_precision":"street","address":"4015 N. Lincoln Avenue","state":"IL"},"type":"Feature","geometry":{"type":"Point","coordinates":[-87.674095,41.947452]}},{"properties":{"city":"Chicago","zip":"60610","geo_score":0.614,"id":"a6dylkxpzlxv","geo_precision":"street","address":"414 N. Orleans","state":"IL"},"type":"Feature","geometry":{"type":"Point","coordinates":[-87.636983,41.889943]}},{"properties":{"city":"Chicago","zip":"60646","geo_score":0.607,"id":"a6dyll2kn6dt","geo_precision":"street","address":"4159 W. Peterson","state":"IL"},"type":"Feature","geometry":{"type":"Point","coordinates":[-87.72864,41.990134]}},{"properties":{"city":"Chicago","zip":"60611","geo_score":1.0,"id":"a6dylkuo1fn9","geo_precision":"range","address":"42 East Chicago Ave","state":"IL"},"type":"Feature","geometry":{"type":"Point","coordinates":[-87.626785,41.896696]}},{"properties":{"city":"Chicago","zip":"60610","geo_score":0.947,"id":"a6dyll49lxvy","geo_precision":"range","address":"424 W Division","state":"IL"},"type":"Feature","geometry":{"type":"Point","coordinates":[-87.638967,41.903783]}},{"properties":{"city":"Chicago","zip":"60610","geo_score":0.625,"id":"a6dylkwzbqp9","geo_precision":"street","address":"430 N. Clark","state":"IL"},"type":"Feature","geometry":{"type":"Point","coordinates":[-87.631023,41.88751]}},{"properties":{"city":"Chicago","zip":"60641","geo_score":1.0,"id":"a6dylkxtl18y","geo_precision":"range","address":"4365 West Irving Park Road","state":"IL"},"type":"Feature","geometry":{"type":"Point","coordinates":[-87.737334,41.953535]}},{"properties":{"city":"Chicago","zip":"60632","geo_score":0.844,"id":"a6dylkrfdeuy","geo_precision":"range","address":"4433 S Pulaski","state":"IL"},"type":"Feature","geometry":{"type":"Point","coordinates":[-87.723772,41.812769]}},{"properties":{"city":"Chicago","zip":"60611","geo_score":1.0,"id":"a6dylkqch5n6","geo_precision":"range","address":"444 N Michigan Avenue","state":"IL"},"type":"Feature","geometry":{"type":"Point","coordinates":[-87.624207,41.89037]}},{"properties":{"city":"Chicago","zip":"60625","geo_score":1.0,"id":"a6dyll030i8p","geo_precision":"range","address":"4553 N Lincoln Ave","state":"IL"},"type":"Feature","geometry":{"type":"Point","coordinates":[-87.6855,41.964102]}},{"properties":{"city":"Chicago","zip":"60625","geo_score":1.0,"id":"a6dyll1q6cc0","geo_precision":"range","address":"4558 North Kedzie Ave.","state":"IL"},"type":"Feature","geometry":{"type":"Point","coordinates":[-87.708327,41.96401]}},{"properties":{"city":"Chicago","zip":"60640","geo_score":0.927,"id":"a6dylkqtsqj0","geo_precision":"range","address":"4600 North Magnolia","state":"IL"},"type":"Feature","geometry":{"type":"Point","coordinates":[-87.661022,41.965347]}},{"properties":{"city":"Chicago","zip":"60654","geo_score":0.744,"id":"a6dyll5mhfj0","geo_precision":"street","address":"470 Merchandise Mart","state":"IL"},"type":"Feature","geometry":{"type":"Point","coordinates":[-87.636291,41.887913]}},{"properties":{"city":"Chicago","zip":"60632","geo_score":0.902,"id":"a6dylksq6ue7","geo_precision":"range","address":"4701 South Cicero Avenue","state":"IL"},"type":"Feature","geometry":{"type":"Point","coordinates":[-87.743158,41.807622]}},{"properties":{"city":"Chicago","zip":"60640","geo_score":0.947,"id":"a6dyll2y8v0i","geo_precision":"range","address":"4753 North Broadway","state":"IL"},"type":"Feature","geometry":{"type":"Point","coordinates":[-87.659234,41.968202]}},{"properties":{"city":"Chicago","zip":"60630","geo_score":0.614,"id":"a6dyll3skje8","geo_precision":"street","address":"4830 N. Pulaski Rd.","state":"IL"},"type":"Feature","geometry":{"type":"Point","coordinates":[-87.727869,41.962531]}},{"properties":{"city":"Chicago","zip":"60611","geo_score":1.0,"id":"a6dyll4nconb","geo_precision":"range","address":"505 N Michigan Ave","state":"IL"},"type":"Feature","geometry":{"type":"Point","coordinates":[-87.624218,41.891045]}},{"properties":{"city":"Chicago","zip":"60622","geo_score":0.619,"id":"a6dylkut6fm5","geo_precision":"street","address":"520 N. Ogden Ave.","state":"IL"},"type":"Feature","geometry":{"type":"Point","coordinates":[-87.665624,41.881899]}},{"properties":{"city":"Chicago","zip":"60640","geo_score":1.0,"id":"a6dylkrueoyf","geo_precision":"range","address":"5300 N Clark Street","state":"IL"},"type":"Feature","geometry":{"type":"Point","coordinates":[-87.668349,41.978018]}},{"properties":{"city":"Chicago","zip":"60604","geo_score":1.0,"id":"a6dyll2f3fzl","geo_precision":"range","address":"55 East Jackson Blvd.","state":"IL"},"type":"Feature","geometry":{"type":"Point","coordinates":[-87.625804,41.878254]}},{"properties":{"city":"Chicago","zip":"60607","geo_score":0.947,"id":"a6dylkvdfowb","geo_precision":"range","address":"550 W Van Buren","state":"IL"},"type":"Feature","geometry":{"type":"Point","coordinates":[-87.641765,41.876743]}},{"properties":{"city":"Chicago","zip":"60605","geo_score":0.61,"id":"a6dylkra29ur","geo_precision":"street","address":"555 S. Dearborn","state":"IL"},"type":"Feature","geometry":{"type":"Point","coordinates":[-87.629402,41.881997]}},{"properties":{"city":"Chicago","zip":"60611","geo_score":1.0,"id":"a6dylky80gdd","geo_precision":"range","address":"600 E Grand Ave","state":"IL"},"type":"Feature","geometry":{"type":"Point","coordinates":[-87.611578,41.891982]}},{"properties":{"city":"Chicago","zip":"60610","geo_score":0.625,"id":"a6dylkso77tq","geo_precision":"street","address":"600 N. State Street","state":"IL"},"type":"Feature","geometry":{"type":"Point","coordinates":[-87.627805,41.882042]}},{"properties":{"city":"Chicago","zip":"60661","geo_score":0.633,"id":"a6dyll0d2ufw","geo_precision":"street","address":"600 W. Lake St.","state":"IL"},"type":"Feature","geometry":{"type":"Point","coordinates":[-87.629498,41.885745]}},{"properties":{"city":"Chicago","zip":"60660","geo_score":0.61,"id":"a6dylkxr1hs2","geo_precision":"street","address":"6009 N. Broadway Street","state":"IL"},"type":"Feature","geometry":{"type":"Point","coordinates":[-87.660092,41.98441]}},{"properties":{"city":"Chicago","zip":"60659","geo_score":0.61,"id":"a6dyll3slxc6","geo_precision":"street","address":"6075 N. Lincoln Ave.","state":"IL"},"type":"Feature","geometry":{"type":"Point","coordinates":[-87.695875,41.98358]}},{"properties":{"city":"Chicago","zip":"60614","geo_score":1.0,"id":"a6dylkx26m1z","geo_precision":"range","address":"617 W Diversey Pkwy","state":"IL"},"type":"Feature","geometry":{"type":"Point","coordinates":[-87.644251,41.932812]}},{"properties":{"city":"Chicago","zip":"60707","geo_score":0.477,"id":"a6dylkudyc7k","geo_precision":"street","address":"6451 W. Diversey","state":"IL"},"type":"Feature","geometry":{"type":"Point","coordinates":[-87.7863,41.930984]}},{"properties":{"city":"Bedford Park","zip":"60638","geo_score":1.0,"id":"a6dylksdgtmq","geo_precision":"range","address":"6520 S Cicero Ave","state":"IL"},"type":"Feature","geometry":{"type":"Point","coordinates":[-87.742141,41.774325]}},{"properties":{"city":"Chicago","zip":"60707","geo_score":0.911,"id":"a6dyll45ujqd","geo_precision":"range","address":"6525 W Diversey Ave","state":"IL"},"type":"Feature","geometry":{"type":"Point","coordinates":[-87.78865,41.930948]}},{"properties":{"city":"Chicago","zip":"60602","geo_score":1.0,"id":"a6dylkz6ri1i","geo_precision":"range","address":"66 West Washington Street","state":"IL"},"type":"Feature","geometry":{"type":"Point","coordinates":[-87.629932,41.883211]}},{"properties":{"city":"Chicago","zip":"60610","geo_score":0.321,"id":"a6dyll63wcxp","geo_precision":"street","address":"670 N. Michigan Avenue","state":"IL"},"type":"Feature","geometry":{"type":"Point","coordinates":[-87.624296,41.882118]}},{"properties":{"city":"Chicago","zip":"60626","geo_score":0.927,"id":"a6dyll0bofkj","geo_precision":"range","address":"6738 North Sheridan Avenue","state":"IL"},"type":"Feature","geometry":{"type":"Point","coordinates":[-87.660853,42.004674]}},{"properties":{"city":"Chicago","zip":"60602","geo_score":0.614,"id":"a6dyll6jbhl1","geo_precision":"street","address":"68 E. Madison","state":"IL"},"type":"Feature","geometry":{"type":"Point","coordinates":[-87.626956,41.882072]}},{"properties":{"city":"Lincolnwood","zip":"60712","geo_score":0.91,"id":"a6dyll2nx7ph","geo_precision":"range","address":"6810 McCormick","state":"IL"},"type":"Feature","geometry":{"type":"Point","coordinates":[-87.711649,42.004802]}},{"properties":{"city":"Chicago","zip":"60602","geo_score":1.0,"id":"a6dylkudafzs","geo_precision":"range","address":"70 W Madison St","state":"IL"},"type":"Feature","geometry":{"type":"Point","coordinates":[-87.630008,41.881987]}},{"properties":{"city":"Chicago","zip":"60649","geo_score":1.0,"id":"a6dyll0krylk","geo_precision":"range","address":"7101 South Stony Island Ave.","state":"IL"},"type":"Feature","geometry":{"type":"Point","coordinates":[-87.586327,41.766061]}},{"properties":{"city":"Oak Park","zip":"60301","geo_score":1.0,"id":"a6dylks8uz4l","geo_precision":"range","address":"711 Lake St.","state":"IL"},"type":"Feature","geometry":{"type":"Point","coordinates":[-87.792831,41.888583]}},{"properties":{"city":"Chicago","zip":"60707","geo_score":0.489,"id":"a6dyll0sxyuy","geo_precision":"street","address":"7112 W. North Ave.","state":"IL"},"type":"Feature","geometry":{"type":"Point","coordinates":[-87.785001,41.909147]}},{"properties":{"city":"River Forest","zip":"60305","geo_score":1.0,"id":"a6dylksyl6lf","geo_precision":"range","address":"7201 Lake Street","state":"IL"},"type":"Feature","geometry":{"type":"Point","coordinates":[-87.805049,41.888574]}},{"properties":{"city":"Forest Park","zip":"60130","geo_score":0.912,"id":"a6dyll0gb6m1","geo_precision":"range","address":"7231 Madison Ave","state":"IL"},"type":"Feature","geometry":{"type":"Point","coordinates":[-87.806056,41.879625]}},{"properties":{"city":"Chicago","zip":"60610","geo_score":1.0,"id":"a6dyll69g063","geo_precision":"range","address":"750 North Franklin Street","state":"IL"},"type":"Feature","geometry":{"type":"Point","coordinates":[-87.635681,41.895895]}},{"properties":{"city":"North Riverside","zip":"60546","geo_score":1.0,"id":"a6dylkt4nx4j","geo_precision":"range","address":"7501 West Cermak Road","state":"IL"},"type":"Feature","geometry":{"type":"Point","coordinates":[-87.808078,41.850291]}},{"properties":{"city":"River Forest","zip":"60305","geo_score":0.619,"id":"a6dylkte0szx","geo_precision":"street","address":"7601 W. North Avenue","state":"IL"},"type":"Feature","geometry":{"type":"Point","coordinates":[-87.805748,41.908903]}},{"properties":{"city":"Chicago","zip":"60610","geo_score":1.0,"id":"a6dyll5emhmi","geo_precision":"range","address":"828 North State Street","state":"IL"},"type":"Feature","geometry":{"type":"Point","coordinates":[-87.628222,41.89752]}},{"properties":{"city":"Chicago","zip":"60611","geo_score":1.0,"id":"a6dyll1bv52f","geo_precision":"range","address":"932 N Rush Street","state":"IL"},"type":"Feature","geometry":{"type":"Point","coordinates":[-87.62716,41.900006]}},{"properties":{"city":"Chicago","zip":"60614","geo_score":0.932,"id":"a6dyll4v117o","geo_precision":"range","address":"959 West Fullerton","state":"IL"},"type":"Feature","geometry":{"type":"Point","coordinates":[-87.65323,41.92538]}}],"is_temporal":false,"author":{"url":"","metadata":"","contact_name":"","contact_address":"","source":"","contact_phone":""},"source":"","pagination":{"sort":null,"start":0,"total":142,"limit":1000000},"state":"complete","tags":"","published":"2014-08-10T11:12:49-04:00","id":50479}