{"type":"FeatureCollection","data_type":"Dataset","url_type":null,"permissions":[{"permissions":{"download":true,"view":true},"group_id":"everyone"}],"classification":null,"title":"Meals on Wheels","count":25,"stream_id":51904,"contributor":{"url":"http://geocommons.com/users/13380","name":"carloc"},"data_attributes":null,"calculation_params":null,"icon_link":null,"link":"http://geocommons.com/overlays/51904.json","extent":[-79.5164,43.6495,-79.1966,43.8041],"geometry_types":["point"],"unique_name":null,"name":"Meals on Wheels","feature_count":25,"description":"","next_feature":null,"is_raster":false,"short_classification":"Y","stats":{"score":{"max":100,"mean":96.44,"variance":109.923333333333,"stdev":10.4844329047085,"min":53,"median":100},"latitude":{"max":43.80406112,"mean":43.6990966236,"variance":0.0018803249381892,"stdev":0.0433627136857139,"min":43.64947847,"median":43.69071155},"rotation":{"max":-17.5,"mean":-17.5,"variance":0.0,"stdev":0.0,"min":-17.5,"median":-17.5},"longitude":{"max":-79.19659377,"mean":-79.3930671844,"variance":0.00585358308832853,"stdev":0.0765087124994829,"min":-79.5164449,"median":-79.39525726}},"features":[{"properties":{"score":76,"name":"West Hill MOW","match_addr":"4100 LAWRENCE AVE E","status":"M","latitude":43.76610406,"rotation":-17.5,"side":"L","arc_street":"4100 Lawerence Avenue East","street":"4100 Lawerence Avenue East","phone":"416 - 284 - 5931","longitude":-79.19659377,"id":"a6sx1oj6z21i"},"type":"Feature","geometry":{"type":"Point","coordinates":[-79.19659377,43.76610406]}},{"properties":{"score":100,"name":"Scarborough Support Servi","match_addr":"1045 MCNICOLL AVE","status":"M","latitude":43.80406112,"rotation":-17.5,"side":"R","arc_street":"1045 McNicoll Avenue","street":"1045 McNicoll Avenue","phone":"416 - 750 - 9885","longitude":-79.33372573,"id":"a6sx1ois5i51"},"type":"Feature","geometry":{"type":"Point","coordinates":[-79.33372573,43.80406112]}},{"properties":{"score":100,"name":"St. Paul's L'Amoreaux MOW","match_addr":"3333 FINCH AVE E","status":"M","latitude":43.79582214,"rotation":-17.5,"side":"R","arc_street":"3333 Finch Avenue East","street":"3333 Finch Avenue East","phone":"416 - 493 - 3333","longitude":-79.31940476,"id":"a6sx1os8rjy3"},"type":"Feature","geometry":{"type":"Point","coordinates":[-79.31940476,43.79582214]}},{"properties":{"score":93,"name":"Wardens Woods MOW","match_addr":"74 FIRVALLEY CT","status":"M","latitude":43.70356777,"rotation":-17.5,"side":"L","arc_street":"74 Fir Valley Court","street":"74 Fir Valley Court","phone":"416 - 694 - 1138","longitude":-79.27791681,"id":"a6sx1ou47eom"},"type":"Feature","geometry":{"type":"Point","coordinates":[-79.27791681,43.70356777]}},{"properties":{"score":100,"name":"Meals Here And There Inc.","match_addr":"310 DANFORTH AVE","status":"M","latitude":43.67724349,"rotation":-17.5,"side":"L","arc_street":"310 Danforth Avenue","street":"310 Danforth Avenue","phone":"416 - 466 - 0587","longitude":-79.3534816,"id":"a6sx1olwm0bv"},"type":"Feature","geometry":{"type":"Point","coordinates":[-79.3534816,43.67724349]}},{"properties":{"score":100,"name":"True Davidson MOW","match_addr":"2723 SAINT CLAIR AVE E","status":"M","latitude":43.70595891,"rotation":-17.5,"side":"R","arc_street":"2723 St. Clair Avenue East","street":"2723 St. Clair Avenue East","phone":"416 - 752 - 9667","longitude":-79.31026401,"id":"a6sx1om69vgm"},"type":"Feature","geometry":{"type":"Point","coordinates":[-79.31026401,43.70595891]}},{"properties":{"score":100,"name":"MOW and More","match_addr":"80 SHEPPARD AVE W","status":"M","latitude":43.76053604,"rotation":-17.5,"side":"R","arc_street":"80 Sheppard Avenue West","street":"80 Sheppard Avenue West","phone":"416 - 492 - 5811","longitude":-79.4153632,"id":"a6sx1ouenhpv"},"type":"Feature","geometry":{"type":"Point","coordinates":[-79.4153632,43.76053604]}},{"properties":{"score":100,"name":"Taylor Place MOW","match_addr":"875 DON MILLS RD","status":"M","latitude":43.72449265,"rotation":-17.5,"side":"R","arc_street":"875 Don Mills Road","street":"875 Don Mills Road","phone":"416 - 447 - 7244","longitude":-79.34021668,"id":"a6sx1opp58nd"},"type":"Feature","geometry":{"type":"Point","coordinates":[-79.34021668,43.72449265]}},{"properties":{"score":100,"name":"Woodgreen MOW","match_addr":"1080 QUEEN ST E","status":"M","latitude":43.66184626,"rotation":-17.5,"side":"L","arc_street":"1080 Queen Street East","street":"1080 Queen Street East","phone":"416 - 469 - 5211","longitude":-79.33655816,"id":"a6sx1oorx0za"},"type":"Feature","geometry":{"type":"Point","coordinates":[-79.33655816,43.66184626]}},{"properties":{"score":100,"name":"East York MOW","match_addr":"2 THORNCLIFFE PARK DR","status":"M","latitude":43.7058344,"rotation":-17.5,"side":"L","arc_street":"2 Thorncliffe Park Drive","street":"2 Thorncliffe Park Drive","phone":"416 - 424 - 3322","longitude":-79.35164401,"id":"a6sx1ognn2uk"},"type":"Feature","geometry":{"type":"Point","coordinates":[-79.35164401,43.7058344]}},{"properties":{"score":100,"name":"Mid Toronto MOW","match_addr":"192 CARLTON ST","status":"M","latitude":43.66346374,"rotation":-17.5,"side":"L","arc_street":"192 Carlton Street","street":"192 Carlton Street","phone":"416 - 962 - 9449","longitude":-79.37168754,"id":"a6sx1omj2y8w"},"type":"Feature","geometry":{"type":"Point","coordinates":[-79.37168754,43.66346374]}},{"properties":{"score":89,"name":"Sprint MOW","match_addr":"140 MERTON ST","status":"M","latitude":43.6970048,"rotation":-17.5,"side":"L","arc_street":"140 Mreton Street","street":"140 Mreton Street","phone":"416 - 481 - 0669","longitude":-79.39198211,"id":"a6sx1ordx1al"},"type":"Feature","geometry":{"type":"Point","coordinates":[-79.39198211,43.6970048]}},{"properties":{"score":100,"name":"St. Chistopher House MOW","match_addr":"248 OSSINGTON AVE","status":"M","latitude":43.64947847,"rotation":-17.5,"side":"L","arc_street":"248 Ossington Avenue","street":"248 Ossington Avenue","phone":"416 - 532 - 4828","longitude":-79.42105253,"id":"a6sx1oir9ex9"},"type":"Feature","geometry":{"type":"Point","coordinates":[-79.42105253,43.64947847]}},{"properties":{"score":100,"name":"Scott Mission MOW","match_addr":"502 SPADINA AVE","status":"M","latitude":43.658721,"rotation":-17.5,"side":"L","arc_street":"502 Spadina Avenue","street":"502 Spadina Avenue","phone":"416 - 923 - 8872","longitude":-79.40058809,"id":"a6sx1opa0vqb"},"type":"Feature","geometry":{"type":"Point","coordinates":[-79.40058809,43.658721]}},{"properties":{"score":53,"name":"Yorkminister MOW","match_addr":"1580 YONGE ST","status":"M","latitude":43.69071155,"rotation":-17.5,"side":"L","arc_street":"1582 YONGE STREET","street":"1582 Yonge Street","phone":"416 - 482 - 0549","longitude":-79.39525726,"id":"a6sx1opory6t"},"type":"Feature","geometry":{"type":"Point","coordinates":[-79.39525726,43.69071155]}},{"properties":{"score":100,"name":"St. Clair West MOW","match_addr":"1669 EGLINTON AVE W","status":"M","latitude":43.69666857,"rotation":-17.5,"side":"L","arc_street":"1669 Eglinton Avenue West","street":"1669 Eglinton Avenue West","phone":"416 - 787 - 2114","longitude":-79.44571761,"id":"a6sx1oh5ywsu"},"type":"Feature","geometry":{"type":"Point","coordinates":[-79.44571761,43.69666857]}},{"properties":{"score":100,"name":"West Toronto Mow","match_addr":"80 WARD ST","status":"M","latitude":43.66414649,"rotation":-17.5,"side":"L","arc_street":"80 Ward Street","street":"80 Ward Street","phone":"416 - 653 - 3535","longitude":-79.44690856,"id":"a6sx1on19gqk"},"type":"Feature","geometry":{"type":"Point","coordinates":[-79.44690856,43.66414649]}},{"properties":{"score":100,"name":"Humber Community Services","match_addr":"1167 WESTON RD","status":"M","latitude":43.68722947,"rotation":-17.5,"side":"R","arc_street":"1167 Weston Road","street":"1167 Weston Road","phone":"416 - 249 - 7946","longitude":-79.49041915,"id":"a6sx1ogzuyij"},"type":"Feature","geometry":{"type":"Point","coordinates":[-79.49041915,43.68722947]}},{"properties":{"score":100,"name":"Downsview Services to Sen","match_addr":"497 WILSON AVE","status":"M","latitude":43.73503419,"rotation":-17.5,"side":"L","arc_street":"497 Wilson Avenue","street":"497 Wilson Avenue","phone":"416 - 398 - 5510","longitude":-79.44508216,"id":"a6sx1opo9bda"},"type":"Feature","geometry":{"type":"Point","coordinates":[-79.44508216,43.73503419]}},{"properties":{"score":100,"name":"Etobicoke Red Cross MOW","match_addr":"4210 DUNDAS ST W","status":"M","latitude":43.66013675,"rotation":-17.5,"side":"R","arc_street":"4210 Dundas Street West","street":"4210 Dundas Street West","phone":"416 - 236 - 3180","longitude":-79.51182057,"id":"a6sx1ohlf0w4"},"type":"Feature","geometry":{"type":"Point","coordinates":[-79.51182057,43.66013675]}},{"properties":{"score":100,"name":"Loyola Arrupe Centre For","match_addr":"1709 BLOOR ST W","status":"M","latitude":43.65488965,"rotation":-17.5,"side":"L","arc_street":"1709 Bloor Street West","street":"1709 Bloor Street West","phone":"416 - 766 - 7977","longitude":-79.45921405,"id":"a6sx1oqw6q78"},"type":"Feature","geometry":{"type":"Point","coordinates":[-79.45921405,43.65488965]}},{"properties":{"score":100,"name":"Momiji Seniors Centre","match_addr":"351 CHRISTIE ST","status":"M","latitude":43.67311964,"rotation":-17.5,"side":"R","arc_street":"351 Christie Street","street":"351 Christie Street","phone":"416 - 531 - 7574","longitude":-79.42233905,"id":"a6sx1oijs73d"},"type":"Feature","geometry":{"type":"Point","coordinates":[-79.42233905,43.67311964]}},{"properties":{"score":100,"name":"Sunshine Centres for Seni","match_addr":"117 BLOOR ST E","status":"M","latitude":43.67090462,"rotation":-17.5,"side":"R","arc_street":"117 Bloor Street East","street":"117 Bloor Street East","phone":"416 - 924 - 3979","longitude":-79.38373404,"id":"a6sx1otkyc2n"},"type":"Feature","geometry":{"type":"Point","coordinates":[-79.38373404,43.67090462]}},{"properties":{"score":100,"name":"SYME Senior Centre","match_addr":"33 PRITCHARD AVE","status":"M","latitude":43.67032176,"rotation":-17.5,"side":"L","arc_street":"33 Pritchard Avenue","street":"33 Pritchard Avenue","phone":"416 - 766 - 0388","longitude":-79.48926326,"id":"a6sx1oi96l0h"},"type":"Feature","geometry":{"type":"Point","coordinates":[-79.48926326,43.67032176]}},{"properties":{"score":100,"name":"York-West Senior Citizen","match_addr":"1901 WESTON RD","status":"M","latitude":43.70011805,"rotation":-17.5,"side":"R","arc_street":"1901 Weston Road","street":"1901 Weston Road","phone":"416 - 245 - 4395","longitude":-79.5164449,"id":"a6sx1ouj7x1k"},"type":"Feature","geometry":{"type":"Point","coordinates":[-79.5164449,43.70011805]}}],"is_temporal":false,"author":{"url":"","metadata":"","contact_name":"","contact_address":"","source":"","contact_phone":""},"source":"","pagination":{"sort":null,"start":0,"total":25,"limit":1000000},"state":"complete","tags":"","published":"2014-08-10T12:15:00-04:00","id":51904}