{"type":"FeatureCollection","data_type":"Dataset","url_type":null,"permissions":[{"permissions":{"download":true,"view":true},"group_id":"everyone"}],"classification":null,"title":"Bureau of Prisons, USA Federal Prison Population, USA, 3.6.2008","count":194,"stream_id":520,"contributor":{"url":"http://geocommons.com/users/2","name":"data"},"data_attributes":null,"calculation_params":null,"icon_link":null,"link":"http://geocommons.com/overlays/520.json","extent":[-157.928,18.4231,-66.1123,47.4219],"geometry_types":["point"],"unique_name":null,"name":"Bureau of Prisons, USA Federal Prison Population, USA, 3.6.2008","feature_count":194,"description":"This dataset displays the inmate populations for all the Federal Prisons throughout the United States on 3.6.08. This weekly Population Report can be found on the Bureau of Prisons website at bop.gov. These facilities are positioned by their lat/lon. This dataset is updated on a weekly basis.\n","next_feature":null,"is_raster":false,"short_classification":"Y","stats":{"lon":{"max":-66.112323,"mean":-91.4543991494845,"variance":220.032000179782,"stdev":14.8334756608079,"min":-157.928178,"median":-87.451298},"zip":{"max":98198,"mean":51703.4381443299,"variance":793015447.822579,"stdev":28160.5299634538,"min":965,"median":44501},"count":{"max":3302,"mean":972.432989690722,"variance":376580.454035575,"stdev":613.661514220645,"min":113,"median":1075},"lat":{"max":47.421922,"mean":36.0070110824742,"variance":22.5882575997075,"stdev":4.75271055290636,"min":18.423141,"median":36.14189}},"features":[{"properties":{"city":"ALDERSON","lon":-80.661862,"zip":24910,"facility":"ALDERSON FPC","type":"Federal Prison Camp","count":1149,"id":"a640d99n59gl","address":"GLEN RAY RD. BOX A","lat":37.727322,"state":"WV"},"type":"Feature","geometry":{"type":"Point","coordinates":[-80.661862,37.727322]}},{"properties":{"city":"WHITE DEER","lon":-76.927658,"zip":17810,"facility":"ALLENWOOD LOW FCI","type":"Federal Correctional Institution","count":1339,"id":"a640d968gykb","address":"RT 15, 2 MILES N OF ALLENWOOD","lat":41.130398,"state":"PA"},"type":"Feature","geometry":{"type":"Point","coordinates":[-76.927658,41.130398]}},{"properties":{"city":"WHITE DEER","lon":-76.927658,"zip":17810,"facility":"ALLENWOOD MED FCI","type":"Federal Correctional Institution","count":1389,"id":"a640d8zpqu4f","address":"RT 15, 2 MILES N OF ALLENWOOD","lat":41.130398,"state":"PA"},"type":"Feature","geometry":{"type":"Point","coordinates":[-76.927658,41.130398]}},{"properties":{"city":"WHITE DEER","lon":-76.927658,"zip":17810,"facility":"ALLENWOOD USP","type":"U.S. Penitentiary","count":1137,"id":"a640d8xx56nv","address":"RT 15, 2 MILES N OF ALLENWOOD","lat":41.130398,"state":"PA"},"type":"Feature","geometry":{"type":"Point","coordinates":[-76.927658,41.130398]}},{"properties":{"city":"ASHLAND","lon":-82.705091,"zip":41105,"facility":"ASHLAND FCI","type":"Federal Correctional Institution","count":1262,"id":"a640d94lguay","address":"ST. ROUTE 716","lat":38.435208,"state":"KY"},"type":"Feature","geometry":{"type":"Point","coordinates":[-82.705091,38.435208]}},{"properties":{"city":"ASHLAND","lon":-82.701028,"zip":41105,"facility":"ASHLAND-CAMP","type":"Satellite Camp","count":304,"id":"a640d959hdlc","address":"ST. ROUTE 716","lat":38.432817,"state":"KY"},"type":"Feature","geometry":{"type":"Point","coordinates":[-82.701028,38.432817]}},{"properties":{"city":"ATLANTA","lon":-84.3689,"zip":30315,"facility":"ATLANTA USP","type":"U.S. Penitentiary","count":1969,"id":"a640d91wazgv","address":"601 MCDONOUGH BLVD SE","lat":33.710814,"state":"GA"},"type":"Feature","geometry":{"type":"Point","coordinates":[-84.3689,33.710814]}},{"properties":{"city":"ATLANTA","lon":-84.364282,"zip":30315,"facility":"ATLANTA-CAMP","type":"Satellite Camp","count":494,"id":"a640d97v392b","address":"601 MCDONOUGH BLVD SE","lat":33.709303,"state":"GA"},"type":"Feature","geometry":{"type":"Point","coordinates":[-84.364282,33.709303]}},{"properties":{"city":"ATWATER","lon":-120.559323,"zip":95301,"facility":"ATWATER USP","type":"U.S. Penitentiary","count":1130,"id":"a640d98oxjyb","address":"1 FEDERAL WAY","lat":37.385414,"state":"CA"},"type":"Feature","geometry":{"type":"Point","coordinates":[-120.559323,37.385414]}},{"properties":{"city":"ATWATER","lon":-120.559323,"zip":95301,"facility":"ATWATER-CAMP","type":"Satellite Camp","count":123,"id":"a640d97vdri4","address":"1 FEDERAL WAY","lat":37.385414,"state":"CA"},"type":"Feature","geometry":{"type":"Point","coordinates":[-120.559323,37.385414]}},{"properties":{"city":"BASTROP","lon":-97.3144,"zip":78602,"facility":"BASTROP FCI","type":"Federal Correctional Institution","count":1200,"id":"a640d9c75g95","address":"1341 HIGHWAY 95 NORTH","lat":30.222598,"state":"TX"},"type":"Feature","geometry":{"type":"Point","coordinates":[-97.3144,30.222598]}},{"properties":{"city":"BASTROP","lon":-97.31368,"zip":78602,"facility":"BASTROP-CAMP","type":"Satellite Camp","count":177,"id":"a640d932a3i8","address":"1341 HIGHWAY 95 NORTH","lat":30.219685,"state":"TX"},"type":"Feature","geometry":{"type":"Point","coordinates":[-97.31368,30.219685]}},{"properties":{"city":"BEAUMONT","lon":-94.079515,"zip":77705,"facility":"BEAUMONT LOW FCI","type":"Federal Correctional Institution","count":1905,"id":"a640d9a4x4dd","address":"5560 KNAUTH ROAD","lat":29.964706,"state":"TX"},"type":"Feature","geometry":{"type":"Point","coordinates":[-94.079515,29.964706]}},{"properties":{"city":"BEAUMONT","lon":-94.079515,"zip":77705,"facility":"BEAUMONT MED FCI","type":"Federal Correctional Institution","count":1769,"id":"a640d8wkymeg","address":"5830 KNAUTH ROAD","lat":29.964706,"state":"TX"},"type":"Feature","geometry":{"type":"Point","coordinates":[-94.079515,29.964706]}},{"properties":{"city":"BEAUMONT","lon":-94.079515,"zip":77705,"facility":"BEAUMONT USP","type":"U.S. Penitentiary","count":1443,"id":"a640d8xyk3ey","address":"6200 KNAUTH ROAD","lat":29.964706,"state":"TX"},"type":"Feature","geometry":{"type":"Point","coordinates":[-94.079515,29.964706]}},{"properties":{"city":"BEAUMONT","lon":-94.079515,"zip":77705,"facility":"BEAUMONT USP-CAMP","type":"Satellite Camp","count":472,"id":"a640d9930rrf","address":"5870 KNAUTH ROAD","lat":29.964706,"state":"TX"},"type":"Feature","geometry":{"type":"Point","coordinates":[-94.079515,29.964706]}},{"properties":{"city":"BEAVER","lon":-81.12927,"zip":25813,"facility":"BECKLEY FCI","type":"Federal Correctional Institution","count":1612,"id":"a640d99f5m5q","address":"1600 INDUSTRIAL ROAD","lat":37.812352,"state":"WV"},"type":"Feature","geometry":{"type":"Point","coordinates":[-81.12927,37.812352]}},{"properties":{"city":"BEAVER","lon":-81.12927,"zip":25813,"facility":"BECKLEY-CAMP","type":"Satellite Camp","count":412,"id":"a640d99af936","address":"1600 INDUSTRIAL ROAD","lat":37.812352,"state":"WV"},"type":"Feature","geometry":{"type":"Point","coordinates":[-81.12927,37.812352]}},{"properties":{"city":"BENNETTSVILLE","lon":-79.716185,"zip":29512,"facility":"BENNETTSVILE-CAMP","type":"Satellite Camp","count":138,"id":"a640d99p9jgf","address":"696 MUCKERMAN ROAD","lat":34.652522,"state":"SC"},"type":"Feature","geometry":{"type":"Point","coordinates":[-79.716185,34.652522]}},{"properties":{"city":"BENNETTSVILLE","lon":-79.718727,"zip":29512,"facility":"BENNETTSVILLE FCI","type":"Federal Correctional Institution","count":1643,"id":"a640d8yd6u8c","address":"696 MUCKERMAN ROAD","lat":34.672032,"state":"SC"},"type":"Feature","geometry":{"type":"Point","coordinates":[-79.718727,34.672032]}},{"properties":{"city":"INEZ","lon":-82.539453,"zip":41224,"facility":"BIG SANDY USP","type":"U.S. Penitentiary","count":1486,"id":"a640d970fv4c","address":"1197 AIRPORT ROAD","lat":37.505998,"state":"KY"},"type":"Feature","geometry":{"type":"Point","coordinates":[-82.539453,37.505998]}},{"properties":{"city":"INEZ","lon":-82.539453,"zip":41224,"facility":"BIG SANDY-CAMP","type":"Satellite Camp","count":128,"id":"a640d947vrdg","address":"1197 AIRPORT ROAD","lat":37.505998,"state":"KY"},"type":"Feature","geometry":{"type":"Point","coordinates":[-82.539453,37.505998]}},{"properties":{"city":"BIG SPRING D","lon":-101.509363,"zip":79720,"facility":"BIG SPRING CI","type":"Private Correctional Institution","count":3302,"id":"a640d9327vgd","address":"1900 SIMLER AVE","lat":32.225503,"state":"TX"},"type":"Feature","geometry":{"type":"Point","coordinates":[-101.509363,32.225503]}},{"properties":{"city":"BIG SPRING","lon":-101.509719,"zip":79720,"facility":"BIG SPRING FCI","type":"Federal Correctional Institution","count":1041,"id":"a640d8xkvq75","address":"1900 SIMLER AVE","lat":32.225713,"state":"TX"},"type":"Feature","geometry":{"type":"Point","coordinates":[-101.509719,32.225713]}},{"properties":{"city":"BIG SPRING D","lon":-101.506088,"zip":79720,"facility":"BIG SPRING-CAMP","type":"Satellite Camp","count":178,"id":"a640d95peozv","address":"1900 SIMLER AVE","lat":32.219665,"state":"TX"},"type":"Feature","geometry":{"type":"Point","coordinates":[-101.506088,32.219665]}},{"properties":{"city":"BROOKLYN","lon":-74.003153,"zip":11232,"facility":"BROOKLYN MDC","type":"Metropolitan Detention Center","count":2708,"id":"a640d94xlxj6","address":"80 29TH STREET","lat":40.660016,"state":"NY"},"type":"Feature","geometry":{"type":"Point","coordinates":[-74.003153,40.660016]}},{"properties":{"city":"BRYAN","lon":-96.3617,"zip":77803,"facility":"BRYAN FPC","type":"Federal Prison Camp","count":953,"id":"a640d954v57l","address":"1100 URSULINE AVENUE","lat":30.677603,"state":"TX"},"type":"Feature","geometry":{"type":"Point","coordinates":[-96.3617,30.677603]}},{"properties":{"city":"BUTNER","lon":-78.806403,"zip":27509,"facility":"BUTNER FMC","type":"Federal Medical Center","count":944,"id":"a640d9bq3rdp","address":"OLD N. CAROLINA HWY 75","lat":36.14189,"state":"NC"},"type":"Feature","geometry":{"type":"Point","coordinates":[-78.806403,36.14189]}},{"properties":{"city":"BUTNER","lon":-78.806403,"zip":27509,"facility":"BUTNER LOW FCI","type":"Federal Correctional Institution","count":1271,"id":"a640d8wm9xdc","address":"OLD NC HWY 75","lat":36.14189,"state":"NC"},"type":"Feature","geometry":{"type":"Point","coordinates":[-78.806403,36.14189]}},{"properties":{"city":"BUTNER","lon":-78.806403,"zip":27509,"facility":"BUTNER MED I FCI","type":"Federal Correctional Institution","count":738,"id":"a640d91jzsu9","address":"OLD NC HWY 75","lat":36.14189,"state":"NC"},"type":"Feature","geometry":{"type":"Point","coordinates":[-78.806403,36.14189]}},{"properties":{"city":"BUTNER","lon":-78.806403,"zip":27509,"facility":"BUTNER MED II FCI","type":"Federal Correctional Institution","count":1262,"id":"a640d92fi4jh","address":"OLD NC HWY 75","lat":36.14189,"state":"NC"},"type":"Feature","geometry":{"type":"Point","coordinates":[-78.806403,36.14189]}},{"properties":{"city":"BUTNER","lon":-78.806403,"zip":27509,"facility":"BUTNER-CAMP","type":"Satellite Camp","count":334,"id":"a640d99aj9ch","address":"OLD NC HWY 75","lat":36.14189,"state":"NC"},"type":"Feature","geometry":{"type":"Point","coordinates":[-78.806403,36.14189]}},{"properties":{"city":"CALIFORNIA CITY","lon":-117.858867,"zip":93504,"facility":"CALIFORNIA CITY CI","type":"Private Correctional Institution","count":2636,"id":"a640d91lx2wv","address":"22844 VIRGINIA BOULEVARD","lat":35.153251,"state":"CA"},"type":"Feature","geometry":{"type":"Point","coordinates":[-117.858867,35.153251]}},{"properties":{"city":"WAYMART","lon":-75.421456,"zip":18472,"facility":"CANAAN USP","type":"U.S. Penitentiary","count":1503,"id":"a640d8yi0sgb","address":"3057 EASTON TURNPIKE","lat":41.562417,"state":"PA"},"type":"Feature","geometry":{"type":"Point","coordinates":[-75.421456,41.562417]}},{"properties":{"city":"WAYMART","lon":-75.421456,"zip":18472,"facility":"CANAAN-CAMP","type":"Satellite Camp","count":129,"id":"a640d9cfdmv8","address":"3057 EASTON TURNPIKE","lat":41.562417,"state":"PA"},"type":"Feature","geometry":{"type":"Point","coordinates":[-75.421456,41.562417]}},{"properties":{"city":"FORT WORTH","lon":-97.41847,"zip":76127,"facility":"CARSWELL FMC","type":"Federal Medical Center","count":1526,"id":"a640d95o5trt","address":"J ST BLDG 3000","lat":32.784049,"state":"TX"},"type":"Feature","geometry":{"type":"Point","coordinates":[-97.41847,32.784049]}},{"properties":{"city":"FORT WORTH","lon":-97.41847,"zip":76127,"facility":"CARSWELL-CAMP","type":"Satellite Camp","count":273,"id":"a640d918a8k4","address":"J ST BLDG 3000","lat":32.784049,"state":"TX"},"type":"Feature","geometry":{"type":"Point","coordinates":[-97.41847,32.784049]}},{"properties":{"city":"CHICAGO","lon":-87.629896,"zip":60605,"facility":"CHICAGO MCC","type":"Metropolitan Correctional Center","count":731,"id":"a640d9392nwb","address":"71 WEST VAN BUREN STREET","lat":41.876845,"state":"IL"},"type":"Feature","geometry":{"type":"Point","coordinates":[-87.629896,41.876845]}},{"properties":{"city":"MILAN","lon":-107.908088,"zip":87021,"facility":"CIBOLA COUNTY CI","type":"Private Correctional Institution","count":1146,"id":"a640d912upjz","address":"2000 CIBOLA LOOP","lat":35.17977,"state":"NM"},"type":"Feature","geometry":{"type":"Point","coordinates":[-107.908088,35.17977]}},{"properties":{"city":"COLEMAN","lon":-82.009338,"zip":33521,"facility":"COLEMAN I USP","type":"U.S. Penitentiary","count":1573,"id":"a640d99w0vbu","address":"846 NE 54TH TERRACE","lat":28.768607,"state":"FL"},"type":"Feature","geometry":{"type":"Point","coordinates":[-82.009338,28.768607]}},{"properties":{"city":"COLEMAN","lon":-82.009338,"zip":33521,"facility":"COLEMAN II USP","type":"U.S. Penitentiary","count":1580,"id":"a640d9cvsl36","address":"846 NE 54TH TERRACE","lat":28.768607,"state":"FL"},"type":"Feature","geometry":{"type":"Point","coordinates":[-82.009338,28.768607]}},{"properties":{"city":"COLEMAN","lon":-82.009338,"zip":33521,"facility":"COLEMAN LOW FCI","type":"Federal Correctional Institution","count":1980,"id":"a640d8y3bdtj","address":"846 NE 54TH TERRACE","lat":28.768607,"state":"FL"},"type":"Feature","geometry":{"type":"Point","coordinates":[-82.009338,28.768607]}},{"properties":{"city":"COLEMAN","lon":-82.009338,"zip":33521,"facility":"COLEMAN MED FCI","type":"Federal Correctional Institution","count":1766,"id":"a640d98mteut","address":"846 NE 54TH TERRACE","lat":28.768607,"state":"FL"},"type":"Feature","geometry":{"type":"Point","coordinates":[-82.009338,28.768607]}},{"properties":{"city":"COLEMAN","lon":-82.009338,"zip":33521,"facility":"COLEMAN MED FCI-CAMP","type":"Satellite Camp","count":497,"id":"a640d94nttce","address":"846 NE 54TH TERRACE","lat":28.768607,"state":"FL"},"type":"Feature","geometry":{"type":"Point","coordinates":[-82.009338,28.768607]}},{"properties":{"city":"CUMBERLAND","lon":-78.76238,"zip":21502,"facility":"CUMBERLAND FCI","type":"Federal Correctional Institution","count":1208,"id":"a640d9cnibj0","address":"14601 BURBRIDGE RD SE","lat":39.595527,"state":"MD"},"type":"Feature","geometry":{"type":"Point","coordinates":[-78.76238,39.595527]}},{"properties":{"city":"CUMBERLAND","lon":-78.76238,"zip":21502,"facility":"CUMBERLAND-CAMP","type":"Satellite Camp","count":329,"id":"a640d8xj6hdb","address":"14601 BURBRIDGE RD SE","lat":39.595527,"state":"MD"},"type":"Feature","geometry":{"type":"Point","coordinates":[-78.76238,39.595527]}},{"properties":{"city":"POST","lon":-101.374071,"zip":79356,"facility":"DALBY CI","type":"Private Correctional Institution","count":1805,"id":"a640d9361o1n","address":"805 NORTH AVENUE F","lat":33.201457,"state":"TX"},"type":"Feature","geometry":{"type":"Point","coordinates":[-101.374071,33.201457]}},{"properties":{"city":"DANBURY","lon":-73.467465,"zip":6811,"facility":"DANBURY FCI","type":"Federal Correctional Institution","count":1249,"id":"a640d90snm9e","address":"ROUTE 37","lat":41.436684,"state":"CT"},"type":"Feature","geometry":{"type":"Point","coordinates":[-73.467465,41.436684]}},{"properties":{"city":"DANBURY","lon":-73.467465,"zip":6811,"facility":"DANBURY-CAMP","type":"Satellite Camp","count":185,"id":"a640d9brxkt1","address":"ROUTE 37","lat":41.436684,"state":"CT"},"type":"Feature","geometry":{"type":"Point","coordinates":[-73.467465,41.436684]}},{"properties":{"city":"AYER","lon":-71.62087,"zip":1432,"facility":"DEVENS FMC","type":"Federal Medical Center","count":1002,"id":"a640d93a4sv4","address":"42 PATTON ROAD","lat":42.525388,"state":"MA"},"type":"Feature","geometry":{"type":"Point","coordinates":[-71.62087,42.525388]}},{"properties":{"city":"AYER","lon":-71.62087,"zip":1432,"facility":"DEVENS-CAMP","type":"Satellite Camp","count":121,"id":"a640d9bbl9qo","address":"42 PATTON ROAD","lat":42.525388,"state":"MA"},"type":"Feature","geometry":{"type":"Point","coordinates":[-71.62087,42.525388]}},{"properties":{"city":"DUBLIN","lon":-121.888046,"zip":94568,"facility":"DUBLIN FCI","type":"Federal Correctional Institution","count":1144,"id":"a640d92sy3pg","address":"5701 8TH ST - CAMP PARKS","lat":37.717635,"state":"CA"},"type":"Feature","geometry":{"type":"Point","coordinates":[-121.888046,37.717635]}},{"properties":{"city":"DUBLIN","lon":-121.888046,"zip":94568,"facility":"DUBLIN-CAMP","type":"Satellite Camp","count":293,"id":"a640d901clta","address":"5701 8TH ST - CAMP PARKS","lat":37.717635,"state":"CA"},"type":"Feature","geometry":{"type":"Point","coordinates":[-121.888046,37.717635]}},{"properties":{"city":"DULUTH","lon":-92.197441,"zip":55814,"facility":"DULUTH FPC","type":"Federal Prison Camp","count":809,"id":"a640d94dg2or","address":"6902 STEBNER ROAD","lat":46.836148,"state":"MN"},"type":"Feature","geometry":{"type":"Point","coordinates":[-92.197441,46.836148]}},{"properties":{"city":"EDEN","lon":-99.833981,"zip":76837,"facility":"EDEN CI","type":"Private Correctional Institution","count":1365,"id":"a640d8ysb3q4","address":"702 EAST BROADWAY","lat":31.217711,"state":"TX"},"type":"Feature","geometry":{"type":"Point","coordinates":[-99.833981,31.217711]}},{"properties":{"city":"EDGEFIELD","lon":-81.917252,"zip":29824,"facility":"EDGEFIELD FCI","type":"Federal Correctional Institution","count":1662,"id":"a640d975d1py","address":"501 GARY HILL ROAD","lat":33.757775,"state":"SC"},"type":"Feature","geometry":{"type":"Point","coordinates":[-81.917252,33.757775]}},{"properties":{"city":"EDGEFIELD","lon":-81.917252,"zip":29824,"facility":"EDGEFIELD-CAMP","type":"Satellite Camp","count":533,"id":"a640d98ihi4y","address":"501 GARY HILL ROAD","lat":33.757775,"state":"SC"},"type":"Feature","geometry":{"type":"Point","coordinates":[-81.917252,33.757775]}},{"properties":{"city":"EL RENO","lon":-98.005024,"zip":73036,"facility":"EL RENO FCI","type":"Federal Correctional Institution","count":1170,"id":"a640d90d6qw2","address":"4205 HIGHWAY 66 WEST","lat":35.533572,"state":"OK"},"type":"Feature","geometry":{"type":"Point","coordinates":[-98.005024,35.533572]}},{"properties":{"city":"EL RENO","lon":-98.005024,"zip":73036,"facility":"EL RENO-CAMP","type":"Satellite Camp","count":266,"id":"a640d9b6ni08","address":"4205 HIGHWAY 66 WEST","lat":35.533572,"state":"OK"},"type":"Feature","geometry":{"type":"Point","coordinates":[-98.005024,35.533572]}},{"properties":{"city":"ELKTON","lon":-80.704762,"zip":44415,"facility":"ELKTON FCI","type":"Federal Correctional Institution","count":1795,"id":"a640d923k9fy","address":"8730 SCROGGS ROAD","lat":40.772353,"state":"OH"},"type":"Feature","geometry":{"type":"Point","coordinates":[-80.704762,40.772353]}},{"properties":{"city":"ELKTON","lon":-80.704762,"zip":44415,"facility":"ELKTON-FSL","type":"Satellite Camp","count":573,"id":"a640d93y4unf","address":"8730 SCROGGS ROAD","lat":40.772353,"state":"OH"},"type":"Feature","geometry":{"type":"Point","coordinates":[-80.704762,40.772353]}},{"properties":{"city":"LITTLETON","lon":-105.105458,"zip":80123,"facility":"ENGLEWOOD FCI","type":"Federal Correctional Institution","count":926,"id":"a640d9ayk5jq","address":"9595 WEST QUINCY AVENUE","lat":39.641503,"state":"CO"},"type":"Feature","geometry":{"type":"Point","coordinates":[-105.105458,39.641503]}},{"properties":{"city":"LITTLETON","lon":-105.105458,"zip":80123,"facility":"ENGLEWOOD-CAMP","type":"Satellite Camp","count":162,"id":"a640d92lzpcz","address":"9595 WEST QUINCY AVENUE","lat":39.641503,"state":"CO"},"type":"Feature","geometry":{"type":"Point","coordinates":[-105.105458,39.641503]}},{"properties":{"city":"ESTILL","lon":-81.255393,"zip":29918,"facility":"ESTILL FCI","type":"Federal Correctional Institution","count":1116,"id":"a640d96j1xry","address":"COLUMBIA HIGHWAY S &amp; SECESSI","lat":32.720671,"state":"SC"},"type":"Feature","geometry":{"type":"Point","coordinates":[-81.255393,32.720671]}},{"properties":{"city":"ESTILL","lon":-81.255393,"zip":29918,"facility":"ESTILL-CAMP","type":"Satellite Camp","count":280,"id":"a640d92wskj2","address":"COLUMBIA HIGHWAY S &amp; SECESSI","lat":32.720671,"state":"SC"},"type":"Feature","geometry":{"type":"Point","coordinates":[-81.255393,32.720671]}},{"properties":{"city":"FAIRTON","lon":-75.160242,"zip":8320,"facility":"FAIRTON FCI","type":"Federal Correctional Institution","count":1399,"id":"a640d93y635c","address":"655 FAIRTON-MILLVILLE ROAD","lat":39.384926,"state":"NJ"},"type":"Feature","geometry":{"type":"Point","coordinates":[-75.160242,39.384926]}},{"properties":{"city":"FAIRTON","lon":-75.160242,"zip":8320,"facility":"FAIRTON-CAMP","type":"Satellite Camp","count":113,"id":"a640d9ch94qb","address":"655 FAIRTON-MILLVILLE ROAD","lat":39.384926,"state":"NJ"},"type":"Feature","geometry":{"type":"Point","coordinates":[-75.160242,39.384926]}},{"properties":{"city":"FLORENCE","lon":-105.102573,"zip":81226,"facility":"FLORENCE ADMAX USP","type":"U.S. Penitentiary","count":478,"id":"a640d9atqgi8","address":"5880 HWY 67 SOUTH","lat":38.360662,"state":"CO"},"type":"Feature","geometry":{"type":"Point","coordinates":[-105.102573,38.360662]}},{"properties":{"city":"FLORENCE","lon":-105.102573,"zip":81226,"facility":"FLORENCE FCI","type":"Federal Correctional Institution","count":1205,"id":"a640d9cdvqnq","address":"5880 HWY 67 SOUTH","lat":38.360662,"state":"CO"},"type":"Feature","geometry":{"type":"Point","coordinates":[-105.102573,38.360662]}},{"properties":{"city":"FLORENCE","lon":-105.102573,"zip":81226,"facility":"FLORENCE HIGH USP","type":"U.S. Penitentiary","count":939,"id":"a640d93kl3de","address":"5880 HWY 67 SOUTH","lat":38.360662,"state":"CO"},"type":"Feature","geometry":{"type":"Point","coordinates":[-105.102573,38.360662]}},{"properties":{"city":"FLORENCE","lon":-105.102573,"zip":81226,"facility":"FLORENCE USP-CAMP","type":"Satellite Camp","count":462,"id":"a640d953bkrj","address":"5880 HWY 67 SOUTH","lat":38.360662,"state":"CO"},"type":"Feature","geometry":{"type":"Point","coordinates":[-105.102573,38.360662]}},{"properties":{"city":"FORREST CITY","lon":-90.799181,"zip":72335,"facility":"FORREST CITY FCI","type":"Federal Correctional Institution","count":1944,"id":"a640d9000qoe","address":"1400 DALE BUMPERS ROAD","lat":34.979524,"state":"AR"},"type":"Feature","geometry":{"type":"Point","coordinates":[-90.799181,34.979524]}},{"properties":{"city":"FORREST CITY","lon":-90.799181,"zip":72335,"facility":"FORREST CITY FCI-CAMP","type":"Satellite Camp","count":310,"id":"a640d97yo12r","address":"1400 DALE BUMPERS ROAD","lat":34.979524,"state":"AR"},"type":"Feature","geometry":{"type":"Point","coordinates":[-90.799181,34.979524]}},{"properties":{"city":"FORREST CITY","lon":-90.799181,"zip":72335,"facility":"FORREST CITY MED FCI","type":"Federal Correctional Institution","count":1625,"id":"a640d992r5gb","address":"1400 DALE BUMPERS ROAD","lat":34.979524,"state":"AR"},"type":"Feature","geometry":{"type":"Point","coordinates":[-90.799181,34.979524]}},{"properties":{"city":"FORT DIX","lon":-74.613847,"zip":8640,"facility":"FORT DIX FCI","type":"Federal Correctional Institution","count":2671,"id":"a640d94yr22k","address":"5756 HARTFORD &amp; POINTVILE RD","lat":39.998962,"state":"NJ"},"type":"Feature","geometry":{"type":"Point","coordinates":[-74.613847,39.998962]}},{"properties":{"city":"FORT DIX","lon":-74.613847,"zip":8640,"facility":"FORT DIX-CAMP","type":"Satellite Camp","count":410,"id":"a640d96q3whc","address":"5756 HARTFORD &amp; POINTVILE RD","lat":39.998962,"state":"NJ"},"type":"Feature","geometry":{"type":"Point","coordinates":[-74.613847,39.998962]}},{"properties":{"city":"FORT WORTH","lon":-97.286638,"zip":76119,"facility":"FORT WORTH FCI","type":"Federal Correctional Institution","count":1765,"id":"a640d9af9nif","address":"3150 HORTON ROAD","lat":32.679968,"state":"TX"},"type":"Feature","geometry":{"type":"Point","coordinates":[-97.286638,32.679968]}},{"properties":{"city":"GLENVILLE","lon":-80.784298,"zip":26351,"facility":"GILMER FCI","type":"Federal Correctional Institution","count":1729,"id":"a640d9apivb2","address":"201 FCI LANE","lat":38.91568,"state":"WV"},"type":"Feature","geometry":{"type":"Point","coordinates":[-80.784298,38.91568]}},{"properties":{"city":"GLENVILLE","lon":-80.784298,"zip":26351,"facility":"GILMER-CAMP","type":"Satellite Camp","count":128,"id":"a640d9cvrwcr","address":"201 FCI LANE","lat":38.91568,"state":"WV"},"type":"Feature","geometry":{"type":"Point","coordinates":[-80.784298,38.91568]}},{"properties":{"city":"GREENVILLE","lon":-89.409415,"zip":62246,"facility":"GREENVILLE FCI","type":"Federal Correctional Institution","count":1177,"id":"a640d99784bn","address":"100 U.S. HWY 40","lat":38.865954,"state":"IL"},"type":"Feature","geometry":{"type":"Point","coordinates":[-89.409415,38.865954]}},{"properties":{"city":"GREENVILLE","lon":-89.409415,"zip":62246,"facility":"GREENVILLE-CAMP","type":"Satellite Camp","count":316,"id":"a640d8wwyg8t","address":"100 U.S. HWY 40","lat":38.865954,"state":"IL"},"type":"Feature","geometry":{"type":"Point","coordinates":[-89.409415,38.865954]}},{"properties":{"city":"GUAYNABO","lon":-66.112323,"zip":965,"facility":"GUAYNABO MDC","type":"Metropolitan Detention Center","count":1346,"id":"a640d96esg03","address":"HWY 28 INTSECT OF ROAD 165","lat":18.423141,"state":"PR"},"type":"Feature","geometry":{"type":"Point","coordinates":[-66.112323,18.423141]}},{"properties":{"city":"BRUCETON MILLS","lon":-79.632862,"zip":26525,"facility":"HAZELTON USP","type":"U.S. Penitentiary","count":1678,"id":"a640d903zong","address":"1640 SKY VIEW DRIVE","lat":39.622957,"state":"WV"},"type":"Feature","geometry":{"type":"Point","coordinates":[-79.632862,39.622957]}},{"properties":{"city":"BRUCETON MILLS","lon":-79.632862,"zip":26525,"facility":"HAZELTON-CAMP","type":"Satellite Camp","count":125,"id":"a640d8wvm5ia","address":"1640 SKY VIEW DRIVE","lat":39.622957,"state":"WV"},"type":"Feature","geometry":{"type":"Point","coordinates":[-79.632862,39.622957]}},{"properties":{"city":"BRUCETON MILLS","lon":-79.632862,"zip":26525,"facility":"HAZELTON-FEMALE","type":"Female Satellite Camp","count":651,"id":"a640d9963zxx","address":"1640 SKY VIEW DRIVE","lat":39.622957,"state":"WV"},"type":"Feature","geometry":{"type":"Point","coordinates":[-79.632862,39.622957]}},{"properties":{"city":"HERLONG","lon":-120.166089,"zip":96113,"facility":"HERLONG FCI","type":"Federal Correctional Institution","count":916,"id":"a640d989a14z","address":"741-925 ACCESS ROAD A-25","lat":40.150922,"state":"CA"},"type":"Feature","geometry":{"type":"Point","coordinates":[-120.166089,40.150922]}},{"properties":{"city":"HERLONG","lon":-120.166089,"zip":96113,"facility":"HERLONG-CAMP","type":"Satellite Camp","count":122,"id":"a640d98h2d1l","address":"741-925 ACCESS ROAD A-25","lat":40.150922,"state":"CA"},"type":"Feature","geometry":{"type":"Point","coordinates":[-120.166089,40.150922]}},{"properties":{"city":"HONOLULU","lon":-157.928178,"zip":96819,"facility":"HONOLULU FDC","type":"Federal Detention Center","count":641,"id":"a640d93rv7kr","address":"351 ELLIOTT ST","lat":21.333516,"state":"HI"},"type":"Feature","geometry":{"type":"Point","coordinates":[-157.928178,21.333516]}},{"properties":{"city":"HOUSTON","lon":-95.360663,"zip":77002,"facility":"HOUSTON FDC","type":"Federal Detention Center","count":960,"id":"a640d99jfhlt","address":"1200 TEXAS AVENUE","lat":29.758491,"state":"TX"},"type":"Feature","geometry":{"type":"Point","coordinates":[-95.360663,29.758491]}},{"properties":{"city":"JESUP","lon":-81.901954,"zip":31599,"facility":"JESUP FCI","type":"Federal Correctional Institution","count":1101,"id":"a640d9835tvm","address":"2600 HIGHWAY 301 SOUTH","lat":31.564345,"state":"GA"},"type":"Feature","geometry":{"type":"Point","coordinates":[-81.901954,31.564345]}},{"properties":{"city":"JESUP","lon":-81.901954,"zip":31599,"facility":"JESUP-CAMP","type":"Satellite Camp","count":152,"id":"a640d8yaovdk","address":"2600 HIGHWAY 301 SOUTH","lat":31.564345,"state":"GA"},"type":"Feature","geometry":{"type":"Point","coordinates":[-81.901954,31.564345]}},{"properties":{"city":"JESUP","lon":-81.901954,"zip":31599,"facility":"JESUP-FSL","type":"Satellite Camp","count":586,"id":"a640d8zgyigc","address":"2680 301 SOUTH","lat":31.564345,"state":"GA"},"type":"Feature","geometry":{"type":"Point","coordinates":[-81.901954,31.564345]}},{"properties":{"city":"ANTHONY","lon":-106.589827,"zip":79821,"facility":"LA TUNA FCI","type":"Federal Correctional Institution","count":1088,"id":"a640d9balsul","address":"8500 DONIPHAN ROAD","lat":31.982227,"state":"TX"},"type":"Feature","geometry":{"type":"Point","coordinates":[-106.589827,31.982227]}},{"properties":{"city":"ANTHONY","lon":-106.589827,"zip":79821,"facility":"LA TUNA-CAMP","type":"Satellite Camp","count":266,"id":"a640d93y1khu","address":"8500 DONIPHAN ROAD","lat":31.982227,"state":"TX"},"type":"Feature","geometry":{"type":"Point","coordinates":[-106.589827,31.982227]}},{"properties":{"city":"EL PASO","lon":-106.365165,"zip":79906,"facility":"LA TUNA-FSL (EL PASO)","type":"Satellite Camp","count":436,"id":"a640d9bazi5d","address":"SSG SIMS ROAD, BLDG 11636","lat":31.841729,"state":"TX"},"type":"Feature","geometry":{"type":"Point","coordinates":[-106.365165,31.841729]}},{"properties":{"city":"LEAVENWORTH","lon":-94.935658,"zip":66048,"facility":"LEAVENWORTH USP","type":"U.S. Penitentiary","count":1671,"id":"a640d9a46mm7","address":"1300 METROPOLITAN","lat":39.331045,"state":"KS"},"type":"Feature","geometry":{"type":"Point","coordinates":[-94.935658,39.331045]}},{"properties":{"city":"LEAVENWORTH","lon":-94.935658,"zip":66048,"facility":"LEAVENWORTH-CAMP","type":"Satellite Camp","count":390,"id":"a640d98xj32f","address":"1300 METROPOLITAN","lat":39.331045,"state":"KS"},"type":"Feature","geometry":{"type":"Point","coordinates":[-94.935658,39.331045]}},{"properties":{"city":"","lon":-82.998961,"zip":24277,"facility":"LEE USP","type":"U.S. Penitentiary","count":1593,"id":"a640d95snyeu","address":"LEE COUNTY INDUSTRIAL PARK","lat":36.70405,"state":"VA"},"type":"Feature","geometry":{"type":"Point","coordinates":[-82.998961,36.70405]}},{"properties":{"city":"","lon":-82.998961,"zip":24277,"facility":"LEE USP-CAMP","type":"Satellite Camp","count":125,"id":"a640d8x2x3tp","address":"LEE COUNTY INDUSTRIAL PARK","lat":36.70405,"state":"VA"},"type":"Feature","geometry":{"type":"Point","coordinates":[-82.998961,36.70405]}},{"properties":{"city":"LEWISBURG","lon":-76.915003,"zip":17837,"facility":"LEWISBURG USP","type":"U.S. Penitentiary","count":1470,"id":"a640d961pyd7","address":"2400 ROBERT F. MILLER DRIVE","lat":40.987833,"state":"PA"},"type":"Feature","geometry":{"type":"Point","coordinates":[-76.915003,40.987833]}},{"properties":{"city":"LEWISBURG","lon":-76.915003,"zip":17837,"facility":"LEWISBURG-CAMP","type":"Satellite Camp","count":563,"id":"a640d9530gf3","address":"2400 ROBERT F. MILLER DRIVE","lat":40.987833,"state":"PA"},"type":"Feature","geometry":{"type":"Point","coordinates":[-76.915003,40.987833]}},{"properties":{"city":"LEXINGTON","lon":-84.560146,"zip":40511,"facility":"LEXINGTON FMC","type":"Federal Medical Center","count":1447,"id":"a640d92wv1hu","address":"3301 LEESTOWN ROAD","lat":38.105872,"state":"KY"},"type":"Feature","geometry":{"type":"Point","coordinates":[-84.560146,38.105872]}},{"properties":{"city":"LEXINGTON","lon":-84.560146,"zip":40511,"facility":"LEXINGTON-CAMP","type":"Satellite Camp","count":286,"id":"a640d96laglm","address":"3301 LEESTOWN ROAD","lat":38.105872,"state":"KY"},"type":"Feature","geometry":{"type":"Point","coordinates":[-84.560146,38.105872]}},{"properties":{"city":"LOMPOC","lon":-120.505594,"zip":93436,"facility":"LOMPOC FCI","type":"Federal Correctional Institution","count":1393,"id":"a640d920jh4b","address":"3901 KLEIN BLVD","lat":34.676562,"state":"CA"},"type":"Feature","geometry":{"type":"Point","coordinates":[-120.505594,34.676562]}},{"properties":{"city":"LOMPOC","lon":-120.505594,"zip":93436,"facility":"LOMPOC USP","type":"U.S. Penitentiary","count":1646,"id":"a640d8yhn7f9","address":"3901 KLEIN BLVD","lat":34.676562,"state":"CA"},"type":"Feature","geometry":{"type":"Point","coordinates":[-120.505594,34.676562]}},{"properties":{"city":"LOMPOC","lon":-120.505594,"zip":93436,"facility":"LOMPOC USP-CAMP","type":"Satellite Camp","count":515,"id":"a640d93js18m","address":"3901 KLEIN BLVD","lat":34.676562,"state":"CA"},"type":"Feature","geometry":{"type":"Point","coordinates":[-120.505594,34.676562]}},{"properties":{"city":"LORETTO","lon":-78.560555,"zip":15940,"facility":"LORETTO FCI","type":"Federal Correctional Institution","count":1241,"id":"a640d8xmrajq","address":"RURAL ROUTE 276","lat":40.446676,"state":"PA"},"type":"Feature","geometry":{"type":"Point","coordinates":[-78.560555,40.446676]}},{"properties":{"city":"LORETTO","lon":-78.560555,"zip":15940,"facility":"LORETTO-CAMP","type":"Satellite Camp","count":139,"id":"a640d92zcngc","address":"RURAL ROUTE 276","lat":40.446676,"state":"PA"},"type":"Feature","geometry":{"type":"Point","coordinates":[-78.560555,40.446676]}},{"properties":{"city":"LOS ANGELES","lon":-118.238477,"zip":90012,"facility":"LOS ANGELES MDC","type":"Metropolitan Detention Center","count":1012,"id":"a640d988knnc","address":"535 N ALAMEDA STREET","lat":34.053591,"state":"CA"},"type":"Feature","geometry":{"type":"Point","coordinates":[-118.238477,34.053591]}},{"properties":{"city":"MANCHESTER","lon":-83.789136,"zip":40962,"facility":"MANCHESTER FCI","type":"Federal Correctional Institution","count":1181,"id":"a640d95siavy","address":"805 FOX HOLLOW ROAD","lat":37.179211,"state":"KY"},"type":"Feature","geometry":{"type":"Point","coordinates":[-83.789136,37.179211]}},{"properties":{"city":"MANCHESTER","lon":-83.789136,"zip":40962,"facility":"MANCHESTER-CAMP","type":"Satellite Camp","count":490,"id":"a640d956c6ka","address":"805 FOX HOLLOW ROAD","lat":37.179211,"state":"KY"},"type":"Feature","geometry":{"type":"Point","coordinates":[-83.789136,37.179211]}},{"properties":{"city":"MARIANNA","lon":-85.191726,"zip":32446,"facility":"MARIANNA FCI","type":"Federal Correctional Institution","count":1236,"id":"a640d99bbqsv","address":"3625 FCI ROAD","lat":30.834595,"state":"FL"},"type":"Feature","geometry":{"type":"Point","coordinates":[-85.191726,30.834595]}},{"properties":{"city":"MARIANNA","lon":-85.191726,"zip":32446,"facility":"MARIANNA-CAMP","type":"Satellite Camp","count":282,"id":"a640d926glu0","address":"3625 FCI ROAD","lat":30.834595,"state":"FL"},"type":"Feature","geometry":{"type":"Point","coordinates":[-85.191726,30.834595]}},{"properties":{"city":"MARION","lon":-88.984383,"zip":62959,"facility":"MARION USP","type":"U.S. Penitentiary","count":887,"id":"a640d95237r6","address":"4500 PRISON ROAD","lat":37.662973,"state":"IL"},"type":"Feature","geometry":{"type":"Point","coordinates":[-88.984383,37.662973]}},{"properties":{"city":"MARION","lon":-88.984383,"zip":62959,"facility":"MARION-CAMP","type":"Satellite Camp","count":302,"id":"a640d91bbfox","address":"4500 PRISON ROAD","lat":37.662973,"state":"IL"},"type":"Feature","geometry":{"type":"Point","coordinates":[-88.984383,37.662973]}},{"properties":{"city":"PINE KNOT","lon":-84.388813,"zip":42635,"facility":"MCCREARY USP","type":"U.S. Penitentiary","count":580,"id":"a640d98kwgjc","address":"330 FEDERAL WAY","lat":36.687831,"state":"KY"},"type":"Feature","geometry":{"type":"Point","coordinates":[-84.388813,36.687831]}},{"properties":{"city":"PINE KNOT","lon":-84.388813,"zip":42635,"facility":"MCCREARY-CAMP","type":"Satellite Camp","count":134,"id":"a640d9651431","address":"330 FEDERAL WAY","lat":36.687831,"state":"KY"},"type":"Feature","geometry":{"type":"Point","coordinates":[-84.388813,36.687831]}},{"properties":{"city":"LEWIS RUN","lon":-78.685132,"zip":16738,"facility":"MCKEAN FCI","type":"Federal Correctional Institution","count":1215,"id":"a640d93gi8ep","address":"RT 59 &amp; BIG SHANTY RD","lat":41.797758,"state":"PA"},"type":"Feature","geometry":{"type":"Point","coordinates":[-78.685132,41.797758]}},{"properties":{"city":"LEWIS RUN","lon":-78.685132,"zip":16738,"facility":"MCKEAN-CAMP","type":"Satellite Camp","count":292,"id":"a640d90pzbj4","address":"RT 59 &amp; BIG SHANTY RD","lat":41.797758,"state":"PA"},"type":"Feature","geometry":{"type":"Point","coordinates":[-78.685132,41.797758]}},{"properties":{"city":"MCRAE","lon":-82.871649,"zip":31055,"facility":"MCRAE CI","type":"Private Correctional Institution","count":1711,"id":"a640d98o78dl","address":"1000 JIM HAMMOCK DRIVE","lat":32.050277,"state":"GA"},"type":"Feature","geometry":{"type":"Point","coordinates":[-82.871649,32.050277]}},{"properties":{"city":"MEMPHIS","lon":-89.866996,"zip":38134,"facility":"MEMPHIS FCI","type":"Federal Correctional Institution","count":1175,"id":"a640d97kc0te","address":"1101 JOHN A DENIE ROAD","lat":35.155733,"state":"TN"},"type":"Feature","geometry":{"type":"Point","coordinates":[-89.866996,35.155733]}},{"properties":{"city":"MEMPHIS","lon":-89.866996,"zip":38134,"facility":"MEMPHIS-CAMP","type":"Satellite Camp","count":345,"id":"a640d93m47oh","address":"1101 JOHN A DENIE ROAD","lat":35.155733,"state":"TN"},"type":"Feature","geometry":{"type":"Point","coordinates":[-89.866996,35.155733]}},{"properties":{"city":"MIAMI","lon":-80.410834,"zip":33177,"facility":"MIAMI FCI","type":"Federal Correctional Institution","count":1103,"id":"a640d95494kx","address":"15801 S.W. 137TH AVENUE","lat":25.618282,"state":"FL"},"type":"Feature","geometry":{"type":"Point","coordinates":[-80.410834,25.618282]}},{"properties":{"city":"MIAMI","lon":-80.410834,"zip":33177,"facility":"MIAMI FCI-CAMP","type":"Satellite Camp","count":408,"id":"a640d9ccld8d","address":"15801 S.W. 137TH AVENUE","lat":25.618282,"state":"FL"},"type":"Feature","geometry":{"type":"Point","coordinates":[-80.410834,25.618282]}},{"properties":{"city":"MIAMI","lon":-80.19352,"zip":33132,"facility":"MIAMI FDC","type":"Federal Detention Center","count":1632,"id":"a640d932ula8","address":"33 NE 4TH STREET","lat":25.778369,"state":"FL"},"type":"Feature","geometry":{"type":"Point","coordinates":[-80.19352,25.778369]}},{"properties":{"city":"MILAN","lon":-83.668308,"zip":48160,"facility":"MILAN FCI","type":"Federal Correctional Institution","count":1488,"id":"a640d90qts6c","address":"E. ARKONA ROAD","lat":42.094652,"state":"MI"},"type":"Feature","geometry":{"type":"Point","coordinates":[-83.668308,42.094652]}},{"properties":{"city":"MONTGOMERY","lon":-86.359685,"zip":36112,"facility":"MONTGOMERY FPC","type":"Federal Prison Camp","count":861,"id":"a640d8z22uok","address":"MAXWELL AIR FORCE BASE","lat":32.395676,"state":"AL"},"type":"Feature","geometry":{"type":"Point","coordinates":[-86.359685,32.395676]}},{"properties":{"city":"MORGANTOWN","lon":-79.960708,"zip":26501,"facility":"MORGANTOWN FCI","type":"Federal Correctional Institution","count":1099,"id":"a640d94txx3l","address":"446 GREENBAG ROAD, ROUTE 857","lat":39.605565,"state":"WV"},"type":"Feature","geometry":{"type":"Point","coordinates":[-79.960708,39.605565]}},{"properties":{"city":"PHILIPSBURG","lon":-78.242216,"zip":16866,"facility":"MOSHANNON VALLEY CI","type":"Private Correctional Institution","count":1476,"id":"a640d93i914p","address":"555 CORNELL DRIVE","lat":40.921595,"state":"PA"},"type":"Feature","geometry":{"type":"Point","coordinates":[-78.242216,40.921595]}},{"properties":{"city":"YOUNGSTOWN","lon":-80.632483,"zip":44501,"facility":"NE OHIO CORR CTR CI","type":"Private Correctional Institution","count":1336,"id":"a640d8xnzizv","address":"2240 HUBBARD RD.","lat":41.131575,"state":"OH"},"type":"Feature","geometry":{"type":"Point","coordinates":[-80.632483,41.131575]}},{"properties":{"city":"NEW YORK","lon":-74.001443,"zip":10007,"facility":"NEW YORK MCC","type":"Metropolitan Correctional Center","count":759,"id":"a640d8x44w1e","address":"150 PARK ROW","lat":40.713002,"state":"NY"},"type":"Feature","geometry":{"type":"Point","coordinates":[-74.001443,40.713002]}},{"properties":{"city":"OAKDALE","lon":-92.640449,"zip":71463,"facility":"OAKDALE FCI","type":"Federal Correctional Institution","count":1323,"id":"a640d8yiey7d","address":"1507 EAST WHATLEY ROAD","lat":30.828519,"state":"LA"},"type":"Feature","geometry":{"type":"Point","coordinates":[-92.640449,30.828519]}},{"properties":{"city":"OAKDALE","lon":-92.640449,"zip":71463,"facility":"OAKDALE FDC","type":"Federal Detention Center","count":605,"id":"a640d9994go1","address":"2105 EAST WHATLEY ROAD","lat":30.828519,"state":"LA"},"type":"Feature","geometry":{"type":"Point","coordinates":[-92.640449,30.828519]}},{"properties":{"city":"OAKDALE","lon":-92.640449,"zip":71463,"facility":"OAKDALE FDC-CAMP","type":"Satellite Camp","count":147,"id":"a640d8x3hf2u","address":"2105 EAST WHATLEY ROAD","lat":30.828519,"state":"LA"},"type":"Feature","geometry":{"type":"Point","coordinates":[-92.640449,30.828519]}},{"properties":{"city":"OKLAHOMA CITY","lon":-97.617837,"zip":73169,"facility":"OKLAHOMA CITY FTC","type":"Federal Transfer Center","count":1541,"id":"a640d96la657","address":"7410 S. MACARTHUR BLVD","lat":35.392399,"state":"OK"},"type":"Feature","geometry":{"type":"Point","coordinates":[-97.617837,35.392399]}},{"properties":{"city":"OTISVILLE","lon":-74.527029,"zip":10963,"facility":"OTISVILLE FCI","type":"Federal Correctional Institution","count":1095,"id":"a640d98s5zmw","address":"TWO MILE DRIVE","lat":41.496878,"state":"NY"},"type":"Feature","geometry":{"type":"Point","coordinates":[-74.527029,41.496878]}},{"properties":{"city":"OTISVILLE","lon":-74.527029,"zip":10963,"facility":"OTISVILLE-CAMP","type":"Satellite Camp","count":117,"id":"a640d8wkngzf","address":"TWO MILE DRIVE","lat":41.496878,"state":"NY"},"type":"Feature","geometry":{"type":"Point","coordinates":[-74.527029,41.496878]}},{"properties":{"city":"OXFORD","lon":-89.649635,"zip":53952,"facility":"OXFORD FCI","type":"Federal Correctional Institution","count":1042,"id":"a640d97hdl1o","address":"COUNTY ROAD G &amp; ELK AVENUE","lat":43.865488,"state":"WI"},"type":"Feature","geometry":{"type":"Point","coordinates":[-89.649635,43.865488]}},{"properties":{"city":"OXFORD","lon":-89.649635,"zip":53952,"facility":"OXFORD-CAMP","type":"Satellite Camp","count":188,"id":"a640d98orv0b","address":"COUNTY ROAD G &amp; ELK AVENUE","lat":43.865488,"state":"WI"},"type":"Feature","geometry":{"type":"Point","coordinates":[-89.649635,43.865488]}},{"properties":{"city":"PEKIN","lon":-89.659317,"zip":61555,"facility":"PEKIN FCI","type":"Federal Correctional Institution","count":1170,"id":"a640d9c6yiit","address":"2600 S. SECOND ST.","lat":40.535976,"state":"IL"},"type":"Feature","geometry":{"type":"Point","coordinates":[-89.659317,40.535976]}},{"properties":{"city":"PEKIN","lon":-89.659317,"zip":61555,"facility":"PEKIN-CAMP","type":"Satellite Camp","count":311,"id":"a640d8zxrk94","address":"2600 S. SECOND ST.","lat":40.535976,"state":"IL"},"type":"Feature","geometry":{"type":"Point","coordinates":[-89.659317,40.535976]}},{"properties":{"city":"PENSACOLA","lon":-87.341523,"zip":32509,"facility":"PENSACOLA FPC","type":"Federal Prison Camp","count":680,"id":"a640d8zqs2ty","address":"110 RABY AVE","lat":30.462801,"state":"FL"},"type":"Feature","geometry":{"type":"Point","coordinates":[-87.341523,30.462801]}},{"properties":{"city":"HOPEWELL","lon":-77.346741,"zip":23860,"facility":"PETERSBURG FCI","type":"Federal Correctional Institution","count":1232,"id":"a640d97glhvh","address":"1100 RIVER ROAD","lat":37.304205,"state":"VA"},"type":"Feature","geometry":{"type":"Point","coordinates":[-77.346741,37.304205]}},{"properties":{"city":"HOPEWELL","lon":-77.346741,"zip":23860,"facility":"PETERSBURG FCI-CAMP","type":"Satellite Camp","count":347,"id":"a640d91w3z2j","address":"1100 RIVER ROAD","lat":37.304205,"state":"VA"},"type":"Feature","geometry":{"type":"Point","coordinates":[-77.346741,37.304205]}},{"properties":{"city":"HOPEWELL","lon":-77.346741,"zip":23860,"facility":"PETERSBURG MED FCI","type":"Federal Correctional Institution","count":1834,"id":"a640d911bw41","address":"1060 RIVER ROAD","lat":37.304205,"state":"VA"},"type":"Feature","geometry":{"type":"Point","coordinates":[-77.346741,37.304205]}},{"properties":{"city":"PHILADELPHIA","lon":-75.151191,"zip":19106,"facility":"PHILADELPHIA FDC","type":"Federal Detention Center","count":1176,"id":"a640d9c97m9l","address":"700 ARCH STREET","lat":39.953148,"state":"PA"},"type":"Feature","geometry":{"type":"Point","coordinates":[-75.151191,39.953148]}},{"properties":{"city":"PHOENIX","lon":-112.168527,"zip":85086,"facility":"PHOENIX FCI","type":"Federal Correctional Institution","count":1090,"id":"a640d8zdyhto","address":"37900 N 45TH AVE","lat":33.834346,"state":"AZ"},"type":"Feature","geometry":{"type":"Point","coordinates":[-112.168527,33.834346]}},{"properties":{"city":"PHOENIX","lon":-112.168527,"zip":85086,"facility":"PHOENIX-CAMP","type":"Satellite Camp","count":286,"id":"a640d942hb2s","address":"37900 N 45TH AVE","lat":33.834346,"state":"AZ"},"type":"Feature","geometry":{"type":"Point","coordinates":[-112.168527,33.834346]}},{"properties":{"city":"PINE PRAIRIE","lon":-92.422902,"zip":70576,"facility":"PINE PRAIRIE CI","type":"Private Correctional Institution","count":586,"id":"a640d91istth","address":"1133 HAMPTON DUPRE ROAD","lat":30.789164,"state":"LA"},"type":"Feature","geometry":{"type":"Point","coordinates":[-92.422902,30.789164]}},{"properties":{"city":"POLLOCK","lon":-92.446237,"zip":71467,"facility":"POLLOCK USP","type":"U.S. Penitentiary","count":1530,"id":"a640d94sh62c","address":"1000 AIRBASE ROAD","lat":31.46685,"state":"LA"},"type":"Feature","geometry":{"type":"Point","coordinates":[-92.446237,31.46685]}},{"properties":{"city":"POLLOCK","lon":-92.446237,"zip":71467,"facility":"POLLOCK-CAMP","type":"Satellite Camp","count":133,"id":"a640d912y0zo","address":"1000 AIRBASE ROAD","lat":31.46685,"state":"LA"},"type":"Feature","geometry":{"type":"Point","coordinates":[-92.446237,31.46685]}},{"properties":{"city":"RAY BROOK","lon":-74.092937,"zip":12977,"facility":"RAY BROOK FCI","type":"Federal Correctional Institution","count":1238,"id":"a640d90jtbeo","address":"128 RAY BROOK ROAD","lat":44.290375,"state":"NY"},"type":"Feature","geometry":{"type":"Point","coordinates":[-74.092937,44.290375]}},{"properties":{"city":"PECOS","lon":-103.538675,"zip":79772,"facility":"REEVES CI","type":"Private Correctional Institution","count":2149,"id":"a640d97s1bez","address":"98 WEST COUNTY ROAD","lat":31.394262,"state":"TX"},"type":"Feature","geometry":{"type":"Point","coordinates":[-103.538675,31.394262]}},{"properties":{"city":"PECOS","lon":-103.538675,"zip":79772,"facility":"REEVES DC","type":"Private Detention Center","count":1335,"id":"a640d920owws","address":"98 WEST COUNTY ROAD","lat":31.394262,"state":"TX"},"type":"Feature","geometry":{"type":"Point","coordinates":[-103.538675,31.394262]}},{"properties":{"city":"WINTON","lon":-76.959626,"zip":27986,"facility":"RIVERS CI","type":"Private Correctional Institution","count":1159,"id":"a640d907fcgz","address":"145 PARKER`S FISHERY RD","lat":36.405171,"state":"NC"},"type":"Feature","geometry":{"type":"Point","coordinates":[-76.959626,36.405171]}},{"properties":{"city":"ROCHESTER","lon":-92.436383,"zip":55904,"facility":"ROCHESTER FMC","type":"Federal Medical Center","count":871,"id":"a640d98ejwve","address":"2110 EAST CENTER STREET","lat":44.024342,"state":"MN"},"type":"Feature","geometry":{"type":"Point","coordinates":[-92.436383,44.024342]}},{"properties":{"city":"SAFFORD","lon":-109.724066,"zip":85546,"facility":"SAFFORD FCI","type":"Federal Correctional Institution","count":800,"id":"a640d95rwnx0","address":"1529 WEST HIGHWAY 366","lat":32.716893,"state":"AZ"},"type":"Feature","geometry":{"type":"Point","coordinates":[-109.724066,32.716893]}},{"properties":{"city":"SAN DIEGO","lon":-117.16601,"zip":92101,"facility":"SAN DIEGO MCC","type":"Metropolitan Correctional Center","count":1038,"id":"a640d95d0z25","address":"808 UNION STREET","lat":32.713909,"state":"CA"},"type":"Feature","geometry":{"type":"Point","coordinates":[-117.16601,32.713909]}},{"properties":{"city":"SANDSTONE","lon":-92.854768,"zip":55072,"facility":"SANDSTONE FCI","type":"Federal Correctional Institution","count":1272,"id":"a640d9cp6ikr","address":"2300 COUNTY RD 29","lat":46.109559,"state":"MN"},"type":"Feature","geometry":{"type":"Point","coordinates":[-92.854768,46.109559]}},{"properties":{"city":"MINERSVILLE","lon":-76.344231,"zip":17954,"facility":"SCHUYLKILL FCI","type":"Federal Correctional Institution","count":1281,"id":"a640d9am6284","address":"INTERSTATE 81 &amp; 901 W","lat":40.732716,"state":"PA"},"type":"Feature","geometry":{"type":"Point","coordinates":[-76.344231,40.732716]}},{"properties":{"city":"MINERSVILLE","lon":-76.344231,"zip":17954,"facility":"SCHUYLKILL-CAMP","type":"Satellite Camp","count":297,"id":"a640d8xovm3y","address":"INTERSTATE 81 &amp; 901 W","lat":40.732716,"state":"PA"},"type":"Feature","geometry":{"type":"Point","coordinates":[-76.344231,40.732716]}},{"properties":{"city":"SEAGOVILLE","lon":-96.568022,"zip":75159,"facility":"SEAGOVILLE FCI","type":"Federal Correctional Institution","count":1914,"id":"a640d9a0y3xb","address":"2113 NORTH HWY 175","lat":32.654955,"state":"TX"},"type":"Feature","geometry":{"type":"Point","coordinates":[-96.568022,32.654955]}},{"properties":{"city":"SEAGOVILLE","lon":-96.568022,"zip":75159,"facility":"SEAGOVILLE-CAMP","type":"Satellite Camp","count":177,"id":"a640d8wmn94k","address":"2113 NORTH HWY 175","lat":32.654955,"state":"TX"},"type":"Feature","geometry":{"type":"Point","coordinates":[-96.568022,32.654955]}},{"properties":{"city":"SEATTLE","lon":-122.301495,"zip":98198,"facility":"SEATAC FDC","type":"Federal Detention Center","count":860,"id":"a640d940u57r","address":"2425 SOUTH 200TH STREET","lat":47.421922,"state":"WA"},"type":"Feature","geometry":{"type":"Point","coordinates":[-122.301495,47.421922]}},{"properties":{"city":"SHERIDAN","lon":-123.381833,"zip":97378,"facility":"SHERIDAN FCI","type":"Federal Correctional Institution","count":1502,"id":"a640d99w6xdq","address":"27072 BALLSTON ROAD","lat":45.083923,"state":"OR"},"type":"Feature","geometry":{"type":"Point","coordinates":[-123.381833,45.083923]}},{"properties":{"city":"SHERIDAN","lon":-123.381833,"zip":97378,"facility":"SHERIDAN-CAMP","type":"Satellite Camp","count":409,"id":"a640d9c1b9xa","address":"27072 BALLSTON ROAD","lat":45.083923,"state":"OR"},"type":"Feature","geometry":{"type":"Point","coordinates":[-123.381833,45.083923]}},{"properties":{"city":"SPRINGFIELD","lon":-93.324675,"zip":65807,"facility":"SPRINGFIELD USMCFP","type":"Medical Center for Federal Prisoners","count":1085,"id":"a640d8xe6fz9","address":"1900 W. SUNSHINE ST","lat":37.177727,"state":"MO"},"type":"Feature","geometry":{"type":"Point","coordinates":[-93.324675,37.177727]}},{"properties":{"city":"TAFT","lon":-119.385724,"zip":93268,"facility":"TAFT CI","type":"Private Correctional Institution","count":1753,"id":"a640d99w5w0u","address":"1500 CADET ROAD","lat":35.111814,"state":"CA"},"type":"Feature","geometry":{"type":"Point","coordinates":[-119.385724,35.111814]}},{"properties":{"city":"TAFT","lon":-119.385724,"zip":93268,"facility":"TAFT-CAMP","type":"Satellite Camp","count":564,"id":"a640d96a1tty","address":"1500 CADET ROAD","lat":35.111814,"state":"CA"},"type":"Feature","geometry":{"type":"Point","coordinates":[-119.385724,35.111814]}},{"properties":{"city":"TALLADEGA","lon":-86.1401,"zip":35160,"facility":"TALLADEGA FCI","type":"Federal Correctional Institution","count":909,"id":"a640d9158cjs","address":"565 EAST RENFROE ROAD","lat":33.420692,"state":"AL"},"type":"Feature","geometry":{"type":"Point","coordinates":[-86.1401,33.420692]}},{"properties":{"city":"TALLADEGA","lon":-86.1401,"zip":35160,"facility":"TALLADEGA-CAMP","type":"Satellite Camp","count":361,"id":"a640d97zlunx","address":"565 EAST RENFROE ROAD","lat":33.420692,"state":"AL"},"type":"Feature","geometry":{"type":"Point","coordinates":[-86.1401,33.420692]}},{"properties":{"city":"TALLAHASSEE","lon":-84.222519,"zip":32301,"facility":"TALLAHASSEE FCI","type":"Federal Correctional Institution","count":1299,"id":"a640d98v35j1","address":"501 CAPITAL CIRCLE, NE","lat":30.443793,"state":"FL"},"type":"Feature","geometry":{"type":"Point","coordinates":[-84.222519,30.443793]}},{"properties":{"city":"SAN PEDRO","lon":-118.267135,"zip":90731,"facility":"TERMINAL ISLAND FCI","type":"Federal Correctional Institution","count":1136,"id":"a640d968rgce","address":"1299 SEASIDE AVENUE","lat":33.726703,"state":"CA"},"type":"Feature","geometry":{"type":"Point","coordinates":[-118.267135,33.726703]}},{"properties":{"city":"TERRE HAUTE","lon":-87.451298,"zip":47808,"facility":"TERRE HAUTE FCI","type":"Federal Correctional Institution","count":1189,"id":"a640d93ewxrt","address":"4200 BUREAU ROAD NORTH","lat":39.416673,"state":"IN"},"type":"Feature","geometry":{"type":"Point","coordinates":[-87.451298,39.416673]}},{"properties":{"city":"TERRE HAUTE","lon":-87.451298,"zip":47808,"facility":"TERRE HAUTE FCI-CAMP","type":"Satellite Camp","count":412,"id":"a640d92if5qk","address":"4200 BUREAU ROAD NORTH","lat":39.416673,"state":"IN"},"type":"Feature","geometry":{"type":"Point","coordinates":[-87.451298,39.416673]}},{"properties":{"city":"TERRE HAUTE","lon":-87.451298,"zip":47802,"facility":"TERRE HAUTE USP","type":"U.S. Penitentiary","count":1675,"id":"a640d9160397","address":"4700 BUREAU ROAD SOUTH","lat":39.416673,"state":"IN"},"type":"Feature","geometry":{"type":"Point","coordinates":[-87.451298,39.416673]}},{"properties":{"city":"TEXARKANA","lon":-94.089136,"zip":75501,"facility":"TEXARKANA FCI","type":"Federal Correctional Institution","count":1408,"id":"a640d9b3f2yt","address":"4001 LEOPARD DRIVE","lat":33.377265,"state":"TX"},"type":"Feature","geometry":{"type":"Point","coordinates":[-94.089136,33.377265]}},{"properties":{"city":"TEXARKANA","lon":-94.089136,"zip":75501,"facility":"TEXARKANA-CAMP","type":"Satellite Camp","count":338,"id":"a640d92keaq6","address":"4001 LEOPARD DRIVE","lat":33.377265,"state":"TX"},"type":"Feature","geometry":{"type":"Point","coordinates":[-94.089136,33.377265]}},{"properties":{"city":"THREE RIVERS","lon":-98.324669,"zip":78071,"facility":"THREE RIVERS FCI","type":"Federal Correctional Institution","count":1170,"id":"a640d9c0fged","address":"US HIGHWAY 72 WEST","lat":28.444396,"state":"TX"},"type":"Feature","geometry":{"type":"Point","coordinates":[-98.324669,28.444396]}},{"properties":{"city":"THREE RIVERS","lon":-98.324669,"zip":78071,"facility":"THREE RIVERS-CAMP","type":"Satellite Camp","count":358,"id":"a640d961mxhi","address":"US HIGHWAY 72 WEST","lat":28.444396,"state":"TX"},"type":"Feature","geometry":{"type":"Point","coordinates":[-98.324669,28.444396]}},{"properties":{"city":"TUCSON","lon":-110.856333,"zip":85706,"facility":"TUCSON FCI","type":"Federal Correctional Institution","count":746,"id":"a640d9cocovw","address":"8901 S. WILMOT ROAD","lat":32.089977,"state":"AZ"},"type":"Feature","geometry":{"type":"Point","coordinates":[-110.856333,32.089977]}},{"properties":{"city":"TUCSON","lon":-110.866838,"zip":85706,"facility":"TUCSON USP","type":"U.S. Penitentiary","count":827,"id":"a640d8xfftry","address":"9300 SOUTH WILMOT ROAD","lat":32.083737,"state":"AZ"},"type":"Feature","geometry":{"type":"Point","coordinates":[-110.866838,32.083737]}},{"properties":{"city":"TUCSON","lon":-110.866838,"zip":85706,"facility":"TUCSON-CAMP","type":"Satellite Camp","count":128,"id":"a640d9bdlv8y","address":"9300 SOUTH WILMOT ROAD","lat":32.083737,"state":"AZ"},"type":"Feature","geometry":{"type":"Point","coordinates":[-110.866838,32.083737]}},{"properties":{"city":"VICTORVILLE","lon":-117.364686,"zip":92394,"facility":"VICTORVILLE MED I FCI","type":"Federal Correctional Institution","count":1539,"id":"a640d9cvs305","address":"13777 AIR EXPRESSWAY BLVD","lat":34.565687,"state":"CA"},"type":"Feature","geometry":{"type":"Point","coordinates":[-117.364686,34.565687]}},{"properties":{"city":"VICTORVILLE","lon":-117.364686,"zip":92394,"facility":"VICTORVILLE MED II FCI","type":"Federal Correctional Institution","count":1232,"id":"a640d96wmklk","address":"13777 AIR EXPRESSWAY BLVD","lat":34.565687,"state":"CA"},"type":"Feature","geometry":{"type":"Point","coordinates":[-117.364686,34.565687]}},{"properties":{"city":"VICTORVILLE","lon":-117.364686,"zip":92394,"facility":"VICTORVILLE MED II-CAMP","type":"Satellite Camp","count":280,"id":"a640d98b9m91","address":"13777 AIR EXPRESSWAY BLVD","lat":34.565687,"state":"CA"},"type":"Feature","geometry":{"type":"Point","coordinates":[-117.364686,34.565687]}},{"properties":{"city":"VICTORVILLE","lon":-117.364686,"zip":92394,"facility":"VICTORVILLE USP","type":"U.S. Penitentiary","count":1498,"id":"a640d972lxpt","address":"13777 AIR EXPRESSWAY BLVD","lat":34.565687,"state":"CA"},"type":"Feature","geometry":{"type":"Point","coordinates":[-117.364686,34.565687]}},{"properties":{"city":"WASECA","lon":-93.517205,"zip":56093,"facility":"WASECA FCI","type":"Federal Correctional Institution","count":1075,"id":"a640d95eg78p","address":"1000 UNIVERSITY DR, SW","lat":44.070234,"state":"MN"},"type":"Feature","geometry":{"type":"Point","coordinates":[-93.517205,44.070234]}},{"properties":{"city":"SALTERS","lon":-79.879038,"zip":29590,"facility":"WILLIAMSBURG FCI","type":"Federal Correctional Institution","count":1636,"id":"a640d9axdghh","address":"8301 HIGHWAY 521","lat":33.587354,"state":"SC"},"type":"Feature","geometry":{"type":"Point","coordinates":[-79.879038,33.587354]}},{"properties":{"city":"SALTERS","lon":-79.879038,"zip":29590,"facility":"WILLIAMSBURG-CAMP","type":"Satellite Camp","count":140,"id":"a640d97zl54e","address":"8301 HIGHWAY 521","lat":33.587354,"state":"SC"},"type":"Feature","geometry":{"type":"Point","coordinates":[-79.879038,33.587354]}},{"properties":{"city":"YANKTON","lon":-97.390599,"zip":57078,"facility":"YANKTON FPC","type":"Federal Prison Camp","count":853,"id":"a640d98oskcy","address":"1016 DOUGLAS AVENUE","lat":42.87942,"state":"SD"},"type":"Feature","geometry":{"type":"Point","coordinates":[-97.390599,42.87942]}},{"properties":{"city":"YAZOO CITY","lon":-90.431951,"zip":39194,"facility":"YAZOO CITY FCI","type":"Federal Correctional Institution","count":1696,"id":"a640d9axxjga","address":"2225 HALEY BARBOUR PARKWAY","lat":32.888063,"state":"MS"},"type":"Feature","geometry":{"type":"Point","coordinates":[-90.431951,32.888063]}},{"properties":{"city":"YAZOO CITY","lon":-90.431951,"zip":39194,"facility":"YAZOO CITY MED FCI","type":"Federal Correctional Institution","count":1513,"id":"a640d97eh207","address":"2225 HALEY BARBOUR PARKWAY","lat":32.888063,"state":"MS"},"type":"Feature","geometry":{"type":"Point","coordinates":[-90.431951,32.888063]}},{"properties":{"city":"YAZOO CITY","lon":-90.431951,"zip":39194,"facility":"YAZOO-CAMP","type":"Satellite Camp","count":130,"id":"a640d99u74bw","address":"2225 HALEY BARBOUR PARKWAY","lat":32.888063,"state":"MS"},"type":"Feature","geometry":{"type":"Point","coordinates":[-90.431951,32.888063]}}],"is_temporal":false,"author":{"url":"http://www.bop.gov/locations/weekly_report.jsp","metadata":"","contact_name":"","contact_address":"","source":"Bureau of Prisons","contact_phone":""},"source":"http://www.bop.gov/locations/weekly_report.jsp","pagination":{"sort":null,"start":0,"total":194,"limit":1000000},"state":"complete","tags":"correctional,corrections,enforcement,federal,institution,law,prisons,usa","published":"2008-05-07T12:00:00Z","id":520}