{"type":"FeatureCollection","data_type":"Dataset","url_type":null,"permissions":[{"permissions":{"download":true,"view":true},"group_id":"everyone"}],"classification":null,"title":"State Data","count":50,"stream_id":53610,"contributor":{"url":"http://geocommons.com/users/13663","name":"jwoolf"},"data_attributes":null,"calculation_params":null,"icon_link":null,"link":"http://geocommons.com/overlays/53610.json","extent":[-157.858,21.3069,-70.2553,61.2181],"geometry_types":["point"],"unique_name":null,"name":"State Data","feature_count":50,"description":"","next_feature":null,"is_raster":false,"short_classification":"Y","stats":{"contacts":{"max":21805871,"mean":2731479.76,"variance":12953719735062.2,"stdev":3599127.63528361,"min":709,"median":1694782}},"features":[{"properties":{"city":"Albuquerque","contacts":517972,"id":"a6h477xvrn5s","state":"New Mexico"},"type":"Feature","geometry":{"type":"Point","coordinates":[-106.651137,35.084491]}},{"properties":{"city":"Anchorage","contacts":614678,"id":"a6h477t754fp","state":"Alaska"},"type":"Feature","geometry":{"type":"Point","coordinates":[-149.900278,61.218056]}},{"properties":{"city":"Atlanta","contacts":4246050,"id":"a6h4780nto9h","state":"Georgia"},"type":"Feature","geometry":{"type":"Point","coordinates":[-84.387982,33.748995]}},{"properties":{"city":"Baltimore","contacts":3695520,"id":"a6h47836s4mx","state":"Maryland"},"type":"Feature","geometry":{"type":"Point","coordinates":[-76.612189,39.290385]}},{"properties":{"city":"Billings","contacts":382600,"id":"a6h4782l88tx","state":"Montana"},"type":"Feature","geometry":{"type":"Point","coordinates":[-108.50069,45.783286]}},{"properties":{"city":"Birmingham","contacts":1873265,"id":"a6h47821m39z","state":"Alabama"},"type":"Feature","geometry":{"type":"Point","coordinates":[-86.80249,33.520661]}},{"properties":{"city":"Boise","contacts":578780,"id":"a6h477vr72vy","state":"Idaho"},"type":"Feature","geometry":{"type":"Point","coordinates":[-116.203451,43.6135]}},{"properties":{"city":"Boston","contacts":4516993,"id":"a6h4782e9z29","state":"Massachusetts"},"type":"Feature","geometry":{"type":"Point","coordinates":[-71.059773,42.358431]}},{"properties":{"city":"Bridgeport","contacts":2625034,"id":"a6h4782bnklu","state":"Connecticut"},"type":"Feature","geometry":{"type":"Point","coordinates":[-73.204835,41.167041]}},{"properties":{"city":"Burlington","contacts":294030,"id":"a6h4783svckk","state":"Vermont"},"type":"Feature","geometry":{"type":"Point","coordinates":[-72.575941,44.21006]}},{"properties":{"city":"Charleston","contacts":351699,"id":"a6h477z7tfr6","state":"West Virginia"},"type":"Feature","geometry":{"type":"Point","coordinates":[-81.632624,38.34982]}},{"properties":{"city":"Charlotte","contacts":3230982,"id":"a6h477w7n2ra","state":"North Carolina"},"type":"Feature","geometry":{"type":"Point","coordinates":[-80.843127,35.227087]}},{"properties":{"city":"Cheyenne","contacts":222491,"id":"a6h4780zbxvq","state":"Wyoming"},"type":"Feature","geometry":{"type":"Point","coordinates":[-104.820246,41.139981]}},{"properties":{"city":"Chicago","contacts":7338348,"id":"a6h4784dpwjc","state":"Illinois"},"type":"Feature","geometry":{"type":"Point","coordinates":[-87.650052,41.850033]}},{"properties":{"city":"Columbia","contacts":1184001,"id":"a6h4780xeyky","state":"South Carolina"},"type":"Feature","geometry":{"type":"Point","coordinates":[-81.024864,33.987454]}},{"properties":{"city":"Columbus","contacts":4643019,"id":"a6h477qwm9ci","state":"Ohio"},"type":"Feature","geometry":{"type":"Point","coordinates":[-82.695724,39.998397]}},{"properties":{"city":"Denver","contacts":21805871,"id":"a6h477x9b6xq","state":"Colorado"},"type":"Feature","geometry":{"type":"Point","coordinates":[-104.984703,39.739154]}},{"properties":{"city":"Des Moines","contacts":1667891,"id":"a6h477v0fvzz","state":"Iowa"},"type":"Feature","geometry":{"type":"Point","coordinates":[-93.609106,41.600545]}},{"properties":{"city":"Detroit","contacts":3344156,"id":"a6h477r6vlz2","state":"Michigan"},"type":"Feature","geometry":{"type":"Point","coordinates":[-83.045754,42.331427]}},{"properties":{"city":"Fargo","contacts":256693,"id":"a6h477u7pqce","state":"North Dakota"},"type":"Feature","geometry":{"type":"Point","coordinates":[-96.990615,46.92536]}},{"properties":{"city":"Honolulu","contacts":383890,"id":"a6h477t6odda","state":"Hawaii"},"type":"Feature","geometry":{"type":"Point","coordinates":[-157.858333,21.306944]}},{"properties":{"city":"Houston","contacts":9370211,"id":"a6h477pzipfw","state":"Texas"},"type":"Feature","geometry":{"type":"Point","coordinates":[-96.919704,29.845783]}},{"properties":{"city":"Indianapolis","contacts":2245984,"id":"a6h477rbean1","state":"Indiana"},"type":"Feature","geometry":{"type":"Point","coordinates":[-86.158042,39.768377]}},{"properties":{"city":"Jackson","contacts":700198,"id":"a6h477qp1lx9","state":"Mississippi"},"type":"Feature","geometry":{"type":"Point","coordinates":[-90.18481,32.298757]}},{"properties":{"city":"Jacksonville","contacts":6344551,"id":"a6h477xsuj2e","state":"Florida"},"type":"Feature","geometry":{"type":"Point","coordinates":[-81.655651,30.332184]}},{"properties":{"city":"Kansas City","contacts":2215530,"id":"a6h4780zmk3r","state":"Missouri"},"type":"Feature","geometry":{"type":"Point","coordinates":[-94.598583,39.102404]}},{"properties":{"city":"Las Vegas","contacts":807605,"id":"a6h4781bum8z","state":"Nevada"},"type":"Feature","geometry":{"type":"Point","coordinates":[-115.137223,36.174971]}},{"properties":{"city":"Little Rock","contacts":2161768,"id":"a6h47826et4l","state":"Arkansas"},"type":"Feature","geometry":{"type":"Point","coordinates":[-92.289595,34.746481]}},{"properties":{"city":"Los Angeles","contacts":830076,"id":"a6h477ygoc7d","state":"California"},"type":"Feature","geometry":{"type":"Point","coordinates":[-118.243685,34.052234]}},{"properties":{"city":"Louisville","contacts":1438669,"id":"a6h477z5z9o2","state":"Kentucky"},"type":"Feature","geometry":{"type":"Point","coordinates":[-85.759407,38.254238]}},{"properties":{"city":"Manchester","contacts":694465,"id":"a6h477v9lngf","state":"New Hampshire"},"type":"Feature","geometry":{"type":"Point","coordinates":[-71.454789,42.99564]}},{"properties":{"city":"Memphis","contacts":1855967,"id":"a6h4783fh1s4","state":"Tennessee"},"type":"Feature","geometry":{"type":"Point","coordinates":[-90.04898,35.149534]}},{"properties":{"city":"Milwaukee","contacts":2901329,"id":"a6h477uhhwq8","state":"Wisconsin"},"type":"Feature","geometry":{"type":"Point","coordinates":[-87.906474,43.038903]}},{"properties":{"city":"Minneapolis","contacts":3537301,"id":"a6h477sbedni","state":"Minnesota"},"type":"Feature","geometry":{"type":"Point","coordinates":[-93.263836,44.979965]}},{"properties":{"city":"New Orleans","contacts":969261,"id":"a6h477r6fky7","state":"Louisiana"},"type":"Feature","geometry":{"type":"Point","coordinates":[-89.930956,30.068812]}},{"properties":{"city":"New York City","contacts":10411116,"id":"a6h47817c7hw","state":"New York"},"type":"Feature","geometry":{"type":"Point","coordinates":[-74.005973,40.714269]}},{"properties":{"city":"Newark","contacts":4224452,"id":"a6h47849x8go","state":"New Jersey"},"type":"Feature","geometry":{"type":"Point","coordinates":[-74.172367,40.735657]}},{"properties":{"city":"Oklahoma City","contacts":1089911,"id":"a6h47845lssy","state":"Oklahoma"},"type":"Feature","geometry":{"type":"Point","coordinates":[-97.516428,35.46756]}},{"properties":{"city":"Omaha","contacts":830847,"id":"a6h477rbsnks","state":"Nebraska"},"type":"Feature","geometry":{"type":"Point","coordinates":[-95.937792,41.25861]}},{"properties":{"city":"Philadelphia","contacts":5394701,"id":"a6h477smbkeg","state":"Pennsylvania"},"type":"Feature","geometry":{"type":"Point","coordinates":[-75.163789,39.952335]}},{"properties":{"city":"Phoenix","contacts":709,"id":"a6h477ornagd","state":"Arizona"},"type":"Feature","geometry":{"type":"Point","coordinates":[-112.074037,33.448377]}},{"properties":{"city":"Portland","contacts":487320,"id":"a6h477xaj4aq","state":"Maine"},"type":"Feature","geometry":{"type":"Point","coordinates":[-70.255326,43.661471]}},{"properties":{"city":"Portland","contacts":1694782,"id":"a6h477vnkcjj","state":"Oregon"},"type":"Feature","geometry":{"type":"Point","coordinates":[-122.676207,45.523452]}},{"properties":{"city":"Providence","contacts":443037,"id":"a6h477x5tkzm","state":"Rhode Island"},"type":"Feature","geometry":{"type":"Point","coordinates":[-71.412834,41.823989]}},{"properties":{"city":"Salt Lake City","contacts":1093986,"id":"a6h477rgz8vk","state":"Utah"},"type":"Feature","geometry":{"type":"Point","coordinates":[-111.891047,40.760779]}},{"properties":{"city":"Seattle","contacts":3193743,"id":"a6h477w0pfti","state":"Washington"},"type":"Feature","geometry":{"type":"Point","coordinates":[-122.332071,47.60621]}},{"properties":{"city":"Sioux Falls","contacts":310105,"id":"a6h478088kxb","state":"South Dakota"},"type":"Feature","geometry":{"type":"Point","coordinates":[-96.730328,43.546642]}},{"properties":{"city":"Virginia Beach","contacts":3920846,"id":"a6h477rdzlfk","state":"Virginia"},"type":"Feature","geometry":{"type":"Point","coordinates":[-76.076408,36.786299]}},{"properties":{"city":"Wichita","contacts":1259961,"id":"a6h477ykl12i","state":"Kansas"},"type":"Feature","geometry":{"type":"Point","coordinates":[-97.337545,37.692236]}},{"properties":{"city":"Wilmington","contacts":2371594,"id":"a6h477ud0ab1","state":"Delaware"},"type":"Feature","geometry":{"type":"Point","coordinates":[-75.546589,39.745947]}}],"is_temporal":false,"author":{"url":"","metadata":"","contact_name":"","contact_address":"","source":"","contact_phone":""},"source":"","pagination":{"sort":null,"start":0,"total":50,"limit":1000000},"state":"complete","tags":"","published":"2014-08-10T13:41:34-04:00","id":53610}