{"type":"FeatureCollection","data_type":"Dataset","url_type":null,"permissions":[{"permissions":{"download":true,"view":true},"group_id":"everyone"}],"classification":null,"title":"ENR 400 CONTRACTORS 2010","count":72,"stream_id":54030,"contributor":{"url":"http://geocommons.com/users/3995","name":"amazon"},"data_attributes":null,"calculation_params":null,"icon_link":null,"link":"http://geocommons.com/overlays/54030.json","extent":[-146.167,26.7153,-70.9301,67.6256],"geometry_types":["point"],"unique_name":null,"name":"ENR 400 CONTRACTORS 2010","feature_count":72,"description":"","next_feature":null,"is_raster":false,"short_classification":"Y","stats":{"mfg.":{"max":100,"mean":6.30555555555556,"variance":350.496870109546,"stdev":18.7215616365074,"min":0,"median":0},"total revenue":{"max":22637.0,"mean":1867.49444444444,"variance":13459238.3963067,"stdev":3668.6834690808,"min":115.0,"median":552.2},"haz.waste":{"max":100,"mean":5.54166666666667,"variance":399.913732394366,"stdev":19.9978431935638,"min":0,"median":0},"indust.petro.":{"max":100,"mean":22.9305555555556,"variance":1006.29088419405,"stdev":31.7220882697538,"min":0,"median":6},"gen. bldg.":{"max":100,"mean":30.5555555555556,"variance":1438.50391236307,"stdev":37.9276141137703,"min":0,"median":12},"intl revenue":{"max":14849.0,"mean":771.902777777778,"variance":5464930.62590767,"stdev":2337.71910757209,"min":0.1,"median":41.2},"wtr.waste":{"max":100,"mean":7.88888888888889,"variance":386.26917057903,"stdev":19.6537317214576,"min":0,"median":0},"power":{"max":92,"mean":10.4861111111111,"variance":339.351917057903,"stdev":18.4215069160452,"min":0,"median":0},"rank":{"max":398,"mean":127.486111111111,"variance":13943.1829029734,"stdev":118.081255510658,"min":1,"median":89},"com-at-risk.% of rev.":{"max":100,"mean":18.875,"variance":955.463028169014,"stdev":30.9105649927175,"min":0,"median":0},"lat":{"max":67.6255556,"mean":37.7909323958333,"variance":35.2049953437363,"stdev":5.93337975724935,"min":26.7153424,"median":39.0997265},"long":{"max":-70.9300507,"mean":-90.2716206958333,"variance":231.331739049349,"stdev":15.2095936516841,"min":-146.1672222,"median":-87.9535534},"tele":{"max":99,"mean":2.16666666666667,"variance":143.774647887324,"stdev":11.9906066521809,"min":0,"median":0},"transp.":{"max":100,"mean":11.4861111111111,"variance":739.211071987481,"stdev":27.1884363652543,"min":0,"median":0}},"features":[{"properties":{"mfg.":0,"total revenue":22637.0,"city":"San Francisco","new contracts":"19,312.00","firm":"BECHtEl","haz.waste":4,"indust.petro.":55,"gen. bldg.":0,"intl revenue":14849.0,"wtr.waste":0,"power":17,"rank":1,"com-at-risk.% of rev.":58,"id":"a626ac1th6zb","lat":37.7749295,"tele":1,"transp.":22,"state":"CA","long":-122.4194155},"type":"Feature","geometry":{"type":"Point","coordinates":[-122.4194155,37.7749295]}},{"properties":{"mfg.":0,"total revenue":5056.3,"city":"Clinton","new contracts":"3,481.70","firm":"fostER wHEElER aG","haz.waste":0,"indust.petro.":78,"gen. bldg.":0,"intl revenue":4401.6,"wtr.waste":0,"power":20,"rank":10,"com-at-risk.% of rev.":0,"id":"a626abud77y2","lat":40.6367682,"tele":0,"transp.":0,"state":"NJ","long":-74.90989},"type":"Feature","geometry":{"type":"Point","coordinates":[-74.90989,40.6367682]}},{"properties":{"mfg.":0,"total revenue":520.0,"city":"lake Forest","new contracts":"830","firm":"pRiMoRiS coRp.","haz.waste":0,"indust.petro.":71,"gen. bldg.":0,"intl revenue":20.0,"wtr.waste":13,"power":15,"rank":101,"com-at-risk.% of rev.":0,"id":"a626ac4qgcgz","lat":33.6469661,"tele":0,"transp.":0,"state":"CA","long":-117.689218},"type":"Feature","geometry":{"type":"Point","coordinates":[-117.689218,33.6469661]}},{"properties":{"mfg.":0,"total revenue":520.0,"city":"little Rock","new contracts":"460","firm":"vcc","haz.waste":0,"indust.petro.":0,"gen. bldg.":100,"intl revenue":70.0,"wtr.waste":0,"power":0,"rank":102,"com-at-risk.% of rev.":13,"id":"a626ac32nsen","lat":67.6255556,"tele":0,"transp.":0,"state":"AK","long":-146.1672222},"type":"Feature","geometry":{"type":"Point","coordinates":[-146.1672222,67.6255556]}},{"properties":{"mfg.":0,"total revenue":484.7,"city":"oak Brook","new contracts":"517.6","firm":"GREat laKES DREDGE &amp; DocK coRp. llc","haz.waste":0,"indust.petro.":0,"gen. bldg.":0,"intl revenue":172.7,"wtr.waste":0,"power":0,"rank":106,"com-at-risk.% of rev.":0,"id":"a626ac39ksx0","lat":41.8397865,"tele":0,"transp.":100,"state":"IL","long":-87.9535534},"type":"Feature","geometry":{"type":"Point","coordinates":[-87.9535534,41.8397865]}},{"properties":{"mfg.":0,"total revenue":475.8,"city":"danvers","new contracts":"410","firm":"BERRy  a DiviSioN oF SuFFolK coNStRuctioN","haz.waste":0,"indust.petro.":0,"gen. bldg.":100,"intl revenue":22.8,"wtr.waste":0,"power":0,"rank":109,"com-at-risk.% of rev.":100,"id":"a626abvo1lde","lat":42.5750946,"tele":0,"transp.":0,"state":"MA","long":-70.9300507},"type":"Feature","geometry":{"type":"Point","coordinates":[-70.9300507,42.5750946]}},{"properties":{"mfg.":36,"total revenue":452.0,"city":"Jacksonville","new contracts":"429.9","firm":"haSKEll","haz.waste":0,"indust.petro.":9,"gen. bldg.":45,"intl revenue":10.5,"wtr.waste":10,"power":0,"rank":118,"com-at-risk.% of rev.":17,"id":"a626abu5v7wr","lat":30.3321838,"tele":0,"transp.":0,"state":"FL","long":-81.655651},"type":"Feature","geometry":{"type":"Point","coordinates":[-81.655651,30.3321838]}},{"properties":{"mfg.":0,"total revenue":4661.3,"city":"Houston","new contracts":"3,626.20","firm":"MCdERMott iNtERNatioNal iNC.","haz.waste":0,"indust.petro.":63,"gen. bldg.":0,"intl revenue":3370.3,"wtr.waste":0,"power":37,"rank":12,"com-at-risk.% of rev.":0,"id":"a626abww3xwm","lat":29.7628844,"tele":0,"transp.":0,"state":"TX","long":-95.3830615},"type":"Feature","geometry":{"type":"Point","coordinates":[-95.3830615,29.7628844]}},{"properties":{"mfg.":0,"total revenue":441.5,"city":"Mclean","new contracts":"334","firm":"coNtRacK iNtERNatioNal iNc.","haz.waste":0,"indust.petro.":0,"gen. bldg.":85,"intl revenue":441.5,"wtr.waste":0,"power":0,"rank":125,"com-at-risk.% of rev.":0,"id":"a626ac37c04e","lat":38.9342776,"tele":0,"transp.":15,"state":"VA","long":-77.1774801},"type":"Feature","geometry":{"type":"Point","coordinates":[-77.1774801,38.9342776]}},{"properties":{"mfg.":0,"total revenue":4425.8,"city":"Baton Rouge","new contracts":"7,721.50","firm":"tHE sHaw GRoup iNC.","haz.waste":18,"indust.petro.":17,"gen. bldg.":1,"intl revenue":446.9,"wtr.waste":1,"power":53,"rank":13,"com-at-risk.% of rev.":4,"id":"a626ac2eiemz","lat":30.4507462,"tele":0,"transp.":10,"state":"LA","long":-91.154551},"type":"Feature","geometry":{"type":"Point","coordinates":[-91.154551,30.4507462]}},{"properties":{"mfg.":0,"total revenue":425.2,"city":"tucker","new contracts":"na","firm":"aMEc","haz.waste":0,"indust.petro.":14,"gen. bldg.":33,"intl revenue":194.5,"wtr.waste":4,"power":31,"rank":131,"com-at-risk.% of rev.":0,"id":"a626abzu9ord","lat":33.8545479,"tele":0,"transp.":4,"state":"GA","long":-84.2171424},"type":"Feature","geometry":{"type":"Point","coordinates":[-84.2171424,33.8545479]}},{"properties":{"mfg.":0,"total revenue":420.4,"city":"San antonio","new contracts":"285.4","firm":"ccc GRoup iNc.","haz.waste":0,"indust.petro.":74,"gen. bldg.":2,"intl revenue":29.3,"wtr.waste":0,"power":12,"rank":135,"com-at-risk.% of rev.":0,"id":"a626abzhy1ru","lat":29.4241219,"tele":0,"transp.":2,"state":"TX","long":-98.4936282},"type":"Feature","geometry":{"type":"Point","coordinates":[-98.4936282,29.4241219]}},{"properties":{"mfg.":0,"total revenue":416.0,"city":"new York","new contracts":"295","firm":"RailwoRKS coRp.","haz.waste":0,"indust.petro.":0,"gen. bldg.":0,"intl revenue":88.0,"wtr.waste":0,"power":0,"rank":138,"com-at-risk.% of rev.":0,"id":"a626abzl73ib","lat":40.7142691,"tele":0,"transp.":100,"state":"NY","long":-74.0059729},"type":"Feature","geometry":{"type":"Point","coordinates":[-74.0059729,40.7142691]}},{"properties":{"mfg.":0,"total revenue":403.5,"city":"Jacksonville","new contracts":"391.1","firm":"StEllaR","haz.waste":0,"indust.petro.":73,"gen. bldg.":17,"intl revenue":13.2,"wtr.waste":0,"power":10,"rank":143,"com-at-risk.% of rev.":0,"id":"a626ac0nnvys","lat":30.3321838,"tele":0,"transp.":0,"state":"FL","long":-81.655651},"type":"Feature","geometry":{"type":"Point","coordinates":[-81.655651,30.3321838]}},{"properties":{"mfg.":15,"total revenue":395.0,"city":"Homewood","new contracts":"256","firm":"GRaycoR","haz.waste":0,"indust.petro.":51,"gen. bldg.":15,"intl revenue":1.3,"wtr.waste":0,"power":19,"rank":146,"com-at-risk.% of rev.":29,"id":"a626ac55l467","lat":41.5572567,"tele":0,"transp.":0,"state":"IL","long":-87.6656014},"type":"Feature","geometry":{"type":"Point","coordinates":[-87.6656014,41.5572567]}},{"properties":{"mfg.":0,"total revenue":3775.0,"city":"the woodlands","new contracts":"5,442.00","firm":"CB&amp;i","haz.waste":0,"indust.petro.":94,"gen. bldg.":0,"intl revenue":2537.0,"wtr.waste":4,"power":2,"rank":15,"com-at-risk.% of rev.":0,"id":"a626ac7784ky","lat":30.1579935,"tele":0,"transp.":0,"state":"TX","long":-95.4893845},"type":"Feature","geometry":{"type":"Point","coordinates":[-95.4893845,30.1579935]}},{"properties":{"mfg.":0,"total revenue":371.0,"city":"Canonsburg","new contracts":"277","firm":"taGGaRt GloBal","haz.waste":0,"indust.petro.":8,"gen. bldg.":0,"intl revenue":84.0,"wtr.waste":0,"power":29,"rank":157,"com-at-risk.% of rev.":0,"id":"a626ac369j0j","lat":40.2625702,"tele":0,"transp.":0,"state":"PA","long":-80.1872797},"type":"Feature","geometry":{"type":"Point","coordinates":[-80.1872797,40.2625702]}},{"properties":{"mfg.":0,"total revenue":353.0,"city":"abilene","new contracts":"84.9","firm":"thE lauREN coRp.","haz.waste":0,"indust.petro.":37,"gen. bldg.":0,"intl revenue":155.9,"wtr.waste":0,"power":46,"rank":170,"com-at-risk.% of rev.":0,"id":"a626abxfvn1y","lat":32.4487364,"tele":0,"transp.":0,"state":"TX","long":-99.7331439},"type":"Feature","geometry":{"type":"Point","coordinates":[-99.7331439,32.4487364]}},{"properties":{"mfg.":0,"total revenue":343.6,"city":"west Palm Beach","new contracts":"273","firm":"vEcEllio GRoup iNc.","haz.waste":0,"indust.petro.":6,"gen. bldg.":0,"intl revenue":2.6,"wtr.waste":0,"power":0,"rank":177,"com-at-risk.% of rev.":0,"id":"a626abwc2av0","lat":26.7153424,"tele":0,"transp.":94,"state":"FL","long":-80.0533746},"type":"Feature","geometry":{"type":"Point","coordinates":[-80.0533746,26.7153424]}},{"properties":{"mfg.":0,"total revenue":325.7,"city":"west Chester","new contracts":"330","firm":"wEStoN SolutioNS iNc.","haz.waste":31,"indust.petro.":0,"gen. bldg.":65,"intl revenue":58.1,"wtr.waste":3,"power":0,"rank":188,"com-at-risk.% of rev.":16,"id":"a626ac5ldqdg","lat":39.9606643,"tele":0,"transp.":0,"state":"PA","long":-75.6054882},"type":"Feature","geometry":{"type":"Point","coordinates":[-75.6054882,39.9606643]}},{"properties":{"mfg.":0,"total revenue":325.0,"city":"Red Bank","new contracts":"618","firm":"toRcoN iNc.","haz.waste":0,"indust.petro.":22,"gen. bldg.":72,"intl revenue":20.0,"wtr.waste":0,"power":0,"rank":189,"com-at-risk.% of rev.":75,"id":"a626ac735xu4","lat":40.3470543,"tele":0,"transp.":6,"state":"NJ","long":-74.0643065},"type":"Feature","geometry":{"type":"Point","coordinates":[-74.0643065,40.3470543]}},{"properties":{"mfg.":0,"total revenue":3135.5,"city":"Providence","new contracts":"3,907.30","firm":"GilBaNE BuildiNG Co.","haz.waste":0,"indust.petro.":5,"gen. bldg.":91,"intl revenue":27.5,"wtr.waste":0,"power":0,"rank":19,"com-at-risk.% of rev.":96,"id":"a626abw2gdka","lat":41.8239891,"tele":1,"transp.":3,"state":"RI","long":-71.4128343},"type":"Feature","geometry":{"type":"Point","coordinates":[-71.4128343,41.8239891]}},{"properties":{"mfg.":2,"total revenue":17235.8,"city":"Irving","new contracts":"18,500.00","firm":"fluoR CoRp.","haz.waste":4,"indust.petro.":67,"gen. bldg.":7,"intl revenue":9629.4,"wtr.waste":0,"power":12,"rank":2,"com-at-risk.% of rev.":14,"id":"a626ac2n9mk0","lat":32.8140177,"tele":0,"transp.":8,"state":"TX","long":-96.9488945},"type":"Feature","geometry":{"type":"Point","coordinates":[-96.9488945,32.8140177]}},{"properties":{"mfg.":0,"total revenue":314.0,"city":"Minneapolis","new contracts":"230","firm":"KNutSoN coNStRuctioN SERvicES","haz.waste":0,"indust.petro.":16,"gen. bldg.":73,"intl revenue":30.0,"wtr.waste":1,"power":10,"rank":200,"com-at-risk.% of rev.":64,"id":"a626ac31wtsg","lat":44.9799654,"tele":0,"transp.":0,"state":"MN","long":-93.2638361},"type":"Feature","geometry":{"type":"Point","coordinates":[-93.2638361,44.9799654]}},{"properties":{"mfg.":0,"total revenue":292.6,"city":"lake Monroe","new contracts":"266.2","firm":"whaRtoN-SMith iNc.","haz.waste":0,"indust.petro.":0,"gen. bldg.":43,"intl revenue":25.0,"wtr.waste":57,"power":0,"rank":210,"com-at-risk.% of rev.":45,"id":"a626abtti476","lat":28.8247141,"tele":0,"transp.":0,"state":"FL","long":-81.3270103},"type":"Feature","geometry":{"type":"Point","coordinates":[-81.3270103,28.8247141]}},{"properties":{"mfg.":0,"total revenue":2731.7,"city":"new York","new contracts":"1,713.00","firm":"stRuCtuRE toNE","haz.waste":0,"indust.petro.":3,"gen. bldg.":80,"intl revenue":73.9,"wtr.waste":0,"power":0,"rank":22,"com-at-risk.% of rev.":92,"id":"a626ac3y1qli","lat":40.7142691,"tele":17,"transp.":0,"state":"NY","long":-74.0059729},"type":"Feature","geometry":{"type":"Point","coordinates":[-74.0059729,40.7142691]}},{"properties":{"mfg.":13,"total revenue":2442.1,"city":"San Francisco","new contracts":"29,604.00","firm":"uRs CoRp.","haz.waste":5,"indust.petro.":12,"gen. bldg.":2,"intl revenue":311.3,"wtr.waste":4,"power":53,"rank":23,"com-at-risk.% of rev.":7,"id":"a626ac5jnde4","lat":37.7749295,"tele":0,"transp.":5,"state":"CA","long":-122.4194155},"type":"Feature","geometry":{"type":"Point","coordinates":[-122.4194155,37.7749295]}},{"properties":{"mfg.":0,"total revenue":259.8,"city":"Springfield","new contracts":"105","firm":"thE DENNiS ENGiNEERiNG GRoup llc","haz.waste":0,"indust.petro.":100,"gen. bldg.":0,"intl revenue":20.9,"wtr.waste":0,"power":0,"rank":232,"com-at-risk.% of rev.":0,"id":"a626abzq4ssc","lat":42.1014831,"tele":0,"transp.":0,"state":"MA","long":-72.589811},"type":"Feature","geometry":{"type":"Point","coordinates":[-72.589811,42.1014831]}},{"properties":{"mfg.":1,"total revenue":248.0,"city":"Cambridge","new contracts":"459","firm":"cDM","haz.waste":13,"indust.petro.":12,"gen. bldg.":17,"intl revenue":35.0,"wtr.waste":54,"power":2,"rank":240,"com-at-risk.% of rev.":3,"id":"a626ac5iis12","lat":42.3726399,"tele":0,"transp.":0,"state":"MA","long":-71.1096528},"type":"Feature","geometry":{"type":"Point","coordinates":[-71.1096528,42.3726399]}},{"properties":{"mfg.":0,"total revenue":238.8,"city":"Broomfield","new contracts":"336.3","firm":"Mwh GloBal","haz.waste":0,"indust.petro.":0,"gen. bldg.":0,"intl revenue":32.9,"wtr.waste":100,"power":0,"rank":249,"com-at-risk.% of rev.":0,"id":"a626abyq9ynf","lat":39.9205411,"tele":0,"transp.":0,"state":"CO","long":-105.0866504},"type":"Feature","geometry":{"type":"Point","coordinates":[-105.0866504,39.9205411]}},{"properties":{"mfg.":0,"total revenue":227.9,"city":"niagara Falls","new contracts":"345.7","firm":"SEvENSoN ENviRoNMENtal SERvicES,","haz.waste":94,"indust.petro.":0,"gen. bldg.":0,"intl revenue":0.9,"wtr.waste":6,"power":0,"rank":257,"com-at-risk.% of rev.":0,"id":"a626ac9n4ww7","lat":43.0944999,"tele":0,"transp.":0,"state":"NY","long":-79.0567111},"type":"Feature","geometry":{"type":"Point","coordinates":[-79.0567111,43.0944999]}},{"properties":{"mfg.":5,"total revenue":205.0,"city":"Philadelphia","new contracts":"41","firm":"J.J. whitE iNc.","haz.waste":0,"indust.petro.":61,"gen. bldg.":12,"intl revenue":1.0,"wtr.waste":5,"power":15,"rank":282,"com-at-risk.% of rev.":5,"id":"a626ac4p91st","lat":39.952335,"tele":2,"transp.":0,"state":"PA","long":-75.163789},"type":"Feature","geometry":{"type":"Point","coordinates":[-75.163789,39.952335]}},{"properties":{"mfg.":0,"total revenue":200.6,"city":"St. louis","new contracts":"123.6","firm":"aRco/MuRRay coNStRuctioN coS.,","haz.waste":0,"indust.petro.":0,"gen. bldg.":100,"intl revenue":3.3,"wtr.waste":0,"power":0,"rank":286,"com-at-risk.% of rev.":1,"id":"a626ac0bxrl6","lat":38.646991,"tele":0,"transp.":0,"state":"MO","long":-90.224967},"type":"Feature","geometry":{"type":"Point","coordinates":[-90.224967,38.646991]}},{"properties":{"mfg.":1,"total revenue":9949.8,"city":"Houston","new contracts":"12,961.40","firm":"kBR","haz.waste":0,"indust.petro.":59,"gen. bldg.":22,"intl revenue":7824.6,"wtr.waste":4,"power":10,"rank":3,"com-at-risk.% of rev.":4,"id":"a626abwrkzc4","lat":29.7628844,"tele":2,"transp.":2,"state":"TX","long":-95.3830615},"type":"Feature","geometry":{"type":"Point","coordinates":[-95.3830615,29.7628844]}},{"properties":{"mfg.":0,"total revenue":1791.7,"city":"Baton Rouge","new contracts":"na","firm":"tuRNER iNdustRiEs GRoup llC","haz.waste":2,"indust.petro.":95,"gen. bldg.":0,"intl revenue":41.2,"wtr.waste":0,"power":3,"rank":30,"com-at-risk.% of rev.":0,"id":"a626ac7ytel7","lat":30.4507462,"tele":0,"transp.":0,"state":"LA","long":-91.154551},"type":"Feature","geometry":{"type":"Point","coordinates":[-91.154551,30.4507462]}},{"properties":{"mfg.":0,"total revenue":1733.1,"city":"Boston","new contracts":"1,228.00","firm":"suffolk CoNstRuCtioN Co. iNC.","haz.waste":0,"indust.petro.":0,"gen. bldg.":100,"intl revenue":22.8,"wtr.waste":0,"power":0,"rank":31,"com-at-risk.% of rev.":100,"id":"a626abtf2k2q","lat":42.3584308,"tele":0,"transp.":0,"state":"MA","long":-71.0597732},"type":"Feature","geometry":{"type":"Point","coordinates":[-71.0597732,42.3584308]}},{"properties":{"mfg.":80,"total revenue":178.2,"city":"Plano","new contracts":"928.2","firm":"M+w u.S.","haz.waste":0,"indust.petro.":0,"gen. bldg.":20,"intl revenue":30.9,"wtr.waste":0,"power":0,"rank":317,"com-at-risk.% of rev.":0,"id":"a626abubj9w7","lat":33.0198431,"tele":0,"transp.":0,"state":"TX","long":-96.6988856},"type":"Feature","geometry":{"type":"Point","coordinates":[-96.6988856,33.0198431]}},{"properties":{"mfg.":0,"total revenue":1401.0,"city":"overland Park","new contracts":"2,259.40","firm":"BlaCk &amp; VEatCH","haz.waste":0,"indust.petro.":1,"gen. bldg.":1,"intl revenue":516.5,"wtr.waste":28,"power":60,"rank":34,"com-at-risk.% of rev.":8,"id":"a626abw1joqx","lat":38.9822282,"tele":11,"transp.":0,"state":"KS","long":-94.6707917},"type":"Feature","geometry":{"type":"Point","coordinates":[-94.6707917,38.9822282]}},{"properties":{"mfg.":11,"total revenue":1351.7,"city":"Philadelphia","new contracts":"691.9","firm":"tHE yatEs Cos. iNC.","haz.waste":0,"indust.petro.":3,"gen. bldg.":75,"intl revenue":14.0,"wtr.waste":1,"power":3,"rank":35,"com-at-risk.% of rev.":15,"id":"a626abuboo1j","lat":32.7715227,"tele":0,"transp.":8,"state":"MS","long":-89.1167275},"type":"Feature","geometry":{"type":"Point","coordinates":[-89.1167275,32.7715227]}},{"properties":{"mfg.":0,"total revenue":1335.9,"city":"Pasadena","new contracts":"2,190.90","firm":"paRsoNs","haz.waste":12,"indust.petro.":31,"gen. bldg.":10,"intl revenue":147.6,"wtr.waste":9,"power":1,"rank":36,"com-at-risk.% of rev.":43,"id":"a626ac1klb33","lat":34.1477849,"tele":0,"transp.":36,"state":"CA","long":-118.1445155},"type":"Feature","geometry":{"type":"Point","coordinates":[-118.1445155,34.1477849]}},{"properties":{"mfg.":100,"total revenue":140.7,"city":"Milwaukee","new contracts":"111","firm":"hK SyStEMS iNc.","haz.waste":0,"indust.petro.":0,"gen. bldg.":0,"intl revenue":2.4,"wtr.waste":0,"power":0,"rank":363,"com-at-risk.% of rev.":0,"id":"a626abwm88sm","lat":43.0389025,"tele":0,"transp.":0,"state":"WI","long":-87.9064736},"type":"Feature","geometry":{"type":"Point","coordinates":[-87.9064736,43.0389025]}},{"properties":{"mfg.":0,"total revenue":140.1,"city":"Grapevine","new contracts":"45","firm":"ENtact llc","haz.waste":100,"indust.petro.":0,"gen. bldg.":0,"intl revenue":0.1,"wtr.waste":0,"power":0,"rank":364,"com-at-risk.% of rev.":0,"id":"a626ac8106m8","lat":32.9342919,"tele":0,"transp.":0,"state":"TX","long":-97.0780654},"type":"Feature","geometry":{"type":"Point","coordinates":[-97.0780654,32.9342919]}},{"properties":{"mfg.":65,"total revenue":139.0,"city":"Sterling Heights","new contracts":"113","firm":"RoNcElli iNc.","haz.waste":0,"indust.petro.":0,"gen. bldg.":35,"intl revenue":5.0,"wtr.waste":0,"power":0,"rank":367,"com-at-risk.% of rev.":40,"id":"a626abw38fpz","lat":42.5803122,"tele":0,"transp.":0,"state":"MI","long":-83.0302033},"type":"Feature","geometry":{"type":"Point","coordinates":[-83.0302033,42.5803122]}},{"properties":{"mfg.":65,"total revenue":135.5,"city":"auburn Hills","new contracts":"129","firm":"coMMERcial coNtRactiNG GRoup","haz.waste":0,"indust.petro.":14,"gen. bldg.":18,"intl revenue":10.5,"wtr.waste":1,"power":2,"rank":369,"com-at-risk.% of rev.":0,"id":"a626abyalny8","lat":42.6875323,"tele":0,"transp.":0,"state":"MI","long":-83.2341028},"type":"Feature","geometry":{"type":"Point","coordinates":[-83.2341028,42.6875323]}},{"properties":{"mfg.":9,"total revenue":1246.9,"city":"Southfield","new contracts":"1,553.70","firm":"BaRtoN Malow Co.","haz.waste":0,"indust.petro.":0,"gen. bldg.":47,"intl revenue":11.2,"wtr.waste":0,"power":44,"rank":38,"com-at-risk.% of rev.":8,"id":"a626abyd58yb","lat":42.4733688,"tele":0,"transp.":0,"state":"MI","long":-83.2218731},"type":"Feature","geometry":{"type":"Point","coordinates":[-83.2218731,42.4733688]}},{"properties":{"mfg.":0,"total revenue":125.0,"city":"englewood","new contracts":"na","firm":"Nova coRp.","haz.waste":0,"indust.petro.":0,"gen. bldg.":0,"intl revenue":6.0,"wtr.waste":0,"power":0,"rank":385,"com-at-risk.% of rev.":47,"id":"a626abttb4n1","lat":40.8928771,"tele":99,"transp.":0,"state":"NJ","long":-73.9726381},"type":"Feature","geometry":{"type":"Point","coordinates":[-73.9726381,40.8928771]}},{"properties":{"mfg.":0,"total revenue":121.4,"city":"danbury","new contracts":"112.1","firm":"thE MoRGaNti GRoup iNc.","haz.waste":0,"indust.petro.":0,"gen. bldg.":97,"intl revenue":21.1,"wtr.waste":0,"power":0,"rank":389,"com-at-risk.% of rev.":81,"id":"a626ac3naa25","lat":41.394817,"tele":0,"transp.":3,"state":"CT","long":-73.4540111},"type":"Feature","geometry":{"type":"Point","coordinates":[-73.4540111,41.394817]}},{"properties":{"mfg.":0,"total revenue":119.4,"city":"evansville","new contracts":"310.7","firm":"FRoNtiER-KEMpER coNStRuctoRS iNc.","haz.waste":0,"indust.petro.":0,"gen. bldg.":0,"intl revenue":16.9,"wtr.waste":49,"power":3,"rank":391,"com-at-risk.% of rev.":0,"id":"a626ac49pja4","lat":37.9747644,"tele":0,"transp.":3,"state":"IN","long":-87.5558482},"type":"Feature","geometry":{"type":"Point","coordinates":[-87.5558482,37.9747644]}},{"properties":{"mfg.":0,"total revenue":115.0,"city":"Houston","new contracts":"195","firm":"REMEDial coNStRuctioN SERvicES lp","haz.waste":100,"indust.petro.":0,"gen. bldg.":0,"intl revenue":10.0,"wtr.waste":0,"power":0,"rank":398,"com-at-risk.% of rev.":0,"id":"a626ac4fov1l","lat":29.7628844,"tele":0,"transp.":0,"state":"TX","long":-95.3830615},"type":"Feature","geometry":{"type":"Point","coordinates":[-95.3830615,29.7628844]}},{"properties":{"mfg.":0,"total revenue":8820.0,"city":"omaha","new contracts":"11,713.20","firm":"kiEwit CoRp.","haz.waste":0,"indust.petro.":20,"gen. bldg.":11,"intl revenue":1913.0,"wtr.waste":12,"power":27,"rank":4,"com-at-risk.% of rev.":6,"id":"a626ac528adi","lat":41.254006,"tele":0,"transp.":28,"state":"NE","long":-95.999258},"type":"Feature","geometry":{"type":"Point","coordinates":[-95.999258,41.254006]}},{"properties":{"mfg.":0,"total revenue":1165.3,"city":"Houston","new contracts":"1,084.30","firm":"willBRos GRoup iNC.","haz.waste":0,"indust.petro.":100,"gen. bldg.":0,"intl revenue":319.8,"wtr.waste":0,"power":0,"rank":42,"com-at-risk.% of rev.":4,"id":"a626abwxy3mj","lat":29.7628844,"tele":0,"transp.":0,"state":"TX","long":-95.3830615},"type":"Feature","geometry":{"type":"Point","coordinates":[-95.3830615,29.7628844]}},{"properties":{"mfg.":0,"total revenue":1156.5,"city":"Philadelphia","new contracts":"77.5","firm":"day &amp; ZiMMERMaNN","haz.waste":0,"indust.petro.":6,"gen. bldg.":2,"intl revenue":9.3,"wtr.waste":0,"power":92,"rank":44,"com-at-risk.% of rev.":0,"id":"a626ac16r534","lat":39.952335,"tele":0,"transp.":0,"state":"PA","long":-75.163789},"type":"Feature","geometry":{"type":"Point","coordinates":[-75.163789,39.952335]}},{"properties":{"mfg.":3,"total revenue":1116.5,"city":"Brownsville","new contracts":"1,116.50","firm":"MiCHEls CoRp.","haz.waste":0,"indust.petro.":67,"gen. bldg.":0,"intl revenue":34.7,"wtr.waste":7,"power":10,"rank":45,"com-at-risk.% of rev.":0,"id":"a626ac2cu0ak","lat":43.6163809,"tele":6,"transp.":7,"state":"WI","long":-88.4906592},"type":"Feature","geometry":{"type":"Point","coordinates":[-88.4906592,43.6163809]}},{"properties":{"mfg.":0,"total revenue":1039.0,"city":"longmont","new contracts":"1,219.00","firm":"flatiRoN CoNstRuCtioN CoRp.","haz.waste":0,"indust.petro.":0,"gen. bldg.":0,"intl revenue":478.0,"wtr.waste":2,"power":0,"rank":47,"com-at-risk.% of rev.":0,"id":"a626ac2wtt99","lat":40.1672068,"tele":0,"transp.":97,"state":"CO","long":-105.1019275},"type":"Feature","geometry":{"type":"Point","coordinates":[-105.1019275,40.1672068]}},{"properties":{"mfg.":2,"total revenue":1016.0,"city":"englewood","new contracts":"736.4","firm":"CH2M Hill","haz.waste":10,"indust.petro.":25,"gen. bldg.":13,"intl revenue":407.2,"wtr.waste":6,"power":25,"rank":48,"com-at-risk.% of rev.":0,"id":"a626abutbz4u","lat":39.6477653,"tele":0,"transp.":20,"state":"CO","long":-104.9877597},"type":"Feature","geometry":{"type":"Point","coordinates":[-104.9877597,39.6477653]}},{"properties":{"mfg.":30,"total revenue":961.9,"city":"detroit","new contracts":"1,020.00","firm":"walBRidGE","haz.waste":0,"indust.petro.":5,"gen. bldg.":50,"intl revenue":84.0,"wtr.waste":4,"power":2,"rank":50,"com-at-risk.% of rev.":22,"id":"a626abvh28f4","lat":42.331427,"tele":0,"transp.":9,"state":"MI","long":-83.0457538},"type":"Feature","geometry":{"type":"Point","coordinates":[-83.0457538,42.331427]}},{"properties":{"mfg.":4,"total revenue":862.5,"city":"St. louis","new contracts":"826","firm":"alBERici coRp.","haz.waste":0,"indust.petro.":28,"gen. bldg.":15,"intl revenue":80.6,"wtr.waste":23,"power":25,"rank":55,"com-at-risk.% of rev.":53,"id":"a626abwbgmbr","lat":38.646991,"tele":0,"transp.":2,"state":"MO","long":-90.224967},"type":"Feature","geometry":{"type":"Point","coordinates":[-90.224967,38.646991]}},{"properties":{"mfg.":0,"total revenue":804.4,"city":"Mission woods","new contracts":"931.5","firm":"layNE chRiStENSEN co.","haz.waste":2,"indust.petro.":0,"gen. bldg.":0,"intl revenue":87.1,"wtr.waste":76,"power":0,"rank":57,"com-at-risk.% of rev.":0,"id":"a626ac21bjmu","lat":39.0350053,"tele":0,"transp.":0,"state":"KS","long":-94.6085677},"type":"Feature","geometry":{"type":"Point","coordinates":[-94.6085677,39.0350053]}},{"properties":{"mfg.":4,"total revenue":5558.2,"city":"Pasadena","new contracts":"10,000.00","firm":"JaCoBs","haz.waste":2,"indust.petro.":91,"gen. bldg.":2,"intl revenue":1801.3,"wtr.waste":0,"power":0,"rank":7,"com-at-risk.% of rev.":0,"id":"a626ac6wqq7y","lat":34.1477849,"tele":0,"transp.":1,"state":"CA","long":-118.1445155},"type":"Feature","geometry":{"type":"Point","coordinates":[-118.1445155,34.1477849]}},{"properties":{"mfg.":0,"total revenue":690.9,"city":"Montgomery","new contracts":"356.8","firm":"caDDEll coNStRuctioN co. iNc.","haz.waste":0,"indust.petro.":0,"gen. bldg.":99,"intl revenue":125.1,"wtr.waste":0,"power":1,"rank":70,"com-at-risk.% of rev.":0,"id":"a626ac06hky0","lat":32.3668052,"tele":0,"transp.":0,"state":"AL","long":-86.2999689},"type":"Feature","geometry":{"type":"Point","coordinates":[-86.2999689,32.3668052]}},{"properties":{"mfg.":0,"total revenue":689.7,"city":"tulsa","new contracts":"636.1","firm":"MatRix SERvicE co.","haz.waste":0,"indust.petro.":89,"gen. bldg.":0,"intl revenue":21.2,"wtr.waste":0,"power":9,"rank":71,"com-at-risk.% of rev.":0,"id":"a626abznjjki","lat":36.1539816,"tele":0,"transp.":0,"state":"OK","long":-95.992775},"type":"Feature","geometry":{"type":"Point","coordinates":[-95.992775,36.1539816]}},{"properties":{"mfg.":0,"total revenue":653.0,"city":"Birmingham","new contracts":"508.5","firm":"B.l. haRBERt iNtERNatioNal llc","haz.waste":0,"indust.petro.":0,"gen. bldg.":98,"intl revenue":331.9,"wtr.waste":2,"power":0,"rank":74,"com-at-risk.% of rev.":0,"id":"a626ac1za47v","lat":33.5206608,"tele":0,"transp.":0,"state":"AL","long":-86.80249},"type":"Feature","geometry":{"type":"Point","coordinates":[-86.80249,33.5206608]}},{"properties":{"mfg.":0,"total revenue":630.6,"city":"Boston","new contracts":"352.7","firm":"ShawMut DESiGN aND coNStRuctioN","haz.waste":0,"indust.petro.":0,"gen. bldg.":100,"intl revenue":17.1,"wtr.waste":0,"power":0,"rank":77,"com-at-risk.% of rev.":0,"id":"a626ac9muvv2","lat":42.3584308,"tele":0,"transp.":0,"state":"MA","long":-71.0597732},"type":"Feature","geometry":{"type":"Point","coordinates":[-71.0597732,42.3584308]}},{"properties":{"mfg.":2,"total revenue":5428.6,"city":"denver","new contracts":"3,414.00","firm":"pCl CoNstRuCtioN ENtERpRisEs iNC.","haz.waste":1,"indust.petro.":15,"gen. bldg.":67,"intl revenue":3271.2,"wtr.waste":5,"power":2,"rank":8,"com-at-risk.% of rev.":35,"id":"a626abx8npg9","lat":39.7391536,"tele":0,"transp.":9,"state":"CO","long":-104.9847034},"type":"Feature","geometry":{"type":"Point","coordinates":[-104.9847034,39.7391536]}},{"properties":{"mfg.":0,"total revenue":611.8,"city":"dallas","new contracts":"330.3","firm":"thE BEcK GRoup","haz.waste":0,"indust.petro.":0,"gen. bldg.":83,"intl revenue":35.0,"wtr.waste":0,"power":0,"rank":80,"com-at-risk.% of rev.":69,"id":"a626abysj6ur","lat":32.802955,"tele":17,"transp.":0,"state":"TX","long":-96.769923},"type":"Feature","geometry":{"type":"Point","coordinates":[-96.769923,32.802955]}},{"properties":{"mfg.":0,"total revenue":588.4,"city":"Coraopolis","new contracts":"215.9","firm":"aMERicaN BRiDGE co.","haz.waste":0,"indust.petro.":0,"gen. bldg.":0,"intl revenue":55.2,"wtr.waste":0,"power":0,"rank":82,"com-at-risk.% of rev.":0,"id":"a626ac5ytcuo","lat":40.5184013,"tele":0,"transp.":100,"state":"PA","long":-80.1667247},"type":"Feature","geometry":{"type":"Point","coordinates":[-80.1667247,40.5184013]}},{"properties":{"mfg.":0,"total revenue":566.2,"city":"Chesterfield","new contracts":"777.3","firm":"iNSituFoRM tEchNoloGiES iNc.","haz.waste":0,"indust.petro.":26,"gen. bldg.":0,"intl revenue":175.0,"wtr.waste":74,"power":0,"rank":87,"com-at-risk.% of rev.":1,"id":"a626ac0vy8rt","lat":38.6631083,"tele":0,"transp.":0,"state":"MO","long":-90.5770675},"type":"Feature","geometry":{"type":"Point","coordinates":[-90.5770675,38.6631083]}},{"properties":{"mfg.":0,"total revenue":552.2,"city":"Pasadena","new contracts":"375","firm":"c.w. DRivER","haz.waste":0,"indust.petro.":0,"gen. bldg.":100,"intl revenue":45.3,"wtr.waste":0,"power":0,"rank":88,"com-at-risk.% of rev.":92,"id":"a626ac6xz9z1","lat":34.1477849,"tele":0,"transp.":0,"state":"CA","long":-118.1445155},"type":"Feature","geometry":{"type":"Point","coordinates":[-118.1445155,34.1477849]}},{"properties":{"mfg.":0,"total revenue":548.7,"city":"Cranford","new contracts":"611","firm":"wEEKS MaRiNE iNc.","haz.waste":0,"indust.petro.":3,"gen. bldg.":0,"intl revenue":3.1,"wtr.waste":0,"power":0,"rank":89,"com-at-risk.% of rev.":0,"id":"a626abuo2jkb","lat":40.6584358,"tele":0,"transp.":97,"state":"NJ","long":-74.2995923},"type":"Feature","geometry":{"type":"Point","coordinates":[-74.2995923,40.6584358]}},{"properties":{"mfg.":1,"total revenue":5141.0,"city":"Sylmar","new contracts":"2,786.30","firm":"tutoR pERiNi CoRp.","haz.waste":0,"indust.petro.":0,"gen. bldg.":82,"intl revenue":297.8,"wtr.waste":0,"power":0,"rank":9,"com-at-risk.% of rev.":92,"id":"a626abzd0mam","lat":34.3077785,"tele":0,"transp.":16,"state":"CA","long":-118.4492499},"type":"Feature","geometry":{"type":"Point","coordinates":[-118.4492499,34.3077785]}},{"properties":{"mfg.":0,"total revenue":542.0,"city":"Pittsburgh","new contracts":"361","firm":"DcK woRlDwiDE llc","haz.waste":0,"indust.petro.":3,"gen. bldg.":79,"intl revenue":92.0,"wtr.waste":0,"power":0,"rank":92,"com-at-risk.% of rev.":0,"id":"a626ac58ztd2","lat":40.4406248,"tele":0,"transp.":18,"state":"PA","long":-79.9958864},"type":"Feature","geometry":{"type":"Point","coordinates":[-79.9958864,40.4406248]}},{"properties":{"mfg.":5,"total revenue":532.2,"city":"kansas City","new contracts":"na","firm":"BuRNS &amp; McDoNNEll","haz.waste":1,"indust.petro.":22,"gen. bldg.":14,"intl revenue":31.0,"wtr.waste":3,"power":53,"rank":95,"com-at-risk.% of rev.":0,"id":"a626abvn5qey","lat":39.0997265,"tele":0,"transp.":2,"state":"MO","long":-94.5785667},"type":"Feature","geometry":{"type":"Point","coordinates":[-94.5785667,39.0997265]}}],"is_temporal":false,"author":{"url":"","metadata":"","contact_name":"","contact_address":"","source":"","contact_phone":""},"source":"","pagination":{"sort":null,"start":0,"total":72,"limit":1000000},"state":"complete","tags":"enr","published":"2010-05-26T17:17:38Z","id":54030}