{"type":"FeatureCollection","data_type":"Dataset","url_type":null,"permissions":[{"permissions":{"download":true,"view":true},"group_id":"everyone"}],"classification":null,"title":"ENR 400 NE","count":32,"stream_id":54031,"contributor":{"url":"http://geocommons.com/users/3995","name":"amazon"},"data_attributes":null,"calculation_params":null,"icon_link":null,"link":"http://geocommons.com/overlays/54031.json","extent":[-95.9993,37.9748,-70.9301,44.98],"geometry_types":["point"],"unique_name":null,"name":"ENR 400 NE","feature_count":32,"description":"","next_feature":null,"is_raster":false,"short_classification":"Y","stats":{"mfg.":{"max":100,"mean":9.15625,"variance":548.652217741935,"stdev":23.4233263594635,"min":0,"median":0},"total revenue":{"max":8820.0,"mean":1048.078125,"variance":3118254.53402218,"stdev":1765.85801638245,"min":119.4,"median":441.5},"haz.waste":{"max":94,"mean":4.3125,"variance":302.286290322581,"stdev":17.3863823241806,"min":0,"median":0},"indust.petro.":{"max":100,"mean":14.8125,"variance":694.54435483871,"stdev":26.3542094330054,"min":0,"median":3},"gen. bldg.":{"max":100,"mean":35.90625,"variance":1550.92641129032,"stdev":39.3818030477316,"min":0,"median":17},"intl revenue":{"max":4401.6,"mean":243.234375,"variance":690799.203618952,"stdev":831.14331111966,"min":0.9,"median":22.8},"wtr.waste":{"max":54,"mean":4.4375,"variance":160.254032258065,"stdev":12.6591481647884,"min":0,"median":0},"power":{"max":92,"mean":8.59375,"variance":348.829637096774,"stdev":18.6769814771224,"min":0,"median":0},"rank":{"max":391,"mean":163.625,"variance":16418.8225806452,"stdev":128.135953505038,"min":4,"median":138},"com-at-risk.% of rev.":{"max":100,"mean":24.5,"variance":1299.29032258065,"stdev":36.0456699560522,"min":0,"median":3},"lat":{"max":44.9799654,"mean":41.449936553125,"variance":2.05991206270727,"stdev":1.43523937470628,"min":37.9747644,"median":41.5572567},"long":{"max":-70.9300507,"mean":-79.086205940625,"variance":49.2802395862245,"stdev":7.01998857450811,"min":-95.999258,"median":-75.6054882},"tele":{"max":99,"mean":3.90625,"variance":311.055443548387,"stdev":17.6367639760923,"min":0,"median":0},"transp.":{"max":100,"mean":15.28125,"variance":1079.43447580645,"stdev":32.8547481470556,"min":0,"median":0}},"features":[{"properties":{"mfg.":0,"total revenue":5056.3,"city":"Clinton","new contracts":"3481.7","firm":"fostER wHEElER aG","haz.waste":0,"indust.petro.":78,"gen. bldg.":0,"region":"NE","intl revenue":4401.6,"wtr.waste":0,"power":20,"rank":10,"com-at-risk.% of rev.":0,"id":"a6by55fgf6ej","lat":40.6367682,"long":-74.90989,"tele":0,"transp.":0,"state":"NJ"},"type":"Feature","geometry":{"type":"Point","coordinates":[-74.90989,40.6367682]}},{"properties":{"mfg.":0,"total revenue":484.7,"city":"oak Brook","new contracts":"517.6","firm":"GREat laKES DREDGE &amp; DocK coRp. llc","haz.waste":0,"indust.petro.":0,"gen. bldg.":0,"region":"NE","intl revenue":172.7,"wtr.waste":0,"power":0,"rank":106,"com-at-risk.% of rev.":0,"id":"a6by55c69rqb","lat":41.8397865,"long":-87.9535534,"tele":0,"transp.":100,"state":"IL"},"type":"Feature","geometry":{"type":"Point","coordinates":[-87.9535534,41.8397865]}},{"properties":{"mfg.":0,"total revenue":475.8,"city":"danvers","new contracts":"410","firm":"BERRy  a DiviSioN oF SuFFolK coNStRuctioN","haz.waste":0,"indust.petro.":0,"gen. bldg.":100,"region":"NE","intl revenue":22.8,"wtr.waste":0,"power":0,"rank":109,"com-at-risk.% of rev.":100,"id":"a6by55eeg4hc","lat":42.5750946,"long":-70.9300507,"tele":0,"transp.":0,"state":"MA"},"type":"Feature","geometry":{"type":"Point","coordinates":[-70.9300507,42.5750946]}},{"properties":{"mfg.":0,"total revenue":441.5,"city":"Mclean","new contracts":"334","firm":"coNtRacK iNtERNatioNal iNc.","haz.waste":0,"indust.petro.":0,"gen. bldg.":85,"region":"NE","intl revenue":441.5,"wtr.waste":0,"power":0,"rank":125,"com-at-risk.% of rev.":0,"id":"a6by558yu3ek","lat":38.9342776,"long":-77.1774801,"tele":0,"transp.":15,"state":"VA"},"type":"Feature","geometry":{"type":"Point","coordinates":[-77.1774801,38.9342776]}},{"properties":{"mfg.":0,"total revenue":416.0,"city":"new York","new contracts":"295","firm":"RailwoRKS coRp.","haz.waste":0,"indust.petro.":0,"gen. bldg.":0,"region":"NE","intl revenue":88.0,"wtr.waste":0,"power":0,"rank":138,"com-at-risk.% of rev.":0,"id":"a6by551z5ill","lat":40.7142691,"long":-74.0059729,"tele":0,"transp.":100,"state":"NY"},"type":"Feature","geometry":{"type":"Point","coordinates":[-74.0059729,40.7142691]}},{"properties":{"mfg.":15,"total revenue":395.0,"city":"Homewood","new contracts":"256","firm":"GRaycoR","haz.waste":0,"indust.petro.":51,"gen. bldg.":15,"region":"NE","intl revenue":1.3,"wtr.waste":0,"power":19,"rank":146,"com-at-risk.% of rev.":29,"id":"a6by5573kgx7","lat":41.5572567,"long":-87.6656014,"tele":0,"transp.":0,"state":"IL"},"type":"Feature","geometry":{"type":"Point","coordinates":[-87.6656014,41.5572567]}},{"properties":{"mfg.":0,"total revenue":371.0,"city":"Canonsburg","new contracts":"277","firm":"taGGaRt GloBal","haz.waste":0,"indust.petro.":8,"gen. bldg.":0,"region":"NE","intl revenue":84.0,"wtr.waste":0,"power":29,"rank":157,"com-at-risk.% of rev.":0,"id":"a6by55bva8rq","lat":40.2625702,"long":-80.1872797,"tele":0,"transp.":0,"state":"PA"},"type":"Feature","geometry":{"type":"Point","coordinates":[-80.1872797,40.2625702]}},{"properties":{"mfg.":0,"total revenue":325.7,"city":"west Chester","new contracts":"330","firm":"wEStoN SolutioNS iNc.","haz.waste":31,"indust.petro.":0,"gen. bldg.":65,"region":"NE","intl revenue":58.1,"wtr.waste":3,"power":0,"rank":188,"com-at-risk.% of rev.":16,"id":"a6by551zeyz8","lat":39.9606643,"long":-75.6054882,"tele":0,"transp.":0,"state":"PA"},"type":"Feature","geometry":{"type":"Point","coordinates":[-75.6054882,39.9606643]}},{"properties":{"mfg.":0,"total revenue":325.0,"city":"Red Bank","new contracts":"618","firm":"toRcoN iNc.","haz.waste":0,"indust.petro.":22,"gen. bldg.":72,"region":"NE","intl revenue":20.0,"wtr.waste":0,"power":0,"rank":189,"com-at-risk.% of rev.":75,"id":"a6by554tso9o","lat":40.3470543,"long":-74.0643065,"tele":0,"transp.":6,"state":"NJ"},"type":"Feature","geometry":{"type":"Point","coordinates":[-74.0643065,40.3470543]}},{"properties":{"mfg.":0,"total revenue":3135.5,"city":"Providence","new contracts":"3907.3","firm":"GilBaNE BuildiNG Co.","haz.waste":0,"indust.petro.":5,"gen. bldg.":91,"region":"NE","intl revenue":27.5,"wtr.waste":0,"power":0,"rank":19,"com-at-risk.% of rev.":96,"id":"a6by55b27ww4","lat":41.8239891,"long":-71.4128343,"tele":1,"transp.":3,"state":"RI"},"type":"Feature","geometry":{"type":"Point","coordinates":[-71.4128343,41.8239891]}},{"properties":{"mfg.":0,"total revenue":314.0,"city":"Minneapolis","new contracts":"230","firm":"KNutSoN coNStRuctioN SERvicES","haz.waste":0,"indust.petro.":16,"gen. bldg.":73,"region":"NE","intl revenue":30.0,"wtr.waste":1,"power":10,"rank":200,"com-at-risk.% of rev.":64,"id":"a6by55ew2xpi","lat":44.9799654,"long":-93.2638361,"tele":0,"transp.":0,"state":"MN"},"type":"Feature","geometry":{"type":"Point","coordinates":[-93.2638361,44.9799654]}},{"properties":{"mfg.":0,"total revenue":2731.7,"city":"new York","new contracts":"1713","firm":"stRuCtuRE toNE","haz.waste":0,"indust.petro.":3,"gen. bldg.":80,"region":"NE","intl revenue":73.9,"wtr.waste":0,"power":0,"rank":22,"com-at-risk.% of rev.":92,"id":"a6by55ekwmfg","lat":40.7142691,"long":-74.0059729,"tele":17,"transp.":0,"state":"NY"},"type":"Feature","geometry":{"type":"Point","coordinates":[-74.0059729,40.7142691]}},{"properties":{"mfg.":0,"total revenue":259.8,"city":"Springfield","new contracts":"105","firm":"thE DENNiS ENGiNEERiNG GRoup llc","haz.waste":0,"indust.petro.":100,"gen. bldg.":0,"region":"NE","intl revenue":20.9,"wtr.waste":0,"power":0,"rank":232,"com-at-risk.% of rev.":0,"id":"a6by55c8rrkq","lat":42.1014831,"long":-72.589811,"tele":0,"transp.":0,"state":"MA"},"type":"Feature","geometry":{"type":"Point","coordinates":[-72.589811,42.1014831]}},{"properties":{"mfg.":1,"total revenue":248.0,"city":"Cambridge","new contracts":"459","firm":"cDM","haz.waste":13,"indust.petro.":12,"gen. bldg.":17,"region":"NE","intl revenue":35.0,"wtr.waste":54,"power":2,"rank":240,"com-at-risk.% of rev.":3,"id":"a6by55d75axa","lat":42.3726399,"long":-71.1096528,"tele":0,"transp.":0,"state":"MA"},"type":"Feature","geometry":{"type":"Point","coordinates":[-71.1096528,42.3726399]}},{"properties":{"mfg.":0,"total revenue":227.9,"city":"niagara Falls","new contracts":"345.7","firm":"SEvENSoN ENviRoNMENtal SERvicES,","haz.waste":94,"indust.petro.":0,"gen. bldg.":0,"region":"NE","intl revenue":0.9,"wtr.waste":6,"power":0,"rank":257,"com-at-risk.% of rev.":0,"id":"a6by55040ep7","lat":43.0944999,"long":-79.0567111,"tele":0,"transp.":0,"state":"NY"},"type":"Feature","geometry":{"type":"Point","coordinates":[-79.0567111,43.0944999]}},{"properties":{"mfg.":5,"total revenue":205.0,"city":"Philadelphia","new contracts":"41","firm":"J.J. whitE iNc.","haz.waste":0,"indust.petro.":61,"gen. bldg.":12,"region":"NE","intl revenue":1.0,"wtr.waste":5,"power":15,"rank":282,"com-at-risk.% of rev.":5,"id":"a6by55b6x3uo","lat":39.952335,"long":-75.163789,"tele":2,"transp.":0,"state":"PA"},"type":"Feature","geometry":{"type":"Point","coordinates":[-75.163789,39.952335]}},{"properties":{"mfg.":0,"total revenue":1733.1,"city":"Boston","new contracts":"1228","firm":"suffolk CoNstRuCtioN Co. iNC.","haz.waste":0,"indust.petro.":0,"gen. bldg.":100,"region":"NE","intl revenue":22.8,"wtr.waste":0,"power":0,"rank":31,"com-at-risk.% of rev.":100,"id":"a6by54zkys2c","lat":42.3584308,"long":-71.0597732,"tele":0,"transp.":0,"state":"MA"},"type":"Feature","geometry":{"type":"Point","coordinates":[-71.0597732,42.3584308]}},{"properties":{"mfg.":100,"total revenue":140.7,"city":"Milwaukee","new contracts":"111","firm":"hK SyStEMS iNc.","haz.waste":0,"indust.petro.":0,"gen. bldg.":0,"region":"NE","intl revenue":2.4,"wtr.waste":0,"power":0,"rank":363,"com-at-risk.% of rev.":0,"id":"a6by558jzx4d","lat":43.0389025,"long":-87.9064736,"tele":0,"transp.":0,"state":"WI"},"type":"Feature","geometry":{"type":"Point","coordinates":[-87.9064736,43.0389025]}},{"properties":{"mfg.":65,"total revenue":139.0,"city":"Sterling Heights","new contracts":"113","firm":"RoNcElli iNc.","haz.waste":0,"indust.petro.":0,"gen. bldg.":35,"region":"NE","intl revenue":5.0,"wtr.waste":0,"power":0,"rank":367,"com-at-risk.% of rev.":40,"id":"a6by559tx398","lat":42.5803122,"long":-83.0302033,"tele":0,"transp.":0,"state":"MI"},"type":"Feature","geometry":{"type":"Point","coordinates":[-83.0302033,42.5803122]}},{"properties":{"mfg.":65,"total revenue":135.5,"city":"auburn Hills","new contracts":"129","firm":"coMMERcial coNtRactiNG GRoup","haz.waste":0,"indust.petro.":14,"gen. bldg.":18,"region":"NE","intl revenue":10.5,"wtr.waste":1,"power":2,"rank":369,"com-at-risk.% of rev.":0,"id":"a6by551lkkl1","lat":42.6875323,"long":-83.2341028,"tele":0,"transp.":0,"state":"MI"},"type":"Feature","geometry":{"type":"Point","coordinates":[-83.2341028,42.6875323]}},{"properties":{"mfg.":9,"total revenue":1246.9,"city":"Southfield","new contracts":"1553.7","firm":"BaRtoN Malow Co.","haz.waste":0,"indust.petro.":0,"gen. bldg.":47,"region":"NE","intl revenue":11.2,"wtr.waste":0,"power":44,"rank":38,"com-at-risk.% of rev.":8,"id":"a6by55a8grop","lat":42.4733688,"long":-83.2218731,"tele":0,"transp.":0,"state":"MI"},"type":"Feature","geometry":{"type":"Point","coordinates":[-83.2218731,42.4733688]}},{"properties":{"mfg.":0,"total revenue":125.0,"city":"englewood","new contracts":"na","firm":"Nova coRp.","haz.waste":0,"indust.petro.":0,"gen. bldg.":0,"region":"NE","intl revenue":6.0,"wtr.waste":0,"power":0,"rank":385,"com-at-risk.% of rev.":47,"id":"a6by55dqw2xx","lat":40.8928771,"long":-73.9726381,"tele":99,"transp.":0,"state":"NJ"},"type":"Feature","geometry":{"type":"Point","coordinates":[-73.9726381,40.8928771]}},{"properties":{"mfg.":0,"total revenue":121.4,"city":"danbury","new contracts":"112.1","firm":"thE MoRGaNti GRoup iNc.","haz.waste":0,"indust.petro.":0,"gen. bldg.":97,"region":"NE","intl revenue":21.1,"wtr.waste":0,"power":0,"rank":389,"com-at-risk.% of rev.":81,"id":"a6by5513ch1w","lat":41.394817,"long":-73.4540111,"tele":0,"transp.":3,"state":"CT"},"type":"Feature","geometry":{"type":"Point","coordinates":[-73.4540111,41.394817]}},{"properties":{"mfg.":0,"total revenue":119.4,"city":"evansville","new contracts":"310.7","firm":"FRoNtiER-KEMpER coNStRuctoRS iNc.","haz.waste":0,"indust.petro.":0,"gen. bldg.":0,"region":"NE","intl revenue":16.9,"wtr.waste":49,"power":3,"rank":391,"com-at-risk.% of rev.":0,"id":"a6by55d4ecc1","lat":37.9747644,"long":-87.5558482,"tele":0,"transp.":3,"state":"IN"},"type":"Feature","geometry":{"type":"Point","coordinates":[-87.5558482,37.9747644]}},{"properties":{"mfg.":0,"total revenue":8820.0,"city":"omaha","new contracts":"11713.2","firm":"kiEwit CoRp.","haz.waste":0,"indust.petro.":20,"gen. bldg.":11,"region":"NE","intl revenue":1913.0,"wtr.waste":12,"power":27,"rank":4,"com-at-risk.% of rev.":6,"id":"a6by555290tk","lat":41.254006,"long":-95.999258,"tele":0,"transp.":28,"state":"NE"},"type":"Feature","geometry":{"type":"Point","coordinates":[-95.999258,41.254006]}},{"properties":{"mfg.":0,"total revenue":1156.5,"city":"Philadelphia","new contracts":"77.5","firm":"day &amp; ZiMMERMaNN","haz.waste":0,"indust.petro.":6,"gen. bldg.":2,"region":"NE","intl revenue":9.3,"wtr.waste":0,"power":92,"rank":44,"com-at-risk.% of rev.":0,"id":"a6by553uhuvd","lat":39.952335,"long":-75.163789,"tele":0,"transp.":0,"state":"PA"},"type":"Feature","geometry":{"type":"Point","coordinates":[-75.163789,39.952335]}},{"properties":{"mfg.":3,"total revenue":1116.5,"city":"Brownsville","new contracts":"1116.5","firm":"MiCHEls CoRp.","haz.waste":0,"indust.petro.":67,"gen. bldg.":0,"region":"NE","intl revenue":34.7,"wtr.waste":7,"power":10,"rank":45,"com-at-risk.% of rev.":0,"id":"a6by557e9ffc","lat":43.6163809,"long":-88.4906592,"tele":6,"transp.":7,"state":"WI"},"type":"Feature","geometry":{"type":"Point","coordinates":[-88.4906592,43.6163809]}},{"properties":{"mfg.":30,"total revenue":961.9,"city":"detroit","new contracts":"1020","firm":"walBRidGE","haz.waste":0,"indust.petro.":5,"gen. bldg.":50,"region":"NE","intl revenue":84.0,"wtr.waste":4,"power":2,"rank":50,"com-at-risk.% of rev.":22,"id":"a6by555kuj43","lat":42.331427,"long":-83.0457538,"tele":0,"transp.":9,"state":"MI"},"type":"Feature","geometry":{"type":"Point","coordinates":[-83.0457538,42.331427]}},{"properties":{"mfg.":0,"total revenue":630.6,"city":"Boston","new contracts":"352.7","firm":"ShawMut DESiGN aND coNStRuctioN","haz.waste":0,"indust.petro.":0,"gen. bldg.":100,"region":"NE","intl revenue":17.1,"wtr.waste":0,"power":0,"rank":77,"com-at-risk.% of rev.":0,"id":"a6by554cur5x","lat":42.3584308,"long":-71.0597732,"tele":0,"transp.":0,"state":"MA"},"type":"Feature","geometry":{"type":"Point","coordinates":[-71.0597732,42.3584308]}},{"properties":{"mfg.":0,"total revenue":588.4,"city":"Coraopolis","new contracts":"215.9","firm":"aMERicaN BRiDGE co.","haz.waste":0,"indust.petro.":0,"gen. bldg.":0,"region":"NE","intl revenue":55.2,"wtr.waste":0,"power":0,"rank":82,"com-at-risk.% of rev.":0,"id":"a6by553c10c9","lat":40.5184013,"long":-80.1667247,"tele":0,"transp.":100,"state":"PA"},"type":"Feature","geometry":{"type":"Point","coordinates":[-80.1667247,40.5184013]}},{"properties":{"mfg.":0,"total revenue":548.7,"city":"Cranford","new contracts":"611","firm":"wEEKS MaRiNE iNc.","haz.waste":0,"indust.petro.":3,"gen. bldg.":0,"region":"NE","intl revenue":3.1,"wtr.waste":0,"power":0,"rank":89,"com-at-risk.% of rev.":0,"id":"a6by552k9mht","lat":40.6584358,"long":-74.2995923,"tele":0,"transp.":97,"state":"NJ"},"type":"Feature","geometry":{"type":"Point","coordinates":[-74.2995923,40.6584358]}},{"properties":{"mfg.":0,"total revenue":542.0,"city":"Pittsburgh","new contracts":"361","firm":"DcK woRlDwiDE llc","haz.waste":0,"indust.petro.":3,"gen. bldg.":79,"region":"NE","intl revenue":92.0,"wtr.waste":0,"power":0,"rank":92,"com-at-risk.% of rev.":0,"id":"a6by552lostj","lat":40.4406248,"long":-79.9958864,"tele":0,"transp.":18,"state":"PA"},"type":"Feature","geometry":{"type":"Point","coordinates":[-79.9958864,40.4406248]}}],"is_temporal":false,"author":{"url":"","metadata":"","contact_name":"","contact_address":"","source":"","contact_phone":""},"source":"","pagination":{"sort":null,"start":0,"total":32,"limit":1000000},"state":"complete","tags":"enr","published":"2010-05-26T17:27:37Z","id":54031}