{"type":"FeatureCollection","data_type":"Dataset","url_type":null,"permissions":[{"permissions":{"download":true,"view":true},"group_id":"everyone"}],"classification":null,"title":"Marks &amp; Spencer, Marks &amp; Spencer Retail Locations, India, 2008","count":13,"stream_id":5450,"contributor":{"url":"http://geocommons.com/users/143","name":"jennifer"},"data_attributes":null,"calculation_params":null,"icon_link":null,"link":"http://geocommons.com/overlays/5450.json","extent":[72.9256,12.9751,88.3579,28.6129],"geometry_types":["point"],"unique_name":null,"name":"Marks & Spencer, Marks & Spencer Retail Locations, India, 2008","feature_count":13,"description":"","next_feature":null,"is_raster":false,"short_classification":"Y","stats":{"latitude":{"max":28.61286,"mean":21.4243376923077,"variance":41.8639635717692,"stdev":6.47023674773723,"min":12.97509,"median":19.14672},"code":{"max":700020,"mean":368976.0,"variance":45089220300.5,"stdev":212342.224487971,"min":110027,"median":400104},"longitude":{"max":88.35792,"mean":77.5263672307692,"variance":15.1630397284785,"stdev":3.89397479813089,"min":72.92556,"median":77.2311}},"features":[{"properties":{"company":"Marks &amp; Spencer","city":"Bangalore","latitude":13.01597,"code":560045,"country":"India","shoppingcenter":"Garuda Mall","street":"Magarath Road","longitude":77.621246,"id":"a63dhpw9aydw"},"type":"Feature","geometry":{"type":"Point","coordinates":[77.621246,13.01597]}},{"properties":{"company":"Marks &amp; Spencer","city":"Bangalore","latitude":12.97509,"code":560008,"country":"India","shoppingcenter":"Lido Mall","street":"MG Road","longitude":77.624474,"id":"a63dhprwcj7g"},"type":"Feature","geometry":{"type":"Point","coordinates":[77.624474,12.97509]}},{"properties":{"company":"Marks &amp; Spencer","city":"Chennai","latitude":13.05081,"code":600034,"country":"India","shoppingcenter":"H.M. Center","street":"Nungambakkam High Road","longitude":80.22627,"id":"a63dhpwxo8wh"},"type":"Feature","geometry":{"type":"Point","coordinates":[80.22627,13.05081]}},{"properties":{"company":"Marks &amp; Spencer","city":"Delhi","latitude":28.61286,"code":110027,"country":"India","shoppingcenter":"Westgate Mall","street":"Shivaji Place, Raja Garden","longitude":77.2311,"id":"a63dhplxvrz7"},"type":"Feature","geometry":{"type":"Point","coordinates":[77.2311,28.61286]}},{"properties":{"company":"Marks &amp; Spencer","city":"Delhi","latitude":28.61286,"code":110049,"country":"India","shoppingcenter":"Ansal Plaza","street":"Khelgaon Marg","longitude":77.2311,"id":"a63dhphgulc9"},"type":"Feature","geometry":{"type":"Point","coordinates":[77.2311,28.61286]}},{"properties":{"company":"Marks &amp; Spencer","city":"Gurgaon","latitude":28.44832,"code":122002,"country":"India","shoppingcenter":"Ambience Mall","street":"National Highway 8","longitude":77.020973,"id":"a63dhptcrzfy"},"type":"Feature","geometry":{"type":"Point","coordinates":[77.020973,28.44832]}},{"properties":{"company":"Marks &amp; Spencer","city":"Gurgaon","latitude":28.4786,"code":122002,"country":"India","shoppingcenter":"MGF Metropolitan Mall","street":"Mehrauli Gurgaon Road","longitude":77.02715,"id":"a63dhpjexzkc"},"type":"Feature","geometry":{"type":"Point","coordinates":[77.02715,28.4786]}},{"properties":{"company":"Marks &amp; Spencer","city":"Hyderabad","latitude":17.41744,"code":500082,"country":"India","shoppingcenter":"Hyderabad Central","street":"Panjagutta Crossing, Panjagutta","longitude":78.464691,"id":"a63dhpq6nyz2"},"type":"Feature","geometry":{"type":"Point","coordinates":[78.464691,17.41744]}},{"properties":{"company":"Marks &amp; Spencer","city":"Kolkata","latitude":22.56763,"code":700020,"country":"India","shoppingcenter":"Avani Heights","street":"Chowringee","longitude":88.35792,"id":"a63dhpoyylk2"},"type":"Feature","geometry":{"type":"Point","coordinates":[88.35792,22.56763]}},{"properties":{"company":"Marks &amp; Spencer","city":"Mumbai","latitude":19.14672,"code":400013,"country":"India","shoppingcenter":"High Street Phoenix","street":"Skyzone, SenapatI Bapat, Lower Parel","longitude":72.92556,"id":"a63dhpii6s3k"},"type":"Feature","geometry":{"type":"Point","coordinates":[72.92556,19.14672]}},{"properties":{"company":"Marks &amp; Spencer","city":"Mumbai","latitude":19.14672,"code":400104,"country":"India","shoppingcenter":"Inorbit Mall","street":"Link Road, Malad (W)","longitude":72.92556,"id":"a63dhpkoascy"},"type":"Feature","geometry":{"type":"Point","coordinates":[72.92556,19.14672]}},{"properties":{"company":"Marks &amp; Spencer","city":"Noida","latitude":28.58021,"code":201301,"country":"India","shoppingcenter":"Great India Place","street":"Plot No. A2, Sector 38","longitude":77.31942,"id":"a63dhppu4f0u"},"type":"Feature","geometry":{"type":"Point","coordinates":[77.31942,28.58021]}},{"properties":{"company":"Marks &amp; Spencer","city":"Pune","latitude":18.46316,"code":411001,"country":"India","shoppingcenter":"Kakde Magnum Mall","street":"Moldina Road Camp","longitude":73.86731,"id":"a63dhplvrdg7"},"type":"Feature","geometry":{"type":"Point","coordinates":[73.86731,18.46316]}}],"is_temporal":false,"author":{"url":"http://www.marksandspencer.com","metadata":"","contact_name":"","contact_address":"","source":"Marks & Spencer Corporate Website","contact_phone":""},"source":"http://www.marksandspencer.com","pagination":{"sort":null,"start":0,"total":13,"limit":1000000},"state":"complete","tags":"&,india,international,marks,retail,shopping,spencer,store","published":"2014-08-11T06:00:00-04:00","id":5450}