{"type":"FeatureCollection","data_type":"Dataset","url_type":null,"permissions":[{"permissions":{"download":true,"view":true},"group_id":"everyone"}],"classification":null,"title":"Opensites&amp;nbsp;Map&amp;nbsp;Jun10","count":36,"stream_id":54668,"contributor":{"url":"http://geocommons.com/users/13775","name":"nkabat"},"data_attributes":null,"calculation_params":null,"icon_link":null,"link":"http://geocommons.com/overlays/54668.json","extent":[-88.3695,42.8579,-87.8576,43.4232],"geometry_types":["point"],"unique_name":null,"name":"Opensites&nbsp;Map&nbsp;Jun10","feature_count":36,"description":"","next_feature":null,"is_raster":false,"short_classification":"Y","stats":{"geo_score":{"max":1.0,"mean":0.691861111111111,"variance":0.0384781801587302,"stdev":0.196158558719038,"min":0.306,"median":0.625}},"features":[{"properties":{"city":"Milwaukee","name":"Agape Community Center","zip":"53209","geo_score":0.522,"id":"a74f3t5oshat","geo_precision":"street","address":"6100 N. 42nd St.","coordinator":"Kasandra Tarkington","state":"WI","open":"1st Thursday: 12:30 pm - 1:30 pm"},"type":"Feature","geometry":{"type":"Point","coordinates":[-87.965188,43.097307]}},{"properties":{"city":"Milwaukee","name":"Beulah Brinton Senior Center","zip":"53207","geo_score":0.643,"id":"a74f3t76npdp","geo_precision":"street","address":"2555 S. Bay Street","coordinator":"Rose","state":"WI","open":"4th Wednesday: 9:00 am - 10:00 am"},"type":"Feature","geometry":{"type":"Point","coordinates":[-87.90378,43.005852]}},{"properties":{"city":"Milwaukee","name":"Central City Churches Outreach Ministry","zip":"53208","geo_score":0.604,"id":"a74f3t1cgg8p","geo_precision":"street","address":"3022 W. Wisconsin Ave.","coordinator":"Alicia Ellis","state":"WI","open":"Monday - Thursday: 9:30 am - 2:30 pm"},"type":"Feature","geometry":{"type":"Point","coordinates":[-87.947717,43.0387]}},{"properties":{"city":"Milwaukee","name":"Church of Good Hope","zip":"53224","geo_score":0.947,"id":"a74f3t6styyk","geo_precision":"range","address":"8700 W Good Hope","coordinator":"Vicki Wisthus","state":"WI","open":"3rd Friday: 10:00 am - 11:30 am"},"type":"Feature","geometry":{"type":"Point","coordinates":[-88.020228,43.148658]}},{"properties":{"city":"Greenfield","name":"City of Greenfield - Parks &amp; Recreation","zip":"53220","geo_score":0.602,"id":"a74f3t2p9m6y","geo_precision":"street","address":"7325 W. Forest Home","coordinator":"Karen Malecki","state":"WI","open":"1st Thursday : 2:00 pm - 3:00 pm"},"type":"Feature","geometry":{"type":"Point","coordinates":[-87.980859,42.981154]}},{"properties":{"city":"West Allis","name":"City of West Allis Senior Center","zip":"53214","geo_score":0.519,"id":"a74f3t7snsld","geo_precision":"street","address":"7001 W. National Ave","coordinator":"Denise Koenig","state":"WI","open":"2nd Tuesday: 1:00 pm - 2:00 pm"},"type":"Feature","geometry":{"type":"Point","coordinates":[-87.968646,43.020828]}},{"properties":{"city":"Milwaukee","name":"Clinton Rose Senior Center","zip":"53212","geo_score":0.339,"id":"a74f3t9hkmjr","geo_precision":"street","address":"3045 N. Dr. Martin Luther Kind Dr.","coordinator":"Carolyne Archie","state":"WI","open":"1st Thursday: 11:00 am - 12:00 pm"},"type":"Feature","geometry":{"type":"Point","coordinates":[-87.857548,42.973665]}},{"properties":{"city":"Milwaukee","name":"Elk's Lodge","zip":"53223","geo_score":0.625,"id":"a74f3tbfbeou","geo_precision":"street","address":"5555 W. Good Hope Rd.","coordinator":"Barbara Miller","state":"WI","open":"3rd Thursday: 11:30 am - 12:30 pm"},"type":"Feature","geometry":{"type":"Point","coordinates":[-87.999879,43.139348]}},{"properties":{"city":"Milwaukee","name":"Family Life-CSFP","zip":"53154","geo_score":0.913,"id":"a74f3t57goj9","geo_precision":"range","address":"1441 West Oakwood Road","coordinator":"Debby Pizur","state":"WI","open":"Tuesdays &amp; Thursdays: 3:30 pm - 5:00 pm (Tues.) 9:00 am - 12:00 pm (Thurs.)"},"type":"Feature","geometry":{"type":"Point","coordinates":[-87.934539,42.857883]}},{"properties":{"city":"Waukesha","name":"Food Pantry of Waukesha County","zip":"53188","geo_score":0.854,"id":"a74f3t3lj7he","geo_precision":"range","address":"215 West North Street","coordinator":"Karen Tredwell","state":"WI","open":"Monday - Saturday: 1:00 pm - 3:00 pm (Mon. - Fri.); 6:00 pm - 8:00 pm (Thurs.); 9:00 am - 11:00 am (Sat.)"},"type":"Feature","geometry":{"type":"Point","coordinates":[-88.237297,43.011943]}},{"properties":{"city":"West Bend","name":"Fully Shelf Food Pantry of West Bend","zip":"53095","geo_score":0.911,"id":"a74f3t7fmnff","geo_precision":"range","address":"231 Municipal Drive","coordinator":"Diane Schaejbe","state":"WI","open":"Monday - Friday: 4:15 pm - 5:30 pm"},"type":"Feature","geometry":{"type":"Point","coordinates":[-88.150412,43.423176]}},{"properties":{"city":"Milwaukee","name":"Greentree-Teutonia Apartments","zip":"53209","geo_score":0.496,"id":"a74f3t68jfqb","geo_precision":"street","address":"3744 W. Greentree Rd.","coordinator":"Vicki Davidson","state":"WI","open":"1st Friday: 1:00 pm - 3:00 pm"},"type":"Feature","geometry":{"type":"Point","coordinates":[-87.926161,43.142877]}},{"properties":{"city":"Wauwatosa","name":"Hart Park Senior Center &amp; Nutrition site","zip":"53213","geo_score":0.779,"id":"a74f3t15heig","geo_precision":"street","address":"7300 Chestnut St","coordinator":"Merry Noel Johnson","state":"WI","open":"4th Thursday: 12:30 pm - 1:30 pm"},"type":"Feature","geometry":{"type":"Point","coordinates":[-88.012474,43.046041]}},{"properties":{"city":"Milwaukee","name":"House of Peace-CSFP","zip":"53205","geo_score":0.619,"id":"a74f3tav3n7i","geo_precision":"street","address":"1702 W. Walnut St.","coordinator":"Dominique McGhee","state":"WI","open":"Monday - Friday: 9:00 am - 12:00 pm &amp; 1:00 pm - 4:00 pm"},"type":"Feature","geometry":{"type":"Point","coordinates":[-87.914299,43.052555]}},{"properties":{"city":"Jackson","name":"Jackson Area Community Center","zip":"53037","geo_score":0.351,"id":"a74f3syrfqci","geo_precision":"street","address":"N165 W20330 Hickory Lane","coordinator":"Renee Fisher","state":"WI","open":"3rd Tuesday: 10:00 am - 11:00 am"},"type":"Feature","geometry":{"type":"Point","coordinates":[-88.157179,43.319233]}},{"properties":{"city":"Milwaukee","name":"Jewish Community Center","zip":"53210","geo_score":0.61,"id":"a74f3szmon12","geo_precision":"street","address":"3033 W. Burleigh St.","coordinator":null,"state":"WI","open":"Thursdays: 11:30 am - 3:30 pm"},"type":"Feature","geometry":{"type":"Point","coordinates":[-87.947293,43.07523]}},{"properties":{"city":"Milwaukee","name":"McGovern Park-CSFP","zip":"53218","geo_score":0.614,"id":"a74f3t9qlm3o","geo_precision":"street","address":"4500 W. Custer Ave.","coordinator":"Linda Batzler","state":"WI","open":"4th Thursday: 12:00 pm - 1:00 pm"},"type":"Feature","geometry":{"type":"Point","coordinates":[-87.966346,43.115626]}},{"properties":{"city":"Menomonee Falls","name":"Menomonee Falls Community Center","zip":"53051","geo_score":0.306,"id":"a74f3tbr17h7","geo_precision":"street","address":"W152 N8645 Margaret Rd.","coordinator":null,"state":"WI","open":"3rd Thursday: 12:45 pm - 1:45 pm"},"type":"Feature","geometry":{"type":"Point","coordinates":[-88.099745,43.176615]}},{"properties":{"city":"Milwaukee","name":"Milwaukee Christian Center","zip":"53204","geo_score":0.602,"id":"a74f3t1krm32","geo_precision":"street","address":"2137 W. Greenfield Ave.","coordinator":"Leslie Luther","state":"WI","open":"Tuesday and Thursday: 9:00 am - 12:00 pm"},"type":"Feature","geometry":{"type":"Point","coordinates":[-87.911232,43.017053]}},{"properties":{"city":"Mukwonago","name":"Mukwonago Food Pantry-CSFP","zip":"53149","geo_score":0.902,"id":"a74f3t9bj1kq","geo_precision":"range","address":"325 Eagle Lake Ave","coordinator":"Cynthia Eggleston","state":"WI","open":"Last Friday: 11:00 am - 1:00 pm"},"type":"Feature","geometry":{"type":"Point","coordinates":[-88.339614,42.867002]}},{"properties":{"city":"Milwaukee","name":"Northcott Neighborhood House","zip":"53212","geo_score":0.643,"id":"a74f3sx7b7p1","geo_precision":"street","address":"2460 N. 6th St.","coordinator":"Adriane Griffin","state":"WI","open":"Monday - Friday: 10:00 am - 2:00 pm"},"type":"Feature","geometry":{"type":"Point","coordinates":[-87.918551,43.031496]}},{"properties":{"city":"Milwaukee","name":"Northwest Baptist Church-CSFP","zip":"53222","geo_score":0.916,"id":"a74f3t8n1txl","geo_precision":"range","address":"4353 North 92nd St.","coordinator":"Robin Lewis","state":"WI","open":"Wednesdays: 4:00 pm - 7:00 pm"},"type":"Feature","geometry":{"type":"Point","coordinates":[-88.027652,43.096086]}},{"properties":{"city":"Milwaukee","name":"Oasis","zip":"53214","geo_score":0.566,"id":"a74f3sy0pm1w","geo_precision":"street","address":"2414 W. Mitchell St.","coordinator":"Randy Kohl","state":"WI","open":"1st Friday: 9:00 am - 1:00 pm"},"type":"Feature","geometry":{"type":"Point","coordinates":[-87.968713,43.012261]}},{"properties":{"city":"Cudahy","name":"Project Concern of Cudahy-CSFP","zip":"53110","geo_score":0.607,"id":"a74f3t6mjdtn","geo_precision":"street","address":"4611 S. Kirkwood","coordinator":"Dick Bushmann","state":"WI","open":"Mondays and Wednesdays: 9:00 am - 12:00 pm"},"type":"Feature","geometry":{"type":"Point","coordinates":[-87.857587,42.966392]}},{"properties":{"city":"Hartford","name":"Senior Friends Hartford Senior Center","zip":"53027","geo_score":0.925,"id":"a74f3t0jvp6i","geo_precision":"range","address":"730 Highland Ave","coordinator":"Evelyn fritche","state":"WI","open":"2nd Wednesday: 1:00 pm - 2:00 pm"},"type":"Feature","geometry":{"type":"Point","coordinates":[-88.369518,43.323159]}},{"properties":{"city":"Milwaukee","name":"Silver Spring Neighborhood Center","zip":"53218","geo_score":0.633,"id":"a74f3t7eoyv4","geo_precision":"street","address":"5421 N. 64th St.","coordinator":"April Gross","state":"WI","open":"Fridays: 1:00 pm - 3:00 pm"},"type":"Feature","geometry":{"type":"Point","coordinates":[-87.991898,43.09726]}},{"properties":{"city":"South Milwaukee","name":"South Milwaukee Human Concerns","zip":"53172","geo_score":1.0,"id":"a74f3t84kxvr","geo_precision":"range","address":"1029 Milwaukee Ave.","coordinator":"Kris Schell","state":"WI","open":"Monday, Tuesday, Thursday, Friday: 1:00 pm - 3:00 pm (Mon. &amp; Thurs.); 10:00 am - 12:00 pm (Tues., Thurs., Fri.)"},"type":"Feature","geometry":{"type":"Point","coordinates":[-87.86123,42.910697]}},{"properties":{"city":"South Milwaukee","name":"South Milwaukee Senior Center","zip":"53172","geo_score":0.916,"id":"a74f3t2diqew","geo_precision":"range","address":"2424 15th Ave","coordinator":"Sandra Quinlan","state":"WI","open":"4th Tuesday: 10:30 am - 11:30 am"},"type":"Feature","geometry":{"type":"Point","coordinates":[-87.871736,42.907661]}},{"properties":{"city":"Milwaukee","name":"St. Hyacinth-CSFP","zip":"53215","geo_score":0.619,"id":"a74f3t9ew1xd","geo_precision":"street","address":"1414 W. Becher","coordinator":"James Luther","state":"WI","open":"Wednesdays: 4:00 pm - 6:00 pm"},"type":"Feature","geometry":{"type":"Point","coordinates":[-87.918697,43.006472]}},{"properties":{"city":"Franklin","name":"St. James Catholic Food Pantry-CSFP","zip":"53132","geo_score":0.526,"id":"a74f3tcx6kvc","geo_precision":"street","address":"7219 S. 27th St.","coordinator":"Frank Levar","state":"WI","open":"Fridays: 9:00 am - 11:30 pm (3rd Friday open 5:00 pm - 7:00 pm)"},"type":"Feature","geometry":{"type":"Point","coordinates":[-87.949381,42.930372]}},{"properties":{"city":"Milwaukee","name":"United Community Center - Senior Center","zip":"53204","geo_score":0.643,"id":"a74f3sz6ys2e","geo_precision":"street","address":"1028 S. 9th St.","coordinator":"Deyanira Rodriguez","state":"WI","open":"2nd Tuesday:"},"type":"Feature","geometry":{"type":"Point","coordinates":[-87.922533,43.026185]}},{"properties":{"city":"Milwaukee","name":"United Methodist Children Services Food Pantry","zip":"53208","geo_score":0.614,"id":"a74f3t6qhdrs","geo_precision":"street","address":"3940 W. Lisbon Ave.","coordinator":"Ameenah Joiner","state":"WI","open":"Tuesdays: 9:00 am - 11:00 pm"},"type":"Feature","geometry":{"type":"Point","coordinates":[-87.942724,43.052718]}},{"properties":{"city":"Milwaukee","name":"United Southside Food Pantry-CSFP","zip":"53204","geo_score":0.614,"id":"a74f3t9kxoso","geo_precision":"street","address":"209 W. Orchard Street","coordinator":"Stephanie Saniter","state":"WI","open":"Tuesdays, Thursdays, Saturdays: 10:00 am - 12:00 pm (Tues. &amp; Sat.); 12:30 pm - 2:30 pm (Thurs.)"},"type":"Feature","geometry":{"type":"Point","coordinates":[-87.911194,43.016045]}},{"properties":{"city":"Milwaukee","name":"Unity Missionary Baptist Church","zip":"53216","geo_score":1.0,"id":"a74f3tcubx8y","geo_precision":"range","address":"3835 W Fond du Lac Ave","coordinator":"Pat Johnson","state":"WI","open":"Mondays and Wednesdays: 2:00 pm - 4:00 pm"},"type":"Feature","geometry":{"type":"Point","coordinates":[-87.961219,43.078162]}},{"properties":{"city":"Milwaukee","name":"Washington Park","zip":"53208","geo_score":0.927,"id":"a74f3t6ibrpz","geo_precision":"range","address":"4420 W Vliet","coordinator":"Lorrie Kolinski","state":"WI","open":"4th Friday : 10:00 am - 11:00 am"},"type":"Feature","geometry":{"type":"Point","coordinates":[-87.969594,43.048802]}},{"properties":{"city":"Milwaukee","name":"Wilson Park Senior Center","zip":"53221","geo_score":1.0,"id":"a74f3tcl2gzu","geo_precision":"range","address":"2601 W Howard Ave","coordinator":"Dawn Sampson","state":"WI","open":"3rd Tuesday: 10:00 am - 11:00 pm"},"type":"Feature","geometry":{"type":"Point","coordinates":[-87.946569,42.973921]}}],"is_temporal":false,"author":{"url":"","metadata":"","contact_name":"","contact_address":"","source":"","contact_phone":""},"source":"","pagination":{"sort":null,"start":0,"total":36,"limit":1000000},"state":"complete","tags":"","published":"2014-08-10T14:59:01-04:00","id":54668}