{"type":"FeatureCollection","data_type":"Dataset","url_type":null,"permissions":[{"permissions":{"download":true,"view":true},"group_id":"everyone"}],"classification":null,"title":"NorthWest AE B","count":31,"stream_id":54662,"contributor":{"url":"http://geocommons.com/users/13366","name":"Locc150"},"data_attributes":null,"calculation_params":null,"icon_link":null,"link":"http://geocommons.com/overlays/54662.json","extent":[-157.932,21.2892,-115.168,61.2166],"geometry_types":["point"],"unique_name":null,"name":"NorthWest AE B","feature_count":31,"description":"","next_feature":null,"is_raster":false,"short_classification":"Y","stats":{"geo_score":{"max":1.0,"mean":0.772096774193548,"variance":0.050124623655914,"stdev":0.22388529128979,"min":0.0,"median":0.847},"ytd 2009":{"max":40797.62,"mean":17677.9951612903,"variance":73300267.2685591,"stdev":8561.55752585703,"min":6169.09,"median":17472.43},"store #":{"max":706,"mean":128.516129032258,"variance":29247.1247311828,"stdev":171.017907633039,"min":1,"median":42}},"features":[{"properties":{"account coordinator":"Ashanda","name":"Downtown Seattle / WA","city":"Seattle","zipcode":"98101-1742","district":"NorthWest AE","geo_score":1.0,"ytd 2009":25473.02,"store #":1,"id":"a6cky3n90fu1","geo_precision":"range","group":"Nordstrom","address":"500 Pine St","state":"WA"},"type":"Feature","geometry":{"type":"Point","coordinates":[-122.336486,47.61167]}},{"properties":{"account coordinator":"Ashanda","name":"Alderwood / WA","city":"Lynnwood","zipcode":"98037","district":"NorthWest AE","geo_score":1.0,"ytd 2009":12467.3,"store #":10,"id":"a6cky3y5fmd8","geo_precision":"range","group":"Nordstrom","address":"3200 184th St SW","state":"WA"},"type":"Feature","geometry":{"type":"Point","coordinates":[-122.276426,47.831945]}},{"properties":{"account coordinator":"Ashanda","name":null,"city":"Honolulu","zipcode":"96814","district":"NorthWest AE","geo_score":0.927,"ytd 2009":37686.83,"store #":100,"id":"a6cky3yn2hzd","geo_precision":"range","group":"Sephora","address":"1450 Ala Moana Blvd.","state":"HI"},"type":"Feature","geometry":{"type":"Point","coordinates":[-157.841897,21.289188]}},{"properties":{"account coordinator":"Katie","name":null,"city":"LasVegas","zipcode":"89119","district":"NorthWest AE","geo_score":0.977,"ytd 2009":23891.72,"store #":114,"id":"a6cky3sm4so6","geo_precision":"range","group":"Sephora","address":"6671 Las Vegas Blvd.","state":"NV"},"type":"Feature","geometry":{"type":"Point","coordinates":[-115.172379,36.067802]}},{"properties":{"account coordinator":"Ashanda","name":"Anchorage / AK","city":"Anchorage","zipcode":"99501-3591","district":"NorthWest AE","geo_score":0.924,"ytd 2009":22904.43,"store #":12,"id":"a6cky3uc47vt","geo_precision":"range","group":"Nordstrom","address":"603 D St","state":"AK"},"type":"Feature","geometry":{"type":"Point","coordinates":[-149.889404,61.216561]}},{"properties":{"account coordinator":"Ashanda","name":null,"city":"Aiea","zipcode":"96701","district":"NorthWest AE","geo_score":0.847,"ytd 2009":17614.69,"store #":122,"id":"a6cky3zpha52","geo_precision":"range","group":"Sephora","address":"98-1005 Moanalua Rd","state":"HI"},"type":"Feature","geometry":{"type":"Point","coordinates":[-157.931553,21.381044]}},{"properties":{"account coordinator":"Ashanda","name":null,"city":"Boise","zipcode":"83704","district":"NorthWest AE","geo_score":0.87,"ytd 2009":18852.73,"store #":142,"id":"a6cky3pqax7h","geo_precision":"range","group":"Sephora","address":"350 North Milwaukee","state":"ID"},"type":"Feature","geometry":{"type":"Point","coordinates":[-116.282081,43.607182]}},{"properties":{"account coordinator":"Ashanda","name":null,"city":"Seattle","zipcode":"98188","district":"NorthWest AE","geo_score":0.642,"ytd 2009":17472.43,"store #":156,"id":"a6cky3trdiis","geo_precision":"street","group":"Sephora","address":"616 Southcenter Mall","state":"WA"},"type":"Feature","geometry":{"type":"Point","coordinates":[-122.312787,47.465675]}},{"properties":{"account coordinator":"Ashanda","name":null,"city":"Portland","zipcode":"97223","district":"NorthWest AE","geo_score":0.857,"ytd 2009":21064.33,"store #":192,"id":"a6cky3p6ss75","geo_precision":"range","group":"Sephora","address":"9329 SW Washington Sq Rd","state":"OR"},"type":"Feature","geometry":{"type":"Point","coordinates":[-122.765973,45.452533]}},{"properties":{"account coordinator":"Ashanda","name":null,"city":"Lynwood","zipcode":"98037","district":"NorthWest AE","geo_score":0.457,"ytd 2009":9781.11,"store #":194,"id":"a6cky3z0yz8b","geo_precision":"street","group":"Sephora","address":"3000 184 St. SW","state":"WA"},"type":"Feature","geometry":{"type":"Point","coordinates":[-122.207079,47.285187]}},{"properties":{"account coordinator":"Ashanda","name":null,"city":"Bellevue","zipcode":"98004","district":"NorthWest AE","geo_score":0.551,"ytd 2009":20017.13,"store #":198,"id":"a6cky40u77ap","geo_precision":"street","group":"Sephora","address":"141 Bellevue Square","state":"ID"},"type":"Feature","geometry":{"type":"Point","coordinates":[-122.208362,47.609172]}},{"properties":{"account coordinator":"Ashanda","name":"Northgate / WA","city":"Seattle","zipcode":"98125-8523","district":"NorthWest AE","geo_score":0.827,"ytd 2009":12717.64,"store #":2,"id":"a6cky3q1b55s","geo_precision":"range","group":"Nordstrom","address":"401 NE Northgate Way Spc 715","state":"WA"},"type":"Feature","geometry":{"type":"Point","coordinates":[-122.324941,47.708601]}},{"properties":{"account coordinator":"Ashanda","name":"Downtown Portland / OR","city":"Portland","zipcode":"97205-3398","district":"NorthWest AE","geo_score":1.0,"ytd 2009":12484.23,"store #":20,"id":"a6cky3r8yj29","geo_precision":"range","group":"Nordstrom","address":"701 SW Broadway","state":"OR"},"type":"Feature","geometry":{"type":"Point","coordinates":[-122.679621,45.519346]}},{"properties":{"account coordinator":"Ashanda","name":null,"city":"Seattle","zipcode":"98105","district":"NorthWest AE","geo_score":0.609,"ytd 2009":21502.68,"store #":200,"id":"a6cky3skvf9x","geo_precision":"street","group":"Sephora","address":"2566 NE University Village","state":"WA"},"type":"Feature","geometry":{"type":"Point","coordinates":[-122.290702,47.662374]}},{"properties":{"account coordinator":"Ashanda","name":null,"city":"Seattle","zipcode":"98101","district":"NorthWest AE","geo_score":1.0,"ytd 2009":31139.84,"store #":204,"id":"a6cky42s442y","geo_precision":"range","group":"Sephora","address":"415 Pine Street","state":"WA"},"type":"Feature","geometry":{"type":"Point","coordinates":[-122.337293,47.611396]}},{"properties":{"account coordinator":"Ashanda","name":"Lloyd Center / OR","city":"Portland","zipcode":"97232-1267","district":"NorthWest AE","geo_score":0.92,"ytd 2009":12285.41,"store #":21,"id":"a6cky40wttry","geo_precision":"range","group":"Nordstrom","address":"1001 Lloyd Ctr","state":"OR"},"type":"Feature","geometry":{"type":"Point","coordinates":[-122.654565,45.531647]}},{"properties":{"account coordinator":"Ashanda","name":"Salem Center / OR","city":"Salem","zipcode":"97301-3624","district":"NorthWest AE","geo_score":0.847,"ytd 2009":6169.09,"store #":23,"id":"a6cky3vp2ndl","geo_precision":"range","group":"Nordstrom","address":"420 Center St NE","state":"OR"},"type":"Feature","geometry":{"type":"Point","coordinates":[-123.036821,44.943193]}},{"properties":{"account coordinator":"Ashanda","name":"Clackamas Town Center / OR","city":"Portland","zipcode":"97266-7796","district":"NorthWest AE","geo_score":0.74,"ytd 2009":6895.1,"store #":24,"id":"a6cky3u7remr","geo_precision":"street","group":"Nordstrom","address":"11900 SE 82nd Ave","state":"OR"},"type":"Feature","geometry":{"type":"Point","coordinates":[-122.578978,45.444469]}},{"properties":{"account coordinator":"Ashanda","name":"Washington Square / OR","city":"Tigard","zipcode":"97223-4480","district":"NorthWest AE","geo_score":0.673,"ytd 2009":12037.65,"store #":25,"id":"a6cky3xn7v9n","geo_precision":"street","group":"Nordstrom","address":"9700 SW Washington Square Rd","state":"OR"},"type":"Feature","geometry":{"type":"Point","coordinates":[-122.765974,45.450627]}},{"properties":{"account coordinator":"Ashanda","name":"Vancouver Mall / WA","city":"Vancouver","zipcode":"98662-6423","district":"NorthWest AE","geo_score":0.929,"ytd 2009":7782.54,"store #":26,"id":"a6cky3tua0or","geo_precision":"range","group":"Nordstrom","address":"8601 NE Vancouver Mall Loop","state":"WA"},"type":"Feature","geometry":{"type":"Point","coordinates":[-122.585159,45.659873]}},{"properties":{"account coordinator":"Katie","name":"Fashion Show Mall (Las Vegas    NV)","city":"LasVegas","zipcode":"89109-2675","district":"NorthWest AE","geo_score":0.82,"ytd 2009":9351.0,"store #":386,"id":"a6cky3v7f2fe","geo_precision":"range","group":"Nordstrom","address":"3200 Las Vegas Blvd S Ste 710","state":"NV"},"type":"Feature","geometry":{"type":"Point","coordinates":[-115.167833,36.127672]}},{"properties":{"account coordinator":"Ashanda","name":"Bellevue / WA","city":"Bellevue","zipcode":"98004-5021","district":"NorthWest AE","geo_score":0.649,"ytd 2009":12230.19,"store #":4,"id":"a6cky3ppd1sa","geo_precision":"street","group":"Nordstrom","address":"100 Bellevue Square","state":"WA"},"type":"Feature","geometry":{"type":"Point","coordinates":[-122.208362,47.609172]}},{"properties":{"account coordinator":"Katie","name":null,"city":"Reno","zipcode":"89511","district":"NorthWest AE","geo_score":0.46,"ytd 2009":23566.26,"store #":40,"id":"a6cky40caq9f","geo_precision":"street","group":"Sephora","address":"13915 S. Virginia St.","state":"NV"},"type":"Feature","geometry":{"type":"Point","coordinates":[-119.769367,39.439453]}},{"properties":{"account coordinator":"Katie","name":null,"city":"LasVegas","zipcode":"89109","district":"NorthWest AE","geo_score":0.89,"ytd 2009":40797.62,"store #":42,"id":"a6cky3s1ih24","geo_precision":"range","group":"Sephora","address":"3377 Las Vegas Blvd.","state":"NV"},"type":"Feature","geometry":{"type":"Point","coordinates":[-115.171818,36.121587]}},{"properties":{"account coordinator":"Katie","name":null,"city":"LasVegas","zipcode":"89109","district":"NorthWest AE","geo_score":0.482,"ytd 2009":25776.1,"store #":46,"id":"a6cky3mqdrs0","geo_precision":"street","group":"Sephora","address":"Desert Passage  3663 Las Vegas Blvd. South","state":"NV"},"type":"Feature","geometry":{"type":"Point","coordinates":[-115.174302,36.140762]}},{"properties":{"account coordinator":"Ashanda","name":null,"city":"Portland","zipcode":"97086","district":"NorthWest AE","geo_score":0.642,"ytd 2009":10787.39,"store #":470,"id":"a6cky3povh56","geo_precision":"street","group":"Sephora","address":"12000 SE 82nd Ave.","state":"OR"},"type":"Feature","geometry":{"type":"Point","coordinates":[-122.578985,45.444727]}},{"properties":{"account coordinator":"Ashanda","name":null,"city":null,"zipcode":null,"district":"NorthWest AE","geo_score":0.0,"ytd 2009":8345.9,"store #":484,"id":"a6cky3rw7gvk","geo_precision":"unmatched","group":"Sephora","address":null,"state":"WA"},"type":"Feature","geometry":null},{"properties":{"account coordinator":"Ashanda","name":"South Center / WA","city":"Tukwila","zipcode":"98188-2896","district":"NorthWest AE","geo_score":0.629,"ytd 2009":17508.77,"store #":5,"id":"a6cky404yhpl","geo_precision":"street","group":"Nordstrom","address":"100 Southcenter Mall","state":"WA"},"type":"Feature","geometry":{"type":"Point","coordinates":[-122.312787,47.465675]}},{"properties":{"account coordinator":"Ashanda","name":"Tacoma / WA","city":"Tacoma","zipcode":"98409-7273","district":"NorthWest AE","geo_score":0.839,"ytd 2009":17434.12,"store #":6,"id":"a6cky3mmxsgz","geo_precision":"range","group":"Nordstrom","address":"4502 S Steele St Ste 800","state":"WA"},"type":"Feature","geometry":{"type":"Point","coordinates":[-122.467949,47.218106]}},{"properties":{"account coordinator":"Shelley","name":"Ala Moana / Honolulu, HI","city":"Honolulu","zipcode":"96814","district":"NorthWest AE","geo_score":0.927,"ytd 2009":11808.12,"store #":706,"id":"a6cky40z8b9a","geo_precision":"range","group":"Nordstrom","address":"1519 Kapiolani Blvd","state":"HI"},"type":"Feature","geometry":{"type":"Point","coordinates":[-157.841326,21.292571]}},{"properties":{"account coordinator":"Ashanda","name":"Spokane / WA","city":"Spokane","zipcode":"99201-0904","district":"NorthWest AE","geo_score":1.0,"ytd 2009":20172.48,"store #":9,"id":"a6cky3q25okx","geo_precision":"range","group":"Nordstrom","address":"828 W Main Ave","state":"WA"},"type":"Feature","geometry":{"type":"Point","coordinates":[-117.423902,47.659025]}}],"is_temporal":false,"author":{"url":"","metadata":"","contact_name":"","contact_address":"","source":"","contact_phone":""},"source":"","pagination":{"sort":null,"start":0,"total":31,"limit":1000000},"state":"complete","tags":"","published":"2014-08-10T14:56:53-04:00","id":54662}