{"type":"FeatureCollection","data_type":"Dataset","url_type":null,"permissions":[{"permissions":{"download":true,"view":true},"group_id":"everyone"}],"classification":null,"title":"ftl4","count":101,"stream_id":54935,"contributor":{"url":"http://geocommons.com/users/13943","name":"gregular"},"data_attributes":null,"calculation_params":null,"icon_link":null,"link":"http://geocommons.com/overlays/54935.json","extent":[-80.257,25.9814,-80.1006,26.22],"geometry_types":["point"],"unique_name":null,"name":"ftl4","feature_count":101,"description":"","next_feature":null,"is_raster":false,"short_classification":"Y","stats":{},"features":[{"properties":{"name":"Merrill, Sharon Lee","id":"a6w33mlqqn61","phone number":"415-994-2254","address":"3031 N. Ocean Blvd. Apt. 1005, Fort Lauderdale, Florida 33308"},"type":"Feature","geometry":{"type":"Point","coordinates":[-80.100595,26.166064]}},{"properties":{"name":"Michel, Daniel and Marie Antoinette","id":"a6w33mgzfw95","phone number":"754-214-7134","address":"321 SW 30th Terr, Fort Lauderdale, Florida 33312"},"type":"Feature","geometry":{"type":"Point","coordinates":[-80.185313,26.117904]}},{"properties":{"name":"Michel, Kervens Jeffery","id":"a6w33msdxpbr","phone number":null,"address":"1460 Nw 21st St, # C Fort Lauderdale, Florida 33311"},"type":"Feature","geometry":{"type":"Point","coordinates":[-80.161822,26.154303]}},{"properties":{"name":"Millman, Milton","id":"a6w33mm9riqq","phone number":null,"address":"1943 NE 6th Court #W 106, Fort Lauderdale, Florida 33304"},"type":"Feature","geometry":{"type":"Point","coordinates":[-80.121037,26.130759]}},{"properties":{"name":"Mohi, Charles Tohara, Jr.","id":"a6w33mov5nja","phone number":null,"address":"1417 Sw 6th Ave, Ft Lauderdale Fl, Florida 33315"},"type":"Feature","geometry":{"type":"Point","coordinates":[-80.149076,26.103912]}},{"properties":{"name":"Moise, Ithelind and Marie Geraldine","id":"a6w33mnwf1ci","phone number":"954-639-3486","address":"1100 SW 29th St Apt 2, Fort lauderdale, Florida 33315"},"type":"Feature","geometry":{"type":"Point","coordinates":[-80.155257,26.088075]}},{"properties":{"name":"Mojica, Jose Alfredo","id":"a6w33mogu8xe","phone number":null,"address":"817 Nw 16th St, Fort Lauderdale, Florida 33311"},"type":"Feature","geometry":{"type":"Point","coordinates":[-80.153365,26.147185]}},{"properties":{"name":"Monahan, Beverly Lynn","id":"a6w33mw0f4h9","phone number":"(954)583-8612","address":"1200 Sw 35th Ave, Fort Lauderdale, Florida 33312"},"type":"Feature","geometry":{"type":"Point","coordinates":[-80.193846,26.1166]}},{"properties":{"name":"Montes Leo Kervins, Mireille Praxede","id":"a6w33mhrhkhx","phone number":"954-236-9329","address":"1280 NW 78th Terr, Fort Lauderdale, Florida 33324"},"type":"Feature","geometry":{"type":"Point","coordinates":[-80.253005,26.128738]}},{"properties":{"name":"Moore, Adam Eric","id":"a6w33mn0pz5l","phone number":null,"address":"3625 COLLEGE AVE #1245, DAVIE, Florida 33314"},"type":"Feature","geometry":{"type":"Point","coordinates":[-80.231855,26.076611]}},{"properties":{"name":"Moore, Laura Jane","id":"a6w33mqbzz0t","phone number":"954-467-2738","address":"4238 SW 64th Avenue, Davie, Florida 33314"},"type":"Feature","geometry":{"type":"Point","coordinates":[-80.232238,26.069097]}},{"properties":{"name":"Moran, Fernanda Judith","id":"a6w33mx8wn6p","phone number":null,"address":"2041 Sw 35th Ave, Fort Lauderdale, Florida 33312"},"type":"Feature","geometry":{"type":"Point","coordinates":[-80.193846,26.1166]}},{"properties":{"name":"Moreno, Susan Beth","id":"a6w33moycvot","phone number":"954-792-1229","address":"1200 SW 67th Ave, Plantation, 33317"},"type":"Feature","geometry":{"type":"Point","coordinates":[-80.237355,26.105401]}},{"properties":{"name":"Mueller, Adeline Maria","id":"a6w33mrqaps8","phone number":"954 462-6865","address":"1910 NE 7th Court, Fort Lauderdale, Florida 33304"},"type":"Feature","geometry":{"type":"Point","coordinates":[-80.120815,26.132576]}},{"properties":{"name":"Muse, Michael Robert","id":"a6w33mhrl06a","phone number":null,"address":"25 Nw 7th Ave (No such address), Fort Lauderdale, Florida 33311"},"type":"Feature","geometry":{"type":"Point","coordinates":[-80.154662,26.144748]}},{"properties":{"name":"Myers, Gale Owen, Jr","id":"a6w33mr7z5vo","phone number":"954 527-1348","address":"708 SW 14th Terrace, Fort Lauderdale, Florida 33312"},"type":"Feature","geometry":{"type":"Point","coordinates":[-80.16056,26.112833]}},{"properties":{"name":"Neary, Seanna Genna","id":"a6w33mtan0vi","phone number":null,"address":"5981 NW 15th Street  #1, Sunrise, Florida 33313"},"type":"Feature","geometry":{"type":"Point","coordinates":[-80.230186,26.143013]}},{"properties":{"name":"Newcomer, Mark David and Arianne Ellen","id":"a6w33mw753vq","phone number":"801-471-7823","address":"3860 W. Broward Blvd. APT. 201, Plantation, Florida 33312"},"type":"Feature","geometry":{"type":"Point","coordinates":[-80.200117,26.120928]}},{"properties":{"name":"Nichols, Troy Gus","id":"a6w33muyb8m6","phone number":null,"address":"1532 Ne 27th Dr, Wilton Manors Fl, Florida 33334"},"type":"Feature","geometry":{"type":"Point","coordinates":[-80.127103,26.161707]}},{"properties":{"name":"Noel, Marie Junette","id":"a6w33mmqvl39","phone number":"954-793-9970","address":"160 SW 37th Terr, Fort Lauderdale, Florida 33312"},"type":"Feature","geometry":{"type":"Point","coordinates":[-80.198149,26.118822]}},{"properties":{"name":"Norris, Glen Alan","id":"a6w33mt2tev9","phone number":null,"address":"2216 Nw 7th Ave, Wilton Manors Fl, Florida 33311"},"type":"Feature","geometry":{"type":"Point","coordinates":[-80.152376,26.155878]}},{"properties":{"name":"Novak, Bernard Edward","id":"a6w33mi5uc3g","phone number":null,"address":"2801 SW 71st Terr apt. 1707, Fort Lauderdale, Florida 33314"},"type":"Feature","geometry":{"type":"Point","coordinates":[-80.214269,26.050566]}},{"properties":{"name":"Orton, Gary Niels","id":"a6w33mkngspn","phone number":"954-298-0815","address":"1940 Ne 2nd Ave #J-208, Wilton Manors, Florida 33305"},"type":"Feature","geometry":{"type":"Point","coordinates":[-80.140717,26.152108]}},{"properties":{"name":"Oyarzun Reed, Martin Andres","id":"a6w33mj1gtlo","phone number":null,"address":"401 E Las Olas Blvd. #130, Fort Lauderdale, Florida 33301"},"type":"Feature","geometry":{"type":"Point","coordinates":[-80.139685,26.119166]}},{"properties":{"name":"Padgett, Charles Edward","id":"a6w33mqaqvns","phone number":null,"address":"3480 SW 50th Terrace, Davie, Florida 33314"},"type":"Feature","geometry":{"type":"Point","coordinates":[-80.231748,26.076964]}},{"properties":{"name":"Padron, Nerys","id":"a6w33moe1pwj","phone number":null,"address":"490 Sw 27th Ter Apt 2, Fort Lauderdale, Florida 33312"},"type":"Feature","geometry":{"type":"Point","coordinates":[-80.177957,26.115861]}},{"properties":{"name":"Page, Patricia Lynn","id":"a6w33mw68sxr","phone number":null,"address":"410 SE 11th Court, Fort Lauderdale, Florida 33316"},"type":"Feature","geometry":{"type":"Point","coordinates":[-80.138889,26.108551]}},{"properties":{"name":"Palacio, Hector Eduardo","id":"a6w33msq0nbl","phone number":"(954)305-2394","address":"2200 Ne 33rd Ave #5c, Fort Lauderdale, Florida 33305"},"type":"Feature","geometry":{"type":"Point","coordinates":[-80.102173,26.15673]}},{"properties":{"name":"Palermo, Michael Thomas, Jr","id":"a6w33mnbdnla","phone number":null,"address":"621 E Acre Dr, Plantation Fl, Florida 33317"},"type":"Feature","geometry":{"type":"Point","coordinates":[-80.219886,26.130355]}},{"properties":{"name":"Parparian, Moses Benjamin","id":"a6w33ms4ho16","phone number":"954 524-7123","address":"100 Mandarin Isle, Fort Lauderdale, Florida 33315"},"type":"Feature","geometry":{"type":"Point","coordinates":[-80.153176,26.102432]}},{"properties":{"name":"Pattullo, Brian Thomas","id":"a6w33mkjgo5s","phone number":"(954)537-4172","address":"1409 Ne 24th St, Wilton Manors, Florida 33305"},"type":"Feature","geometry":{"type":"Point","coordinates":[-80.129348,26.1577]}},{"properties":{"name":"Peelman, Elisa","id":"a6w33ml4ehkb","phone number":"954-261-8112","address":"3100 SW 47th St., Dania Beach, Florida 33312"},"type":"Feature","geometry":{"type":"Point","coordinates":[-80.184144,26.063112]}},{"properties":{"name":"Pettiford, James, Jr","id":"a6w33msxvurx","phone number":"954-583-5355","address":"2757 SW 7th Street, Fort Lauderdale, Florida 33312"},"type":"Feature","geometry":{"type":"Point","coordinates":[-80.178778,26.112129]}},{"properties":{"name":"Phillips, Therone Gibson","id":"a6w33mj89a77","phone number":"954-714-3927","address":"3753 NW 26th Street, Lauderdale Lakes, Florida 33311"},"type":"Feature","geometry":{"type":"Point","coordinates":[-80.199338,26.157558]}},{"properties":{"name":"Philogene, Alfred","id":"a6w33mqbh7s4","phone number":"954-593-2843","address":"2661 SW 8th St, Fort Lauderdale, Florida 33312"},"type":"Feature","geometry":{"type":"Point","coordinates":[-80.176981,26.111395]}},{"properties":{"name":"Pierre, Jean Raoul","id":"a6w33mmkmb1y","phone number":null,"address":"2931 Sunrise Lakes E Dr Apt 306, Sunrise, Florida 33322"},"type":"Feature","geometry":{"type":"Point","coordinates":[-80.20127,26.135979]}},{"properties":{"name":"Pierre, Pretoucheka","id":"a6w33mldnf70","phone number":"754-234-1850","address":"540 NW 4th Ave #402, Fort Lauderdale, Florida 33311"},"type":"Feature","geometry":{"type":"Point","coordinates":[-80.14772,26.128725]}},{"properties":{"name":"Pierre, Yvrose","id":"a6w33mhpzcuf","phone number":"786-277-6078","address":"1015 SW 3rd St., Hallandale Beach, Florida 33009"},"type":"Feature","geometry":{"type":"Point","coordinates":[-80.161988,25.98136]}},{"properties":{"name":"Pinnock, Mark Jay","id":"a6w33mtw07b7","phone number":null,"address":"2721 Sw 6th Ct, Fort Lauderdale, Florida 33312"},"type":"Feature","geometry":{"type":"Point","coordinates":[-80.178246,26.112965]}},{"properties":{"name":"Piovera, Delia Margarita Maria","id":"a6w33mmnb33r","phone number":null,"address":"2901 Sunrise Lakes Dr E #209, Sunrise Fl, Florida 33322"},"type":"Feature","geometry":{"type":"Point","coordinates":[-80.20127,26.135979]}},{"properties":{"name":"Plummer, Shirley Marjorie Rose","id":"a6w33ms8fjpt","phone number":"754-366-9328","address":"7041 Sunset Strip #212A, Sunrise, Florida 33313"},"type":"Feature","geometry":{"type":"Point","coordinates":[-80.241691,26.154768]}},{"properties":{"name":"Post, Donna Margaret","id":"a6w33mkxfpla","phone number":null,"address":"757 SE 17TH ST # 603, FORT LAUDERDALE, Florida 33316"},"type":"Feature","geometry":{"type":"Point","coordinates":[-80.135478,26.100371]}},{"properties":{"name":"Prows, Tracy Jaquier and Christa Lynne","id":"a6w33mtju1kj","phone number":"305-304-3233","address":"64 Hendricks Isle, Fort Lauderdale, Florida 33301"},"type":"Feature","geometry":{"type":"Point","coordinates":[-80.121911,26.120863]}},{"properties":{"name":"Pryor, Ryan Mitchell","id":"a6w33mv6pf4w","phone number":null,"address":"200 Carolina Ave, Fort Lauderdale, Florida 33312"},"type":"Feature","geometry":{"type":"Point","coordinates":[-80.187095,26.119024]}},{"properties":{"name":"Quinn, April Adena","id":"a6w33mio29nr","phone number":null,"address":"2533 NW 9th Ter, Wilton Manors, Florida 33311"},"type":"Feature","geometry":{"type":"Point","coordinates":[-80.155779,26.158894]}},{"properties":{"name":"Quintero, Noemi","id":"a6w33mswv846","phone number":null,"address":"1235 NE 5th Terrrace, Fort Lauderdale, Florida 33304"},"type":"Feature","geometry":{"type":"Point","coordinates":[-80.139573,26.141153]}},{"properties":{"name":"Randolph, Ernest Eugene, Jr and Deborah Mae","id":"a6w33mvlaw2u","phone number":"954-605-2468","address":"4421 SW 32nd Avenue, Fort Lauderdale, Florida 33312"},"type":"Feature","geometry":{"type":"Point","coordinates":[-80.18559,26.066633]}},{"properties":{"name":"Randolph, Gene Lamar","id":"a6w33mpfp0df","phone number":null,"address":"4419 Sw 32nd Ave, Fort Lauderdale, Florida 33312"},"type":"Feature","geometry":{"type":"Point","coordinates":[-80.185591,26.066655]}},{"properties":{"name":"Randolph, Susan Frances","id":"a6w33muo2bgk","phone number":"954-987-8910","address":"4421 SW 32nd Avenue, Fort Lauderdale, Florida 33312"},"type":"Feature","geometry":{"type":"Point","coordinates":[-80.18559,26.066633]}},{"properties":{"name":"Reams, Melissa Yvette","id":"a6w33mps5hmu","phone number":"954-956-6670","address":"6325 Pierce Street, Hollywood, Florida 33021"},"type":"Feature","geometry":{"type":"Point","coordinates":[-80.207809,26.01482]}},{"properties":{"name":"Reilly, Patrick and Logan Kathleen","id":"a6w33mq47hvw","phone number":"307-272-9280","address":"6928 SW 39th St #A 303, Davie, Florida 33314"},"type":"Feature","geometry":{"type":"Point","coordinates":[-80.23151,26.046066]}},{"properties":{"name":"Rennie, Susan Stella","id":"a6w33mpn5i2b","phone number":null,"address":"7125 Sw 42nd Pl, Davie, Florida 33314"},"type":"Feature","geometry":{"type":"Point","coordinates":[-80.23151,26.046066]}},{"properties":{"name":"Rettig, Robert James","id":"a6w33miagblu","phone number":"(954)473-4297","address":"7800 Nw 3rd Ct, Fort Lauderdale, Florida 33324"},"type":"Feature","geometry":{"type":"Point","coordinates":[-80.253512,26.126485]}},{"properties":{"name":"Reynolds, Gregory Laurence","id":"a6w33msfyjgi","phone number":null,"address":"1541 Ne 16th Ter, Fort Lauderdale, Florida 33304"},"type":"Feature","geometry":{"type":"Point","coordinates":[-80.127087,26.14687]}},{"properties":{"name":"Rhodes, Tyler and Brittany","id":"a6w33mvc1q6p","phone number":"801-722-5275","address":"1201 Coontie Ct., Fort Lauderdale, Florida 33312"},"type":"Feature","geometry":{"type":"Point","coordinates":[-80.157269,26.11676]}},{"properties":{"name":"Richards, Nelson","id":"a6w33ml6tp6s","phone number":null,"address":"5711 Sw 39th St, Davie, Florida 33314"},"type":"Feature","geometry":{"type":"Point","coordinates":[-80.231611,26.049485]}},{"properties":{"name":"Richardson, Monica Lenore","id":"a6w33mihwo7r","phone number":null,"address":"2411 Sw 5th Pl, Fort Lauderdale, Florida 33312"},"type":"Feature","geometry":{"type":"Point","coordinates":[-80.17385,26.113931]}},{"properties":{"name":"Robinson, Kirk Brandt","id":"a6w33mvoapvx","phone number":null,"address":"2970 Nw 68th Way, Sunrise, Florida 33313"},"type":"Feature","geometry":{"type":"Point","coordinates":[-80.241087,26.163084]}},{"properties":{"name":"Rodriguez, Dawn Rougette","id":"a6w33mp3b9iv","phone number":null,"address":"2033 Sw 28th Way, Fort Lauderdale, Florida 33312"},"type":"Feature","geometry":{"type":"Point","coordinates":[-80.181066,26.096739]}},{"properties":{"name":"Rodriguez, Eileen Merced","id":"a6w33mktiat6","phone number":null,"address":"2031 Nw 43rd Ter Apt 241, Lauderhill, Florida 33313"},"type":"Feature","geometry":{"type":"Point","coordinates":[-80.207882,26.153033]}},{"properties":{"name":"Rodriguez, Jacqueline","id":"a6w33mwh4sqq","phone number":"954-563-5137","address":"2412 Fryer Pt, Fort Lauderdale Fl, Florida 33305"},"type":"Feature","geometry":{"type":"Point","coordinates":[-80.114437,26.155928]}},{"properties":{"name":"Roesler, David William","id":"a6w33mpl8pz6","phone number":"(954)484-5143","address":"3600 Nw 21st St Apt 2, Lauderdale Lakes, Florida 33311"},"type":"Feature","geometry":{"type":"Point","coordinates":[-80.19712,26.152888]}},{"properties":{"name":"Romain, Roldy","id":"a6w33mhf3hjg","phone number":"954-708-4059","address":"900 NE 14 Street, Apt. 4, Ft Lauderdale, Florida 33304"},"type":"Feature","geometry":{"type":"Point","coordinates":[-80.135061,26.144131]}},{"properties":{"name":"Roman, Charity Rose","id":"a6w33mu50r7h","phone number":null,"address":"800 NE 17th Way, Fort lauderdale, Florida 33304"},"type":"Feature","geometry":{"type":"Point","coordinates":[-80.123811,26.133958]}},{"properties":{"name":"Romer, Ruth Marie","id":"a6w33mn1amjr","phone number":null,"address":"350 Se 2nd St Apt 1880, Fort Lauderdale, Florida 33301"},"type":"Feature","geometry":{"type":"Point","coordinates":[-80.140124,26.120638]}},{"properties":{"name":"Roubonneau, Jovnel","id":"a6w33mn3bqev","phone number":"954-724-1752","address":"7313 SW 8th Street, North Lauderdale, Florida 33068"},"type":"Feature","geometry":{"type":"Point","coordinates":[-80.224239,26.220015]}},{"properties":{"name":"Rowe, Lucia Juana","id":"a6w33mmswdse","phone number":"954-792-7335","address":"7300 NW 17th Street #407, Planation, Florida 33313"},"type":"Feature","geometry":{"type":"Point","coordinates":[-80.247258,26.147043]}},{"properties":{"name":"Roydhouse, Paul Earl","id":"a6w33mmhl2wn","phone number":"(954)792-2882","address":"170 S Bel Air Dr, Plantation, Florida 33317"},"type":"Feature","geometry":{"type":"Point","coordinates":[-80.229997,26.119094]}},{"properties":{"name":"Ruchin, Melissa Beth","id":"a6w33mimzigu","phone number":null,"address":"7085 Nova Dr Apt 323, Davie Fl, Florida 33317"},"type":"Feature","geometry":{"type":"Point","coordinates":[-80.228599,26.087205]}},{"properties":{"name":"Russ, Roger","id":"a6w33mj4xc6q","phone number":"(954)630-3230","address":"1839 Middle River Drive #303, Fort Lauderdale, Florida 33305"},"type":"Feature","geometry":{"type":"Point","coordinates":[-80.113692,26.152035]}},{"properties":{"name":"Russell, Mary Louise","id":"a6w33mqjrcjw","phone number":"954 321-2287","address":"6261 SW 41st Street, Davie, Florida 33314"},"type":"Feature","geometry":{"type":"Point","coordinates":[-80.23151,26.046066]}},{"properties":{"name":"Sahdala, Lance and Lesvia Patricia","id":"a6w33mj715e0","phone number":"(954)306-3555","address":"4806 Nw 1st St, Plantation, Florida 33317"},"type":"Feature","geometry":{"type":"Point","coordinates":[-80.214113,26.12148]}},{"properties":{"name":"Saint-Hilaire, Patsie P. Michelle","id":"a6w33moja7j3","phone number":"954-696-3650","address":"6201 SW 37th St Apt 102, Davie, Florida 33314"},"type":"Feature","geometry":{"type":"Point","coordinates":[-80.23151,26.046066]}},{"properties":{"name":"Salas Mora, Anthonni Alfonso","id":"a6w33mwxykip","phone number":null,"address":"1418 Southwest 49 Terr, Florida, Florida 33317"},"type":"Feature","geometry":{"type":"Point","coordinates":[-80.213738,26.103385]}},{"properties":{"name":"Salazar Urrutia, Donato Alejandro","id":"a6w33mt99nj0","phone number":"954-730-9322","address":"4301 NW 18th St #O303, Lauder Hill, Florida 33313"},"type":"Feature","geometry":{"type":"Point","coordinates":[-80.20939,26.149459]}},{"properties":{"name":"Salima, Seth Tiave and Andrea","id":"a6w33mhmao0w","phone number":"954-529-6774","address":"3665 SW 59th Ave, Davie, Florida 33314"},"type":"Feature","geometry":{"type":"Point","coordinates":[-80.231886,26.076487]}},{"properties":{"name":"Sammy, Ronnie Ronald","id":"a6w33msd54i0","phone number":null,"address":"1361 NW 75th Terrrace, Plantation, Florida 33313"},"type":"Feature","geometry":{"type":"Point","coordinates":[-80.250365,26.14238]}},{"properties":{"name":"Sanabria, Reynaldo C","id":"a6w33mwpkpz4","phone number":null,"address":"6231 Sw 7th Ct, Plantation Fl, Florida 33317"},"type":"Feature","geometry":{"type":"Point","coordinates":[-80.232953,26.111821]}},{"properties":{"name":"Sanchez, Debra Gloria Elisa Rafaela","id":"a6w33mmt9kha","phone number":"954-701-8260","address":"6655 W. Broward Blvd # 101 D, Plantation, Florida 33317"},"type":"Feature","geometry":{"type":"Point","coordinates":[-80.235341,26.120809]}},{"properties":{"name":"Sanchez, Victoria Audrey","id":"a6w33mt0y5gy","phone number":"954-585-6114","address":"2398 SW 28th Terr, Ft. Lauderdale, Florida 33312"},"type":"Feature","geometry":{"type":"Point","coordinates":[-80.180657,26.092258]}},{"properties":{"name":"Sanders, Ernest Daniel, Jr","id":"a6w33mrc3fjt","phone number":null,"address":"613 Sw 13th St, Fort Lauderdale, Florida 33315"},"type":"Feature","geometry":{"type":"Point","coordinates":[-80.14919,26.105568]}},{"properties":{"name":"Scadden, Alicia Soledad","id":"a6w33muicluj","phone number":"478-747-9464","address":"1341 NW 58th Ave, Fort Lauderdale, Florida 33313"},"type":"Feature","geometry":{"type":"Point","coordinates":[-80.2264,26.140776]}},{"properties":{"name":"Scalia, Greg Anthony and Linda Lee","id":"a6w33mtnn9u8","phone number":null,"address":"225 SW 22nd St, Fort Lauderdale, Florida 33315"},"type":"Feature","geometry":{"type":"Point","coordinates":[-80.143144,26.09458]}},{"properties":{"name":"Seavey, Theresa Ann","id":"a6w33mvzns4w","phone number":"954-895-3490","address":"313 SW 14th St.  #2, Fort Lauderdale, Florida 33315"},"type":"Feature","geometry":{"type":"Point","coordinates":[-80.14568,26.1047]}},{"properties":{"name":"Seiler, Lisa Mary","id":"a6w33mhgsjaj","phone number":"(954)527-6650","address":"824 Coconut Dr, Fort Lauderdale, Florida 33315"},"type":"Feature","geometry":{"type":"Point","coordinates":[-80.156242,26.111649]}},{"properties":{"name":"Selfridge, Karla Maria","id":"a6w33mnvdxp7","phone number":"(954)916-9301","address":"1121 NW 76th Avenue, Plantation, Florida 33322"},"type":"Feature","geometry":{"type":"Point","coordinates":[-80.251529,26.138861]}},{"properties":{"name":"Shelley, Val Reid","id":"a6w33mq0pmmr","phone number":null,"address":"1151 N Fort Lauderdale Beach Blvd #18, Fort Lauderdale, Florida 33304"},"type":"Feature","geometry":{"type":"Point","coordinates":[-80.102892,26.13805]}},{"properties":{"name":"Sheridan, Jason Joseph","id":"a6w33msx4qcq","phone number":null,"address":"3625 College Ave, The Commons  Box 1641 Ft Lauderdale, Florida 33314"},"type":"Feature","geometry":{"type":"Point","coordinates":[-80.181158,26.132586]}},{"properties":{"name":"Siracusa, Rosario","id":"a6w33mtnqj61","phone number":null,"address":"8000 Sunrise Lakes Dr N, Sunrise, Florida 33322"},"type":"Feature","geometry":{"type":"Point","coordinates":[-80.256968,26.14847]}},{"properties":{"name":"Siufanua, Tafaomanifo Lilii","id":"a6w33mj54ihq","phone number":"954 587-7489","address":"3861 SW 60th Terrace, Davie, Florida 33314"},"type":"Feature","geometry":{"type":"Point","coordinates":[-80.232357,26.074284]}},{"properties":{"name":"Slivka, Aaron and Wendy Marie","id":"a6w33mkri70l","phone number":"954-850-9489","address":"3960 W. Broward Blvd. APT 308, Plantation, Florida 33312"},"type":"Feature","geometry":{"type":"Point","coordinates":[-80.20148,26.120896]}},{"properties":{"name":"Smart, Joshua David","id":"a6w33mhvisy5","phone number":"801-577-7216","address":"1643 Ne 8th St, Fort Lauderdale, Florida 33305"},"type":"Feature","geometry":{"type":"Point","coordinates":[-80.135335,26.157911]}},{"properties":{"name":"Smith, Betty Louise","id":"a6w33msvl51p","phone number":"954 523-8989","address":"222 SW 20th Street, Fort Lauderdale, Florida 33315"},"type":"Feature","geometry":{"type":"Point","coordinates":[-80.14348,26.096434]}},{"properties":{"name":"Smith, Bobby Dean","id":"a6w33mowo2fb","phone number":null,"address":"3004 Se 4th Ave, Fort Lauderdale, Florida 33316"},"type":"Feature","geometry":{"type":"Point","coordinates":[-80.138452,26.087165]}},{"properties":{"name":"Socha, Arthur James, II","id":"a6w33msq8h1z","phone number":"(954)581-4664","address":"1730 Sw 23rd Ter Apt 23, Fort Lauderdale, Florida 33312"},"type":"Feature","geometry":{"type":"Point","coordinates":[-80.153295,26.117077]}},{"properties":{"name":"Solano, Daniel and Alexandra","id":"a6w33mnoxl1o","phone number":"954-548-8779","address":"7100 Nova Dr  Apt. 305A, Davie, Florida 33328"},"type":"Feature","geometry":{"type":"Point","coordinates":[-80.246706,26.090219]}},{"properties":{"name":"Souza, Alex Jonatas Goncalves and Mirian Da Silva","id":"a6w33mj50mev","phone number":"954-658-4402","address":"1500 NE 15th Street, Wilton Manors, Florida 33304"},"type":"Feature","geometry":{"type":"Point","coordinates":[-80.128919,26.1461]}},{"properties":{"name":"Spiegel, Gary Howard","id":"a6w33mszhoop","phone number":"(954)723-9088","address":"4415 Sw 73rd Ter, Davie, Florida 33314"},"type":"Feature","geometry":{"type":"Point","coordinates":[-80.232166,26.066489]}},{"properties":{"name":"Spikes, Meltonia Rosemarye","id":"a6w33mlrlj4y","phone number":"954 467-2270","address":"305 SW 14th Street #B, Fort Lauderdale, Florida 33315"},"type":"Feature","geometry":{"type":"Point","coordinates":[-80.145571,26.104702]}},{"properties":{"name":"Spirk, Kathryne Sophia","id":"a6w33mmsnamv","phone number":"954-986-0217","address":"2770 Treasure Cove Circle, Fort Lauderdale, Florida 33312"},"type":"Feature","geometry":{"type":"Point","coordinates":[-80.153295,26.117077]}},{"properties":{"name":"St Firmin, Marie Louise","id":"a6w33mnqljcc","phone number":"954-739-2397","address":"3711 NW 21st Street, Lauderhill, Florida 33313"},"type":"Feature","geometry":{"type":"Point","coordinates":[-80.202968,26.153768]}}],"is_temporal":false,"author":{"url":"","metadata":"","contact_name":"","contact_address":"","source":"","contact_phone":""},"source":"","pagination":{"sort":null,"start":0,"total":101,"limit":1000000},"state":"complete","tags":"","published":"2014-08-10T15:23:27-04:00","id":54935}