{"type":"FeatureCollection","data_type":"Dataset","url_type":null,"permissions":[{"permissions":{"download":true,"view":true},"group_id":"everyone"}],"classification":null,"title":"ftl3","count":99,"stream_id":54934,"contributor":{"url":"http://geocommons.com/users/13943","name":"gregular"},"data_attributes":null,"calculation_params":null,"icon_link":null,"link":"http://geocommons.com/overlays/54934.json","extent":[-80.3736,25.9757,-80.1033,26.2231],"geometry_types":["point"],"unique_name":null,"name":"ftl3","feature_count":99,"description":"","next_feature":null,"is_raster":false,"short_classification":"Y","stats":{},"features":[{"properties":{"name":"Jacobs, Annelli Nicole","id":"a6gv0zdfc75n","phone number":"754-2147-4224","address":"1354 Dayview Dr #j, Fort Lauderdale, Florida 33304"},"type":"Feature","geometry":{"type":"Point","coordinates":[-80.22693,26.093196]}},{"properties":{"name":"Jacobson, Shawn Michael","id":"a6gv0z2omz3l","phone number":null,"address":"1417 Sw 2nd Ave, Ft Lauderdale Fl, Florida 33315"},"type":"Feature","geometry":{"type":"Point","coordinates":[-80.144712,26.104554]}},{"properties":{"name":"Jacques, Marie A","id":"a6gv0z9px4e1","phone number":"786-419-0924","address":"4740 Nw 21 Street, Apt 214  bld 16 Lauderhill, Florida 33313"},"type":"Feature","geometry":{"type":"Point","coordinates":[-80.212893,26.153086]}},{"properties":{"name":"James, Nathan William and Kathryn Jean","id":"a6gv0z991y4t","phone number":"954-321-8658","address":"6789 SW 41st Dr., Davie, Florida 33314"},"type":"Feature","geometry":{"type":"Point","coordinates":[-80.23151,26.046066]}},{"properties":{"name":"James, Phyllis Karen","id":"a6gv0z9gaj6x","phone number":null,"address":"1401 Nw 75th Terr, Plantation, Florida 33313"},"type":"Feature","geometry":{"type":"Point","coordinates":[-80.250379,26.142894]}},{"properties":{"name":"James, Robbie Ann","id":"a6gv0z4lvc2w","phone number":null,"address":"3004 NW 7th Street, Fort Lauderdale, Florida 33311"},"type":"Feature","geometry":{"type":"Point","coordinates":[-80.184897,26.130119]}},{"properties":{"name":"Jaramillo, Manfred H","id":"a6gv0z2hb68e","phone number":null,"address":"319 City View Drive, Ft Lauderdale Fort Lauderdale, Florida 33311"},"type":"Feature","geometry":{"type":"Point","coordinates":[-80.147621,26.12572]}},{"properties":{"name":"Jarvis, Matt and Kristi","id":"a6gv0zbpq58x","phone number":"954-644-2504","address":"7356 SW 26th Ct., Davie, Florida 33314"},"type":"Feature","geometry":{"type":"Point","coordinates":[-80.23151,26.046066]}},{"properties":{"name":"Jauregui, Carlos Enrique, Jr","id":"a6gv0z1girwy","phone number":null,"address":"3710 Sw 60th Ave, Davie Fl, Florida 33314"},"type":"Feature","geometry":{"type":"Point","coordinates":[-80.231928,26.076349]}},{"properties":{"name":"Jean, Elldamise","id":"a6gv0ze0alcx","phone number":"954-765-2417","address":"1217 NW 19th Street, Ft Lauderdale, Florida 33311"},"type":"Feature","geometry":{"type":"Point","coordinates":[-80.158534,26.151444]}},{"properties":{"name":"Jean, Fanny Mayo","id":"a6gv0zdb8rep","phone number":"954-404-0449","address":"635 NW 8th Avenue, Apt #1, Fort Lauderdale, Florida 33311"},"type":"Feature","geometry":{"type":"Point","coordinates":[-80.150173,26.133092]}},{"properties":{"name":"Jean-Louis, Nathalie","id":"a6gv0z8ynerc","phone number":"754-245-2491","address":"1651 SW 40th Terrace, Apt B, Fort Lauderdale, Florida 33317"},"type":"Feature","geometry":{"type":"Point","coordinates":[-80.202332,26.100628]}},{"properties":{"name":"Jean-Louis, Rommel Meredith and Nadia","id":"a6gv0z4d8a2p","phone number":"945-736-0765","address":"5621 Washington St. #F-77, Hollywood, Florida 33023"},"type":"Feature","geometry":{"type":"Point","coordinates":[-80.199479,26.00263]}},{"properties":{"name":"Jean-Louis, Virgilia","id":"a6gv0z2wfnm9","phone number":null,"address":"607 NE 29th Drive Apt. #25, Wilton Manors, Florida 33334"},"type":"Feature","geometry":{"type":"Point","coordinates":[-80.139982,26.162872]}},{"properties":{"name":"Jemison, Dazel Lerenzo","id":"a6gv0z9rt4rf","phone number":null,"address":"2748 NW 9TH CT, Fort Lauderdale, Florida 33311"},"type":"Feature","geometry":{"type":"Point","coordinates":[-80.179825,26.134918]}},{"properties":{"name":"Jensen, June Jocelyn","id":"a6gv0zbdlkgj","phone number":"(954)533-7053","address":"6221 Nw 13th St 7562, Sunrise, Florida 33313"},"type":"Feature","geometry":{"type":"Point","coordinates":[-80.232801,26.140143]}},{"properties":{"name":"Jesurum, Bona Rajil","id":"a6gv0z4bu6eu","phone number":"954 792-6028","address":"4740 NW 10th Court #7-112, Fort Lauderdale, Florida 33313"},"type":"Feature","geometry":{"type":"Point","coordinates":[-80.213085,26.136878]}},{"properties":{"name":"Jewell, Donald William","id":"a6gv0z5504ps","phone number":null,"address":"2763 Sw 45th St, Fort Lauderdale, Florida 33312"},"type":"Feature","geometry":{"type":"Point","coordinates":[-80.178053,26.066108]}},{"properties":{"name":"John, James Landon and Melanie Ruth Ann","id":"a6gv0zbnk24s","phone number":"760-805-3731","address":"833 1/2 N Rio Vista Blvd, Fort Lauderdale, Florida 33301"},"type":"Feature","geometry":{"type":"Point","coordinates":[-80.136865,26.11701]}},{"properties":{"name":"Johnson, Amy Louise","id":"a6gv0z0nn804","phone number":"(954)561-0899","address":"2817 Ne 24th Pl, Fort Lauderdale, Florida 33305"},"type":"Feature","geometry":{"type":"Point","coordinates":[-80.109234,26.156988]}},{"properties":{"name":"Johnson, Craig Eric","id":"a6gv0z2bm1na","phone number":null,"address":"3020 NE 32nd ave Apt. 912, Fort Lauderdale, Florida 33308"},"type":"Feature","geometry":{"type":"Point","coordinates":[-80.103313,26.166094]}},{"properties":{"name":"Johnson, Merriam Evalyn","id":"a6gv0z88yljk","phone number":"954 321-6028","address":"1836 SW 53rd Avenue (DNC), Fort Lauderdale, Florida 33317"},"type":"Feature","geometry":{"type":"Point","coordinates":[-80.224553,26.096585]}},{"properties":{"name":"Johnson, Patricia Iona","id":"a6gv0z54g6oa","phone number":"954 731-4265","address":"2641 NW 42nd Avenue, Lauderhill, Florida 33313"},"type":"Feature","geometry":{"type":"Point","coordinates":[-80.20571,26.159627]}},{"properties":{"name":"Johnson, Takeyla","id":"a6gv0z83la8v","phone number":"954-581-0117","address":"1320 SW 44th Terrace, Fort Lauderdale, Florida 33317"},"type":"Feature","geometry":{"type":"Point","coordinates":[-80.207897,26.104554]}},{"properties":{"name":"Johnston, Yvonne Renee","id":"a6gv0z0zxifv","phone number":"(954)761-1213","address":"501 Se 2nd St Apt 1123, Fort Lauderdale, Florida 33301"},"type":"Feature","geometry":{"type":"Point","coordinates":[-80.138635,26.120662]}},{"properties":{"name":"Jolley, Elliott and Michelle","id":"a6gv0z4aep8d","phone number":"954-635-6568","address":"2900 S. University Drive #9101, Davie, Florida 33328"},"type":"Feature","geometry":{"type":"Point","coordinates":[-80.250876,26.084773]}},{"properties":{"name":"Jones, Donald Stansfield, Jr","id":"a6gv0z54e230","phone number":"(954)563-4716","address":"2017 Ne 24th St, Wilton Manors, Florida 33305"},"type":"Feature","geometry":{"type":"Point","coordinates":[-80.120815,26.158063]}},{"properties":{"name":"Joseph, Andrese","id":"a6gv0zcg096u","phone number":"754-214-0540","address":"725 NE 23rd Dr., Wilton Manors, Florida 33305"},"type":"Feature","geometry":{"type":"Point","coordinates":[-80.136252,26.156506]}},{"properties":{"name":"Joseph, Enoze","id":"a6gv0z95hb25","phone number":"754-246-9578","address":"647 Kathy Ct., Margate, Florida 33068"},"type":"Feature","geometry":{"type":"Point","coordinates":[-80.219433,26.223119]}},{"properties":{"name":"Joseph, Jean Bernard","id":"a6gv0z60rwy6","phone number":"754-214-0540","address":"725 NE 23rd Dr., Wilton Manors, Florida 33305"},"type":"Feature","geometry":{"type":"Point","coordinates":[-80.136252,26.156506]}},{"properties":{"name":"Joseph, Marie Yolaine","id":"a6gv0zb4of40","phone number":"(954)587-6448","address":"3701 Nw 7th Ct, Fort Lauderdale, Florida 33311"},"type":"Feature","geometry":{"type":"Point","coordinates":[-80.196952,26.130585]}},{"properties":{"name":"Joseph, Sheneeka","id":"a6gv0zgjyugv","phone number":"754-234-3360","address":"2941 NW 56 Ave, Apt. C-2 Fort Lauderdale, Florida 33313"},"type":"Feature","geometry":{"type":"Point","coordinates":[-80.227022,26.163934]}},{"properties":{"name":"Julien, Jean Robert and Maguy Magareth","id":"a6gv0zem9htg","phone number":"954-548-6088","address":"900 NE 14th St., apt. 4, Fort Lauderdale, Florida 33304"},"type":"Feature","geometry":{"type":"Point","coordinates":[-80.135061,26.144131]}},{"properties":{"name":"Kamalu, Russell Kalani","id":"a6gv0zawcpcd","phone number":null,"address":"1713 Sw 5th Ct, Ft Lauderdale, Florida 33312"},"type":"Feature","geometry":{"type":"Point","coordinates":[-80.164007,26.115442]}},{"properties":{"name":"Keith, Andrew Scott","id":"a6gv0z5px9ub","phone number":"954-630-1493","address":"20 NE 26th Court, Wilton Manors, Florida 33334"},"type":"Feature","geometry":{"type":"Point","coordinates":[-80.14619,26.159889]}},{"properties":{"name":"Kemp, Bernice","id":"a6gv0z6ts594","phone number":"954 581-2681","address":"470 SW 28th Ave., Fort Lauderdale, Florida 33312"},"type":"Feature","geometry":{"type":"Point","coordinates":[-80.179624,26.11545]}},{"properties":{"name":"Kemp, Bernice, Sr and Alzie Lee","id":"a6gv0z4zxrni","phone number":"954 581-2681","address":"470 SW 28th Avenue, Fort Lauderdale, Florida 33312"},"type":"Feature","geometry":{"type":"Point","coordinates":[-80.179624,26.11545]}},{"properties":{"name":"Kemp, Johnnie Frank","id":"a6gv0zeqnpfv","phone number":"954-524-5651","address":"1763 Lauderdale Manor Drive, Fort Lauderdale, Florida 33311"},"type":"Feature","geometry":{"type":"Point","coordinates":[-80.168409,26.143736]}},{"properties":{"name":"Kemp, Mary Ann","id":"a6gv0zeahi6u","phone number":"954-524-5651","address":"1763 Lauderdale Manor Drive, Fort Lauderdale, Florida 33311"},"type":"Feature","geometry":{"type":"Point","coordinates":[-80.168409,26.143736]}},{"properties":{"name":"Kennedy, Julia Ann","id":"a6gv0zdxd439","phone number":"(954)548-6744","address":"420 Ne 14th Ave. #4, Fort Lauderdale, Florida 33301"},"type":"Feature","geometry":{"type":"Point","coordinates":[-80.129344,26.127351]}},{"properties":{"name":"Kennedy, Patrick and Heather","id":"a6gv0zd5lgdj","phone number":"813-598-3220","address":"6825 College Ct, Bldg #10 Apt. 105 Davie, Florida 33317"},"type":"Feature","geometry":{"type":"Point","coordinates":[-80.237873,26.088178]}},{"properties":{"name":"Keyser, Brandon William and Allison June","id":"a6gv0zbk7krn","phone number":"303-842-7023","address":"7000 Nova Dr. Apt. 103E, Davie, Florida 33317"},"type":"Feature","geometry":{"type":"Point","coordinates":[-80.228599,26.087205]}},{"properties":{"name":"Khodadadeh, Bardia","id":"a6gv0zedu04c","phone number":null,"address":"313 Ne 2nd St Apt 404, Ft Lauderdale, Florida 33301"},"type":"Feature","geometry":{"type":"Point","coordinates":[-80.145233,26.116873]}},{"properties":{"name":"Kilkelly, Susan Ladonna","id":"a6gv0zbntm8p","phone number":null,"address":"7220 Nw 7th Ct (DNC), Plantation, Florida 33317"},"type":"Feature","geometry":{"type":"Point","coordinates":[-80.243464,26.131607]}},{"properties":{"name":"Kimball, Stephen Joseph and Tracy Lee","id":"a6gv0zbu851l","phone number":"954-234-2696","address":"2211 SW 72nd Ave, Davie, Florida 33317"},"type":"Feature","geometry":{"type":"Point","coordinates":[-80.227454,26.091333]}},{"properties":{"name":"Kimble, Ernest Eugene and Eleanor Gray","id":"a6gv0z426iyz","phone number":null,"address":"1820 SW 36th Terrace, Fort Lauderdale, Florida 33312"},"type":"Feature","geometry":{"type":"Point","coordinates":[-80.194625,26.098129]}},{"properties":{"name":"King, Cameron George O'Neil and Marlin Carmel","id":"a6gv0z8hv9vu","phone number":"954-306-2703","address":"809 NE 16th Street, Fort Lauderdale, Florida 33304"},"type":"Feature","geometry":{"type":"Point","coordinates":[-80.135768,26.147611]}},{"properties":{"name":"King, Charles James","id":"a6gv0zb8khks","phone number":"954 473-6927","address":"711 E Plantation Circle, Plantation, Florida 33324"},"type":"Feature","geometry":{"type":"Point","coordinates":[-80.251335,26.133281]}},{"properties":{"name":"King, Mark Steven","id":"a6gv0z8amkcf","phone number":null,"address":"320 N Gordon Rd, Fort Lauderdale, Florida 33301"},"type":"Feature","geometry":{"type":"Point","coordinates":[-80.123413,26.125487]}},{"properties":{"name":"Kjeldgard, Linda Leigh","id":"a6gv0z5nfnsf","phone number":null,"address":"880 Fig Tree Lane (DNC), Plantation, Florida 33317"},"type":"Feature","geometry":{"type":"Point","coordinates":[-80.229786,26.109412]}},{"properties":{"name":"Kline, Tamy Lynn","id":"a6gv0z8oat9d","phone number":"(615)429-2156","address":"2655 Ne 8th Ave #104, Wilton Manors, Florida 33334"},"type":"Feature","geometry":{"type":"Point","coordinates":[-80.136605,26.160594]}},{"properties":{"name":"Knight, Robert Scott, Jr","id":"a6gv0z5capne","phone number":null,"address":"90 Isle of Venice, PO Box 350063 Fort Lauderdale, Florida 33335"},"type":"Feature","geometry":{"type":"Point","coordinates":[-80.335973,26.089215]}},{"properties":{"name":"Kooistra, Claudia Carina","id":"a6gv0z3dg6o4","phone number":null,"address":"804 SW 12th Court, Fort Lauderdale, Florida 33315"},"type":"Feature","geometry":{"type":"Point","coordinates":[-80.15086,26.106467]}},{"properties":{"name":"Kramm, Sonia Yvonne","id":"a6gv0z2mrmze","phone number":"954-524-8465","address":"1281 S Ocean Dr, Fort Lauderdale, Florida 33316"},"type":"Feature","geometry":{"type":"Point","coordinates":[-80.107819,26.106164]}},{"properties":{"name":"Lacayo, Salvadore Benjamin and Victoria Angelica","id":"a6gv0z89ih1f","phone number":"954-321-1629","address":"1681 NW 70th Ave Apt 216, Plantation, Florida 33313"},"type":"Feature","geometry":{"type":"Point","coordinates":[-80.243459,26.13949]}},{"properties":{"name":"Laguerre, verlaine and Elvida","id":"a6gv0z2kfc0q","phone number":"305-684-8373","address":"912 sw 3rd Ave, Hallendale, Florida 33009"},"type":"Feature","geometry":{"type":"Point","coordinates":[-80.151776,25.975676]}},{"properties":{"name":"Laloi, Christa","id":"a6gv0z22xhhu","phone number":"754-234-1850","address":"540 NW  4th Ave #402, Fort lauderdale, Florida 33311"},"type":"Feature","geometry":{"type":"Point","coordinates":[-80.14772,26.128725]}},{"properties":{"name":"Lampasone, Joseph Donald","id":"a6gv0zcxa2ow","phone number":"954-793-9710","address":"1620 N Victoria Park Rd, Fort Lauderdale, Florida 33305"},"type":"Feature","geometry":{"type":"Point","coordinates":[-80.123361,26.148372]}},{"properties":{"name":"Landers, Patricia Ann","id":"a6gv0zdjmt5t","phone number":"954-731-6162","address":"3460 NW 18 St, FT. Lauderdale, Florida 33315"},"type":"Feature","geometry":{"type":"Point","coordinates":[-80.160294,26.098684]}},{"properties":{"name":"Lane, Richard James","id":"a6gv0zflos4e","phone number":"(954)584-0493","address":"786 Nw 35th Ave, Fort Lauderdale, Florida 33311"},"type":"Feature","geometry":{"type":"Point","coordinates":[-80.195017,26.131535]}},{"properties":{"name":"Laracouinte, Jeff Sterlin","id":"a6gv0z6ui99e","phone number":"754-242-1570","address":"3940 West Broward Boulevard, Apt 104, Fort Lauderdale, Florida 33312"},"type":"Feature","geometry":{"type":"Point","coordinates":[-80.201077,26.120903]}},{"properties":{"name":"Lassin, Phara","id":"a6gv0zftdgu4","phone number":"754-234-8935","address":"3619 NW 21st Street, Apt 310, Lauderdale Lakes, 33311"},"type":"Feature","geometry":{"type":"Point","coordinates":[-80.170983,26.173281]}},{"properties":{"name":"Laura, Tia Monet","id":"a6gv0z2dbd0y","phone number":"954-733-2358","address":"2611 NW 56th Avenue #123, Fort Lauderdale, Florida 33313"},"type":"Feature","geometry":{"type":"Point","coordinates":[-80.226965,26.159968]}},{"properties":{"name":"Lauriston, Seraphin","id":"a6gv0z94xcf6","phone number":"954-274-7874","address":"1537 SW 44th Ave., Fort Lauderdale, Florida 33324"},"type":"Feature","geometry":{"type":"Point","coordinates":[-80.207675,26.102187]}},{"properties":{"name":"Leali'ie'e, Fiapito Mano","id":"a6gv0z3cor4z","phone number":"954 584-8439","address":"4141 SW 66th Way, Davie, Florida 33314"},"type":"Feature","geometry":{"type":"Point","coordinates":[-80.232274,26.0705]}},{"properties":{"name":"Leconte, Henri and Ismine","id":"a6gv0zd967xl","phone number":null,"address":"400 Se 15th St Apt 2, Fort Lauderdale, Florida 33316"},"type":"Feature","geometry":{"type":"Point","coordinates":[-80.138863,26.103002]}},{"properties":{"name":"Lee, Christine Shirley","id":"a6gv0z6sv9ed","phone number":"954-513-7233","address":"1156 N. University Drive, Plantation, Florida 33322"},"type":"Feature","geometry":{"type":"Point","coordinates":[-80.256773,26.139359]}},{"properties":{"name":"Lee, Darrell Edwin","id":"a6gv0zeipar1","phone number":"(954)567-0439","address":"2704 Duval Ln, Wilton Manors, Florida 33334"},"type":"Feature","geometry":{"type":"Point","coordinates":[-80.373554,26.115426]}},{"properties":{"name":"Lee-Pike, Chelsea Taren","id":"a6gv0zdqakov","phone number":"(253)590-6559","address":"633 Sw 3rd Ave #a, Fort Lauderdale, Florida 33315"},"type":"Feature","geometry":{"type":"Point","coordinates":[-80.146156,26.114121]}},{"properties":{"name":"Legere, Carmen Maria","id":"a6gv0zecuho7","phone number":"954-530-1281","address":"7570 Sunset Strip, Sunrise, Florida 33313"},"type":"Feature","geometry":{"type":"Point","coordinates":[-80.247202,26.153472]}},{"properties":{"name":"Lewis, Alicia Catrona","id":"a6gv0zcmck0g","phone number":"954-678-8437","address":"701 Azalea Ct, Sunrise, Florida 33324"},"type":"Feature","geometry":{"type":"Point","coordinates":[-80.10376,26.136878]}},{"properties":{"name":"Lewis, Eric George","id":"a6gv0ze2c821","phone number":null,"address":"4220 NW 21St. #204, Ft. Lauderdale, Florida 33313"},"type":"Feature","geometry":{"type":"Point","coordinates":[-80.205721,26.15376]}},{"properties":{"name":"Lewis, Wilbert Orlando","id":"a6gv0z74nt0d","phone number":"954-678-8437","address":"701 Azalea Ct, Sunrise, Florida 33324"},"type":"Feature","geometry":{"type":"Point","coordinates":[-80.10376,26.136878]}},{"properties":{"name":"Lindor, Marie Kehly","id":"a6gv0z423vy7","phone number":null,"address":"2132 NW 58 Ave, Lauderhill, Florida 33313"},"type":"Feature","geometry":{"type":"Point","coordinates":[-80.227133,26.153995]}},{"properties":{"name":"Lombana, Edward Henry and Heidy Piedad","id":"a6gv0z6qsadk","phone number":"321 298-3803","address":"3301 College Avenue, Fort Lauderdale, Florida 33314"},"type":"Feature","geometry":{"type":"Point","coordinates":[-80.23929,26.07685]}},{"properties":{"name":"Louis, Gesner and Guerda","id":"a6gv0z7tpkiu","phone number":null,"address":"7941 Nw 3rd Pl, Plantation Fl, Florida 33324"},"type":"Feature","geometry":{"type":"Point","coordinates":[-80.255517,26.126212]}},{"properties":{"name":"Lovers, Gloria Ann","id":"a6gv0z930ek4","phone number":null,"address":"941 SW 74 Terrace, Plantation, Florida 33317"},"type":"Feature","geometry":{"type":"Point","coordinates":[-80.247318,26.108394]}},{"properties":{"name":"Madrid Arellano, Mervin Esteven","id":"a6gv0za8vfmp","phone number":null,"address":"1511 SW 38 Apt, Fort Lauderdale, Florida 33312"},"type":"Feature","geometry":{"type":"Point","coordinates":[-80.169307,26.074562]}},{"properties":{"name":"Manuel, Jean Silvia","id":"a6gv0z2r485v","phone number":null,"address":"119 Sw 9th Ter, Fort Lauderdale, Florida 33312"},"type":"Feature","geometry":{"type":"Point","coordinates":[-80.154186,26.121109]}},{"properties":{"name":"Manus, Evelyne","id":"a6gv0z199zbx","phone number":"(954)822-5899","address":"2649 Nw 48th Ter #137, Lauderdale Lakes, Florida 33313"},"type":"Feature","geometry":{"type":"Point","coordinates":[-80.215209,26.159498]}},{"properties":{"name":"Marshall, Jeanne Anne","id":"a6gv0z3mqql8","phone number":"954 525-3919","address":"413 SE 16th Court, Fort Lauderdale, Florida 33316"},"type":"Feature","geometry":{"type":"Point","coordinates":[-80.138674,26.101155]}},{"properties":{"name":"Marshall, Kimberly Michelle","id":"a6gv0zbuiuda","phone number":null,"address":"413 Se 16th Ct, Fort Lauderdale, Florida 33316"},"type":"Feature","geometry":{"type":"Point","coordinates":[-80.138674,26.101155]}},{"properties":{"name":"Martin, Jessica Lynne","id":"a6gv0z9oxt5l","phone number":null,"address":"1484 SW 44th Terrace, Fort Lauderdale, Florida 33317"},"type":"Feature","geometry":{"type":"Point","coordinates":[-80.208359,26.102917]}},{"properties":{"name":"Martin, Patricia","id":"a6gv0zffvew2","phone number":"954 583-1168","address":"3628 SW 23rd Court, Fort Lauderdale, Florida 33312"},"type":"Feature","geometry":{"type":"Point","coordinates":[-80.195275,26.092586]}},{"properties":{"name":"Martin, Tousina Wallinter and CONSTANCE","id":"a6gv0zdb7s4w","phone number":"954-934-7112","address":"2301 NW 8th Ct. Apt. 2 Bldg. 22, Fort Lauderdale, Florida 33311"},"type":"Feature","geometry":{"type":"Point","coordinates":[-80.16666,26.151304]}},{"properties":{"name":"Martinez, Belem Holguin","id":"a6gv0z2ina7n","phone number":"954-468-9388","address":"1101 NE 14th Ave #2, Fort Lauderdale, Florida 33304"},"type":"Feature","geometry":{"type":"Point","coordinates":[-80.129728,26.13903]}},{"properties":{"name":"Martinez, Di Mas Raymond","id":"a6gv0z3059qz","phone number":null,"address":"3000 NW 48th Ter. Bldg 5  Apt 227, Ft. Lauderdale, Florida 33313"},"type":"Feature","geometry":{"type":"Point","coordinates":[-80.213291,26.161896]}},{"properties":{"name":"Mason, Barbara Joan","id":"a6gv0z2bs0me","phone number":"954-599-5781","address":"1137 SW 5th Place, Fort Lauderdale, Florida 33312"},"type":"Feature","geometry":{"type":"Point","coordinates":[-80.156501,26.114635]}},{"properties":{"name":"Masterson, Patricia Joan","id":"a6gv0zg6fkic","phone number":null,"address":"611 Sw 10th St Apt Rear, Fort Lauderdale, Florida 33315"},"type":"Feature","geometry":{"type":"Point","coordinates":[-80.155048,26.111894]}},{"properties":{"name":"Maxime, Jean Claude and Joanne Emmanvelle","id":"a6gv0ze4693e","phone number":"954-638-7575","address":"910 Riverside Drive, Fort Lauderdale, Florida 33312"},"type":"Feature","geometry":{"type":"Point","coordinates":[-80.16623,26.110703]}},{"properties":{"name":"Maxime, Marie Therese Jeannette","id":"a6gv0z88yty2","phone number":"954-486-4508","address":"2046 NW 43th Terr #7, Lauderhill, Florida 33313"},"type":"Feature","geometry":{"type":"Point","coordinates":[-80.207882,26.153204]}},{"properties":{"name":"Maxwell, Joan Marie","id":"a6gv0z7qeudw","phone number":"954-525-2805","address":"889 Riverside Dr. #205, Fort Lauderdale, Florida 33312"},"type":"Feature","geometry":{"type":"Point","coordinates":[-80.153295,26.117077]}},{"properties":{"name":"May, Jerry Powell and Camber Sue","id":"a6gv0z8zfknq","phone number":"954-327-7279","address":"6992 SW 39th St #206, Davie, Florida 33314"},"type":"Feature","geometry":{"type":"Point","coordinates":[-80.23151,26.046066]}},{"properties":{"name":"May, Matthew Russell and Nicole Marie","id":"a6gv0z7x3gzg","phone number":"954-288-0625","address":"4037 SW 5th St, Plantation, Florida 33317"},"type":"Feature","geometry":{"type":"Point","coordinates":[-80.203252,26.115232]}},{"properties":{"name":"McClendon, Jeanette","id":"a6gv0z6a094z","phone number":null,"address":"1795 NW 60th Ave., Sunrise, Florida 33313"},"type":"Feature","geometry":{"type":"Point","coordinates":[-80.23104,26.148431]}},{"properties":{"name":"McEntyre, Darvin Antwane","id":"a6gv0z890dp5","phone number":null,"address":"4301 NW 18th Street, Bldg O, #312, Lauderhill, Florida 33313"},"type":"Feature","geometry":{"type":"Point","coordinates":[-80.20939,26.149459]}},{"properties":{"name":"McFadden, Cindy","id":"a6gv0z1smgu0","phone number":"954-321-9435","address":"3801 Nw 5th Ct, Fort Lauderdale Fl, Florida 33311"},"type":"Feature","geometry":{"type":"Point","coordinates":[-80.19849,26.127098]}},{"properties":{"name":"Merissaint, Angeline","id":"a6gv0zfn8ipd","phone number":null,"address":"165 Vermont Ave, Fort Lauderdale, Florida 33312"},"type":"Feature","geometry":{"type":"Point","coordinates":[-80.197148,26.118907]}},{"properties":{"name":"Patterson, Marialva de Brito","id":"a6gv0z344hwt","phone number":"954-765-3425","address":"1000 Mango Isle, Ft Laud, Florida 33315"},"type":"Feature","geometry":{"type":"Point","coordinates":[-80.154405,26.105062]}}],"is_temporal":false,"author":{"url":"","metadata":"","contact_name":"","contact_address":"","source":"","contact_phone":""},"source":"","pagination":{"sort":null,"start":0,"total":99,"limit":1000000},"state":"complete","tags":"","published":"2014-08-10T15:23:25-04:00","id":54934}