{"type":"FeatureCollection","data_type":"Dataset","url_type":null,"permissions":[{"permissions":{"download":true,"view":true},"group_id":"everyone"}],"classification":null,"title":"Fort Lauderdale member directory3","count":456,"stream_id":54957,"contributor":{"url":"http://geocommons.com/users/13943","name":"gregular"},"data_attributes":null,"calculation_params":null,"icon_link":null,"link":"http://geocommons.com/overlays/54957.json","extent":[-80.3736,25.9757,-80.1006,26.2674],"geometry_types":["point"],"unique_name":null,"name":"Fort Lauderdale member directory3","feature_count":456,"description":"","next_feature":null,"is_raster":false,"short_classification":"Y","stats":{},"features":[{"properties":{"name":"Acevedo Martinez, Fermin Antonio and Daisy","id":"a638y9pr9480","phone number":"954-473-5252","address":"2072 SW 72nd Avenue, Davie, Florida 33317"},"type":"Feature","geometry":{"type":"Point","coordinates":[-80.227414,26.091476]}},{"properties":{"name":"Ackbar-Morais, Cislyn","id":"a638y9w8sdaj","phone number":"954-584-4993","address":"7280 NW 7th Street, Plantation, Florida 33317"},"type":"Feature","geometry":{"type":"Point","coordinates":[-80.244522,26.131604]}},{"properties":{"name":"Adams, debbie","id":"a638y9lgum2o","phone number":"305-742-6793","address":"6655 Broward Blvd #101D, Plantation, Florida 33317"},"type":"Feature","geometry":{"type":"Point","coordinates":[-80.235341,26.120809]}},{"properties":{"name":"Agenor, Maudeline Christina","id":"a638y9p2bca9","phone number":null,"address":"372 E Dayton Cir, Fort Lauderdale, Florida"},"type":"Feature","geometry":{"type":"Point","coordinates":[-80.191033,26.117166]}},{"properties":{"name":"Aguilar, Michael Elias","id":"a638y9nwsf5e","phone number":null,"address":"200 Se 20th St Apt 5, Fort Lauderdale, Florida 33316"},"type":"Feature","geometry":{"type":"Point","coordinates":[-80.139808,26.096468]}},{"properties":{"name":"Alfred Francis, Francilia","id":"a638y9ozd5js","phone number":null,"address":"1980 NW 46 Ave #132, Lauderhill, Florida 33313"},"type":"Feature","geometry":{"type":"Point","coordinates":[-80.210027,26.15128]}},{"properties":{"name":"Alfred, Yvrose","id":"a638y9p0oy6g","phone number":"954-593-2843","address":"2661 SW 8th Street, Fort Lauderdale, Florida 33312"},"type":"Feature","geometry":{"type":"Point","coordinates":[-80.176981,26.111395]}},{"properties":{"name":"Allred, Robert and Jennifer","id":"a638y9mppxsj","phone number":"954-915-6689","address":"7173 Orange Dr #214B, Davie, Florida 33314"},"type":"Feature","geometry":{"type":"Point","coordinates":[-80.23151,26.046066]}},{"properties":{"name":"Almendarez, Marie Jessie","id":"a638y9uvhdey","phone number":"954-709-2198","address":"1515 sw 6th Ave., Fort Lauderdale, Florida"},"type":"Feature","geometry":{"type":"Point","coordinates":[-80.149028,26.102006]}},{"properties":{"name":"Armsby, Olgan Nathaniel and Brenda Maria","id":"a638y9zzczyn","phone number":"954-714-7956","address":"1795 NW 60th Avenue, Apt B, Sunrise, Florida 33313"},"type":"Feature","geometry":{"type":"Point","coordinates":[-80.23104,26.148431]}},{"properties":{"name":"Arnold, Wiley Raymond","id":"a638y9sevn6t","phone number":null,"address":"2349 Sw 34th Ave, Fort Lauderdale, Florida 33312"},"type":"Feature","geometry":{"type":"Point","coordinates":[-80.190533,26.092744]}},{"properties":{"name":"Asturrizaga, Christopher Lawrence","id":"a638y9u9101b","phone number":"954-549-8964","address":"4217 W. Broward Blvd, Plantation, Florida 33317"},"type":"Feature","geometry":{"type":"Point","coordinates":[-80.205221,26.120882]}},{"properties":{"name":"Asturrizaga, William, Jr","id":"a638y9q8mayb","phone number":"954-303-8221","address":"4217 W. Broward Blvd, Plantation, Florida 33317"},"type":"Feature","geometry":{"type":"Point","coordinates":[-80.205221,26.120882]}},{"properties":{"name":"Baggerly, Joyce Ann","id":"a638y9t62qmw","phone number":null,"address":"640 North Fig Tree Lane, Plantation, Florida 33317"},"type":"Feature","geometry":{"type":"Point","coordinates":[-80.227998,26.130063]}},{"properties":{"name":"Baker, Mark Alexander","id":"a638y9wla6ps","phone number":"(954)563-4176","address":"317 Ne 29th St, Wilton Manors, Florida 33334"},"type":"Feature","geometry":{"type":"Point","coordinates":[-80.141858,26.163319]}},{"properties":{"name":"Baker, Mark Allen and Bethany","id":"a638y9m5bcdm","phone number":"801-859-1745","address":"7100 Nova Dr. #206, Davie, Florida 33317"},"type":"Feature","geometry":{"type":"Point","coordinates":[-80.228599,26.087205]}},{"properties":{"name":"Baptiste, Christopher","id":"a638y9zm8o1t","phone number":"954-739-4977","address":"2404 NW 39 Way, Apt. 201, Lauderdale Lakes, Florida 33311"},"type":"Feature","geometry":{"type":"Point","coordinates":[-80.201766,26.155714]}},{"properties":{"name":"Baptiste, Marc and Denise","id":"a638y9wacm7t","phone number":"954-213-3703","address":"632 sw 16th Ave. Apt. D, Fort Lauderdale, Florida 33312"},"type":"Feature","geometry":{"type":"Point","coordinates":[-80.162896,26.11347]}},{"properties":{"name":"Barbara, Angela Renee","id":"a638y9ueds4i","phone number":"954-584-6031","address":"7240 NW 7th Court, Plantation, Florida 33317"},"type":"Feature","geometry":{"type":"Point","coordinates":[-80.243818,26.132389]}},{"properties":{"name":"Bardowell, Richard St Michael","id":"a638y9kuo326","phone number":"954-581-4835","address":"5660 S 3rd Court, Plantation, Florida 33317"},"type":"Feature","geometry":{"type":"Point","coordinates":[-80.225488,26.116366]}},{"properties":{"name":"Barnes, Reginald Vance","id":"a638y9yyh0yp","phone number":"(954)564-9991","address":"2840 N Ocean Blvd Apt 309, Fort Lauderdale, Florida 33308"},"type":"Feature","geometry":{"type":"Point","coordinates":[-80.100879,26.163446]}},{"properties":{"name":"Beale, A D","id":"a638y9va8ivp","phone number":"954-494-8031","address":"1525 NW 5th Street, Fort Lauderdale, Florida 33312"},"type":"Feature","geometry":{"type":"Point","coordinates":[-80.16136,26.116378]}},{"properties":{"name":"Beatty, Kimberly Jane","id":"a638y9r0vyfj","phone number":"954-822-6085","address":"1633 SW 44th Terr, Fort Lauderdale, Florida 33317"},"type":"Feature","geometry":{"type":"Point","coordinates":[-80.208827,26.101439]}},{"properties":{"name":"Bedrosian, Clara Jean","id":"a638y9tcs5io","phone number":null,"address":"4044 Nw 19th St Apt 106-G, Lauderhill, Florida 33313"},"type":"Feature","geometry":{"type":"Point","coordinates":[-80.203403,26.150611]}},{"properties":{"name":"Beggs, Daniel Claude","id":"a638y9k3m6pu","phone number":null,"address":"813 Ne 22nd Dr, Wilton Manors Fl, Florida 33305"},"type":"Feature","geometry":{"type":"Point","coordinates":[-80.134909,26.156231]}},{"properties":{"name":"Behling, John Robert and Christine","id":"a638y9qxnri9","phone number":null,"address":"1204 SE 5th Court, Fort Lauderdale, Florida 33301"},"type":"Feature","geometry":{"type":"Point","coordinates":[-80.130887,26.115309]}},{"properties":{"name":"Bell, Brian Matthew and Carisa Maria","id":"a638y9tl551r","phone number":"(954)523-2391","address":"901 Sw 16th St # 903, Fort Lauderdale, Florida 33315"},"type":"Feature","geometry":{"type":"Point","coordinates":[-80.153896,26.100959]}},{"properties":{"name":"Bennett, Earl Andrew","id":"a638y9vc6byi","phone number":"(954)472-1780","address":"7175 Orange Dr # 212, Davie, Florida 33314"},"type":"Feature","geometry":{"type":"Point","coordinates":[-80.23151,26.046066]}},{"properties":{"name":"Bentley, Ralph Eugene, Jr","id":"a638y9ppu2ep","phone number":null,"address":"1240 SE 13th Terrace, Fort Lauderdale, Florida 33316"},"type":"Feature","geometry":{"type":"Point","coordinates":[-80.129962,26.106848]}},{"properties":{"name":"Benzon, Josef Andrew","id":"a638y9z9ccyl","phone number":null,"address":"2445 SW 18TH terrace #620, Fort Lauderdale, Florida 33324"},"type":"Feature","geometry":{"type":"Point","coordinates":[-80.254435,26.098066]}},{"properties":{"name":"Berensen, Casey James","id":"a638y9qvko3t","phone number":"954-597-7041","address":"1926 S W 4th St, Fort Lauderdale, Florida 33312"},"type":"Feature","geometry":{"type":"Point","coordinates":[-80.167021,26.118115]}},{"properties":{"name":"Best, Debra Ann","id":"a638y9ykq38b","phone number":"(954)423-4104","address":"3560 Nw 7th St, Fort Lauderdale, Florida 33311"},"type":"Feature","geometry":{"type":"Point","coordinates":[-80.196139,26.129668]}},{"properties":{"name":"Bethel, Frederick Uhuru and Scherrie Rochelle A","id":"a638y9tarpbx","phone number":"954-689-7638","address":"6101 Palm Trace Landings Drive #109, Davie, Florida 33314"},"type":"Feature","geometry":{"type":"Point","coordinates":[-80.23151,26.046066]}},{"properties":{"name":"Bezerra, Antonio Herberte Paz","id":"a638y9r114u1","phone number":"954-865-1123","address":"2796 S. University Drive #2208, Davie, Florida 33328"},"type":"Feature","geometry":{"type":"Point","coordinates":[-80.252076,26.076216]}},{"properties":{"name":"Bienaime, Loricia","id":"a638y9myz3o7","phone number":"954-327-4977","address":"190 NW 40th St, Oakland Park, Florida 33309"},"type":"Feature","geometry":{"type":"Point","coordinates":[-80.148199,26.175707]}},{"properties":{"name":"Black, Lorraine Santina","id":"a638y9p4ttzo","phone number":"561-860-1284","address":"5801 NW 17TH PL #7, SUNRISE, Florida 33313"},"type":"Feature","geometry":{"type":"Point","coordinates":[-80.2273,26.147976]}},{"properties":{"name":"Blough, Nancy Elizabeth","id":"a638y9kg62ps","phone number":"954-581-5347","address":"1701 NW 75th Avenue #203, Plantation, Florida 33317"},"type":"Feature","geometry":{"type":"Point","coordinates":[-80.247822,26.122287]}},{"properties":{"name":"Blume, Tricia Lee","id":"a638y9owrv7r","phone number":"954-804-8741","address":"2081 SW 27th Ave, Fort Lauderdale, Florida 33312"},"type":"Feature","geometry":{"type":"Point","coordinates":[-80.177206,26.096263]}},{"properties":{"name":"Bode, Hans Peter","id":"a638y9pvtx3n","phone number":null,"address":"200 S Birch Road #606, Fort Lauderdale, Florida 33316"},"type":"Feature","geometry":{"type":"Point","coordinates":[-80.106866,26.120904]}},{"properties":{"name":"Boehme, Jeffrey Michael","id":"a638y9yrqq9a","phone number":"(954)649-8772","address":"1118 N E 18th Ct, Ft Lauderdale, Florida 33305"},"type":"Feature","geometry":{"type":"Point","coordinates":[-80.132967,26.152383]}},{"properties":{"name":"Booth, Scott Jerome","id":"a638y9v8y3wz","phone number":null,"address":"4261 Sw 72nd Ter, Davie, Florida 33314"},"type":"Feature","geometry":{"type":"Point","coordinates":[-80.232225,26.068552]}},{"properties":{"name":"Bowmaster, Cindy Marie","id":"a638y9za99r0","phone number":"(954)584-5158","address":"6655 W Broward Blvd #404, Plantation, Florida 33317"},"type":"Feature","geometry":{"type":"Point","coordinates":[-80.235341,26.120809]}},{"properties":{"name":"Boyd, Stacie Michelle","id":"a638y9o4kql9","phone number":"810-836-5421","address":"2916 NW 60th Terr Apr 526, Sunrise, Florida 33313"},"type":"Feature","geometry":{"type":"Point","coordinates":[-80.233809,26.162597]}},{"properties":{"name":"Brauss, Robert Charles, Jr","id":"a638y9zphdjz","phone number":"954-583-1168","address":"3628 SW 23rd Court, Fort Lauderdale, Florida 33312"},"type":"Feature","geometry":{"type":"Point","coordinates":[-80.195275,26.092586]}},{"properties":{"name":"Brown, Benjamin J and Christina","id":"a638y9o2gyad","phone number":"954-370-4890","address":"2109 SW 72nd Ave, Davie, Florida 33317"},"type":"Feature","geometry":{"type":"Point","coordinates":[-80.227414,26.091476]}},{"properties":{"name":"Brown, Joel Andrae","id":"a638y9xy9y8u","phone number":"754-234-8935","address":"3610 NW 21 St, Lauderdale Lakes, Florida"},"type":"Feature","geometry":{"type":"Point","coordinates":[-80.202968,26.153768]}},{"properties":{"name":"Brown, Leona Mae","id":"a638ya02eumw","phone number":"954-581-8743","address":"930 NW 35th Terrace, Fort Lauderdale, Florida 33311"},"type":"Feature","geometry":{"type":"Point","coordinates":[-80.195851,26.13451]}},{"properties":{"name":"Brown, Lysent Roy","id":"a638y9kkm2ed","phone number":"954-709-7173","address":"4550 NW 25th Place, Lauderhill, Florida 33313"},"type":"Feature","geometry":{"type":"Point","coordinates":[-80.211063,26.157884]}},{"properties":{"name":"Brown, Mark Andrew","id":"a638y9nnfr90","phone number":null,"address":"7071 NW 6th Court, Plantation, Florida 33317"},"type":"Feature","geometry":{"type":"Point","coordinates":[-80.241615,26.130602]}},{"properties":{"name":"Brown, Melva Grace","id":"a638y9mf50kg","phone number":"954-484-7575","address":"4044 NW 19th St.   #G-403, Lauderhill, Florida 33313"},"type":"Feature","geometry":{"type":"Point","coordinates":[-80.203403,26.150611]}},{"properties":{"name":"Brown, Mink Jasmine","id":"a638y9pyqdu9","phone number":"954-326-4557","address":"3425 SW 12th Place, Fort Lauderdale, Florida 33312"},"type":"Feature","geometry":{"type":"Point","coordinates":[-80.191932,26.105478]}},{"properties":{"name":"Brown, Mink Stanisha","id":"a638y9lvzmx8","phone number":"954-683-5982","address":"3425 SW 12th Place, Fort Lauderdale, Florida 33312"},"type":"Feature","geometry":{"type":"Point","coordinates":[-80.191932,26.105478]}},{"properties":{"name":"Brown, Stanley Edward and Vendetta I","id":"a638ya0k7gvf","phone number":"954-548-8085","address":"3425 SW 12th Place, Fort Lauderdale, Florida 33312"},"type":"Feature","geometry":{"type":"Point","coordinates":[-80.191932,26.105478]}},{"properties":{"name":"Brown, Steve and Crystal Dawn","id":"a638y9tnt0sc","phone number":"801-367-7611","address":"7175 Nova Dr. #101, Davie, Florida 33317"},"type":"Feature","geometry":{"type":"Point","coordinates":[-80.228599,26.087205]}},{"properties":{"name":"Bryant, Willie Mae","id":"a638y9rafnip","phone number":null,"address":"2932 NW 11th Place, Fort Lauderdale, Florida 33311"},"type":"Feature","geometry":{"type":"Point","coordinates":[-80.18324,26.139225]}},{"properties":{"name":"Burges, John and Debbie","id":"a638y9w6g5o6","phone number":"954-822-0657","address":"1408 SW 33 Court, Fort Lauderdale, Florida 33315"},"type":"Feature","geometry":{"type":"Point","coordinates":[-80.15895,26.082652]}},{"properties":{"name":"Byrom, Franklin","id":"a638y9qml7kk","phone number":null,"address":"1541 Nw 15th Ter, Fort Lauderdale, Florida 33311"},"type":"Feature","geometry":{"type":"Point","coordinates":[-80.163287,26.146624]}},{"properties":{"name":"Caceres, Angelica Maria","id":"a638y9olynus","phone number":null,"address":"581 Nw 65th Ave, Plantation, Florida 33317"},"type":"Feature","geometry":{"type":"Point","coordinates":[-80.235922,26.129479]}},{"properties":{"name":"Cady, Paul Michael and Angela Stephane","id":"a638y9mz5fn6","phone number":"208-241-3930","address":"2891 SW 71st Terrace #1204, Davie, Florida 33328"},"type":"Feature","geometry":{"type":"Point","coordinates":[-80.245012,26.084025]}},{"properties":{"name":"Calvay, Orlando Javier and Jennifer Lee","id":"a638y9xgp0m7","phone number":null,"address":"2804 nw 80 ave., sunrise, Florida 33322"},"type":"Feature","geometry":{"type":"Point","coordinates":[-80.165628,26.136537]}},{"properties":{"name":"Cambareri, Bonnie Viola","id":"a638y9tq1099","phone number":"954-584-0628","address":"5621 SW 9th St, Plantation, Florida 33317"},"type":"Feature","geometry":{"type":"Point","coordinates":[-80.225182,26.109134]}},{"properties":{"name":"Cardon, Jared Pratt","id":"a638y9oi6lgg","phone number":null,"address":"847 Ne 16th Ter, Fort Lauderdale, Florida 33304"},"type":"Feature","geometry":{"type":"Point","coordinates":[-80.126676,26.134644]}},{"properties":{"name":"Cardona Lopez, Fredy","id":"a638y9pki4le","phone number":null,"address":"1896 Sw 4151 Apt # 2, Fort Lauderdale, Florida 33317"},"type":"Feature","geometry":{"type":"Point","coordinates":[-80.202811,26.118221]}},{"properties":{"name":"Carrasco Alegria, Raquel Amanda De","id":"a638y9tb0r5s","phone number":"(954)746-4232","address":"2340 Nw 72nd Ave, Sunrise, Florida 33313"},"type":"Feature","geometry":{"type":"Point","coordinates":[-80.243172,26.155001]}},{"properties":{"name":"Carter, Cura Marvalyn","id":"a638y9y5fnh0","phone number":"954-530-5143","address":"5840 NW 16th Place #2, Sunrise, Florida 33313"},"type":"Feature","geometry":{"type":"Point","coordinates":[-80.228012,26.146053]}},{"properties":{"name":"Carter, Mable","id":"a638y9z5r5ob","phone number":"(954)717-8504","address":"3860 Nw 25th St, Lauderdale Lakes, Florida 33311"},"type":"Feature","geometry":{"type":"Point","coordinates":[-80.199902,26.156441]}},{"properties":{"name":"Carter, Thomas Dean","id":"a638y9y3flvc","phone number":"954-270-5300","address":"520 E Acre Dr, Plantation, Florida 33317"},"type":"Feature","geometry":{"type":"Point","coordinates":[-80.219788,26.127259]}},{"properties":{"name":"Casimir, Danae","id":"a638y9wulvqh","phone number":"954-628-5869","address":"5617 Washington St., Bulding E # 159, Hollywood, Florida 33023"},"type":"Feature","geometry":{"type":"Point","coordinates":[-80.199405,26.002629]}},{"properties":{"name":"Casperson, Brock and Tara Marie","id":"a638y9tv9x2r","phone number":"208-220-1849","address":"2640 S. University Dr. Apt. 219, Davie, Florida 33328"},"type":"Feature","geometry":{"type":"Point","coordinates":[-80.250884,26.084978]}},{"properties":{"name":"Cearc, Joseph and Carlyne","id":"a638y9r72j2h","phone number":"239-200-5317","address":"6124 NW 26 St, Fort Lauderdale, Florida 33313"},"type":"Feature","geometry":{"type":"Point","coordinates":[-80.232932,26.159868]}},{"properties":{"name":"Christensen, Lamohr","id":"a638y9s3e38h","phone number":"954-581-3704","address":"780 Pine Ridge Drive, Plantation, Florida 33317"},"type":"Feature","geometry":{"type":"Point","coordinates":[-80.217497,26.111445]}},{"properties":{"name":"Cipully, Carol Jean","id":"a638y9vez39m","phone number":null,"address":"6760 NW 24th Place, Sunrise, Florida 33313"},"type":"Feature","geometry":{"type":"Point","coordinates":[-80.238843,26.157432]}},{"properties":{"name":"Cisneros, Pedro Francisco","id":"a638y9xy3qex","phone number":"954-568-5224","address":"1778 Ne 18th St, Fort Lauderdale, Florida 33305"},"type":"Feature","geometry":{"type":"Point","coordinates":[-80.123171,26.151558]}},{"properties":{"name":"Clay George, George Blaine, Sr","id":"a638y9rra968","phone number":"954-485-2111","address":"2900 NW 47th Terrace, Apt. 102, Lauderdale Lakes, Florida 33313"},"type":"Feature","geometry":{"type":"Point","coordinates":[-80.214454,26.160607]}},{"properties":{"name":"Clay, Elva Joan","id":"a638y9os10tp","phone number":"954-731-9851","address":"2900 NW  47th Terrace, Apt # 103, lauderdale lakes, Florida 33313"},"type":"Feature","geometry":{"type":"Point","coordinates":[-80.214454,26.160607]}},{"properties":{"name":"Clayton, Mark and Effie Loren","id":"a638y9kzavlo","phone number":"954-382-1616","address":"6913 College Ct. #5-201, Davie, Florida 33317"},"type":"Feature","geometry":{"type":"Point","coordinates":[-80.228599,26.087205]}},{"properties":{"name":"Clement, David Scott, II","id":"a638y9ukugcd","phone number":"954-565-4935","address":"2008 NE 26th Drive, Wilton Manors, Florida 33305"},"type":"Feature","geometry":{"type":"Point","coordinates":[-80.120842,26.160464]}},{"properties":{"name":"Coad, Doyle Merwin","id":"a638y9ntu37w","phone number":null,"address":"2001 NW 9th Avenue #332, Fort Lauderdale, Florida 33324"},"type":"Feature","geometry":{"type":"Point","coordinates":[-80.267456,26.134987]}},{"properties":{"name":"Coad, John Sterling","id":"a638y9sjxkny","phone number":"(954)463-9686","address":"2001 Nw 9th Ave Apt 332, Fort Lauderdale, Florida 33311"},"type":"Feature","geometry":{"type":"Point","coordinates":[-80.16666,26.151304]}},{"properties":{"name":"Cofer, Don Edward, Jr and Roxanna Marie","id":"a638y9uhneqs","phone number":"954-940-0175","address":"327 SW 17th Street, Fort Lauderdale, Florida 33315"},"type":"Feature","geometry":{"type":"Point","coordinates":[-80.14545,26.100162]}},{"properties":{"name":"Combs, David Ray and Guernande","id":"a638y9vpn3ck","phone number":null,"address":"809 Ne 17th St, Ft Lauderdale, Florida 33305"},"type":"Feature","geometry":{"type":"Point","coordinates":[-80.135821,26.149833]}},{"properties":{"name":"Comeau, Arthur Joseph","id":"a638y9n6soji","phone number":null,"address":"2655 Ne 8th Ave Apt 112, Wilton Manors, Florida 33334"},"type":"Feature","geometry":{"type":"Point","coordinates":[-80.136605,26.160594]}},{"properties":{"name":"Comery, Cheryl Antonett","id":"a638y9wvcyz2","phone number":"954-677-8756","address":"3711 NW 21st Street #312, Fort Lauderdale, Florida 33324"},"type":"Feature","geometry":{"type":"Point","coordinates":[-80.254398,26.094141]}},{"properties":{"name":"Congdon, Laura Rae","id":"a638y9y9se7q","phone number":"954-394-0398","address":"1207 E Broward Blvd #3, Fort Lauderdale, Florida 33301"},"type":"Feature","geometry":{"type":"Point","coordinates":[-80.131197,26.122599]}},{"properties":{"name":"Congdon, Raymond Alexander","id":"a638y9rrk6ad","phone number":"435-256-5580","address":"437 NE 1st Ave #3, Fort Lauderdale, Florida 33301"},"type":"Feature","geometry":{"type":"Point","coordinates":[-80.142689,26.126733]}},{"properties":{"name":"Conklin, Aaron Todd","id":"a638y9n232pj","phone number":null,"address":"209 N Fort Lauderdale Beach Blvd Apt 4g, Ft Lauderdale, Florida 33304"},"type":"Feature","geometry":{"type":"Point","coordinates":[-80.103522,26.125993]}},{"properties":{"name":"Constant, Yves, Jr.","id":"a638y9vutwsd","phone number":"954-792-8615","address":"1477 NW 60th Av., Sunrise, Florida 33313"},"type":"Feature","geometry":{"type":"Point","coordinates":[-80.230589,26.142725]}},{"properties":{"name":"Cook, Benjamin Bryan and Miriam","id":"a638y9t5xar6","phone number":"208-351-6196","address":"2620 South University Dr. Apt  205, Davie, Florida 33328"},"type":"Feature","geometry":{"type":"Point","coordinates":[-80.250915,26.085451]}},{"properties":{"name":"Cook, Crystal Denise","id":"a638y9v5uspe","phone number":"(454)327-7952","address":"506 Nw 23rd Ave, Fort Lauderdale, Florida 33311"},"type":"Feature","geometry":{"type":"Point","coordinates":[-80.173016,26.127345]}},{"properties":{"name":"Copenheaver, Christian Edward","id":"a638y9ylnfuj","phone number":null,"address":"521 SW 18th Ave, Ft Lauderdale, Florida 33312"},"type":"Feature","geometry":{"type":"Point","coordinates":[-80.165621,26.114928]}},{"properties":{"name":"Corral, Thomas Dante","id":"a638y9s9pjqc","phone number":"(954)760-4762","address":"434 Ne 17th Ave, Fort Lauderdale, Florida 33301"},"type":"Feature","geometry":{"type":"Point","coordinates":[-80.125323,26.127643]}},{"properties":{"name":"Cowley, Gordon Scott","id":"a638ya05mx34","phone number":null,"address":"1811 SW 9th Avenue, Fort Lauderdale, Florida 33315"},"type":"Feature","geometry":{"type":"Point","coordinates":[-80.153098,26.099028]}},{"properties":{"name":"Crandall, Darrel Joe","id":"a638y9o5cms8","phone number":null,"address":"817 Ne 22nd Dr, Wilton Manors, Florida 33305"},"type":"Feature","geometry":{"type":"Point","coordinates":[-80.134868,26.156251]}},{"properties":{"name":"Cromar, James Leroy","id":"a638y9usql7c","phone number":"954-444-0144","address":"2408 Ne 8th Ave, Wilton Manors, Florida 33305"},"type":"Feature","geometry":{"type":"Point","coordinates":[-80.136264,26.15758]}},{"properties":{"name":"Cross, Jamie","id":"a638y9rhug46","phone number":"954-990-4412","address":"2772 SW 16th St, Fort Lauderdale, Florida 33312"},"type":"Feature","geometry":{"type":"Point","coordinates":[-80.178843,26.101328]}},{"properties":{"name":"Crouch, Cecil James, Jr","id":"a638y9we455v","phone number":"954-667-4506","address":"4765 S.W. 23rd Ter., Fort Lauderdale, Florida 33312"},"type":"Feature","geometry":{"type":"Point","coordinates":[-80.172026,26.062704]}},{"properties":{"name":"Cryan, Olga Raquel","id":"a638y9zrn9kl","phone number":null,"address":"5935 Del Lago Cir Apt 207, Sunrise, Florida 33313"},"type":"Feature","geometry":{"type":"Point","coordinates":[-80.231024,26.137131]}},{"properties":{"name":"Cuellar, Noe","id":"a638y9ptsbef","phone number":"954 568-1511","address":"1310 NE 30th Street, Fort Lauderdale, Florida 33334"},"type":"Feature","geometry":{"type":"Point","coordinates":[-80.129621,26.164931]}},{"properties":{"name":"Da Costa, Jason Richard","id":"a638y9v5wgcu","phone number":"(954)327-8499","address":"4037 Sw 5th St, Plantation, Florida 33317"},"type":"Feature","geometry":{"type":"Point","coordinates":[-80.203252,26.115232]}},{"properties":{"name":"Dalencour, Marceline Claire","id":"a638y9ys56it","phone number":"786-873-6485","address":"7840 NW 3rd St. Bldg 12 Apt. 204, Pembroke Pines, Florida 33024"},"type":"Feature","geometry":{"type":"Point","coordinates":[-80.245206,26.012242]}},{"properties":{"name":"Dalencourt, Carmelle","id":"a638y9qeoyas","phone number":"954-628-5869","address":"5641 Washington Street Apt. #H-109, Hollywood, Florida 33023"},"type":"Feature","geometry":{"type":"Point","coordinates":[-80.199931,26.002633]}},{"properties":{"name":"Dalley, Joseph Winthrop","id":"a638y9zgoxtu","phone number":null,"address":"3565 Sw 52nd Ave, Davie, 33314"},"type":"Feature","geometry":{"type":"Point","coordinates":[-80.219903,26.079406]}},{"properties":{"name":"Damis, Fernande","id":"a638y9lugzxs","phone number":"954-730-9355","address":"2941 NW 44 Ave, Fort Lauderdale, Florida 33313"},"type":"Feature","geometry":{"type":"Point","coordinates":[-80.207665,26.162376]}},{"properties":{"name":"Damis, Peterson","id":"a638y9q17yle","phone number":"954-446-3599","address":"2941 nw 44th Ave, Fort Lauderdale, Florida 33313"},"type":"Feature","geometry":{"type":"Point","coordinates":[-80.207665,26.162376]}},{"properties":{"name":"Daniel, Christopher Paul","id":"a638y9qcd83z","phone number":null,"address":"5800 Nw 27th Ct, Lauderhill, Florida 33313"},"type":"Feature","geometry":{"type":"Point","coordinates":[-80.22868,26.160961]}},{"properties":{"name":"Dasilva-Vanzan, Sherri Dee","id":"a638y9spmln9","phone number":null,"address":"5201 SW 9th Street, Plantation, Florida 33317"},"type":"Feature","geometry":{"type":"Point","coordinates":[-80.219391,26.109717]}},{"properties":{"name":"Davilma, Lifranc","id":"a638y9xdy2q9","phone number":"954-548-5825","address":"1008 Long Island Avenue, Fort Lauderdale, Florida 33312"},"type":"Feature","geometry":{"type":"Point","coordinates":[-80.195434,26.108646]}},{"properties":{"name":"Dawson, Sherl Lynn","id":"a638y9uk4zb8","phone number":null,"address":"8000 Sunrise Lakes Dr N Apt 310, Sunrise Fl, Florida 33322"},"type":"Feature","geometry":{"type":"Point","coordinates":[-80.256968,26.14847]}},{"properties":{"name":"Decollibus, Diane Marie","id":"a638y9o3khfi","phone number":"954 760-4713","address":"709 SW 8th Avenue, Fort Lauderdale, Florida 33315"},"type":"Feature","geometry":{"type":"Point","coordinates":[-80.151058,26.112756]}},{"properties":{"name":"Dell, Michael Thomas","id":"a638y9yy18xj","phone number":null,"address":"233 E. Acre Dr, Plantation, Florida 33317"},"type":"Feature","geometry":{"type":"Point","coordinates":[-80.219677,26.124033]}},{"properties":{"name":"Demeo, Christopher Armando","id":"a638y9kp1fhr","phone number":"(954)472-6207","address":"2721 Sw 71st #715, Davie, Florida 33314"},"type":"Feature","geometry":{"type":"Point","coordinates":[-80.229189,26.085441]}},{"properties":{"name":"Deshommes, Sherlley","id":"a638y9ngrypp","phone number":"954-735-7094","address":"3516 NW 23 Ct, Lauderdale Lakes, Florida 33311"},"type":"Feature","geometry":{"type":"Point","coordinates":[-80.195188,26.155637]}},{"properties":{"name":"Dickamore, Robert Chad","id":"a638y9pnmw56","phone number":null,"address":"2625 Ne 14th Ave Apt 501, Oakland Park Fl, Florida 33334"},"type":"Feature","geometry":{"type":"Point","coordinates":[-80.112726,26.167359]}},{"properties":{"name":"Dodds, Bernice Clara","id":"a638y9rv8qkz","phone number":null,"address":"366 W Dayton Cir, Ft Lauderdale Fl, Florida 33312"},"type":"Feature","geometry":{"type":"Point","coordinates":[-80.195275,26.117195]}},{"properties":{"name":"Donalds, Elane Veronica","id":"a638y9scfc6c","phone number":"954 624-2961","address":"2550 NW 56th Ave 210, Fort Lauderdale, Florida 33324"},"type":"Feature","geometry":{"type":"Point","coordinates":[-80.226954,26.159358]}},{"properties":{"name":"Donnelly, James Dayton","id":"a638y9nil7te","phone number":"954-398-9250","address":"1408 Ne 17th St, Fort Lauderdale, Florida 33305"},"type":"Feature","geometry":{"type":"Point","coordinates":[-80.130216,26.14939]}},{"properties":{"name":"Ducharme, Kelly Sue","id":"a638y9qplmhu","phone number":null,"address":"825 Garden Ct, Plantation, Florida 33317"},"type":"Feature","geometry":{"type":"Point","coordinates":[-80.232068,26.132878]}},{"properties":{"name":"Dulcio, Hughes Jean Ronald and Mercilia","id":"a638y9sg0h62","phone number":null,"address":"2780 Somerset Dr, Apt 116 Lauderdale Lakes, Florida 33311"},"type":"Feature","geometry":{"type":"Point","coordinates":[-80.189571,26.16125]}},{"properties":{"name":"Duplessy, Marie Laura","id":"a638y9xh9q95","phone number":"954-496-6125","address":"1225 NW 19th Street, #B, Fort Lauderdale, Florida 33311"},"type":"Feature","geometry":{"type":"Point","coordinates":[-80.158608,26.151443]}},{"properties":{"name":"Duroseau, Mirlande","id":"a638y9kj89uf","phone number":"954-463-5345","address":"701 NW 19th St #210, Fort Lauderdale, Florida 33311"},"type":"Feature","geometry":{"type":"Point","coordinates":[-80.151463,26.151659]}},{"properties":{"name":"Dyke, Margaret Rose","id":"a638y9nw52dl","phone number":"954-463-2362","address":"1212 Tequesta Street, Fort Lauderdale, Florida 33312"},"type":"Feature","geometry":{"type":"Point","coordinates":[-80.157351,26.117582]}},{"properties":{"name":"Edman, Mark","id":"a638y9nwifoz","phone number":null,"address":"3070 N.W. 48th Terrace, #406 Lauderdale Lakes, Florida 33313"},"type":"Feature","geometry":{"type":"Point","coordinates":[-80.215057,26.164447]}},{"properties":{"name":"Elam, Eris Eloise","id":"a638y9rt3ssm","phone number":"954 584-5968","address":"3613 Riverland Road, Fort Lauderdale, Florida 33324"},"type":"Feature","geometry":{"type":"Point","coordinates":[-80.194908,26.09181]}},{"properties":{"name":"Esparza Hernandez, Alejandro and Leslie","id":"a638y9p44p96","phone number":null,"address":"440 NE 4th Ave. #207, Fort Lauderdale, Florida 33301"},"type":"Feature","geometry":{"type":"Point","coordinates":[-80.139714,26.126883]}},{"properties":{"name":"Estebanez, Adrienne Teresa","id":"a638y9uj9b6l","phone number":null,"address":"2140 Sw 28th Ter, Fort Lauderdale, Florida 33312"},"type":"Feature","geometry":{"type":"Point","coordinates":[-80.180083,26.094887]}},{"properties":{"name":"Eugene, Jocelyn and Viola","id":"a638y9q0m4gx","phone number":"954-297-2307","address":"2041 NW 63 rd Ave, Sunrise, Florida 33313"},"type":"Feature","geometry":{"type":"Point","coordinates":[-80.23424,26.151774]}},{"properties":{"name":"Eugene, Josue","id":"a638y9kix7zb","phone number":"954-770-6965","address":"1227 NE 5th Terr, Apt 204 Fort Lauderdale, Florida 33304"},"type":"Feature","geometry":{"type":"Point","coordinates":[-80.138623,26.141213]}},{"properties":{"name":"Eugene, Violene","id":"a638y9nzcdl0","phone number":null,"address":"2041 NW 63rd Ave, Sunrise, Florida 33313"},"type":"Feature","geometry":{"type":"Point","coordinates":[-80.23424,26.151774]}},{"properties":{"name":"Fede, Lynela","id":"a638y9zv8bl8","phone number":null,"address":"2951 Nw 43rd Ter Apt C, Laud Lakes Fl, Florida 33313"},"type":"Feature","geometry":{"type":"Point","coordinates":[-80.2069,26.16246]}},{"properties":{"name":"Felton, Tommy Neal and Sonya Lynn","id":"a638y9oayfn4","phone number":"754-234-8578","address":"4241 SW 55 Ave., Fort Lauderdale, 33314"},"type":"Feature","geometry":{"type":"Point","coordinates":[-80.220487,26.0688]}},{"properties":{"name":"Fertil, Raymonde","id":"a638ya0c7cnz","phone number":null,"address":"2021 NW 43rd Terr Apt.l 134, Lauderhill, Florida 33313"},"type":"Feature","geometry":{"type":"Point","coordinates":[-80.207881,26.152926]}},{"properties":{"name":"Fiack, Robert Lee","id":"a638y9tfhm4b","phone number":"954-410-7305","address":"1304 NW 3rd Ave # Rear, Fort Lauderdale, Florida 33311"},"type":"Feature","geometry":{"type":"Point","coordinates":[-80.148026,26.149953]}},{"properties":{"name":"Fixalant, Nadege","id":"a638y9npn6oh","phone number":"954-404-0341","address":"420 NE 1st Avenue, Apt #1, Fort Lauderdale, Florida 33301"},"type":"Feature","geometry":{"type":"Point","coordinates":[-80.137323,26.126583]}},{"properties":{"name":"Flake, Coleson Calvin","id":"a638y9vdruko","phone number":"954-759-1016","address":"508 Bayshore Drive, #3, Fort Lauderdale, Florida 33334"},"type":"Feature","geometry":{"type":"Point","coordinates":[-80.14222,26.159996]}},{"properties":{"name":"Fletcher, Gracie Mae","id":"a638y9v2mazd","phone number":"954-573-4180","address":"2921 Nw 9th Ct, Fort Lauderdale, Florida 33311"},"type":"Feature","geometry":{"type":"Point","coordinates":[-80.183955,26.13479]}},{"properties":{"name":"Floyd, Kevin C.","id":"a638y9sdamjz","phone number":"954-345-2556","address":"3050 NW Riverside Dr, Coral Springs, Florida 33065"},"type":"Feature","geometry":{"type":"Point","coordinates":[-80.235413,26.26737]}},{"properties":{"name":"Fowler, Patricia Ann Gormley","id":"a638y9mgd1tt","phone number":"954-530-5253","address":"830 NW 6th Ave #4, Fort Lauderdale, Florida 33311"},"type":"Feature","geometry":{"type":"Point","coordinates":[-80.149879,26.133638]}},{"properties":{"name":"Franchina, Christine Lee","id":"a638y9rp9kng","phone number":null,"address":"1272 Seminole Dr, Fort Lauderdale, Florida 33304"},"type":"Feature","geometry":{"type":"Point","coordinates":[-80.110934,26.143202]}},{"properties":{"name":"Franklin, James David","id":"a638y9w0zgox","phone number":"(954)467-8717","address":"1106 Sw 18th Ct, Fort Lauderdale, 33315"},"type":"Feature","geometry":{"type":"Point","coordinates":[-80.156043,26.097926]}},{"properties":{"name":"Freeman, Kurt Andrewe, Jr","id":"a638y9rdvdmg","phone number":"954-601-7230","address":"1060 NW 20th Street, Fort Lauderdale, Florida 33311"},"type":"Feature","geometry":{"type":"Point","coordinates":[-80.157132,26.152977]}},{"properties":{"name":"Fritz, Carole Jillian","id":"a638y9olef5o","phone number":null,"address":"2530 Key Largo Lane, Fort Lauderdale, Florida 33312"},"type":"Feature","geometry":{"type":"Point","coordinates":[-80.193599,26.089276]}},{"properties":{"name":"Gaitan Gonzalez, Eder Hiowani","id":"a638y9l1osdj","phone number":"(954)-563-3363","address":"925 N.W. 30 Court # 5, Fort Lauderdale Florida Fort Lauderdale, Florida 33377"},"type":"Feature","geometry":{"type":"Point","coordinates":[-80.154807,26.165314]}},{"properties":{"name":"Galeas, Jorge Ricardo and Gilda Florence","id":"a638y9s9d31c","phone number":"954-445-6621","address":"3000 NW 48th Terrace #323, Lauder Lakes, Florida 33313"},"type":"Feature","geometry":{"type":"Point","coordinates":[-80.213291,26.161896]}},{"properties":{"name":"Galloway, Kevin Lamar","id":"a638y9rwgqok","phone number":"954 578-1356","address":"8091 NW 20 Court, Fort Lauderdale, Florida 33322"},"type":"Feature","geometry":{"type":"Point","coordinates":[-80.252368,26.150495]}},{"properties":{"name":"Gandolfi, Jeana Michelle","id":"a638y9oeyktv","phone number":"(954)522-1261","address":"1235 Sw 19th Ave, Fort Lauderdale, Florida 33312"},"type":"Feature","geometry":{"type":"Point","coordinates":[-80.166952,26.105924]}},{"properties":{"name":"Garcia, Ana Senobia","id":"a638y9x27sif","phone number":"(954)792-3086","address":"6450 Sw 13th St, Plantation, Florida 33317"},"type":"Feature","geometry":{"type":"Point","coordinates":[-80.234508,26.104944]}},{"properties":{"name":"Garcia, Luis Antonio","id":"a638y9td9umy","phone number":null,"address":"3180 Sw 13th Ct, Fort Lauderdale, Florida 33312"},"type":"Feature","geometry":{"type":"Point","coordinates":[-80.187333,26.103784]}},{"properties":{"name":"Garrett, Dade Alex","id":"a638y9leghmz","phone number":"954-881-1194","address":"2208 NW 59th Way, Building 62A, Lauderhill, Florida 33313"},"type":"Feature","geometry":{"type":"Point","coordinates":[-80.230819,26.156598]}},{"properties":{"name":"Gauch, Barry Philip","id":"a638y9mu1dli","phone number":null,"address":"1516 Argyle Drive, Fort Lauderdale, Florida 33312"},"type":"Feature","geometry":{"type":"Point","coordinates":[-80.161416,26.120116]}},{"properties":{"name":"Gaynier, Brad and Camella","id":"a638y9txbkk0","phone number":"954-452-3349","address":"4424 SW 72nd Way, Davie, Florida 33314"},"type":"Feature","geometry":{"type":"Point","coordinates":[-80.232163,26.066391]}},{"properties":{"name":"Gelin, Willio","id":"a638y9nlz7ia","phone number":"561-255-4660","address":"1643 NW 11th Avenue, Fort Lauderdale, Florida 33311"},"type":"Feature","geometry":{"type":"Point","coordinates":[-80.155998,26.148062]}},{"properties":{"name":"Geng, Kimberly Dawn","id":"a638y9sfltqs","phone number":null,"address":"405 Sw 13th Ter, Ft Lauderdale Fl, Florida 33312"},"type":"Feature","geometry":{"type":"Point","coordinates":[-80.160527,26.104957]}},{"properties":{"name":"Georges, Michelda","id":"a638y9mlvol0","phone number":"954-439-8752","address":"410 East Dayton Circle, Fort Lauderdale, Florida 33312"},"type":"Feature","geometry":{"type":"Point","coordinates":[-80.189939,26.11614]}},{"properties":{"name":"Gianutsos, Carrie","id":"a638y9ry19ql","phone number":null,"address":"1428 Sw 9th St, Ft Lauderdale, Florida 33312"},"type":"Feature","geometry":{"type":"Point","coordinates":[-80.160546,26.110548]}},{"properties":{"name":"Giessing, Jeffrey Aage","id":"a638ya0m3e0g","phone number":"(954)566-5300","address":"2617 Ne 14th Ave Apt 101, Oakland Park, Florida 33334"},"type":"Feature","geometry":{"type":"Point","coordinates":[-80.112846,26.167357]}},{"properties":{"name":"Gilbert, Prisenia Elese","id":"a638y9kp3pz0","phone number":"954-854-8378","address":"4848 NW 8th Court, Plantation, Florida 33317"},"type":"Feature","geometry":{"type":"Point","coordinates":[-80.215923,26.133946]}},{"properties":{"name":"Gonzales, Jose Manuel","id":"a638y9zo11s4","phone number":"954-708-8762","address":"42nd Ct bldg 23 bay 5, Davie, Florida 33022"},"type":"Feature","geometry":{"type":"Point","coordinates":[-80.236759,26.03866]}},{"properties":{"name":"Goodstein, Richard and Janis","id":"a638y9y38qvz","phone number":"954 452-9542","address":"286 NW 78th Avenue, Plantation, Florida 33324"},"type":"Feature","geometry":{"type":"Point","coordinates":[-80.254064,26.125226]}},{"properties":{"name":"Gordon, Cleorinda Maria","id":"a638y9l1hhhs","phone number":"954-522-4175","address":"1500 Sw 5th Place Apt F, Fort Lauderdale, Florida 33324"},"type":"Feature","geometry":{"type":"Point","coordinates":[-80.282885,26.114219]}},{"properties":{"name":"Gosine, Jaimini Narayn","id":"a638y9rv23y3","phone number":"(954)760-7096","address":"824 Ne 4th St Apt 3, Fort Lauderdale, Florida 33301"},"type":"Feature","geometry":{"type":"Point","coordinates":[-80.13512,26.126256]}},{"properties":{"name":"Gozalo, Angel Alfonso","id":"a638y9wj74ug","phone number":"954-673-9252","address":"5925 SW 42nd Ct. Bld. 19, B-18, Fort Lauderdale, Florida 33314"},"type":"Feature","geometry":{"type":"Point","coordinates":[-80.22612,26.068399]}},{"properties":{"name":"Grant, Kendall Mark","id":"a638y9twugar","phone number":null,"address":"2914 Ne 8th Ter, Apt 104 Wilton Manors, Florida 33334"},"type":"Feature","geometry":{"type":"Point","coordinates":[-80.135994,26.166473]}},{"properties":{"name":"Greye, Kimberly Jean","id":"a638y9us2jqh","phone number":"(954)564-2275","address":"1521 Ne 17th Ter, Ft Louderdale, Florida 33304"},"type":"Feature","geometry":{"type":"Point","coordinates":[-80.125183,26.14656]}},{"properties":{"name":"Guiteau, Auguste","id":"a638y9qt825c","phone number":"(954)523-1738","address":"1141 Nw 5th Ave, Fort Lauderdale, Florida 33311"},"type":"Feature","geometry":{"type":"Point","coordinates":[-80.149069,26.139214]}},{"properties":{"name":"Gustave, Una Iesha","id":"a638y9leus5i","phone number":"954-790-9206","address":"2772 SW 16th St., Fort Lauderdale, Florida 33312"},"type":"Feature","geometry":{"type":"Point","coordinates":[-80.178843,26.101328]}},{"properties":{"name":"Haberland, Lakshmana James","id":"a638ya0g1yfz","phone number":"954-275-8197","address":"613 SE 19th St #4, Fort Lauderdale, Florida 33316"},"type":"Feature","geometry":{"type":"Point","coordinates":[-80.136535,26.097499]}},{"properties":{"name":"Hall, Brent Ross","id":"a638y9o0ggxe","phone number":null,"address":"1811 Sw 9th Ave, Fort Lauderdale, Florida 33315"},"type":"Feature","geometry":{"type":"Point","coordinates":[-80.153098,26.099028]}},{"properties":{"name":"Hamilton, Blane Reynolds and Sarah Renae","id":"a638y9kgmy0t","phone number":"954-806-8672","address":"6968 SW 39th St  F106, Davie, Florida 33314"},"type":"Feature","geometry":{"type":"Point","coordinates":[-80.23151,26.046066]}},{"properties":{"name":"Handley, Richard Lowry","id":"a638y9osbktb","phone number":"954 467-3992","address":"617 Isle of Palms Drive, Fort Lauderdale, Florida 33301"},"type":"Feature","geometry":{"type":"Point","coordinates":[-80.116138,26.115583]}},{"properties":{"name":"Hardy, Bruce Alan","id":"a638y9qr0gyo","phone number":null,"address":"6865 NW 29th Street, Sunrise, Florida 33313"},"type":"Feature","geometry":{"type":"Point","coordinates":[-80.240167,26.162172]}},{"properties":{"name":"Hardy, Daniel Hess","id":"a638y9vv6d0e","phone number":null,"address":"2640 South University drive Apt. 318, Davie, Florida 33328"},"type":"Feature","geometry":{"type":"Point","coordinates":[-80.250884,26.084978]}},{"properties":{"name":"Harris, Jed Ashton and Jenny Lynn McGee","id":"a638y9mj87d8","phone number":"801-735-6419","address":"2800 SW 73rd Way Apt 1604, Davie, Florida 33314"},"type":"Feature","geometry":{"type":"Point","coordinates":[-80.229263,26.085222]}},{"properties":{"name":"Harris, Sonia Celia","id":"a638y9t79udu","phone number":"786-553-6283","address":"2441 NW 39 Ter #102, Lauderdale Lakes, Florida 33311"},"type":"Feature","geometry":{"type":"Point","coordinates":[-80.201779,26.156308]}},{"properties":{"name":"Haught, Daniel Levi and Heather Jill","id":"a638y9u3qzrn","phone number":"480-205-3911","address":"6960 SW 39th St #201, Davie, Florida 33314"},"type":"Feature","geometry":{"type":"Point","coordinates":[-80.23151,26.046066]}},{"properties":{"name":"Haws, Mark Erwin","id":"a638y9s5rqvx","phone number":"(754)234-7885","address":"1250 Miami Rd #7, Fort Lauderdale, Florida 33316"},"type":"Feature","geometry":{"type":"Point","coordinates":[-80.135944,26.106462]}},{"properties":{"name":"Haynes, James Willis, Jr","id":"a638y9qc1bkw","phone number":"954 584-3749","address":"2630 Marathon Lane, Fort Lauderdale, Florida 33312"},"type":"Feature","geometry":{"type":"Point","coordinates":[-80.194562,26.087446]}},{"properties":{"name":"Haynes, Wallace Dexter","id":"a638ya0bpsjg","phone number":"(954)587-0418","address":"3400 Sw 16th Ct, Fort Lauderdale, Florida 33312"},"type":"Feature","geometry":{"type":"Point","coordinates":[-80.191543,26.099995]}},{"properties":{"name":"Heggie, Stephen Turner and Katherine Brooke","id":"a638y9k7mdny","phone number":"954-290-3159","address":"7085 Nova Dr #222, Davie, Florida 33317"},"type":"Feature","geometry":{"type":"Point","coordinates":[-80.228599,26.087205]}},{"properties":{"name":"Heineman, Holly Amber","id":"a638y9ky5qcb","phone number":"954-525-5829","address":"1845 SE 4th St, Fort Luaderdale, Florida 33316"},"type":"Feature","geometry":{"type":"Point","coordinates":[-80.105853,26.11883]}},{"properties":{"name":"Henry, Diana Ameth","id":"a638y9m3c0n7","phone number":"(954)733-2000","address":"5209 Nw 18th Ct Apt 1, Lauderhill, Florida 33313"},"type":"Feature","geometry":{"type":"Point","coordinates":[-80.220375,26.149305]}},{"properties":{"name":"Herard, Wilnise","id":"a638y9mav99c","phone number":"954-696-6242","address":"1210 NW 20th Street, Fort Lauderdale, Florida 33311"},"type":"Feature","geometry":{"type":"Point","coordinates":[-80.158505,26.152946]}},{"properties":{"name":"Hernandez, Joseph Ryan","id":"a638y9khljnd","phone number":"818-588-1416","address":"501 S. East Second St. Apt. 1107, Fort Lauderdale, Florida 33301"},"type":"Feature","geometry":{"type":"Point","coordinates":[-80.159317,26.085115]}},{"properties":{"name":"Higgins, Margaret Ann","id":"a638y9ynamez","phone number":"954-820-6689","address":"7656 NW 5th Street Building 7 Apt. 3C, Plantation, Florida 33324"},"type":"Feature","geometry":{"type":"Point","coordinates":[-80.25233,26.13328]}},{"properties":{"name":"Hippolyte, Clifford","id":"a638y9lrvn8e","phone number":"954-663-5087","address":"2649 NW 48th Terr Apt #137, Lauderdale Lakes, Florida 33313"},"type":"Feature","geometry":{"type":"Point","coordinates":[-80.213242,26.161078]}},{"properties":{"name":"Hodgson, Valesca Ivania Marenco","id":"a638y9xb0psf","phone number":"(954)797-4133","address":"4956 Sw 19th St, Fort Lauderdale, Florida 33317"},"type":"Feature","geometry":{"type":"Point","coordinates":[-80.215723,26.100026]}},{"properties":{"name":"Hoffman, Harry Louis, Jr","id":"a638y9n5txyr","phone number":null,"address":"4230 SW 55th Ave., Davie, Florida 33314"},"type":"Feature","geometry":{"type":"Point","coordinates":[-80.232242,26.069296]}},{"properties":{"name":"Honnick, Karen Ann","id":"a638y9zwwc02","phone number":"(954)585-8510","address":"6331 Sw 1st Ct, Plantation, Florida 33317"},"type":"Feature","geometry":{"type":"Point","coordinates":[-80.233027,26.119204]}},{"properties":{"name":"Hopper, Ian Michael Patrick","id":"a638y9p35hdv","phone number":null,"address":"7261 NW 16th Street, Plantation, Florida 33313"},"type":"Feature","geometry":{"type":"Point","coordinates":[-80.245997,26.144571]}},{"properties":{"name":"Howell, Kenneth Andrew","id":"a638y9lxo2o3","phone number":"954-588-7473","address":"430 NW 29th Ave, Fort Lauderdale, Florida 33311"},"type":"Feature","geometry":{"type":"Point","coordinates":[-80.182671,26.125628]}},{"properties":{"name":"Howell, Kimbrennine Alexia","id":"a638y9yo3zkq","phone number":"954 403-9819","address":"430 NW 29th Ave, Fort Lauderdale, Florida 33312"},"type":"Feature","geometry":{"type":"Point","coordinates":[-80.182982,26.116051]}},{"properties":{"name":"Hughes, Delia","id":"a638y9z4ys0w","phone number":"754-422-0762","address":"4123 SW 66th Way, Davie, Florida 33314"},"type":"Feature","geometry":{"type":"Point","coordinates":[-80.232293,26.071054]}},{"properties":{"name":"Huish, John and Janet","id":"a638y9ygx21z","phone number":"954-274-4211","address":"1350 Se 17th St, Fort Lauderdale, Florida 33316"},"type":"Feature","geometry":{"type":"Point","coordinates":[-80.129198,26.100476]}},{"properties":{"name":"Ibaran, Lilawatie","id":"a638y9zz4a21","phone number":"954 767-9427","address":"1943 NE 6th Court #T204, Fort Lauderdale, Florida 33304"},"type":"Feature","geometry":{"type":"Point","coordinates":[-80.121037,26.130759]}},{"properties":{"name":"Ilas, Jacob","id":"a638y9u0wgn9","phone number":"954 467-2738","address":"1845 SE 4th Avenue, Fort Lauderdale, Florida 33316"},"type":"Feature","geometry":{"type":"Point","coordinates":[-80.138726,26.098048]}},{"properties":{"name":"Irvine, Teresa","id":"a638y9uzilve","phone number":null,"address":"205 NW 75th Way, Plantation, Florida 33317"},"type":"Feature","geometry":{"type":"Point","coordinates":[-80.249843,26.124224]}},{"properties":{"name":"Isaac, Donna Alexandra","id":"a638y9nucyv8","phone number":"754-366-0059","address":"2132 NW 58 Ave. Unit 25E, Lauderhill, Florida 33313"},"type":"Feature","geometry":{"type":"Point","coordinates":[-80.205675,26.157899]}},{"properties":{"name":"Issa, Ihab and Sherri","id":"a638y9nooi4o","phone number":"954-564-9460","address":"2808 NE 22nd Street, Fort Lauderdale, Florida 33305"},"type":"Feature","geometry":{"type":"Point","coordinates":[-80.109456,26.153501]}},{"properties":{"name":"Jackson, Bonnie Jean","id":"a638y9lij2bn","phone number":"954 525-5829","address":"1845 SE 4th Street, Fort Lauderdale, Florida 33316"},"type":"Feature","geometry":{"type":"Point","coordinates":[-80.105853,26.11883]}},{"properties":{"name":"Jacobs, Annelli Nicole","id":"a638y9r3ny42","phone number":"754-2147-4224","address":"1354 Dayview Dr #j, Fort Lauderdale, Florida 33304"},"type":"Feature","geometry":{"type":"Point","coordinates":[-80.22693,26.093196]}},{"properties":{"name":"Jacobson, Shawn Michael","id":"a638y9zcnksj","phone number":null,"address":"1417 Sw 2nd Ave, Ft Lauderdale Fl, Florida 33315"},"type":"Feature","geometry":{"type":"Point","coordinates":[-80.144712,26.104554]}},{"properties":{"name":"Jacques, Marie A","id":"a638y9trtxxk","phone number":"786-419-0924","address":"4740 Nw 21 Street, Apt 214  bld 16 Lauderhill, Florida 33313"},"type":"Feature","geometry":{"type":"Point","coordinates":[-80.212893,26.153086]}},{"properties":{"name":"James, Nathan William and Kathryn Jean","id":"a638y9snwozi","phone number":"954-321-8658","address":"6789 SW 41st Dr., Davie, Florida 33314"},"type":"Feature","geometry":{"type":"Point","coordinates":[-80.23151,26.046066]}},{"properties":{"name":"James, Phyllis Karen","id":"a638y9r5guga","phone number":null,"address":"1401 Nw 75th Terr, Plantation, Florida 33313"},"type":"Feature","geometry":{"type":"Point","coordinates":[-80.250379,26.142894]}},{"properties":{"name":"James, Robbie Ann","id":"a638y9qcfe3n","phone number":null,"address":"3004 NW 7th Street, Fort Lauderdale, Florida 33311"},"type":"Feature","geometry":{"type":"Point","coordinates":[-80.184897,26.130119]}},{"properties":{"name":"Jaramillo, Manfred H","id":"a638y9ynm48f","phone number":null,"address":"319 City View Drive, Ft Lauderdale Fort Lauderdale, Florida 33311"},"type":"Feature","geometry":{"type":"Point","coordinates":[-80.147621,26.12572]}},{"properties":{"name":"Jarvis, Matt and Kristi","id":"a638y9oo5kf7","phone number":"954-644-2504","address":"7356 SW 26th Ct., Davie, Florida 33314"},"type":"Feature","geometry":{"type":"Point","coordinates":[-80.23151,26.046066]}},{"properties":{"name":"Jauregui, Carlos Enrique, Jr","id":"a638y9ogxsfr","phone number":null,"address":"3710 Sw 60th Ave, Davie Fl, Florida 33314"},"type":"Feature","geometry":{"type":"Point","coordinates":[-80.231928,26.076349]}},{"properties":{"name":"Jean, Elldamise","id":"a638y9p0nuas","phone number":"954-765-2417","address":"1217 NW 19th Street, Ft Lauderdale, Florida 33311"},"type":"Feature","geometry":{"type":"Point","coordinates":[-80.158534,26.151444]}},{"properties":{"name":"Jean, Fanny Mayo","id":"a638y9tmrtp2","phone number":"954-404-0449","address":"635 NW 8th Avenue, Apt #1, Fort Lauderdale, Florida 33311"},"type":"Feature","geometry":{"type":"Point","coordinates":[-80.150173,26.133092]}},{"properties":{"name":"Jean-Louis, Nathalie","id":"a638y9llnlrz","phone number":"754-245-2491","address":"1651 SW 40th Terrace, Apt B, Fort Lauderdale, Florida 33317"},"type":"Feature","geometry":{"type":"Point","coordinates":[-80.202332,26.100628]}},{"properties":{"name":"Jean-Louis, Rommel Meredith and Nadia","id":"a638y9xjir31","phone number":"945-736-0765","address":"5621 Washington St. #F-77, Hollywood, Florida 33023"},"type":"Feature","geometry":{"type":"Point","coordinates":[-80.199479,26.00263]}},{"properties":{"name":"Jean-Louis, Virgilia","id":"a638y9l8bi9m","phone number":null,"address":"607 NE 29th Drive Apt. #25, Wilton Manors, Florida 33334"},"type":"Feature","geometry":{"type":"Point","coordinates":[-80.139982,26.162872]}},{"properties":{"name":"Jemison, Dazel Lerenzo","id":"a638y9n2p46p","phone number":null,"address":"2748 NW 9TH CT, Fort Lauderdale, Florida 33311"},"type":"Feature","geometry":{"type":"Point","coordinates":[-80.179825,26.134918]}},{"properties":{"name":"Jensen, June Jocelyn","id":"a638y9ts074y","phone number":"(954)533-7053","address":"6221 Nw 13th St 7562, Sunrise, Florida 33313"},"type":"Feature","geometry":{"type":"Point","coordinates":[-80.232801,26.140143]}},{"properties":{"name":"Jesurum, Bona Rajil","id":"a638y9w3n5ht","phone number":"954 792-6028","address":"4740 NW 10th Court #7-112, Fort Lauderdale, Florida 33313"},"type":"Feature","geometry":{"type":"Point","coordinates":[-80.213085,26.136878]}},{"properties":{"name":"Jewell, Donald William","id":"a638y9p0dpdb","phone number":null,"address":"2763 Sw 45th St, Fort Lauderdale, Florida 33312"},"type":"Feature","geometry":{"type":"Point","coordinates":[-80.178053,26.066108]}},{"properties":{"name":"John, James Landon and Melanie Ruth Ann","id":"a638y9mgr90m","phone number":"760-805-3731","address":"833 1/2 N Rio Vista Blvd, Fort Lauderdale, Florida 33301"},"type":"Feature","geometry":{"type":"Point","coordinates":[-80.136865,26.11701]}},{"properties":{"name":"Johnson, Amy Louise","id":"a638y9zfswys","phone number":"(954)561-0899","address":"2817 Ne 24th Pl, Fort Lauderdale, Florida 33305"},"type":"Feature","geometry":{"type":"Point","coordinates":[-80.109234,26.156988]}},{"properties":{"name":"Johnson, Craig Eric","id":"a638y9o32dkv","phone number":null,"address":"3020 NE 32nd ave Apt. 912, Fort Lauderdale, Florida 33308"},"type":"Feature","geometry":{"type":"Point","coordinates":[-80.103313,26.166094]}},{"properties":{"name":"Johnson, Merriam Evalyn","id":"a638y9zhawxh","phone number":"954 321-6028","address":"1836 SW 53rd Avenue (DNC), Fort Lauderdale, Florida 33317"},"type":"Feature","geometry":{"type":"Point","coordinates":[-80.224553,26.096585]}},{"properties":{"name":"Johnson, Patricia Iona","id":"a638y9x4jxkk","phone number":"954 731-4265","address":"2641 NW 42nd Avenue, Lauderhill, Florida 33313"},"type":"Feature","geometry":{"type":"Point","coordinates":[-80.20571,26.159627]}},{"properties":{"name":"Johnson, Takeyla","id":"a638y9ndts83","phone number":"954-581-0117","address":"1320 SW 44th Terrace, Fort Lauderdale, Florida 33317"},"type":"Feature","geometry":{"type":"Point","coordinates":[-80.207897,26.104554]}},{"properties":{"name":"Johnston, Yvonne Renee","id":"a638y9zexkdn","phone number":"(954)761-1213","address":"501 Se 2nd St Apt 1123, Fort Lauderdale, Florida 33301"},"type":"Feature","geometry":{"type":"Point","coordinates":[-80.138635,26.120662]}},{"properties":{"name":"Jolley, Elliott and Michelle","id":"a638y9ndjdsy","phone number":"954-635-6568","address":"2900 S. University Drive #9101, Davie, Florida 33328"},"type":"Feature","geometry":{"type":"Point","coordinates":[-80.250876,26.084773]}},{"properties":{"name":"Jones, Donald Stansfield, Jr","id":"a638y9turr68","phone number":"(954)563-4716","address":"2017 Ne 24th St, Wilton Manors, Florida 33305"},"type":"Feature","geometry":{"type":"Point","coordinates":[-80.120815,26.158063]}},{"properties":{"name":"Joseph, Andrese","id":"a638y9vc2hhk","phone number":"754-214-0540","address":"725 NE 23rd Dr., Wilton Manors, Florida 33305"},"type":"Feature","geometry":{"type":"Point","coordinates":[-80.136252,26.156506]}},{"properties":{"name":"Joseph, Enoze","id":"a638y9ynsafq","phone number":"754-246-9578","address":"647 Kathy Ct., Margate, Florida 33068"},"type":"Feature","geometry":{"type":"Point","coordinates":[-80.219433,26.223119]}},{"properties":{"name":"Joseph, Jean Bernard","id":"a638y9kac6rj","phone number":"754-214-0540","address":"725 NE 23rd Dr., Wilton Manors, Florida 33305"},"type":"Feature","geometry":{"type":"Point","coordinates":[-80.136252,26.156506]}},{"properties":{"name":"Joseph, Marie Yolaine","id":"a638y9tr8wrg","phone number":"(954)587-6448","address":"3701 Nw 7th Ct, Fort Lauderdale, Florida 33311"},"type":"Feature","geometry":{"type":"Point","coordinates":[-80.196952,26.130585]}},{"properties":{"name":"Joseph, Sheneeka","id":"a638y9n4cflh","phone number":"754-234-3360","address":"2941 NW 56 Ave, Apt. C-2 Fort Lauderdale, Florida 33313"},"type":"Feature","geometry":{"type":"Point","coordinates":[-80.227022,26.163934]}},{"properties":{"name":"Julien, Jean Robert and Maguy Magareth","id":"a638y9kb6p3y","phone number":"954-548-6088","address":"900 NE 14th St., apt. 4, Fort Lauderdale, Florida 33304"},"type":"Feature","geometry":{"type":"Point","coordinates":[-80.135061,26.144131]}},{"properties":{"name":"Kamalu, Russell Kalani","id":"a638y9sk9e8l","phone number":null,"address":"1713 Sw 5th Ct, Ft Lauderdale, Florida 33312"},"type":"Feature","geometry":{"type":"Point","coordinates":[-80.164007,26.115442]}},{"properties":{"name":"Keith, Andrew Scott","id":"a638y9yo6fx6","phone number":"954-630-1493","address":"20 NE 26th Court, Wilton Manors, Florida 33334"},"type":"Feature","geometry":{"type":"Point","coordinates":[-80.14619,26.159889]}},{"properties":{"name":"Kemp, Bernice","id":"a638y9ub9n23","phone number":"954 581-2681","address":"470 SW 28th Ave., Fort Lauderdale, Florida 33312"},"type":"Feature","geometry":{"type":"Point","coordinates":[-80.179624,26.11545]}},{"properties":{"name":"Kemp, Bernice, Sr and Alzie Lee","id":"a638y9q1x33w","phone number":"954 581-2681","address":"470 SW 28th Avenue, Fort Lauderdale, Florida 33312"},"type":"Feature","geometry":{"type":"Point","coordinates":[-80.179624,26.11545]}},{"properties":{"name":"Kemp, Johnnie Frank","id":"a638y9r00dgs","phone number":"954-524-5651","address":"1763 Lauderdale Manor Drive, Fort Lauderdale, Florida 33311"},"type":"Feature","geometry":{"type":"Point","coordinates":[-80.168409,26.143736]}},{"properties":{"name":"Kemp, Mary Ann","id":"a638y9warypv","phone number":"954-524-5651","address":"1763 Lauderdale Manor Drive, Fort Lauderdale, Florida 33311"},"type":"Feature","geometry":{"type":"Point","coordinates":[-80.168409,26.143736]}},{"properties":{"name":"Kennedy, Julia Ann","id":"a638y9yhmmvv","phone number":"(954)548-6744","address":"420 Ne 14th Ave. #4, Fort Lauderdale, Florida 33301"},"type":"Feature","geometry":{"type":"Point","coordinates":[-80.129344,26.127351]}},{"properties":{"name":"Kennedy, Patrick and Heather","id":"a638y9vgkupq","phone number":"813-598-3220","address":"6825 College Ct, Bldg #10 Apt. 105 Davie, Florida 33317"},"type":"Feature","geometry":{"type":"Point","coordinates":[-80.237873,26.088178]}},{"properties":{"name":"Keyser, Brandon William and Allison June","id":"a638y9tpsdtc","phone number":"303-842-7023","address":"7000 Nova Dr. Apt. 103E, Davie, Florida 33317"},"type":"Feature","geometry":{"type":"Point","coordinates":[-80.228599,26.087205]}},{"properties":{"name":"Khodadadeh, Bardia","id":"a638ya01w666","phone number":null,"address":"313 Ne 2nd St Apt 404, Ft Lauderdale, Florida 33301"},"type":"Feature","geometry":{"type":"Point","coordinates":[-80.145233,26.116873]}},{"properties":{"name":"Kilkelly, Susan Ladonna","id":"a638y9rn8ext","phone number":null,"address":"7220 Nw 7th Ct (DNC), Plantation, Florida 33317"},"type":"Feature","geometry":{"type":"Point","coordinates":[-80.243464,26.131607]}},{"properties":{"name":"Kimball, Stephen Joseph and Tracy Lee","id":"a638y9sfwsid","phone number":"954-234-2696","address":"2211 SW 72nd Ave, Davie, Florida 33317"},"type":"Feature","geometry":{"type":"Point","coordinates":[-80.227454,26.091333]}},{"properties":{"name":"Kimble, Ernest Eugene and Eleanor Gray","id":"a638y9ofu7f0","phone number":null,"address":"1820 SW 36th Terrace, Fort Lauderdale, Florida 33312"},"type":"Feature","geometry":{"type":"Point","coordinates":[-80.194625,26.098129]}},{"properties":{"name":"King, Cameron George O'Neil and Marlin Carmel","id":"a638y9o5848d","phone number":"954-306-2703","address":"809 NE 16th Street, Fort Lauderdale, Florida 33304"},"type":"Feature","geometry":{"type":"Point","coordinates":[-80.135768,26.147611]}},{"properties":{"name":"King, Charles James","id":"a638y9ut1rej","phone number":"954 473-6927","address":"711 E Plantation Circle, Plantation, Florida 33324"},"type":"Feature","geometry":{"type":"Point","coordinates":[-80.251335,26.133281]}},{"properties":{"name":"King, Mark Steven","id":"a638y9v3oyge","phone number":null,"address":"320 N Gordon Rd, Fort Lauderdale, Florida 33301"},"type":"Feature","geometry":{"type":"Point","coordinates":[-80.123413,26.125487]}},{"properties":{"name":"Kjeldgard, Linda Leigh","id":"a638y9winkbl","phone number":null,"address":"880 Fig Tree Lane (DNC), Plantation, Florida 33317"},"type":"Feature","geometry":{"type":"Point","coordinates":[-80.229786,26.109412]}},{"properties":{"name":"Kline, Tamy Lynn","id":"a638y9o3loln","phone number":"(615)429-2156","address":"2655 Ne 8th Ave #104, Wilton Manors, Florida 33334"},"type":"Feature","geometry":{"type":"Point","coordinates":[-80.136605,26.160594]}},{"properties":{"name":"Knight, Robert Scott, Jr","id":"a638y9vlzsd1","phone number":null,"address":"90 Isle of Venice, PO Box 350063 Fort Lauderdale, Florida 33335"},"type":"Feature","geometry":{"type":"Point","coordinates":[-80.335973,26.089215]}},{"properties":{"name":"Kooistra, Claudia Carina","id":"a638y9p5mkbk","phone number":null,"address":"804 SW 12th Court, Fort Lauderdale, Florida 33315"},"type":"Feature","geometry":{"type":"Point","coordinates":[-80.15086,26.106467]}},{"properties":{"name":"Kramm, Sonia Yvonne","id":"a638y9vmxmy6","phone number":"954-524-8465","address":"1281 S Ocean Dr, Fort Lauderdale, Florida 33316"},"type":"Feature","geometry":{"type":"Point","coordinates":[-80.107819,26.106164]}},{"properties":{"name":"Lacayo, Salvadore Benjamin and Victoria Angelica","id":"a638y9tzr7fo","phone number":"954-321-1629","address":"1681 NW 70th Ave Apt 216, Plantation, Florida 33313"},"type":"Feature","geometry":{"type":"Point","coordinates":[-80.243459,26.13949]}},{"properties":{"name":"Laguerre, verlaine and Elvida","id":"a638y9weytxx","phone number":"305-684-8373","address":"912 sw 3rd Ave, Hallendale, Florida 33009"},"type":"Feature","geometry":{"type":"Point","coordinates":[-80.151776,25.975676]}},{"properties":{"name":"Laloi, Christa","id":"a638y9lifmus","phone number":"754-234-1850","address":"540 NW  4th Ave #402, Fort lauderdale, Florida 33311"},"type":"Feature","geometry":{"type":"Point","coordinates":[-80.14772,26.128725]}},{"properties":{"name":"Lampasone, Joseph Donald","id":"a638y9l9oue2","phone number":"954-793-9710","address":"1620 N Victoria Park Rd, Fort Lauderdale, Florida 33305"},"type":"Feature","geometry":{"type":"Point","coordinates":[-80.123361,26.148372]}},{"properties":{"name":"Landers, Patricia Ann","id":"a638y9wa118g","phone number":"954-731-6162","address":"3460 NW 18 St, FT. Lauderdale, Florida 33315"},"type":"Feature","geometry":{"type":"Point","coordinates":[-80.160294,26.098684]}},{"properties":{"name":"Lane, Richard James","id":"a638y9oxgke1","phone number":"(954)584-0493","address":"786 Nw 35th Ave, Fort Lauderdale, Florida 33311"},"type":"Feature","geometry":{"type":"Point","coordinates":[-80.195017,26.131535]}},{"properties":{"name":"Laracouinte, Jeff Sterlin","id":"a638y9m0jkl9","phone number":"754-242-1570","address":"3940 West Broward Boulevard, Apt 104, Fort Lauderdale, Florida 33312"},"type":"Feature","geometry":{"type":"Point","coordinates":[-80.201077,26.120903]}},{"properties":{"name":"Lassin, Phara","id":"a638y9o5v4eq","phone number":"754-234-8935","address":"3619 NW 21st Street, Apt 310, Lauderdale Lakes, 33311"},"type":"Feature","geometry":{"type":"Point","coordinates":[-80.170983,26.173281]}},{"properties":{"name":"Laura, Tia Monet","id":"a638y9zmkypc","phone number":"954-733-2358","address":"2611 NW 56th Avenue #123, Fort Lauderdale, Florida 33313"},"type":"Feature","geometry":{"type":"Point","coordinates":[-80.226965,26.159968]}},{"properties":{"name":"Lauriston, Seraphin","id":"a638y9t37itr","phone number":"954-274-7874","address":"1537 SW 44th Ave., Fort Lauderdale, Florida 33324"},"type":"Feature","geometry":{"type":"Point","coordinates":[-80.207675,26.102187]}},{"properties":{"name":"Leali'ie'e, Fiapito Mano","id":"a638y9obkx0h","phone number":"954 584-8439","address":"4141 SW 66th Way, Davie, Florida 33314"},"type":"Feature","geometry":{"type":"Point","coordinates":[-80.232274,26.0705]}},{"properties":{"name":"Leconte, Henri and Ismine","id":"a638y9uhg10a","phone number":null,"address":"400 Se 15th St Apt 2, Fort Lauderdale, Florida 33316"},"type":"Feature","geometry":{"type":"Point","coordinates":[-80.138863,26.103002]}},{"properties":{"name":"Lee, Christine Shirley","id":"a638y9qhd0av","phone number":"954-513-7233","address":"1156 N. University Drive, Plantation, Florida 33322"},"type":"Feature","geometry":{"type":"Point","coordinates":[-80.256773,26.139359]}},{"properties":{"name":"Lee, Darrell Edwin","id":"a638ya028028","phone number":"(954)567-0439","address":"2704 Duval Ln, Wilton Manors, Florida 33334"},"type":"Feature","geometry":{"type":"Point","coordinates":[-80.373554,26.115426]}},{"properties":{"name":"Lee-Pike, Chelsea Taren","id":"a638y9mbqu82","phone number":"(253)590-6559","address":"633 Sw 3rd Ave #a, Fort Lauderdale, Florida 33315"},"type":"Feature","geometry":{"type":"Point","coordinates":[-80.146156,26.114121]}},{"properties":{"name":"Legere, Carmen Maria","id":"a638y9vtn2al","phone number":"954-530-1281","address":"7570 Sunset Strip, Sunrise, Florida 33313"},"type":"Feature","geometry":{"type":"Point","coordinates":[-80.247202,26.153472]}},{"properties":{"name":"Lewis, Alicia Catrona","id":"a638y9qtp11e","phone number":"954-678-8437","address":"701 Azalea Ct, Sunrise, Florida 33324"},"type":"Feature","geometry":{"type":"Point","coordinates":[-80.10376,26.136878]}},{"properties":{"name":"Lewis, Eric George","id":"a638y9y9n1vv","phone number":null,"address":"4220 NW 21St. #204, Ft. Lauderdale, Florida 33313"},"type":"Feature","geometry":{"type":"Point","coordinates":[-80.205721,26.15376]}},{"properties":{"name":"Lewis, Wilbert Orlando","id":"a638y9wg0mwd","phone number":"954-678-8437","address":"701 Azalea Ct, Sunrise, Florida 33324"},"type":"Feature","geometry":{"type":"Point","coordinates":[-80.10376,26.136878]}},{"properties":{"name":"Lindor, Marie Kehly","id":"a638y9z2npfk","phone number":null,"address":"2132 NW 58 Ave, Lauderhill, Florida 33313"},"type":"Feature","geometry":{"type":"Point","coordinates":[-80.227133,26.153995]}},{"properties":{"name":"Lombana, Edward Henry and Heidy Piedad","id":"a638y9y7i3ar","phone number":"321 298-3803","address":"3301 College Avenue, Fort Lauderdale, Florida 33314"},"type":"Feature","geometry":{"type":"Point","coordinates":[-80.23929,26.07685]}},{"properties":{"name":"Louis, Gesner and Guerda","id":"a638y9wodxzo","phone number":null,"address":"7941 Nw 3rd Pl, Plantation Fl, Florida 33324"},"type":"Feature","geometry":{"type":"Point","coordinates":[-80.255517,26.126212]}},{"properties":{"name":"Lovers, Gloria Ann","id":"a638y9xvmrks","phone number":null,"address":"941 SW 74 Terrace, Plantation, Florida 33317"},"type":"Feature","geometry":{"type":"Point","coordinates":[-80.247318,26.108394]}},{"properties":{"name":"Madrid Arellano, Mervin Esteven","id":"a638y9ks9f05","phone number":null,"address":"1511 SW 38 Apt, Fort Lauderdale, Florida 33312"},"type":"Feature","geometry":{"type":"Point","coordinates":[-80.169307,26.074562]}},{"properties":{"name":"Manuel, Jean Silvia","id":"a638y9ue7u3f","phone number":null,"address":"119 Sw 9th Ter, Fort Lauderdale, Florida 33312"},"type":"Feature","geometry":{"type":"Point","coordinates":[-80.154186,26.121109]}},{"properties":{"name":"Manus, Evelyne","id":"a638y9oiz8ki","phone number":"(954)822-5899","address":"2649 Nw 48th Ter #137, Lauderdale Lakes, Florida 33313"},"type":"Feature","geometry":{"type":"Point","coordinates":[-80.215209,26.159498]}},{"properties":{"name":"Marshall, Jeanne Anne","id":"a638y9p5xetq","phone number":"954 525-3919","address":"413 SE 16th Court, Fort Lauderdale, Florida 33316"},"type":"Feature","geometry":{"type":"Point","coordinates":[-80.138674,26.101155]}},{"properties":{"name":"Marshall, Kimberly Michelle","id":"a638y9ylwz79","phone number":null,"address":"413 Se 16th Ct, Fort Lauderdale, Florida 33316"},"type":"Feature","geometry":{"type":"Point","coordinates":[-80.138674,26.101155]}},{"properties":{"name":"Martin, Jessica Lynne","id":"a638y9l97xou","phone number":null,"address":"1484 SW 44th Terrace, Fort Lauderdale, Florida 33317"},"type":"Feature","geometry":{"type":"Point","coordinates":[-80.208359,26.102917]}},{"properties":{"name":"Martin, Patricia","id":"a638y9ngvgss","phone number":"954 583-1168","address":"3628 SW 23rd Court, Fort Lauderdale, Florida 33312"},"type":"Feature","geometry":{"type":"Point","coordinates":[-80.195275,26.092586]}},{"properties":{"name":"Martin, Tousina Wallinter and CONSTANCE","id":"a638y9vran1r","phone number":"954-934-7112","address":"2301 NW 8th Ct. Apt. 2 Bldg. 22, Fort Lauderdale, Florida 33311"},"type":"Feature","geometry":{"type":"Point","coordinates":[-80.16666,26.151304]}},{"properties":{"name":"Martinez, Belem Holguin","id":"a638ya07f4t5","phone number":"954-468-9388","address":"1101 NE 14th Ave #2, Fort Lauderdale, Florida 33304"},"type":"Feature","geometry":{"type":"Point","coordinates":[-80.129728,26.13903]}},{"properties":{"name":"Martinez, Di Mas Raymond","id":"a638y9pgb0f1","phone number":null,"address":"3000 NW 48th Ter. Bldg 5  Apt 227, Ft. Lauderdale, Florida 33313"},"type":"Feature","geometry":{"type":"Point","coordinates":[-80.213291,26.161896]}},{"properties":{"name":"Mason, Barbara Joan","id":"a638y9s8g5sj","phone number":"954-599-5781","address":"1137 SW 5th Place, Fort Lauderdale, Florida 33312"},"type":"Feature","geometry":{"type":"Point","coordinates":[-80.156501,26.114635]}},{"properties":{"name":"Masterson, Patricia Joan","id":"a638y9yek4g2","phone number":null,"address":"611 Sw 10th St Apt Rear, Fort Lauderdale, Florida 33315"},"type":"Feature","geometry":{"type":"Point","coordinates":[-80.155048,26.111894]}},{"properties":{"name":"Maxime, Jean Claude and Joanne Emmanvelle","id":"a638y9osrgeb","phone number":"954-638-7575","address":"910 Riverside Drive, Fort Lauderdale, Florida 33312"},"type":"Feature","geometry":{"type":"Point","coordinates":[-80.16623,26.110703]}},{"properties":{"name":"Maxime, Marie Therese Jeannette","id":"a638y9xw4ljq","phone number":"954-486-4508","address":"2046 NW 43th Terr #7, Lauderhill, Florida 33313"},"type":"Feature","geometry":{"type":"Point","coordinates":[-80.207882,26.153204]}},{"properties":{"name":"Maxwell, Joan Marie","id":"a638y9mu3j1b","phone number":"954-525-2805","address":"889 Riverside Dr. #205, Fort Lauderdale, Florida 33312"},"type":"Feature","geometry":{"type":"Point","coordinates":[-80.153295,26.117077]}},{"properties":{"name":"May, Jerry Powell and Camber Sue","id":"a638y9q1ngku","phone number":"954-327-7279","address":"6992 SW 39th St #206, Davie, Florida 33314"},"type":"Feature","geometry":{"type":"Point","coordinates":[-80.23151,26.046066]}},{"properties":{"name":"May, Matthew Russell and Nicole Marie","id":"a638y9y3iuyp","phone number":"954-288-0625","address":"4037 SW 5th St, Plantation, Florida 33317"},"type":"Feature","geometry":{"type":"Point","coordinates":[-80.203252,26.115232]}},{"properties":{"name":"McClendon, Jeanette","id":"a638y9tdb7da","phone number":null,"address":"1795 NW 60th Ave., Sunrise, Florida 33313"},"type":"Feature","geometry":{"type":"Point","coordinates":[-80.23104,26.148431]}},{"properties":{"name":"McEntyre, Darvin Antwane","id":"a638ya05epst","phone number":null,"address":"4301 NW 18th Street, Bldg O, #312, Lauderhill, Florida 33313"},"type":"Feature","geometry":{"type":"Point","coordinates":[-80.20939,26.149459]}},{"properties":{"name":"McFadden, Cindy","id":"a638ya0b4ovw","phone number":"954-321-9435","address":"3801 Nw 5th Ct, Fort Lauderdale Fl, Florida 33311"},"type":"Feature","geometry":{"type":"Point","coordinates":[-80.19849,26.127098]}},{"properties":{"name":"Merissaint, Angeline","id":"a638y9so6vzz","phone number":null,"address":"165 Vermont Ave, Fort Lauderdale, Florida 33312"},"type":"Feature","geometry":{"type":"Point","coordinates":[-80.197148,26.118907]}},{"properties":{"name":"Merrill, Sharon Lee","id":"a638y9x9sbmg","phone number":"415-994-2254","address":"3031 N. Ocean Blvd. Apt. 1005, Fort Lauderdale, Florida 33308"},"type":"Feature","geometry":{"type":"Point","coordinates":[-80.100595,26.166064]}},{"properties":{"name":"Michel, Daniel and Marie Antoinette","id":"a638y9kskd0f","phone number":"754-214-7134","address":"321 SW 30th Terr, Fort Lauderdale, Florida 33312"},"type":"Feature","geometry":{"type":"Point","coordinates":[-80.185313,26.117904]}},{"properties":{"name":"Michel, Kervens Jeffery","id":"a638y9r67x8c","phone number":null,"address":"1460 Nw 21st St, # C Fort Lauderdale, Florida 33311"},"type":"Feature","geometry":{"type":"Point","coordinates":[-80.161822,26.154303]}},{"properties":{"name":"Millman, Milton","id":"a638y9kk3bcn","phone number":null,"address":"1943 NE 6th Court #W 106, Fort Lauderdale, Florida 33304"},"type":"Feature","geometry":{"type":"Point","coordinates":[-80.121037,26.130759]}},{"properties":{"name":"Mohi, Charles Tohara, Jr.","id":"a638y9wk2api","phone number":null,"address":"1417 Sw 6th Ave, Ft Lauderdale Fl, Florida 33315"},"type":"Feature","geometry":{"type":"Point","coordinates":[-80.149076,26.103912]}},{"properties":{"name":"Moise, Ithelind and Marie Geraldine","id":"a638y9zr8xxs","phone number":"954-639-3486","address":"1100 SW 29th St Apt 2, Fort lauderdale, Florida 33315"},"type":"Feature","geometry":{"type":"Point","coordinates":[-80.155257,26.088075]}},{"properties":{"name":"Mojica, Jose Alfredo","id":"a638y9qs7d5x","phone number":null,"address":"817 Nw 16th St, Fort Lauderdale, Florida 33311"},"type":"Feature","geometry":{"type":"Point","coordinates":[-80.153365,26.147185]}},{"properties":{"name":"Monahan, Beverly Lynn","id":"a638y9l8k9b8","phone number":"(954)583-8612","address":"1200 Sw 35th Ave, Fort Lauderdale, Florida 33312"},"type":"Feature","geometry":{"type":"Point","coordinates":[-80.193846,26.1166]}},{"properties":{"name":"Montes Leo Kervins, Mireille Praxede","id":"a638y9vpshzd","phone number":"954-236-9329","address":"1280 NW 78th Terr, Fort Lauderdale, Florida 33324"},"type":"Feature","geometry":{"type":"Point","coordinates":[-80.253005,26.128738]}},{"properties":{"name":"Moore, Adam Eric","id":"a638y9ml7syk","phone number":null,"address":"3625 COLLEGE AVE #1245, DAVIE, Florida 33314"},"type":"Feature","geometry":{"type":"Point","coordinates":[-80.231855,26.076611]}},{"properties":{"name":"Moore, Laura Jane","id":"a638y9leig17","phone number":"954-467-2738","address":"4238 SW 64th Avenue, Davie, Florida 33314"},"type":"Feature","geometry":{"type":"Point","coordinates":[-80.232238,26.069097]}},{"properties":{"name":"Moran, Fernanda Judith","id":"a638y9zgi5pz","phone number":null,"address":"2041 Sw 35th Ave, Fort Lauderdale, Florida 33312"},"type":"Feature","geometry":{"type":"Point","coordinates":[-80.193846,26.1166]}},{"properties":{"name":"Moreno, Susan Beth","id":"a638y9v24h1q","phone number":"954-792-1229","address":"1200 SW 67th Ave, Plantation, 33317"},"type":"Feature","geometry":{"type":"Point","coordinates":[-80.237355,26.105401]}},{"properties":{"name":"Mueller, Adeline Maria","id":"a638y9wm3xt2","phone number":"954 462-6865","address":"1910 NE 7th Court, Fort Lauderdale, Florida 33304"},"type":"Feature","geometry":{"type":"Point","coordinates":[-80.120815,26.132576]}},{"properties":{"name":"Muse, Michael Robert","id":"a638y9r6xutg","phone number":null,"address":"25 Nw 7th Ave (No such address), Fort Lauderdale, Florida 33311"},"type":"Feature","geometry":{"type":"Point","coordinates":[-80.154662,26.144748]}},{"properties":{"name":"Myers, Gale Owen, Jr","id":"a638y9q8erxo","phone number":"954 527-1348","address":"708 SW 14th Terrace, Fort Lauderdale, Florida 33312"},"type":"Feature","geometry":{"type":"Point","coordinates":[-80.16056,26.112833]}},{"properties":{"name":"Neary, Seanna Genna","id":"a638y9u9uhan","phone number":null,"address":"5981 NW 15th Street  #1, Sunrise, Florida 33313"},"type":"Feature","geometry":{"type":"Point","coordinates":[-80.230186,26.143013]}},{"properties":{"name":"Newcomer, Mark David and Arianne Ellen","id":"a638y9zp0xm6","phone number":"801-471-7823","address":"3860 W. Broward Blvd. APT. 201, Plantation, Florida 33312"},"type":"Feature","geometry":{"type":"Point","coordinates":[-80.200117,26.120928]}},{"properties":{"name":"Nichols, Troy Gus","id":"a638y9uhepev","phone number":null,"address":"1532 Ne 27th Dr, Wilton Manors Fl, Florida 33334"},"type":"Feature","geometry":{"type":"Point","coordinates":[-80.127103,26.161707]}},{"properties":{"name":"Noel, Marie Junette","id":"a638y9zv2k42","phone number":"954-793-9970","address":"160 SW 37th Terr, Fort Lauderdale, Florida 33312"},"type":"Feature","geometry":{"type":"Point","coordinates":[-80.198149,26.118822]}},{"properties":{"name":"Norris, Glen Alan","id":"a638y9xo6nhn","phone number":null,"address":"2216 Nw 7th Ave, Wilton Manors Fl, Florida 33311"},"type":"Feature","geometry":{"type":"Point","coordinates":[-80.152376,26.155878]}},{"properties":{"name":"Novak, Bernard Edward","id":"a638y9wkkjcj","phone number":null,"address":"2801 SW 71st Terr apt. 1707, Fort Lauderdale, Florida 33314"},"type":"Feature","geometry":{"type":"Point","coordinates":[-80.214269,26.050566]}},{"properties":{"name":"Orton, Gary Niels","id":"a638ya05c229","phone number":"954-298-0815","address":"1940 Ne 2nd Ave #J-208, Wilton Manors, Florida 33305"},"type":"Feature","geometry":{"type":"Point","coordinates":[-80.140717,26.152108]}},{"properties":{"name":"Oyarzun Reed, Martin Andres","id":"a638y9ldw8tb","phone number":null,"address":"401 E Las Olas Blvd. #130, Fort Lauderdale, Florida 33301"},"type":"Feature","geometry":{"type":"Point","coordinates":[-80.139685,26.119166]}},{"properties":{"name":"Padgett, Charles Edward","id":"a638ya0f1lzy","phone number":null,"address":"3480 SW 50th Terrace, Davie, Florida 33314"},"type":"Feature","geometry":{"type":"Point","coordinates":[-80.231748,26.076964]}},{"properties":{"name":"Padron, Nerys","id":"a638y9novxpk","phone number":null,"address":"490 Sw 27th Ter Apt 2, Fort Lauderdale, Florida 33312"},"type":"Feature","geometry":{"type":"Point","coordinates":[-80.177957,26.115861]}},{"properties":{"name":"Page, Patricia Lynn","id":"a638y9t1c4hb","phone number":null,"address":"410 SE 11th Court, Fort Lauderdale, Florida 33316"},"type":"Feature","geometry":{"type":"Point","coordinates":[-80.138889,26.108551]}},{"properties":{"name":"Palacio, Hector Eduardo","id":"a638y9vkr7n1","phone number":"(954)305-2394","address":"2200 Ne 33rd Ave #5c, Fort Lauderdale, Florida 33305"},"type":"Feature","geometry":{"type":"Point","coordinates":[-80.102173,26.15673]}},{"properties":{"name":"Palermo, Michael Thomas, Jr","id":"a638y9pr9fdn","phone number":null,"address":"621 E Acre Dr, Plantation Fl, Florida 33317"},"type":"Feature","geometry":{"type":"Point","coordinates":[-80.219886,26.130355]}},{"properties":{"name":"Parparian, Moses Benjamin","id":"a638y9z5n3or","phone number":"954 524-7123","address":"100 Mandarin Isle, Fort Lauderdale, Florida 33315"},"type":"Feature","geometry":{"type":"Point","coordinates":[-80.153176,26.102432]}},{"properties":{"name":"Patterson, Marialva de Brito","id":"a638y9nph9fs","phone number":"954-765-3425","address":"1000 Mango Isle, Ft Laud, Florida 33315"},"type":"Feature","geometry":{"type":"Point","coordinates":[-80.154405,26.105062]}},{"properties":{"name":"Pattullo, Brian Thomas","id":"a638y9xs6dc8","phone number":"(954)537-4172","address":"1409 Ne 24th St, Wilton Manors, Florida 33305"},"type":"Feature","geometry":{"type":"Point","coordinates":[-80.129348,26.1577]}},{"properties":{"name":"Peelman, Elisa","id":"a638y9u7sdth","phone number":"954-261-8112","address":"3100 SW 47th St., Dania Beach, Florida 33312"},"type":"Feature","geometry":{"type":"Point","coordinates":[-80.184144,26.063112]}},{"properties":{"name":"Pettiford, James, Jr","id":"a638y9ldpa42","phone number":"954-583-5355","address":"2757 SW 7th Street, Fort Lauderdale, Florida 33312"},"type":"Feature","geometry":{"type":"Point","coordinates":[-80.178778,26.112129]}},{"properties":{"name":"Phillips, Therone Gibson","id":"a638y9mridvy","phone number":"954-714-3927","address":"3753 NW 26th Street, Lauderdale Lakes, Florida 33311"},"type":"Feature","geometry":{"type":"Point","coordinates":[-80.199338,26.157558]}},{"properties":{"name":"Philogene, Alfred","id":"a638y9s7vcgs","phone number":"954-593-2843","address":"2661 SW 8th St, Fort Lauderdale, Florida 33312"},"type":"Feature","geometry":{"type":"Point","coordinates":[-80.176981,26.111395]}},{"properties":{"name":"Pierre, Jean Raoul","id":"a638y9rl8vv6","phone number":null,"address":"2931 Sunrise Lakes E Dr Apt 306, Sunrise, Florida 33322"},"type":"Feature","geometry":{"type":"Point","coordinates":[-80.20127,26.135979]}},{"properties":{"name":"Pierre, Pretoucheka","id":"a638y9r8bmr0","phone number":"754-234-1850","address":"540 NW 4th Ave #402, Fort Lauderdale, Florida 33311"},"type":"Feature","geometry":{"type":"Point","coordinates":[-80.14772,26.128725]}},{"properties":{"name":"Pierre, Yvrose","id":"a638y9ksqt69","phone number":"786-277-6078","address":"1015 SW 3rd St., Hallandale Beach, Florida 33009"},"type":"Feature","geometry":{"type":"Point","coordinates":[-80.161988,25.98136]}},{"properties":{"name":"Pinnock, Mark Jay","id":"a638y9otxacr","phone number":null,"address":"2721 Sw 6th Ct, Fort Lauderdale, Florida 33312"},"type":"Feature","geometry":{"type":"Point","coordinates":[-80.178246,26.112965]}},{"properties":{"name":"Piovera, Delia Margarita Maria","id":"a638y9ze87o1","phone number":null,"address":"2901 Sunrise Lakes Dr E #209, Sunrise Fl, Florida 33322"},"type":"Feature","geometry":{"type":"Point","coordinates":[-80.20127,26.135979]}},{"properties":{"name":"Plummer, Shirley Marjorie Rose","id":"a638y9w9fplj","phone number":"754-366-9328","address":"7041 Sunset Strip #212A, Sunrise, Florida 33313"},"type":"Feature","geometry":{"type":"Point","coordinates":[-80.241691,26.154768]}},{"properties":{"name":"Post, Donna Margaret","id":"a638y9s0d3o4","phone number":null,"address":"757 SE 17TH ST # 603, FORT LAUDERDALE, Florida 33316"},"type":"Feature","geometry":{"type":"Point","coordinates":[-80.135478,26.100371]}},{"properties":{"name":"Prows, Tracy Jaquier and Christa Lynne","id":"a638y9y8f519","phone number":"305-304-3233","address":"64 Hendricks Isle, Fort Lauderdale, Florida 33301"},"type":"Feature","geometry":{"type":"Point","coordinates":[-80.121911,26.120863]}},{"properties":{"name":"Pryor, Ryan Mitchell","id":"a638y9z6trgc","phone number":null,"address":"200 Carolina Ave, Fort Lauderdale, Florida 33312"},"type":"Feature","geometry":{"type":"Point","coordinates":[-80.187095,26.119024]}},{"properties":{"name":"Quinn, April Adena","id":"a638y9rz0vvd","phone number":null,"address":"2533 NW 9th Ter, Wilton Manors, Florida 33311"},"type":"Feature","geometry":{"type":"Point","coordinates":[-80.155779,26.158894]}},{"properties":{"name":"Quintero, Noemi","id":"a638y9kn3lem","phone number":null,"address":"1235 NE 5th Terrrace, Fort Lauderdale, Florida 33304"},"type":"Feature","geometry":{"type":"Point","coordinates":[-80.139573,26.141153]}},{"properties":{"name":"Randolph, Ernest Eugene, Jr and Deborah Mae","id":"a638y9mmpeyv","phone number":"954-605-2468","address":"4421 SW 32nd Avenue, Fort Lauderdale, Florida 33312"},"type":"Feature","geometry":{"type":"Point","coordinates":[-80.18559,26.066633]}},{"properties":{"name":"Randolph, Gene Lamar","id":"a638y9ue8bw4","phone number":null,"address":"4419 Sw 32nd Ave, Fort Lauderdale, Florida 33312"},"type":"Feature","geometry":{"type":"Point","coordinates":[-80.185591,26.066655]}},{"properties":{"name":"Randolph, Susan Frances","id":"a638y9txoq3z","phone number":"954-987-8910","address":"4421 SW 32nd Avenue, Fort Lauderdale, Florida 33312"},"type":"Feature","geometry":{"type":"Point","coordinates":[-80.18559,26.066633]}},{"properties":{"name":"Reams, Melissa Yvette","id":"a638y9vfeqxz","phone number":"954-956-6670","address":"6325 Pierce Street, Hollywood, Florida 33021"},"type":"Feature","geometry":{"type":"Point","coordinates":[-80.207809,26.01482]}},{"properties":{"name":"Reilly, Patrick and Logan Kathleen","id":"a638y9shg2mx","phone number":"307-272-9280","address":"6928 SW 39th St #A 303, Davie, Florida 33314"},"type":"Feature","geometry":{"type":"Point","coordinates":[-80.23151,26.046066]}},{"properties":{"name":"Rennie, Susan Stella","id":"a638y9pn1rpk","phone number":null,"address":"7125 Sw 42nd Pl, Davie, Florida 33314"},"type":"Feature","geometry":{"type":"Point","coordinates":[-80.23151,26.046066]}},{"properties":{"name":"Rettig, Robert James","id":"a638y9z1ttk4","phone number":"(954)473-4297","address":"7800 Nw 3rd Ct, Fort Lauderdale, Florida 33324"},"type":"Feature","geometry":{"type":"Point","coordinates":[-80.253512,26.126485]}},{"properties":{"name":"Reynolds, Gregory Laurence","id":"a638y9zh8vuk","phone number":null,"address":"1541 Ne 16th Ter, Fort Lauderdale, Florida 33304"},"type":"Feature","geometry":{"type":"Point","coordinates":[-80.127087,26.14687]}},{"properties":{"name":"Rhodes, Tyler and Brittany","id":"a638y9nebqpd","phone number":"801-722-5275","address":"1201 Coontie Ct., Fort Lauderdale, Florida 33312"},"type":"Feature","geometry":{"type":"Point","coordinates":[-80.157269,26.11676]}},{"properties":{"name":"Richards, Nelson","id":"a638y9xe58vp","phone number":null,"address":"5711 Sw 39th St, Davie, Florida 33314"},"type":"Feature","geometry":{"type":"Point","coordinates":[-80.231611,26.049485]}},{"properties":{"name":"Richardson, Monica Lenore","id":"a638ya0mgkj6","phone number":null,"address":"2411 Sw 5th Pl, Fort Lauderdale, Florida 33312"},"type":"Feature","geometry":{"type":"Point","coordinates":[-80.17385,26.113931]}},{"properties":{"name":"Robinson, Kirk Brandt","id":"a638y9ozxwel","phone number":null,"address":"2970 Nw 68th Way, Sunrise, Florida 33313"},"type":"Feature","geometry":{"type":"Point","coordinates":[-80.241087,26.163084]}},{"properties":{"name":"Rodriguez, Dawn Rougette","id":"a638y9pnralb","phone number":null,"address":"2033 Sw 28th Way, Fort Lauderdale, Florida 33312"},"type":"Feature","geometry":{"type":"Point","coordinates":[-80.181066,26.096739]}},{"properties":{"name":"Rodriguez, Eileen Merced","id":"a638y9m5tlvi","phone number":null,"address":"2031 Nw 43rd Ter Apt 241, Lauderhill, Florida 33313"},"type":"Feature","geometry":{"type":"Point","coordinates":[-80.207882,26.153033]}},{"properties":{"name":"Rodriguez, Jacqueline","id":"a638y9liy2mn","phone number":"954-563-5137","address":"2412 Fryer Pt, Fort Lauderdale Fl, Florida 33305"},"type":"Feature","geometry":{"type":"Point","coordinates":[-80.114437,26.155928]}},{"properties":{"name":"Roesler, David William","id":"a638y9saim53","phone number":"(954)484-5143","address":"3600 Nw 21st St Apt 2, Lauderdale Lakes, Florida 33311"},"type":"Feature","geometry":{"type":"Point","coordinates":[-80.19712,26.152888]}},{"properties":{"name":"Romain, Roldy","id":"a638y9oalx47","phone number":"954-708-4059","address":"900 NE 14 Street, Apt. 4, Ft Lauderdale, Florida 33304"},"type":"Feature","geometry":{"type":"Point","coordinates":[-80.135061,26.144131]}},{"properties":{"name":"Roman, Charity Rose","id":"a638y9qadyea","phone number":null,"address":"800 NE 17th Way, Fort lauderdale, Florida 33304"},"type":"Feature","geometry":{"type":"Point","coordinates":[-80.123811,26.133958]}},{"properties":{"name":"Romer, Ruth Marie","id":"a638y9woptl5","phone number":null,"address":"350 Se 2nd St Apt 1880, Fort Lauderdale, Florida 33301"},"type":"Feature","geometry":{"type":"Point","coordinates":[-80.140124,26.120638]}},{"properties":{"name":"Roubonneau, Jovnel","id":"a638y9kb3wol","phone number":"954-724-1752","address":"7313 SW 8th Street, North Lauderdale, Florida 33068"},"type":"Feature","geometry":{"type":"Point","coordinates":[-80.224239,26.220015]}},{"properties":{"name":"Rowe, Lucia Juana","id":"a638y9wwl3p7","phone number":"954-792-7335","address":"7300 NW 17th Street #407, Planation, Florida 33313"},"type":"Feature","geometry":{"type":"Point","coordinates":[-80.247258,26.147043]}},{"properties":{"name":"Roydhouse, Paul Earl","id":"a638y9ymqtii","phone number":"(954)792-2882","address":"170 S Bel Air Dr, Plantation, Florida 33317"},"type":"Feature","geometry":{"type":"Point","coordinates":[-80.229997,26.119094]}},{"properties":{"name":"Ruchin, Melissa Beth","id":"a638y9yoscq3","phone number":null,"address":"7085 Nova Dr Apt 323, Davie Fl, Florida 33317"},"type":"Feature","geometry":{"type":"Point","coordinates":[-80.228599,26.087205]}},{"properties":{"name":"Russ, Roger","id":"a638y9lvzoi9","phone number":"(954)630-3230","address":"1839 Middle River Drive #303, Fort Lauderdale, Florida 33305"},"type":"Feature","geometry":{"type":"Point","coordinates":[-80.113692,26.152035]}},{"properties":{"name":"Russell, Mary Louise","id":"a638y9vicdc6","phone number":"954 321-2287","address":"6261 SW 41st Street, Davie, Florida 33314"},"type":"Feature","geometry":{"type":"Point","coordinates":[-80.23151,26.046066]}},{"properties":{"name":"Sahdala, Lance and Lesvia Patricia","id":"a638y9sguq8g","phone number":"(954)306-3555","address":"4806 Nw 1st St, Plantation, Florida 33317"},"type":"Feature","geometry":{"type":"Point","coordinates":[-80.214113,26.12148]}},{"properties":{"name":"Saint-Hilaire, Patsie P. Michelle","id":"a638y9vrolzn","phone number":"954-696-3650","address":"6201 SW 37th St Apt 102, Davie, Florida 33314"},"type":"Feature","geometry":{"type":"Point","coordinates":[-80.23151,26.046066]}},{"properties":{"name":"Salas Mora, Anthonni Alfonso","id":"a638y9pz0lat","phone number":null,"address":"1418 Southwest 49 Terr, Florida, Florida 33317"},"type":"Feature","geometry":{"type":"Point","coordinates":[-80.213738,26.103385]}},{"properties":{"name":"Salazar Urrutia, Donato Alejandro","id":"a638y9r8d2vm","phone number":"954-730-9322","address":"4301 NW 18th St #O303, Lauder Hill, Florida 33313"},"type":"Feature","geometry":{"type":"Point","coordinates":[-80.20939,26.149459]}},{"properties":{"name":"Salima, Seth Tiave and Andrea","id":"a638y9mjygpq","phone number":"954-529-6774","address":"3665 SW 59th Ave, Davie, Florida 33314"},"type":"Feature","geometry":{"type":"Point","coordinates":[-80.231886,26.076487]}},{"properties":{"name":"Sammy, Ronnie Ronald","id":"a638y9ltuo3d","phone number":null,"address":"1361 NW 75th Terrrace, Plantation, Florida 33313"},"type":"Feature","geometry":{"type":"Point","coordinates":[-80.250365,26.14238]}},{"properties":{"name":"Sanabria, Reynaldo C","id":"a638y9u7thyx","phone number":null,"address":"6231 Sw 7th Ct, Plantation Fl, Florida 33317"},"type":"Feature","geometry":{"type":"Point","coordinates":[-80.232953,26.111821]}},{"properties":{"name":"Sanchez, Debra Gloria Elisa Rafaela","id":"a638y9y2gmfs","phone number":"954-701-8260","address":"6655 W. Broward Blvd # 101 D, Plantation, Florida 33317"},"type":"Feature","geometry":{"type":"Point","coordinates":[-80.235341,26.120809]}},{"properties":{"name":"Sanchez, Victoria Audrey","id":"a638y9r0zivm","phone number":"954-585-6114","address":"2398 SW 28th Terr, Ft. Lauderdale, Florida 33312"},"type":"Feature","geometry":{"type":"Point","coordinates":[-80.180657,26.092258]}},{"properties":{"name":"Sanders, Ernest Daniel, Jr","id":"a638y9r8azyj","phone number":null,"address":"613 Sw 13th St, Fort Lauderdale, Florida 33315"},"type":"Feature","geometry":{"type":"Point","coordinates":[-80.14919,26.105568]}},{"properties":{"name":"Scadden, Alicia Soledad","id":"a638y9w4ig1n","phone number":"478-747-9464","address":"1341 NW 58th Ave, Fort Lauderdale, Florida 33313"},"type":"Feature","geometry":{"type":"Point","coordinates":[-80.2264,26.140776]}},{"properties":{"name":"Scalia, Greg Anthony and Linda Lee","id":"a638y9um6yaa","phone number":null,"address":"225 SW 22nd St, Fort Lauderdale, Florida 33315"},"type":"Feature","geometry":{"type":"Point","coordinates":[-80.143144,26.09458]}},{"properties":{"name":"Seavey, Theresa Ann","id":"a638y9tvs3nj","phone number":"954-895-3490","address":"313 SW 14th St.  #2, Fort Lauderdale, Florida 33315"},"type":"Feature","geometry":{"type":"Point","coordinates":[-80.14568,26.1047]}},{"properties":{"name":"Seiler, Lisa Mary","id":"a638y9yfvi5s","phone number":"(954)527-6650","address":"824 Coconut Dr, Fort Lauderdale, Florida 33315"},"type":"Feature","geometry":{"type":"Point","coordinates":[-80.156242,26.111649]}},{"properties":{"name":"Selfridge, Karla Maria","id":"a638y9v2xgpg","phone number":"(954)916-9301","address":"1121 NW 76th Avenue, Plantation, Florida 33322"},"type":"Feature","geometry":{"type":"Point","coordinates":[-80.251529,26.138861]}},{"properties":{"name":"Shelley, Val Reid","id":"a638y9yq9eie","phone number":null,"address":"1151 N Fort Lauderdale Beach Blvd #18, Fort Lauderdale, Florida 33304"},"type":"Feature","geometry":{"type":"Point","coordinates":[-80.102892,26.13805]}},{"properties":{"name":"Sheridan, Jason Joseph","id":"a638y9yz18ll","phone number":null,"address":"3625 College Ave, The Commons  Box 1641 Ft Lauderdale, Florida 33314"},"type":"Feature","geometry":{"type":"Point","coordinates":[-80.181158,26.132586]}},{"properties":{"name":"Siracusa, Rosario","id":"a638y9p1b7e3","phone number":null,"address":"8000 Sunrise Lakes Dr N, Sunrise, Florida 33322"},"type":"Feature","geometry":{"type":"Point","coordinates":[-80.256968,26.14847]}},{"properties":{"name":"Siufanua, Tafaomanifo Lilii","id":"a638y9uwos4a","phone number":"954 587-7489","address":"3861 SW 60th Terrace, Davie, Florida 33314"},"type":"Feature","geometry":{"type":"Point","coordinates":[-80.232357,26.074284]}},{"properties":{"name":"Slivka, Aaron and Wendy Marie","id":"a638y9ms3fup","phone number":"954-850-9489","address":"3960 W. Broward Blvd. APT 308, Plantation, Florida 33312"},"type":"Feature","geometry":{"type":"Point","coordinates":[-80.20148,26.120896]}},{"properties":{"name":"Smart, Joshua David","id":"a638y9n784ex","phone number":"801-577-7216","address":"1643 Ne 8th St, Fort Lauderdale, Florida 33305"},"type":"Feature","geometry":{"type":"Point","coordinates":[-80.135335,26.157911]}},{"properties":{"name":"Smith, Betty Louise","id":"a638y9vki82a","phone number":"954 523-8989","address":"222 SW 20th Street, Fort Lauderdale, Florida 33315"},"type":"Feature","geometry":{"type":"Point","coordinates":[-80.14348,26.096434]}},{"properties":{"name":"Smith, Bobby Dean","id":"a638y9qumiwg","phone number":null,"address":"3004 Se 4th Ave, Fort Lauderdale, Florida 33316"},"type":"Feature","geometry":{"type":"Point","coordinates":[-80.138452,26.087165]}},{"properties":{"name":"Socha, Arthur James, II","id":"a638y9u9s633","phone number":"(954)581-4664","address":"1730 Sw 23rd Ter Apt 23, Fort Lauderdale, Florida 33312"},"type":"Feature","geometry":{"type":"Point","coordinates":[-80.153295,26.117077]}},{"properties":{"name":"Solano, Daniel and Alexandra","id":"a638y9z3uzyn","phone number":"954-548-8779","address":"7100 Nova Dr  Apt. 305A, Davie, Florida 33328"},"type":"Feature","geometry":{"type":"Point","coordinates":[-80.246706,26.090219]}},{"properties":{"name":"Souza, Alex Jonatas Goncalves and Mirian Da Silva","id":"a638y9shnqrc","phone number":"954-658-4402","address":"1500 NE 15th Street, Wilton Manors, Florida 33304"},"type":"Feature","geometry":{"type":"Point","coordinates":[-80.128919,26.1461]}},{"properties":{"name":"Spiegel, Gary Howard","id":"a638y9yyltqt","phone number":"(954)723-9088","address":"4415 Sw 73rd Ter, Davie, Florida 33314"},"type":"Feature","geometry":{"type":"Point","coordinates":[-80.232166,26.066489]}},{"properties":{"name":"Spikes, Meltonia Rosemarye","id":"a638y9menxv8","phone number":"954 467-2270","address":"305 SW 14th Street #B, Fort Lauderdale, Florida 33315"},"type":"Feature","geometry":{"type":"Point","coordinates":[-80.145571,26.104702]}},{"properties":{"name":"Spirk, Kathryne Sophia","id":"a638y9k4tdpw","phone number":"954-986-0217","address":"2770 Treasure Cove Circle, Fort Lauderdale, Florida 33312"},"type":"Feature","geometry":{"type":"Point","coordinates":[-80.153295,26.117077]}},{"properties":{"name":"St Firmin, Marie Louise","id":"a638y9r10vef","phone number":"954-739-2397","address":"3711 NW 21st Street, Lauderhill, Florida 33313"},"type":"Feature","geometry":{"type":"Point","coordinates":[-80.202968,26.153768]}},{"properties":{"name":"St. Gerard, Wendy Renee","id":"a638y9zwjig3","phone number":"954-760-6225","address":"1713 Northwest 8 Ave, Ft Lauderdale, Florida 33311"},"type":"Feature","geometry":{"type":"Point","coordinates":[-80.153294,26.14916]}},{"properties":{"name":"Stern, Lisa Ruth","id":"a638y9qw3rp3","phone number":null,"address":"2649 NW 48 Terr   Apt. 137, Lauderdale Lakes, 33313"},"type":"Feature","geometry":{"type":"Point","coordinates":[-80.215209,26.159498]}},{"properties":{"name":"Strandtmann, Ernest Lee","id":"a638y9tw1bcg","phone number":"(954)524-9247","address":"400 Sw 14th St Apt West, Fort Lauderdale, Florida 33315"},"type":"Feature","geometry":{"type":"Point","coordinates":[-80.146982,26.103776]}},{"properties":{"name":"Sullivan, Charlene Ann","id":"a638y9x4k6iw","phone number":"(954)583-1706","address":"521 E Melrose Cir, Fort Lauderdale, Florida 33312"},"type":"Feature","geometry":{"type":"Point","coordinates":[-80.191942,26.115019]}},{"properties":{"name":"Swaby, Lamata Lemina","id":"a638y9qv73xc","phone number":"786-419-1125","address":"3265 NW 35th Way, Lauderhill, Florida 33324"},"type":"Feature","geometry":{"type":"Point","coordinates":[-80.196744,26.167511]}},{"properties":{"name":"Sweet, Jeffrey Matthew and Melanie Ann","id":"a638y9ks4bpp","phone number":"954-742-2813","address":"407 SW 18th Ave, Fort Lauderdale, Florida 33312"},"type":"Feature","geometry":{"type":"Point","coordinates":[-80.165675,26.117397]}},{"properties":{"name":"Talbot, Richard Scott and Jillian","id":"a638y9x4kwj0","phone number":"850-284-2483","address":"2601 SW 71st Ter., Davie, Florida 33314"},"type":"Feature","geometry":{"type":"Point","coordinates":[-80.229098,26.08577]}},{"properties":{"name":"Tavares, Spencer and Michelle Sherise","id":"a638y9shemxo","phone number":"954-383-5015","address":"7864 NW 11th Place, Plantation, Florida 33322"},"type":"Feature","geometry":{"type":"Point","coordinates":[-80.255589,26.140236]}},{"properties":{"name":"Thermezy, Marie Paulette","id":"a638y9ps17es","phone number":"954-934-4334","address":"421 NW 17th Place Ext., Fort Lauderdale, Florida 33324"},"type":"Feature","geometry":{"type":"Point","coordinates":[-80.261788,26.099007]}},{"properties":{"name":"Thomas, Bertha Mae","id":"a638y9vja4l2","phone number":"850-272-0991","address":"3670 SW 55th Ave., Davie, Florida 33314"},"type":"Feature","geometry":{"type":"Point","coordinates":[-80.23189,26.076472]}},{"properties":{"name":"Thomas, Enid Jeanie","id":"a638y9qb42vz","phone number":"954-316-3061","address":"1351 NW 54th Avenue, Lauderhill, Florida 33313"},"type":"Feature","geometry":{"type":"Point","coordinates":[-80.221628,26.140963]}},{"properties":{"name":"Thomas, Matthew  and Brittany","id":"a638y9xn8o93","phone number":"954-554-5067","address":"3131 Palm Trace Landings #1207, Davie, Florida 33314"},"type":"Feature","geometry":{"type":"Point","coordinates":[-80.229516,26.084318]}},{"properties":{"name":"Torchon, Carol Marie","id":"a638y9zjt5zh","phone number":"954-742-8466","address":"8275 NW 36th St., Sunrise, Florida 33351"},"type":"Feature","geometry":{"type":"Point","coordinates":[-80.260105,26.173118]}},{"properties":{"name":"Toussaint, Mackendy","id":"a638y9s0h4y2","phone number":"954-463-9059","address":"900 NE 14 St. Apt 3, Fort Lauderdale, Florida 33304"},"type":"Feature","geometry":{"type":"Point","coordinates":[-80.135061,26.144131]}},{"properties":{"name":"Trowell, Richard Alton and Janet Sue","id":"a638y9o9an4z","phone number":"954 791 1714","address":"6777 SW 39th Court, Davie, Florida 33314"},"type":"Feature","geometry":{"type":"Point","coordinates":[-80.23151,26.046066]}},{"properties":{"name":"Troyan, Rodd Stephen","id":"a638y9r0766i","phone number":null,"address":"2516 Ne 12th St, Fort Lauderdale, Florida 33304"},"type":"Feature","geometry":{"type":"Point","coordinates":[-80.113768,26.141508]}},{"properties":{"name":"Trunkey, Melanie Marie","id":"a638y9tz9o29","phone number":"(954)565-8609","address":"2841 NE 21st Court, Fort Lauderdale, Florida 33305"},"type":"Feature","geometry":{"type":"Point","coordinates":[-80.108773,26.152825]}},{"properties":{"name":"Tua'one, Viliata Feletoa and Tupou Silioti","id":"a638y9oego77","phone number":"954-529-6487","address":"7420 NW 13th Street, Plantation, Florida 33313"},"type":"Feature","geometry":{"type":"Point","coordinates":[-80.247481,26.141358]}},{"properties":{"name":"Tucker-Williams, Josephine Medula","id":"a638y9t2scnc","phone number":"954-486-5826","address":"4400 NW 16th St, Lauderhill, Florida 33313"},"type":"Feature","geometry":{"type":"Point","coordinates":[-80.209042,26.145532]}},{"properties":{"name":"Turberville, Clark Dale","id":"a638y9v8mu76","phone number":"954 768 0743","address":"1400 SW 32nd Street, Fort Lauderdale, Florida 33315"},"type":"Feature","geometry":{"type":"Point","coordinates":[-80.159262,26.085516]}},{"properties":{"name":"Tuttle, Roger Alexander","id":"a638y9ruwlh3","phone number":null,"address":"3613 Sw 12th Pl, Ft Lauderdale, Florida 33312"},"type":"Feature","geometry":{"type":"Point","coordinates":[-80.195613,26.105237]}},{"properties":{"name":"Valbrun, Jean Kenold","id":"a638y9v8gy38","phone number":"954-895-9980","address":"5631 NW 11th St, Lauderhill, Florida 33313"},"type":"Feature","geometry":{"type":"Point","coordinates":[-80.224544,26.137902]}},{"properties":{"name":"Valentino, Jill Renee","id":"a638y9mkh4br","phone number":"(954)396-4295","address":"1799 Ne 15th Ave, Fort Lauderdale, Florida 33305"},"type":"Feature","geometry":{"type":"Point","coordinates":[-80.129058,26.151387]}},{"properties":{"name":"Valentino, Nancy Alberta","id":"a638y9xqxreq","phone number":"(954)396-4295","address":"1799 Ne 15th Ave, Fort Lauderdale, Florida 33305"},"type":"Feature","geometry":{"type":"Point","coordinates":[-80.129058,26.151387]}},{"properties":{"name":"Vanbibber, Cori Lee","id":"a638y9yctjds","phone number":"801-725-2993","address":"2429 NE 11th St. #2, Ft. Lauderdale, Florida 33304"},"type":"Feature","geometry":{"type":"Point","coordinates":[-80.113163,26.139299]}},{"properties":{"name":"Vanbibber, Justin Lee","id":"a638y9woxri4","phone number":"801-231-6682","address":"2750 Southwest 73rd Way, Davie, Florida 33314"},"type":"Feature","geometry":{"type":"Point","coordinates":[-80.229224,26.085359]}},{"properties":{"name":"Vance, Jesse Bigler, III","id":"a638y9y56tmt","phone number":"954 962 9589","address":"4575 SW 29th Terrace, Fort Lauderdale, Florida 33312"},"type":"Feature","geometry":{"type":"Point","coordinates":[-80.180958,26.064517]}},{"properties":{"name":"Vanhise, Charles Lowell","id":"a638y9s64rau","phone number":"(954)584-4184","address":"4159 Sw 67th Ave Apt 204a, Davie, Florida 33314"},"type":"Feature","geometry":{"type":"Point","coordinates":[-80.232249,26.069851]}},{"properties":{"name":"Varricchio, Marie Antoinette","id":"a638y9sooied","phone number":null,"address":"1761 Nw 46th Ave, Apt D103 Lauderhill, Florida 33313"},"type":"Feature","geometry":{"type":"Point","coordinates":[-80.210557,26.148008]}},{"properties":{"name":"Vasquez Osses, Jose Danilo","id":"a638y9ml5d65","phone number":null,"address":"1624 Sw 5th Ct, Hollywood Fl, Florida 33324"},"type":"Feature","geometry":{"type":"Point","coordinates":[-80.25459,26.129645]}},{"properties":{"name":"Vega, Edgar Bryan and Marsha Jean","id":"a638y9vkxe0a","phone number":"954-682-9095","address":"315 SW 20th St., Fort Lauderdale, Florida 33315"},"type":"Feature","geometry":{"type":"Point","coordinates":[-80.145119,26.0964]}},{"properties":{"name":"Vesci, Louise Edna","id":"a638y9ll3rt1","phone number":null,"address":"6891 Nw 28th St, Sunrise, Florida 33313"},"type":"Feature","geometry":{"type":"Point","coordinates":[-80.241109,26.161344]}},{"properties":{"name":"Walker, Byron Raybourne, Jr","id":"a638y9sr670l","phone number":"954 583-7747","address":"7411 SW 9th Street, Plantation, Florida 33317"},"type":"Feature","geometry":{"type":"Point","coordinates":[-80.247597,26.108974]}},{"properties":{"name":"Walker, Shermine Agatha","id":"a638y9y1eazb","phone number":"954-730-7863","address":"2331 NW 38th Terr, Lauderdale Lakes, Florida 33324"},"type":"Feature","geometry":{"type":"Point","coordinates":[-80.263071,26.135516]}},{"properties":{"name":"Wallace, Richard Otho","id":"a638y9z237g8","phone number":null,"address":"1800 N Andrews Avenue #12 K, Fort Lauderdale, Florida 33311"},"type":"Feature","geometry":{"type":"Point","coordinates":[-80.168423,26.147055]}},{"properties":{"name":"Walters DNC, Earl Washington and Evelyn Yvone","id":"a638y9yf4bmr","phone number":null,"address":"581 N W 45th Terrace, Plantation, Florida 33317"},"type":"Feature","geometry":{"type":"Point","coordinates":[-80.209524,26.129847]}},{"properties":{"name":"Walters, Bonita Kay","id":"a638y9y0hqan","phone number":"954-761-1681","address":"877 NE 18th Court #1, Fort Lauderdale, Florida 33305"},"type":"Feature","geometry":{"type":"Point","coordinates":[-80.134653,26.151838]}},{"properties":{"name":"Ward, Paul, Junior","id":"a638y9p8v3jn","phone number":null,"address":"540 Nw 4th Ave Apt 1411, Ft Lauderdale Fl, Florida 33311"},"type":"Feature","geometry":{"type":"Point","coordinates":[-80.154106,26.144676]}},{"properties":{"name":"Watson, Greg and Debbi","id":"a638y9y1pag5","phone number":"954-247-4413","address":"3108 NE 19th St, Fort Lauderdale, Florida 33305"},"type":"Feature","geometry":{"type":"Point","coordinates":[-80.103778,26.153077]}},{"properties":{"name":"White, Vilma Velta","id":"a638y9u2yryi","phone number":"(954)731-8506","address":"1551 Nw 33rd Ter, Fort Lauderdale, Florida 33311"},"type":"Feature","geometry":{"type":"Point","coordinates":[-80.192268,26.146165]}},{"properties":{"name":"Whitney, Elvira Susana","id":"a638y9qoo5t9","phone number":"954-527-5144","address":"330 SW 19th St Apt #5, Fort Lauderdale, Florida 33315"},"type":"Feature","geometry":{"type":"Point","coordinates":[-80.145453,26.097327]}},{"properties":{"name":"Williams, Gabriel Lem","id":"a638y9m1m5vq","phone number":null,"address":"1500 SW 20th Ave., Fort Lauderdale, Florida 33312"},"type":"Feature","geometry":{"type":"Point","coordinates":[-80.167705,26.101169]}},{"properties":{"name":"Wills, Monica Jeanette Eglantine","id":"a638ya02ywl5","phone number":"954-583-2064","address":"1301 NW 54th Terr, Lauderhill, Florida 33313"},"type":"Feature","geometry":{"type":"Point","coordinates":[-80.222379,26.140367]}},{"properties":{"name":"Wilson, Hemsley Charlton and Lola Mae","id":"a638y9utfy04","phone number":null,"address":"1218 NW 11th PL, Fort Lauderdale, Florida 33312"},"type":"Feature","geometry":{"type":"Point","coordinates":[-80.159807,26.107457]}},{"properties":{"name":"Wilson, Marie Haynes","id":"a638y9pjgp0w","phone number":"954-865-7136","address":"1527 NW 14th St., Fort Lauderdale, Florida 33311"},"type":"Feature","geometry":{"type":"Point","coordinates":[-80.163504,26.143262]}},{"properties":{"name":"Wilson, Nella M","id":"a638y9qclftu","phone number":"954-742-4127","address":"2421-3 East Aragon Blvd., Sunrise, Florida 33313"},"type":"Feature","geometry":{"type":"Point","coordinates":[-80.246304,26.155227]}},{"properties":{"name":"Wilson, Robert Gerrod, Sr","id":"a638y9sjhjs2","phone number":null,"address":"307 SW 5th Street #6, Fort Lauderdale, Florida 33315"},"type":"Feature","geometry":{"type":"Point","coordinates":[-80.146283,26.116174]}},{"properties":{"name":"Wright, Dianna Gay","id":"a638y9pidbe3","phone number":null,"address":"107 se 10th st, Ft Lauderdale, Florida 33316"},"type":"Feature","geometry":{"type":"Point","coordinates":[-80.142315,26.110446]}},{"properties":{"name":"Wyatt, Nancy Jane","id":"a638y9z54nw9","phone number":null,"address":"430 Florida Avenue, Fort Lauderdale, Florida 33312"},"type":"Feature","geometry":{"type":"Point","coordinates":[-80.192214,26.115323]}},{"properties":{"name":"Yost, Charles Victor","id":"a638y9ls86zr","phone number":null,"address":"220 SW 30 AVE, Fort Lauderdale, Florida 33312"},"type":"Feature","geometry":{"type":"Point","coordinates":[-80.184773,26.11959]}},{"properties":{"name":"Yusavage, James Kenneth and Gloria Teresa","id":"a638y9le5tp6","phone number":null,"address":"3111 Sw 9th Ave, Ft Lauderdale, Florida 33315"},"type":"Feature","geometry":{"type":"Point","coordinates":[-80.152786,26.086571]}},{"properties":{"name":"Zanatta, Elcio and Mirian Cecilio","id":"a638y9u97lnu","phone number":"954-383-6478","address":"302 NE 8th Ave., Fort Lauderdale, Florida 33301"},"type":"Feature","geometry":{"type":"Point","coordinates":[-80.135331,26.125337]}},{"properties":{"name":"Zander, Karl Alan","id":"a638y9v57d5l","phone number":null,"address":"5701 SW 9th Street, Plantation, Florida 33317"},"type":"Feature","geometry":{"type":"Point","coordinates":[-80.226929,26.109106]}},{"properties":{"name":"Zaugg, Paul","id":"a638y9nyrwwr","phone number":"954-471-2033","address":"2926 S. University Dr. #6107, Davie, Florida 33328"},"type":"Feature","geometry":{"type":"Point","coordinates":[-80.250864,26.084467]}},{"properties":{"name":"Zayas, Socrates Esteban and Sheryl J","id":"a638y9ny2edj","phone number":"954-445-0486","address":"7175 NOVA Drive #208, Davie, Florida 33317"},"type":"Feature","geometry":{"type":"Point","coordinates":[-80.228599,26.087205]}},{"properties":{"name":"Zepeda, Iris Zoe","id":"a638y9zin0gd","phone number":null,"address":"362 City View Dr, Fort Lauderdale Fl, Florida 33311"},"type":"Feature","geometry":{"type":"Point","coordinates":[-80.146934,26.125123]}},{"properties":{"name":"Zuniga, Reina","id":"a638y9wv9r0w","phone number":"954-564-6306","address":"2730 NE 6th Lane, Wilton Manors, Florida 33334"},"type":"Feature","geometry":{"type":"Point","coordinates":[-80.137787,26.161057]}},{"properties":{"name":"de Mare, Shawn Warren","id":"a638y9yoywu7","phone number":"954 467-8386","address":"725 SW 15th Avenue, Fort Lauderdale, Florida 33312"},"type":"Feature","geometry":{"type":"Point","coordinates":[-80.161554,26.112568]}}],"is_temporal":false,"author":{"url":"","metadata":"","contact_name":"","contact_address":"","source":"","contact_phone":""},"source":"","pagination":{"sort":null,"start":0,"total":456,"limit":1000000},"state":"complete","tags":"","published":"2014-08-10T15:24:30-04:00","id":54957}