{"type":"FeatureCollection","data_type":"Dataset","url_type":null,"permissions":[{"permissions":{"download":true,"view":true},"group_id":"everyone"}],"classification":null,"title":"JSOaklandFarmersMarkets test","count":10,"stream_id":56716,"contributor":{"url":"http://geocommons.com/users/14324","name":"jeanstapleton"},"data_attributes":null,"calculation_params":null,"icon_link":null,"link":"http://geocommons.com/overlays/56716.json","extent":[-122.293,37.7377,-122.058,37.898],"geometry_types":["point"],"unique_name":null,"name":"JSOaklandFarmersMarkets test","feature_count":10,"description":"","next_feature":null,"is_raster":false,"short_classification":"Y","stats":{"geo_score":{"max":1.0,"mean":0.854,"variance":0.02262,"stdev":0.150399468084166,"min":0.607,"median":0.915}},"features":[{"properties":{"city":"Oakland","name":"Claremont/ Temescal Farmer's Market","geo_score":1.0,"zip code":"94618","hours":"Sun 9-1pm","id":"a6w26d2zx3il","geo_precision":"range","address":"5300 Claremont Ave","state":"CA"},"type":"Feature","geometry":{"type":"Point","coordinates":[-122.260486,37.839515]}},{"properties":{"city":"Oakland","name":"E. Oakland Senior Center Farmer's Market","geo_score":1.0,"zip code":"94603","hours":"Wed 10:30-2:30pm","id":"a6w26czyih92","geo_precision":"range","address":"9255 Edes Ave","state":"CA"},"type":"Feature","geometry":{"type":"Point","coordinates":[-122.18849,37.737746]}},{"properties":{"city":"Oakland","name":"East Oakland Farmer's Market","geo_score":0.875,"zip code":"94621","hours":"Fri 10-2pm, May - November","id":"a6w26cwmnw1q","geo_precision":"street","address":"73RD AVE AT INTERNATIONAL BLVD","state":"CA"},"type":"Feature","geometry":{"type":"Point","coordinates":[-122.20368,37.767126]}},{"properties":{"city":"Oakland","name":"Fruitvale Farmer's Market","geo_score":0.916,"zip code":"94601","hours":"Thurs 2-7pm, and Sunday 10-3pm","id":"a6w26cvnsfn6","geo_precision":"range","address":"3411 E 12th St","state":"CA"},"type":"Feature","geometry":{"type":"Point","coordinates":[-122.223954,37.775988]}},{"properties":{"city":"Oakland","name":"Grand Lake Farmer's Market","geo_score":0.714,"zip code":"94601","hours":"Sat 9-2pm","id":"a6w26cvlftp0","geo_precision":"street","address":"Grand Ave &amp; Lake Park Ave","state":"CA"},"type":"Feature","geometry":{"type":"Point","coordinates":[-122.26738,37.811827]}},{"properties":{"city":"Oakland","name":"Jack London Square Farmer's Market","geo_score":1.0,"zip code":"94607","hours":"Sun 10-2pm","id":"a6w26d4x5qbj","geo_precision":"range","address":"1 Broadway","state":"CA"},"type":"Feature","geometry":{"type":"Point","coordinates":[-122.277779,37.794821]}},{"properties":{"city":"Oakland","name":"Kaiser Permanente Oakland Farmer's Market","geo_score":0.915,"zip code":"94611","hours":"Fri 10-2pm","id":"a6w26d4coy00","geo_precision":"range","address":"3802 HOWE ST","state":"CA"},"type":"Feature","geometry":{"type":"Point","coordinates":[-122.256108,37.825066]}},{"properties":{"city":"Oakland","name":"Mo' Betta Food/ Mandela Farmer's Market","geo_score":0.883,"zip code":"94607","hours":"Sat 10-4pm","id":"a6w26cuwd07l","geo_precision":"range","address":"1357 5th Street","state":"CA"},"type":"Feature","geometry":{"type":"Point","coordinates":[-122.292767,37.803502]}},{"properties":{"city":"Oakland","name":"Montclair Farmer's Market","geo_score":0.63,"zip code":"94611","hours":"Sun 9-1pm","id":"a6w26ctunyo5","geo_precision":"street","address":"LA SALLE AVE AT MORAGA AVE","state":"CA"},"type":"Feature","geometry":{"type":"Point","coordinates":[-122.238852,37.830536]}},{"properties":{"city":"Oakland","name":"Old Oakland Farmer's Market","geo_score":0.607,"zip code":"94538","hours":"Fri 8-2pm","id":"a6w26d5ty16e","geo_precision":"street","address":"9TH and BROADWAY","state":"CA"},"type":"Feature","geometry":{"type":"Point","coordinates":[-122.058351,37.897971]}}],"is_temporal":false,"author":{"url":"","metadata":"","contact_name":"","contact_address":"","source":"","contact_phone":""},"source":"","pagination":{"sort":null,"start":0,"total":10,"limit":1000000},"state":"complete","tags":"","published":"2014-08-10T17:47:23-04:00","id":56716}