{"type":"FeatureCollection","data_type":"Dataset","url_type":null,"permissions":[{"permissions":{"download":true,"view":true},"group_id":"everyone"}],"classification":null,"title":"ITS Unit Cost Place data sample","count":116,"stream_id":57011,"contributor":{"url":"http://geocommons.com/users/14381","name":"jabunch"},"data_attributes":null,"calculation_params":null,"icon_link":null,"link":"http://geocommons.com/overlays/57011.json","extent":[-149.9,25.7743,-74.1092,61.2181],"geometry_types":["point"],"unique_name":null,"name":"ITS Unit Cost Place data sample","feature_count":116,"description":"ITS unit cost data sample","next_feature":null,"is_raster":false,"short_classification":"Y","stats":{"geo_score":{"max":0.857,"mean":0.793715517241379,"variance":0.030323909670165,"stdev":0.174137617045155,"min":0.0,"median":0.857}},"features":[{"properties":{"city":"Anchorage","country":"United States","geo_score":0.857,"unit cost component":"900 MHz Spread Spectrum Radio","id":"a74mpejb8yo6","geo_precision":"city","state":"Alaska"},"type":"Feature","geometry":{"type":"Point","coordinates":[-149.900278,61.218056]}},{"properties":{"city":"Anchorage","country":"United States","geo_score":0.857,"unit cost component":"900 MHz Spread Spectrum Radio","id":"a74mpeiskxs3","geo_precision":"city","state":"Alaska"},"type":"Feature","geometry":{"type":"Point","coordinates":[-149.900278,61.218056]}},{"properties":{"city":"Ann Arbor","country":"United States","geo_score":0.75,"unit cost component":"Arrival Departure Terminal","id":"a74mper6ano0","geo_precision":"city","state":"Michigan"},"type":"Feature","geometry":{"type":"Point","coordinates":[-86.176715,42.96502]}},{"properties":{"city":"Ann Arbor","country":"United States","geo_score":0.75,"unit cost component":"Digital Surveillance System w/ 2 cameras","id":"a74mpeivc195","geo_precision":"city","state":"Michigan"},"type":"Feature","geometry":{"type":"Point","coordinates":[-86.176715,42.96502]}},{"properties":{"city":"Ann Arbor","country":"United States","geo_score":0.75,"unit cost component":"Passenger Counting System","id":"a74mpepvljws","geo_precision":"city","state":"Michigan"},"type":"Feature","geometry":{"type":"Point","coordinates":[-86.176715,42.96502]}},{"properties":{"city":"Ann Arbor","country":"United States","geo_score":0.75,"unit cost component":"Radio System Hardware Components","id":"a74mpeglm5qf","geo_precision":"city","state":"Michigan"},"type":"Feature","geometry":{"type":"Point","coordinates":[-86.176715,42.96502]}},{"properties":{"city":"Ann Arbor","country":"United States","geo_score":0.75,"unit cost component":"Trapeze Software","id":"a74mpept6syv","geo_precision":"city","state":"Michigan"},"type":"Feature","geometry":{"type":"Point","coordinates":[-86.176715,42.96502]}},{"properties":{"city":"Atlanta","country":"United States","geo_score":0.857,"unit cost component":"Roadside Signal Preemption/Priority","id":"a74mpen053o1","geo_precision":"city","state":"Georgia"},"type":"Feature","geometry":{"type":"Point","coordinates":[-84.387982,33.748995]}},{"properties":{"city":"Atlanta","country":"United States","geo_score":0.857,"unit cost component":"Signal Preemption/Priority Emitter","id":"a74mpeb8fogl","geo_precision":"city","state":"Georgia"},"type":"Feature","geometry":{"type":"Point","coordinates":[-84.387982,33.748995]}},{"properties":{"city":"Atlanta","country":"United States","geo_score":0.857,"unit cost component":"Inductive Loop Surveillance at Intersection","id":"a74mpeir8qag","geo_precision":"city","state":"Georgia"},"type":"Feature","geometry":{"type":"Point","coordinates":[-84.387982,33.748995]}},{"properties":{"city":"Atlanta","country":"United States","geo_score":0.857,"unit cost component":"Adaptive Traffic Signal Control System","id":"a74mperecxme","geo_precision":"city","state":"Georgia"},"type":"Feature","geometry":{"type":"Point","coordinates":[-84.387982,33.748995]}},{"properties":{"city":"Atlanta","country":"United States","geo_score":0.857,"unit cost component":"Machine Vision Sensor at Intersection","id":"a74mpebq16vx","geo_precision":"city","state":"Georgia"},"type":"Feature","geometry":{"type":"Point","coordinates":[-84.387982,33.748995]}},{"properties":{"city":"Atlanta","country":"United States","geo_score":0.857,"unit cost component":"Fiber optic Cable Installation","id":"a74mpemj1fit","geo_precision":"city","state":"Georgia"},"type":"Feature","geometry":{"type":"Point","coordinates":[-84.387982,33.748995]}},{"properties":{"city":"Austin","country":"United States","geo_score":0.857,"unit cost component":"Facility Plus Commuication Equip","id":"a74mpepnx7w4","geo_precision":"city","state":"Texas"},"type":"Feature","geometry":{"type":"Point","coordinates":[-97.743061,30.267153]}},{"properties":{"city":"Blaine","country":"United States","geo_score":0.786,"unit cost component":"CCTV Video Camera","id":"a74mpepwkz47","geo_precision":"city","state":"Washington"},"type":"Feature","geometry":{"type":"Point","coordinates":[-123.006008,48.022313]}},{"properties":{"city":"Blaine","country":"United States","geo_score":0.786,"unit cost component":"Conduit Design and Installation - Corridor","id":"a74mper531c9","geo_precision":"city","state":"Washington"},"type":"Feature","geometry":{"type":"Point","coordinates":[-123.006008,48.022313]}},{"properties":{"city":"Blaine","country":"United States","geo_score":0.786,"unit cost component":"Fiber optic Cable Installation","id":"a74mpeqw6d7u","geo_precision":"city","state":"Washington"},"type":"Feature","geometry":{"type":"Point","coordinates":[-123.006008,48.022313]}},{"properties":{"city":"Blewett/Stevens Pass","country":"United States","geo_score":0.0,"unit cost component":"Variable Message Sign Tower","id":"a74mpeevxmto","geo_precision":"unmatched","state":"Washington"},"type":"Feature","geometry":null},{"properties":{"city":"Blewett/Stevens Pass","country":"United States","geo_score":0.0,"unit cost component":"Variable Message Sign","id":"a74mpegpdmsu","geo_precision":"unmatched","state":"Washington"},"type":"Feature","geometry":null},{"properties":{"city":"Blewett/Stevens Pass","country":"United States","geo_score":0.0,"unit cost component":"Roadside Weather Information System (RWIS)","id":"a74mpecgzxrs","geo_precision":"unmatched","state":"Washington"},"type":"Feature","geometry":null},{"properties":{"city":"Boise","country":"United States","geo_score":0.857,"unit cost component":"CCTV Video Camera Tower","id":"a74mpebknh5t","geo_precision":"city","state":"Idaho"},"type":"Feature","geometry":{"type":"Point","coordinates":[-116.203451,43.6135]}},{"properties":{"city":"Boise","country":"United States","geo_score":0.857,"unit cost component":"900 MHz Spread Spectrum Radio","id":"a74mpefilb0u","geo_precision":"city","state":"Idaho"},"type":"Feature","geometry":{"type":"Point","coordinates":[-116.203451,43.6135]}},{"properties":{"city":"Boise","country":"United States","geo_score":0.857,"unit cost component":"Variable Message Sign Tower","id":"a74mped3pnmc","geo_precision":"city","state":"Idaho"},"type":"Feature","geometry":{"type":"Point","coordinates":[-116.203451,43.6135]}},{"properties":{"city":"Boise","country":"United States","geo_score":0.857,"unit cost component":"Variable Message Sign","id":"a74mpepeejej","geo_precision":"city","state":"Idaho"},"type":"Feature","geometry":{"type":"Point","coordinates":[-116.203451,43.6135]}},{"properties":{"city":"Boise","country":"United States","geo_score":0.857,"unit cost component":"CCTV Video Camera","id":"a74mpei4idvh","geo_precision":"city","state":"Idaho"},"type":"Feature","geometry":{"type":"Point","coordinates":[-116.203451,43.6135]}},{"properties":{"city":"Boise","country":"United States","geo_score":0.857,"unit cost component":"CCTV Video Camera","id":"a74mpemylkng","geo_precision":"city","state":"Idaho"},"type":"Feature","geometry":{"type":"Point","coordinates":[-116.203451,43.6135]}},{"properties":{"city":"Boise","country":"United States","geo_score":0.857,"unit cost component":"Passive Acoustic Sensor on Corridor","id":"a74mpenie96s","geo_precision":"city","state":"Idaho"},"type":"Feature","geometry":{"type":"Point","coordinates":[-116.203451,43.6135]}},{"properties":{"city":"Burlington","country":"United States","geo_score":0.857,"unit cost component":"Conduit Design and Installation - Corridor","id":"a74mpeb75svd","geo_precision":"city","state":"North Carolina"},"type":"Feature","geometry":{"type":"Point","coordinates":[-79.430129,36.091025]}},{"properties":{"city":"Charlotte","country":"United States","geo_score":0.857,"unit cost component":"CCTV Camera","id":"a74mpedtdd7o","geo_precision":"city","state":"North Carolina"},"type":"Feature","geometry":{"type":"Point","coordinates":[-80.843127,35.227087]}},{"properties":{"city":"Charlotte","country":"United States","geo_score":0.857,"unit cost component":"Conduit Design and Installation - Corridor","id":"a74mpehtu1ok","geo_precision":"city","state":"North Carolina"},"type":"Feature","geometry":{"type":"Point","coordinates":[-80.843127,35.227087]}},{"properties":{"city":"Charlotte","country":"United States","geo_score":0.857,"unit cost component":"Conduit Design and Installation - Corridor","id":"a74mpefsols9","geo_precision":"city","state":"North Carolina"},"type":"Feature","geometry":{"type":"Point","coordinates":[-80.843127,35.227087]}},{"properties":{"city":"Charlotte","country":"United States","geo_score":0.857,"unit cost component":"Fiber Optic Cable and Installation","id":"a74mpekfx16n","geo_precision":"city","state":"North Carolina"},"type":"Feature","geometry":{"type":"Point","coordinates":[-80.843127,35.227087]}},{"properties":{"city":"Charlotte","country":"United States","geo_score":0.857,"unit cost component":"Remote Traffic Microwave Sensor on Corridor","id":"a74mpem3xl8b","geo_precision":"city","state":"North Carolina"},"type":"Feature","geometry":{"type":"Point","coordinates":[-80.843127,35.227087]}},{"properties":{"city":"Charlotte","country":"United States","geo_score":0.857,"unit cost component":"Video Monitors, Wall for Incident Detection","id":"a74mpebr1j7p","geo_precision":"city","state":"North Carolina"},"type":"Feature","geometry":{"type":"Point","coordinates":[-80.843127,35.227087]}},{"properties":{"city":"Durham","country":"United States","geo_score":0.857,"unit cost component":"Conduit Design and Installation - Corridor","id":"a74mpepk65ch","geo_precision":"city","state":"North Carolina"},"type":"Feature","geometry":{"type":"Point","coordinates":[-78.898619,35.994033]}},{"properties":{"city":"Durham","country":"United States","geo_score":0.857,"unit cost component":"Fiber optic Cable Installation","id":"a74mpenmdy3s","geo_precision":"city","state":"North Carolina"},"type":"Feature","geometry":{"type":"Point","coordinates":[-78.898619,35.994033]}},{"properties":{"city":"Edmonds,Mukilteo","country":"United States","geo_score":0.781,"unit cost component":"CCTV Video Camera Tower","id":"a74mpecctk7l","geo_precision":"city","state":"Washington"},"type":"Feature","geometry":{"type":"Point","coordinates":[-122.372401,47.806068]}},{"properties":{"city":"Edmonds,Mukilteo","country":"United States","geo_score":0.781,"unit cost component":"CCTV Video Camera","id":"a74mpeisxsvo","geo_precision":"city","state":"Washington"},"type":"Feature","geometry":{"type":"Point","coordinates":[-122.372401,47.806068]}},{"properties":{"city":"Edmonds,Mukilteo","country":"United States","geo_score":0.781,"unit cost component":"Variable Message Sign","id":"a74mpecm2qyy","geo_precision":"city","state":"Washington"},"type":"Feature","geometry":{"type":"Point","coordinates":[-122.372401,47.806068]}},{"properties":{"city":"Fort Collins","country":"United States","geo_score":0.753,"unit cost component":"Conduit Design and Installation - Corridor","id":"a74mpeebipcd","geo_precision":"city","state":"Colorado"},"type":"Feature","geometry":{"type":"Point","coordinates":[-108.685164,39.149614]}},{"properties":{"city":"Fort Lauderdale","country":"United States","geo_score":0.857,"unit cost component":"SMART SunGuide TMC","id":"a74mpeo5xguh","geo_precision":"city","state":"Florida"},"type":"Feature","geometry":{"type":"Point","coordinates":[-80.143379,26.122308]}},{"properties":{"city":"Fort Lauderdale","country":"United States","geo_score":0.857,"unit cost component":"SMART SunGuide TMC","id":"a74mpeet2iug","geo_precision":"city","state":"Florida"},"type":"Feature","geometry":{"type":"Point","coordinates":[-80.143379,26.122308]}},{"properties":{"city":"Fort Worth","country":"United States","geo_score":0.746,"unit cost component":"Conduit Design and Installation - Corridor","id":"a74mpelx6pkv","geo_precision":"city","state":"Texas"},"type":"Feature","geometry":{"type":"Point","coordinates":[-95.262161,31.108239]}},{"properties":{"city":"Hampton Roads","country":"United States","geo_score":0.75,"unit cost component":"Map Database Software","id":"a74mpecdp97c","geo_precision":"city","state":"Virginia"},"type":"Feature","geometry":{"type":"Point","coordinates":[-78.590846,38.855946]}},{"properties":{"city":"Hattiesburg","country":"United States","geo_score":0.857,"unit cost component":"Fiber optic Cable Installation","id":"a74mpeo7ejyk","geo_precision":"city","state":"Mississippi"},"type":"Feature","geometry":{"type":"Point","coordinates":[-89.28071,31.245138]}},{"properties":{"city":"Houston","country":"United States","geo_score":0.816,"unit cost component":"CCTV Video Camera","id":"a74mpehi64sn","geo_precision":"city","state":"Texas"},"type":"Feature","geometry":{"type":"Point","coordinates":[-96.919704,29.845783]}},{"properties":{"city":"Houston","country":"United States","geo_score":0.816,"unit cost component":"Variable Message Sign Tower","id":"a74mpena3llg","geo_precision":"city","state":"Texas"},"type":"Feature","geometry":{"type":"Point","coordinates":[-96.919704,29.845783]}},{"properties":{"city":"Houston","country":"United States","geo_score":0.816,"unit cost component":"Variable Message Sign","id":"a74mpek24s0f","geo_precision":"city","state":"Texas"},"type":"Feature","geometry":{"type":"Point","coordinates":[-96.919704,29.845783]}},{"properties":{"city":"Houston","country":"United States","geo_score":0.816,"unit cost component":"Highway Advisory Radio Sign","id":"a74mpefl1fxq","geo_precision":"city","state":"Texas"},"type":"Feature","geometry":{"type":"Point","coordinates":[-96.919704,29.845783]}},{"properties":{"city":"Houston","country":"United States","geo_score":0.816,"unit cost component":"Variable Message Sign","id":"a74mpemg4squ","geo_precision":"city","state":"Texas"},"type":"Feature","geometry":{"type":"Point","coordinates":[-96.919704,29.845783]}},{"properties":{"city":"Houston","country":"United States","geo_score":0.816,"unit cost component":"Twisted Pair Installation","id":"a74mpeeu4boa","geo_precision":"city","state":"Texas"},"type":"Feature","geometry":{"type":"Point","coordinates":[-96.919704,29.845783]}},{"properties":{"city":"Kansas City","country":"United States","geo_score":0.857,"unit cost component":"Automatic Passenger Counters for Transit Vehicles","id":"a74mpekhpoal","geo_precision":"city","state":"Missouri"},"type":"Feature","geometry":{"type":"Point","coordinates":[-94.598583,39.102404]}},{"properties":{"city":"Laredo","country":"United States","geo_score":0.786,"unit cost component":"CCTV Video Camera","id":"a74mpeqgtdfx","geo_precision":"city","state":"Texas"},"type":"Feature","geometry":{"type":"Point","coordinates":[-102.907999,34.330354]}},{"properties":{"city":"Lynnwood","country":"United States","geo_score":0.857,"unit cost component":"Basic PDA","id":"a74mpejqdric","geo_precision":"city","state":"Washington"},"type":"Feature","geometry":{"type":"Point","coordinates":[-122.315131,47.82093]}},{"properties":{"city":"Lynnwood","country":"United States","geo_score":0.857,"unit cost component":"Direct Bury Armor Encased Fiber Cable","id":"a74mpeln4i2r","geo_precision":"city","state":"Washington"},"type":"Feature","geometry":{"type":"Point","coordinates":[-122.315131,47.82093]}},{"properties":{"city":"Lynnwood","country":"United States","geo_score":0.857,"unit cost component":"Machine Vision Sensor at Intersection","id":"a74mpeii998h","geo_precision":"city","state":"Washington"},"type":"Feature","geometry":{"type":"Point","coordinates":[-122.315131,47.82093]}},{"properties":{"city":"Lynnwood","country":"United States","geo_score":0.857,"unit cost component":"Signal Preemption Receiver","id":"a74mped6lhm1","geo_precision":"city","state":"Washington"},"type":"Feature","geometry":{"type":"Point","coordinates":[-122.315131,47.82093]}},{"properties":{"city":"Lynnwood","country":"United States","geo_score":0.857,"unit cost component":"Software, Integration for Signal Control","id":"a74mpejsw7fx","geo_precision":"city","state":"Washington"},"type":"Feature","geometry":{"type":"Point","coordinates":[-122.315131,47.82093]}},{"properties":{"city":"Miami","country":"United States","geo_score":0.857,"unit cost component":"CCTV Video Camera","id":"a74mpeci560z","geo_precision":"city","state":"Florida"},"type":"Feature","geometry":{"type":"Point","coordinates":[-80.193659,25.774266]}},{"properties":{"city":"Miami","country":"United States","geo_score":0.857,"unit cost component":"Cellular Communication","id":"a74mpeeut9wr","geo_precision":"city","state":"Florida"},"type":"Feature","geometry":{"type":"Point","coordinates":[-80.193659,25.774266]}},{"properties":{"city":"Miami","country":"United States","geo_score":0.857,"unit cost component":"Basic Facilities, Comm for Large Area","id":"a74mpepofesv","geo_precision":"city","state":"Florida"},"type":"Feature","geometry":{"type":"Point","coordinates":[-80.193659,25.774266]}},{"properties":{"city":"Miami","country":"United States","geo_score":0.857,"unit cost component":"ISP Service Fee","id":"a74mpee0u4h5","geo_precision":"city","state":"Florida"},"type":"Feature","geometry":{"type":"Point","coordinates":[-80.193659,25.774266]}},{"properties":{"city":"Miami","country":"United States","geo_score":0.857,"unit cost component":"Microwave Communication","id":"a74mpedil4fx","geo_precision":"city","state":"Florida"},"type":"Feature","geometry":{"type":"Point","coordinates":[-80.193659,25.774266]}},{"properties":{"city":"Miami","country":"United States","geo_score":0.857,"unit cost component":"CCTV Video Camera Tower","id":"a74mpecja3os","geo_precision":"city","state":"Florida"},"type":"Feature","geometry":{"type":"Point","coordinates":[-80.193659,25.774266]}},{"properties":{"city":"New Paltz,Yonkers","country":"United States","geo_score":0.79,"unit cost component":"Fiber optic Cable Installation","id":"a74mpejijb77","geo_precision":"city","state":"New York"},"type":"Feature","geometry":{"type":"Point","coordinates":[-74.109241,41.74638]}},{"properties":{"city":"Oklahoma City","country":"United States","geo_score":0.857,"unit cost component":"Conduit Design and Installation - Corridor","id":"a74mpedax1sd","geo_precision":"city","state":"Oklahoma"},"type":"Feature","geometry":{"type":"Point","coordinates":[-97.516428,35.46756]}},{"properties":{"city":"Oklahoma City","country":"United States","geo_score":0.857,"unit cost component":"Conduit Design and Installation - Corridor","id":"a74mpemalnpm","geo_precision":"city","state":"Oklahoma"},"type":"Feature","geometry":{"type":"Point","coordinates":[-97.516428,35.46756]}},{"properties":{"city":"Oklahoma City","country":"United States","geo_score":0.857,"unit cost component":"Conduit Design and Installation - Corridor","id":"a74mpehij4k0","geo_precision":"city","state":"Oklahoma"},"type":"Feature","geometry":{"type":"Point","coordinates":[-97.516428,35.46756]}},{"properties":{"city":"Oklahoma City","country":"United States","geo_score":0.857,"unit cost component":"Conduit Design and Installation - Corridor","id":"a74mpefn6w45","geo_precision":"city","state":"Oklahoma"},"type":"Feature","geometry":{"type":"Point","coordinates":[-97.516428,35.46756]}},{"properties":{"city":"Oklahoma City","country":"United States","geo_score":0.857,"unit cost component":"Fiber optic Cable Installation","id":"a74mpenewzyt","geo_precision":"city","state":"Oklahoma"},"type":"Feature","geometry":{"type":"Point","coordinates":[-97.516428,35.46756]}},{"properties":{"city":"Oklahoma City","country":"United States","geo_score":0.857,"unit cost component":"Fiber optic Cable Installation","id":"a74mpehnqoid","geo_precision":"city","state":"Oklahoma"},"type":"Feature","geometry":{"type":"Point","coordinates":[-97.516428,35.46756]}},{"properties":{"city":"Oklahoma City","country":"United States","geo_score":0.857,"unit cost component":"Fiber optic Cable Installation","id":"a74mpedueakb","geo_precision":"city","state":"Oklahoma"},"type":"Feature","geometry":{"type":"Point","coordinates":[-97.516428,35.46756]}},{"properties":{"city":"Oxford","country":"United States","geo_score":0.857,"unit cost component":"Linked Signal System LAN","id":"a74mpek79nid","geo_precision":"city","state":"Mississippi"},"type":"Feature","geometry":{"type":"Point","coordinates":[-90.898158,31.267951]}},{"properties":{"city":"Oxford","country":"United States","geo_score":0.857,"unit cost component":"Fiber optic Cable Installation","id":"a74mpeh4lebd","geo_precision":"city","state":"Mississippi"},"type":"Feature","geometry":{"type":"Point","coordinates":[-90.898158,31.267951]}},{"properties":{"city":"Oxford","country":"United States","geo_score":0.857,"unit cost component":"Variable Message Sign - Portable","id":"a74mpeingywc","geo_precision":"city","state":"Mississippi"},"type":"Feature","geometry":{"type":"Point","coordinates":[-90.898158,31.267951]}},{"properties":{"city":"Oxford","country":"United States","geo_score":0.857,"unit cost component":"Signal Controller Upgrade for Signal Control","id":"a74mpelw4t3i","geo_precision":"city","state":"Mississippi"},"type":"Feature","geometry":{"type":"Point","coordinates":[-90.898158,31.267951]}},{"properties":{"city":"Port Angeles","country":"United States","geo_score":0.74,"unit cost component":"Highway Advisory Radio","id":"a74mpem62wvb","geo_precision":"city","state":"Washington"},"type":"Feature","geometry":{"type":"Point","coordinates":[-122.62541,47.388985]}},{"properties":{"city":"Port Angeles","country":"United States","geo_score":0.74,"unit cost component":"Roadside Probe Beacon","id":"a74mpel3sysn","geo_precision":"city","state":"Washington"},"type":"Feature","geometry":{"type":"Point","coordinates":[-122.62541,47.388985]}},{"properties":{"city":"Pueblo","country":"United States","geo_score":0.857,"unit cost component":"CCTV Video Camera","id":"a74mpedxxfh4","geo_precision":"city","state":"Colorado"},"type":"Feature","geometry":{"type":"Point","coordinates":[-104.609141,38.254447]}},{"properties":{"city":"Pueblo","country":"United States","geo_score":0.857,"unit cost component":"Fiber optic Cable Installation","id":"a74mpeg0goe6","geo_precision":"city","state":"Colorado"},"type":"Feature","geometry":{"type":"Point","coordinates":[-104.609141,38.254447]}},{"properties":{"city":"Raleigh","country":"United States","geo_score":0.857,"unit cost component":"Conduit Design and Installation - Corridor","id":"a74mpeft6o5p","geo_precision":"city","state":"North Carolina"},"type":"Feature","geometry":{"type":"Point","coordinates":[-78.638615,35.772096]}},{"properties":{"city":"Raleigh","country":"United States","geo_score":0.857,"unit cost component":"Fiber optic Cable Installation","id":"a74mpejtkmmn","geo_precision":"city","state":"North Carolina"},"type":"Feature","geometry":{"type":"Point","coordinates":[-78.638615,35.772096]}},{"properties":{"city":"Southaven","country":"United States","geo_score":0.857,"unit cost component":"Signal Preemption/Priority Emitter","id":"a74mpei33hn6","geo_precision":"city","state":"Mississippi"},"type":"Feature","geometry":{"type":"Point","coordinates":[-89.99624,34.956633]}},{"properties":{"city":"Spokane","country":"United States","geo_score":0.857,"unit cost component":"Wireless Communications, High Usage","id":"a74mpec7hr1t","geo_precision":"city","state":"Washington"},"type":"Feature","geometry":{"type":"Point","coordinates":[-117.426047,47.65878]}},{"properties":{"city":"Spokane","country":"United States","geo_score":0.857,"unit cost component":"Environmental Sensing Station","id":"a74mpeex4f08","geo_precision":"city","state":"Washington"},"type":"Feature","geometry":{"type":"Point","coordinates":[-117.426047,47.65878]}},{"properties":{"city":"Spokane","country":"United States","geo_score":0.857,"unit cost component":"Environmental Sensing Station","id":"a74mpeb6ltev","geo_precision":"city","state":"Washington"},"type":"Feature","geometry":{"type":"Point","coordinates":[-117.426047,47.65878]}},{"properties":{"city":"Spokane","country":"United States","geo_score":0.857,"unit cost component":"Highway Advisory Radio Sign","id":"a74mpei768m2","geo_precision":"city","state":"Washington"},"type":"Feature","geometry":{"type":"Point","coordinates":[-117.426047,47.65878]}},{"properties":{"city":"Spokane","country":"United States","geo_score":0.857,"unit cost component":"Highway Advisory Radio","id":"a74mpeha6s0e","geo_precision":"city","state":"Washington"},"type":"Feature","geometry":{"type":"Point","coordinates":[-117.426047,47.65878]}},{"properties":{"city":"Spokane","country":"United States","geo_score":0.857,"unit cost component":"Roadside Weather Information System (RWIS)","id":"a74mpeoo9xue","geo_precision":"city","state":"Washington"},"type":"Feature","geometry":{"type":"Point","coordinates":[-117.426047,47.65878]}},{"properties":{"city":"St. Paul","country":"United States","geo_score":0.762,"unit cost component":"Communication Lines","id":"a74mpeh8v0oz","geo_precision":"city","state":"Minnesota"},"type":"Feature","geometry":{"type":"Point","coordinates":[-92.259625,47.415205]}},{"properties":{"city":"St. Paul","country":"United States","geo_score":0.762,"unit cost component":"Communication Lines","id":"a74mpec4embh","geo_precision":"city","state":"Minnesota"},"type":"Feature","geometry":{"type":"Point","coordinates":[-92.259625,47.415205]}},{"properties":{"city":"St. Paul","country":"United States","geo_score":0.762,"unit cost component":"Communication Lines","id":"a74mpeiocxyd","geo_precision":"city","state":"Minnesota"},"type":"Feature","geometry":{"type":"Point","coordinates":[-92.259625,47.415205]}},{"properties":{"city":"St. Paul","country":"United States","geo_score":0.762,"unit cost component":"Communication Lines","id":"a74mpeq3fg4g","geo_precision":"city","state":"Minnesota"},"type":"Feature","geometry":{"type":"Point","coordinates":[-92.259625,47.415205]}},{"properties":{"city":"St. Paul","country":"United States","geo_score":0.762,"unit cost component":"Electronic Signs","id":"a74mpee8ccxe","geo_precision":"city","state":"Minnesota"},"type":"Feature","geometry":{"type":"Point","coordinates":[-92.259625,47.415205]}},{"properties":{"city":"St. Paul","country":"United States","geo_score":0.762,"unit cost component":"Electronic Signs - Unit Costs Future Deployment","id":"a74mpeibkvlh","geo_precision":"city","state":"Minnesota"},"type":"Feature","geometry":{"type":"Point","coordinates":[-92.259625,47.415205]}},{"properties":{"city":"St. Paul","country":"United States","geo_score":0.762,"unit cost component":"Advanced Parking Management System: O&amp;M Labor","id":"a74mpeguhpgt","geo_precision":"city","state":"Minnesota"},"type":"Feature","geometry":{"type":"Point","coordinates":[-92.259625,47.415205]}},{"properties":{"city":"St. Paul","country":"United States","geo_score":0.762,"unit cost component":"Advanced Parking Management System: O&amp;M Labor","id":"a74mpebr1pgr","geo_precision":"city","state":"Minnesota"},"type":"Feature","geometry":{"type":"Point","coordinates":[-92.259625,47.415205]}},{"properties":{"city":"St. Paul","country":"United States","geo_score":0.762,"unit cost component":"Parking Facility Equipment","id":"a74mpeiz1tkh","geo_precision":"city","state":"Minnesota"},"type":"Feature","geometry":{"type":"Point","coordinates":[-92.259625,47.415205]}},{"properties":{"city":"St. Paul","country":"United States","geo_score":0.762,"unit cost component":"Parking Facility Equipment","id":"a74mpegms10z","geo_precision":"city","state":"Minnesota"},"type":"Feature","geometry":{"type":"Point","coordinates":[-92.259625,47.415205]}},{"properties":{"city":"St. Paul","country":"United States","geo_score":0.762,"unit cost component":"Advanced Parking Management System: System Software","id":"a74mpeetbnhn","geo_precision":"city","state":"Minnesota"},"type":"Feature","geometry":{"type":"Point","coordinates":[-92.259625,47.415205]}},{"properties":{"city":"St. Paul","country":"United States","geo_score":0.762,"unit cost component":"Advanced Parking Management System: System Software","id":"a74mpeozfmja","geo_precision":"city","state":"Minnesota"},"type":"Feature","geometry":{"type":"Point","coordinates":[-92.259625,47.415205]}},{"properties":{"city":"Tampa","country":"United States","geo_score":0.857,"unit cost component":"Security Cameras and Recording Units","id":"a74mpep0spc3","geo_precision":"city","state":"Florida"},"type":"Feature","geometry":{"type":"Point","coordinates":[-82.458428,27.947522]}},{"properties":{"city":"Tampa","country":"United States","geo_score":0.857,"unit cost component":"CCTV Camera","id":"a74mpejzyec1","geo_precision":"city","state":"Florida"},"type":"Feature","geometry":{"type":"Point","coordinates":[-82.458428,27.947522]}},{"properties":{"city":"Tampa","country":"United States","geo_score":0.857,"unit cost component":"Transit Status Information Sign","id":"a74mpehfkv0n","geo_precision":"city","state":"Florida"},"type":"Feature","geometry":{"type":"Point","coordinates":[-82.458428,27.947522]}},{"properties":{"city":"Tampa","country":"United States","geo_score":0.857,"unit cost component":"Transit Status Information Sign","id":"a74mpejcz9ci","geo_precision":"city","state":"Florida"},"type":"Feature","geometry":{"type":"Point","coordinates":[-82.458428,27.947522]}},{"properties":{"city":"Tucson","country":"United States","geo_score":0.857,"unit cost component":"Signal Controller Upgrade for Signal Control","id":"a74mpep2qo03","geo_precision":"city","state":"Arizona"},"type":"Feature","geometry":{"type":"Point","coordinates":[-110.926479,32.221743]}},{"properties":{"city":"Tucson","country":"United States","geo_score":0.857,"unit cost component":"Signal Controller Upgrade for Signal Control","id":"a74mpek1czmp","geo_precision":"city","state":"Arizona"},"type":"Feature","geometry":{"type":"Point","coordinates":[-110.926479,32.221743]}},{"properties":{"city":"Tukwila","country":"United States","geo_score":0.857,"unit cost component":"CCTV Video Camera Tower","id":"a74mpeb4yl9g","geo_precision":"city","state":"Washington"},"type":"Feature","geometry":{"type":"Point","coordinates":[-122.260956,47.473988]}},{"properties":{"city":"Tukwila","country":"United States","geo_score":0.857,"unit cost component":"Signal Controller","id":"a74mpeql2b1z","geo_precision":"city","state":"Washington"},"type":"Feature","geometry":{"type":"Point","coordinates":[-122.260956,47.473988]}},{"properties":{"city":"Tukwila","country":"United States","geo_score":0.857,"unit cost component":"Signal Controller Upgrade for Signal Control","id":"a74mpefprqef","geo_precision":"city","state":"Washington"},"type":"Feature","geometry":{"type":"Point","coordinates":[-122.260956,47.473988]}},{"properties":{"city":"Tulsa","country":"United States","geo_score":0.857,"unit cost component":"Conduit Design and Installation - Corridor","id":"a74mpelmzjpe","geo_precision":"city","state":"Oklahoma"},"type":"Feature","geometry":{"type":"Point","coordinates":[-95.992775,36.153982]}},{"properties":{"city":"Tulsa","country":"United States","geo_score":0.857,"unit cost component":"Fiber optic Cable Installation","id":"a74mpekvauub","geo_precision":"city","state":"Oklahoma"},"type":"Feature","geometry":{"type":"Point","coordinates":[-95.992775,36.153982]}},{"properties":{"city":"Washougal,Mayhill","country":"United States","geo_score":0.0,"unit cost component":"Roadside Weather Information System (RWIS)","id":"a74mpeieyxxj","geo_precision":"unmatched","state":"Washington"},"type":"Feature","geometry":null},{"properties":{"city":"Washougal,Mayhill","country":"United States","geo_score":0.0,"unit cost component":"Variable Message Sign Tower","id":"a74mpee2trpm","geo_precision":"unmatched","state":"Washington"},"type":"Feature","geometry":null},{"properties":{"city":"Wenatchee","country":"United States","geo_score":0.857,"unit cost component":"Highway Advisory Radio","id":"a74mpefi19s5","geo_precision":"city","state":"Washington"},"type":"Feature","geometry":{"type":"Point","coordinates":[-120.351884,47.573816]}},{"properties":{"city":"Wenatchee","country":"United States","geo_score":0.857,"unit cost component":"Variable Message Sign","id":"a74mpebl8917","geo_precision":"city","state":"Washington"},"type":"Feature","geometry":{"type":"Point","coordinates":[-120.351884,47.573816]}}],"is_temporal":false,"author":{"url":"","metadata":"","contact_name":"","contact_address":"","source":"","contact_phone":""},"source":"","pagination":{"sort":null,"start":0,"total":116,"limit":1000000},"state":"complete","tags":"","published":"2010-06-25T16:00:00Z","id":57011}