{"type":"FeatureCollection","data_type":"Dataset","url_type":null,"permissions":[{"permissions":{"download":true,"view":true},"group_id":"everyone"}],"classification":null,"title":"DownstreamRefineries","count":141,"stream_id":57494,"contributor":{"url":"http://geocommons.com/users/14492","name":"dbrewster_25"},"data_attributes":null,"calculation_params":null,"icon_link":null,"link":"http://geocommons.com/overlays/57494.json","extent":[-158.084,-38.1503,153.155,53.7476],"geometry_types":["point"],"unique_name":null,"name":"DownstreamRefineries","feature_count":141,"description":"","next_feature":null,"is_raster":false,"short_classification":"Y","stats":{},"features":[{"properties":{"City":"Alvin","Country":"USA","State":"Texas","id":"a7o6wlmtgk57"},"type":"Feature","geometry":{"type":"Point","coordinates":[-95.2475518,29.3845708]}},{"properties":{"City":"Ardmore","Country":"USA","State":"Oklahoma","id":"a7o6wln0d0rw"},"type":"Feature","geometry":{"type":"Point","coordinates":[-97.1436254,34.1742611]}},{"properties":{"City":"Arroyo Grande","Country":"USA","State":"California","id":"a7o6wlayotcy"},"type":"Feature","geometry":{"type":"Point","coordinates":[-120.5907252,35.1185868]}},{"properties":{"City":"Artesia","Country":"USA","State":"New Mexico","id":"a7o6wl9ptaha"},"type":"Feature","geometry":{"type":"Point","coordinates":[-104.4032962,32.8423345]}},{"properties":{"City":"Bakersfield","Country":"USA","State":"California","id":"a7o6wljjysv4"},"type":"Feature","geometry":{"type":"Point","coordinates":[-119.0187125,35.3732921]}},{"properties":{"City":"Bay City","Country":"USA","State":"Texas","id":"a7o6wli113vk"},"type":"Feature","geometry":{"type":"Point","coordinates":[-95.9693,28.9825]}},{"properties":{"City":"Baytown","Country":"USA","State":"Texas","id":"a7o6wljc3ay0"},"type":"Feature","geometry":{"type":"Point","coordinates":[-94.9774274,29.7355047]}},{"properties":{"City":"Belle Chase","Country":"USA","State":"Louisiana","id":"a7o6wln6b7bg"},"type":"Feature","geometry":{"type":"Point","coordinates":[-89.9906253,29.8549287]}},{"properties":{"City":"Benicia","Country":"USA","State":"California","id":"a7o6wlc5be5p"},"type":"Feature","geometry":{"type":"Point","coordinates":[-122.1585777,38.049365]}},{"properties":{"City":"Big Spring","Country":"USA","State":"Texas","id":"a7o6wld1fqlb"},"type":"Feature","geometry":{"type":"Point","coordinates":[-101.48,32.22]}},{"properties":{"City":"Billings","Country":"USA","State":"Montana","id":"a7o6wl8sccog"},"type":"Feature","geometry":{"type":"Point","coordinates":[-108.5006904,45.7832856]}},{"properties":{"City":"Bishop","Country":"USA","State":"Texas","id":"a7o6wlg81rkf"},"type":"Feature","geometry":{"type":"Point","coordinates":[-97.7991636,27.5861441]}},{"properties":{"City":"Borger","Country":"USA","State":"Texas","id":"a7o6wl8lq5qa"},"type":"Feature","geometry":{"type":"Point","coordinates":[-101.3973876,35.6678203]}},{"properties":{"City":"Brea","Country":"USA","State":"California","id":"a7o6wljldnpz"},"type":"Feature","geometry":{"type":"Point","coordinates":[-117.9000604,33.9166805]}},{"properties":{"City":"Brockville","Country":"Canada","State":"Ontario","id":"a7o6wlci8ng5"},"type":"Feature","geometry":{"type":"Point","coordinates":[-75.6871977,44.5895921]}},{"properties":{"City":"Burnaby","Country":"Canada","State":"British Columbia","id":"a7o6wlovklxv"},"type":"Feature","geometry":{"type":"Point","coordinates":[-122.9796237,49.1852515]}},{"properties":{"City":"Calgary","Country":"Canada","State":"Alberta","id":"a7o6wldunr5k"},"type":"Feature","geometry":{"type":"Point","coordinates":[-114.078676,51.049045]}},{"properties":{"City":"Camellia","Country":"Australia","State":"New South Wales","id":"a7o6wl8ubxwj"},"type":"Feature","geometry":{"type":"Point","coordinates":[151.022191,-33.816872]}},{"properties":{"City":"Carville","Country":"USA","State":"Louisiana","id":"a7o6wljf1gkk"},"type":"Feature","geometry":{"type":"Point","coordinates":[-91.1017334,30.2178155]}},{"properties":{"City":"Channahon","Country":"USA","State":"Illinois","id":"a7o6wl9ctkjn"},"type":"Feature","geometry":{"type":"Point","coordinates":[-88.1974148,41.4171702]}},{"properties":{"City":"Cicero","Country":"USA","State":"Illinois","id":"a7o6wlmf3jyx"},"type":"Feature","geometry":{"type":"Point","coordinates":[-87.7539448,41.8455877]}},{"properties":{"City":"Claremore","Country":"USA","State":"Oklahoma","id":"a7o6wld07v1u"},"type":"Feature","geometry":{"type":"Point","coordinates":[-95.61609,36.3125963]}},{"properties":{"City":"Corpus Christi","Country":"USA","State":"Texas","id":"a7o6wld2y3xr"},"type":"Feature","geometry":{"type":"Point","coordinates":[-97.5138947,27.8025401]}},{"properties":{"City":"Corpus Christi","Country":"USA","State":"Texas","id":"a7o6wla2iapj"},"type":"Feature","geometry":{"type":"Point","coordinates":[-97.4435441,27.8121784]}},{"properties":{"City":"Corunna","Country":"Canada","State":"Ontario","id":"a7o6wla37831"},"type":"Feature","geometry":{"type":"Point","coordinates":[-82.453301,42.888595]}},{"properties":{"City":"Courtright","Country":"Canada","State":"Ontario","id":"a7o6wlcqi07u"},"type":"Feature","geometry":{"type":"Point","coordinates":[-82.475894,42.815509]}},{"properties":{"City":"Dallas","Country":"USA","State":"Texas","id":"a7o6wlnyvdpz"},"type":"Feature","geometry":{"type":"Point","coordinates":[-96.7584327,32.7767909]}},{"properties":{"City":"Dallas","Country":"USA","State":"Texas","id":"a7o6wljaulue"},"type":"Feature","geometry":{"type":"Point","coordinates":[-96.7734911,32.9152632]}},{"properties":{"City":"Dallas","Country":"USA","State":"Texas","id":"a7o6wlmzdoyu"},"type":"Feature","geometry":{"type":"Point","coordinates":[-96.8887202,32.9229884]}},{"properties":{"City":"Dartmouth","Country":"Canada","State":"Nova Scotia","id":"a7o6wleatlsf"},"type":"Feature","geometry":{"type":"Point","coordinates":[-63.6026206,44.7136713]}},{"properties":{"City":"Donaldsonville","Country":"USA","State":"Louisiana","id":"a7o6wlksj66h"},"type":"Feature","geometry":{"type":"Point","coordinates":[-90.9928773,30.1010323]}},{"properties":{"City":"Doral","Country":"USA","State":"Florida","id":"a7o6wl8ifmvk"},"type":"Feature","geometry":{"type":"Point","coordinates":[-80.3553302,25.8195424]}},{"properties":{"City":"Eagle Farm","Country":"Australia","State":"Queensland","id":"a7o6wlhwt28o"},"type":"Feature","geometry":{"type":"Point","coordinates":[153.0861468,-27.4048009]}},{"properties":{"City":"East Chicago","Country":"USA","State":"Illinois","id":"a7o6wlenoosk"},"type":"Feature","geometry":{"type":"Point","coordinates":[-87.4504888,41.6428269]}},{"properties":{"City":"Edmonton","Country":"Canada","State":"Alberta","id":"a7o6wljkgi2w"},"type":"Feature","geometry":{"type":"Point","coordinates":[-113.4893211,53.546561]}},{"properties":{"City":"El Dorado","Country":"USA","State":"Arkansas","id":"a7o6wl90ujga"},"type":"Feature","geometry":{"type":"Point","coordinates":[-106.3531232,31.6705944]}},{"properties":{"City":"El Paso","Country":"USA","State":"Texas","id":"a7o6wlo7n9zv"},"type":"Feature","geometry":{"type":"Point","coordinates":[-106.4229199,31.7699019]}},{"properties":{"City":"El Paso","Country":"USA","State":"Texas","id":"a7o6wlolypho"},"type":"Feature","geometry":{"type":"Point","coordinates":[-106.4788714,31.7597373]}},{"properties":{"City":"Elk Grove","Country":"USA","State":"California","id":"a7o6wlkmkngp"},"type":"Feature","geometry":{"type":"Point","coordinates":[-121.3716178,38.4087993]}},{"properties":{"City":"Enoree","Country":"USA","State":"South Carolina","id":"a7o6wlhpq3hp"},"type":"Feature","geometry":{"type":"Point","coordinates":[-81.8879884,34.6586101]}},{"properties":{"City":"Fairfield","Country":"USA","State":"New Jersey","id":"a7o6wleoa82p"},"type":"Feature","geometry":{"type":"Point","coordinates":[-122.0636,38.255811]}},{"properties":{"City":"Fernley","Country":"USA","State":"Nevada","id":"a7o6wl92itls"},"type":"Feature","geometry":{"type":"Point","coordinates":[-119.2518349,39.6079683]}},{"properties":{"City":"Flagstaff","Country":"USA","State":"Arizona","id":"a7o6wlk3lxkg"},"type":"Feature","geometry":{"type":"Point","coordinates":[-111.639249,35.2013516]}},{"properties":{"City":"Florence","Country":"USA","State":"Kentucky","id":"a7o6wlh5nr2o"},"type":"Feature","geometry":{"type":"Point","coordinates":[-84.6266111,38.9989499]}},{"properties":{"City":"Fort Saskatchewan","Country":"Canada","State":"Alberta","id":"a7o6wllcq32x"},"type":"Feature","geometry":{"type":"Point","coordinates":[-113.0981383,53.7475611]}},{"properties":{"City":"Franklin Furnace","Country":"USA","State":"Ohio","id":"a7o6wldxbig5"},"type":"Feature","geometry":{"type":"Point","coordinates":[-82.846495,38.607952]}},{"properties":{"City":"Fredonia","Country":"USA","State":"Arizona","id":"a7o6wllyefex"},"type":"Feature","geometry":{"type":"Point","coordinates":[-112.5265889,36.945542]}},{"properties":{"City":"Gallup","Country":"USA","State":"New Mexico","id":"a7o6wlm7ft1m"},"type":"Feature","geometry":{"type":"Point","coordinates":[-108.7425843,35.5280783]}},{"properties":{"City":"Grafton","Country":"USA","State":"Virginia","id":"a7o6wlduripm"},"type":"Feature","geometry":{"type":"Point","coordinates":[-76.4736602,37.1836747]}},{"properties":{"City":"Granite City","Country":"USA","State":"Illinois","id":"a7o6wldyf5ll"},"type":"Feature","geometry":{"type":"Point","coordinates":[-90.1487199,38.7014389]}},{"properties":{"City":"Hartfold","Country":"USA","State":"Illinois","id":"a7o6wlmh1hii"},"type":"Feature","geometry":{"type":"Point","coordinates":[-90.09594,38.8333815]}},{"properties":{"City":"Haverhill","Country":"USA","State":"Ohio","id":"a7o6wlnwgp8g"},"type":"Feature","geometry":{"type":"Point","coordinates":[-82.83,38.58]}},{"properties":{"City":"Houston","Country":"USA","State":"Texas","id":"a7o6wlfgb6lu"},"type":"Feature","geometry":{"type":"Point","coordinates":[-95.6090009,29.7801889]}},{"properties":{"City":"Houston","Country":"USA","State":"Texas","id":"a7o6wlhgt0wp"},"type":"Feature","geometry":{"type":"Point","coordinates":[-95.6352801,29.7502187]}},{"properties":{"City":"Houston","Country":"USA","State":"Texas","id":"a7o6wlcurewt"},"type":"Feature","geometry":{"type":"Point","coordinates":[-95.3633,29.7632]}},{"properties":{"City":"Houston","Country":"USA","State":"Texas","id":"a7o6wlh2zkyq"},"type":"Feature","geometry":{"type":"Point","coordinates":[-95.3704009,29.7583272]}},{"properties":{"City":"Houston","Country":"USA","State":"Texas","id":"a7o6wloh1ie9"},"type":"Feature","geometry":{"type":"Point","coordinates":[-95.4699173,29.7484861]}},{"properties":{"City":"Houston/Texas City","Country":"USA","State":"Texas","id":"a7o6wldqba1z"},"type":"Feature","geometry":{"type":"Point","coordinates":[-94.9510793,29.3835568]}},{"properties":{"City":"Joliet","Country":"USA","State":"Illinois","id":"a7o6wlcgcml2"},"type":"Feature","geometry":{"type":"Point","coordinates":[-88.1340191,41.5011935]}},{"properties":{"City":"Kansas City","Country":"USA","State":"Kansas","id":"a7o6wlddidcr"},"type":"Feature","geometry":{"type":"Point","coordinates":[-94.6088854,39.1414736]}},{"properties":{"City":"Kapolei","Country":"USA","State":"Hawaii","id":"a7o6wlos896d"},"type":"Feature","geometry":{"type":"Point","coordinates":[-158.0835221,21.3487298]}},{"properties":{"City":"Kenova","Country":"USA","State":"West Virginia","id":"a7o6wlegf8dy"},"type":"Feature","geometry":{"type":"Point","coordinates":[-82.5782139,38.3989711]}},{"properties":{"City":"Knoxville","Country":"USA","State":"Tennessee","id":"a7o6wldcjdoc"},"type":"Feature","geometry":{"type":"Point","coordinates":[-84.1751648,35.8722577]}},{"properties":{"City":"Krotz Springs","Country":"USA","State":"Louisiana","id":"a7o6wl95r29d"},"type":"Feature","geometry":{"type":"Point","coordinates":[-91.7528931,30.5368592]}},{"properties":{"City":"Kurnell","Country":"Australia","State":"New South Wales","id":"a7o6wld6m7hw"},"type":"Feature","geometry":{"type":"Point","coordinates":[151.204879,-34.008487]}},{"properties":{"City":"La Porte","Country":"USA","State":"Texas","id":"a7o6wl9pj6vk"},"type":"Feature","geometry":{"type":"Point","coordinates":[-95.0193728,29.6657838]}},{"properties":{"City":"Lake Charles","Country":"USA","State":"Louisiana","id":"a7o6wlh8u5gz"},"type":"Feature","geometry":{"type":"Point","coordinates":[-93.2175,30.2265]}},{"properties":{"City":"Lemont","Country":"USA","State":"Illinois","id":"a7o6wle4dx13"},"type":"Feature","geometry":{"type":"Point","coordinates":[-88.0017261,41.673642]}},{"properties":{"City":"Lemont","Country":"USA","State":"Illinois","id":"a7o6wlalx08c"},"type":"Feature","geometry":{"type":"Point","coordinates":[-88.0017261,41.673642]}},{"properties":{"City":"Linden","Country":"USA","State":"New Jersey","id":"a7o6wllav7o5"},"type":"Feature","geometry":{"type":"Point","coordinates":[-75.148873,40.051079]}},{"properties":{"City":"Longview","Country":"USA","State":"Texas","id":"a7o6wlmzzhx3"},"type":"Feature","geometry":{"type":"Point","coordinates":[-94.6553679,32.462781]}},{"properties":{"City":"Los Angeles","Country":"USA","State":"California","id":"a7o6wlhtmkk9"},"type":"Feature","geometry":{"type":"Point","coordinates":[-118.2731269,33.9196443]}},{"properties":{"City":"Lytton","Country":"Australia","State":"Queensland","id":"a7o6wlbvdogi"},"type":"Feature","geometry":{"type":"Point","coordinates":[153.15545,-27.4243]}},{"properties":{"City":"Marcus Hook","Country":"USA","State":"Pennsylvania","id":"a7o6wlmg9i15"},"type":"Feature","geometry":{"type":"Point","coordinates":[-75.4185272,39.8192794]}},{"properties":{"City":"Marcus Hook","Country":"USA","State":"Pennsylvania","id":"a7o6wll5ssiz"},"type":"Feature","geometry":{"type":"Point","coordinates":[-75.405471,39.827057]}},{"properties":{"City":"Markham","Country":"USA","State":"Texas","id":"a7o6wld1ws6b"},"type":"Feature","geometry":{"type":"Point","coordinates":[-96.0652382,28.9602581]}},{"properties":{"City":"Marysville","Country":"USA","State":"Michigan","id":"a7o6wliavm0g"},"type":"Feature","geometry":{"type":"Point","coordinates":[-82.4868599,42.9125305]}},{"properties":{"City":"Matagorda","Country":"USA","State":"Texas","id":"a7o6wldrq0o4"},"type":"Feature","geometry":{"type":"Point","coordinates":[-95.940971,28.8687867]}},{"properties":{"City":"McPherson","Country":"USA","State":"Kansas","id":"a7o6wlf3swnp"},"type":"Feature","geometry":{"type":"Point","coordinates":[-97.6642087,38.3708415]}},{"properties":{"City":"Memphis","Country":"USA","State":"Tennessee","id":"a7o6wlnsxeu7"},"type":"Feature","geometry":{"type":"Point","coordinates":[-90.1307797,35.0607703]}},{"properties":{"City":"Meraux","Country":"USA","State":"Louisiana","id":"a7o6wld6akfy"},"type":"Feature","geometry":{"type":"Point","coordinates":[-89.9183333,29.9275]}},{"properties":{"City":"Meredosia","Country":"USA","State":"Illinois","id":"a7o6wlaipaqm"},"type":"Feature","geometry":{"type":"Point","coordinates":[-90.5595708,39.8311579]}},{"properties":{"City":"Mojave","Country":"USA","State":"California","id":"a7o6wli9tm17"},"type":"Feature","geometry":{"type":"Point","coordinates":[-118.1739645,35.0524699]}},{"properties":{"City":"Mont Belvieu","Country":"USA","State":"Texas","id":"a7o6wlgeyxf8"},"type":"Feature","geometry":{"type":"Point","coordinates":[-94.89,29.85]}},{"properties":{"City":"Narrows","Country":"USA","State":"Virginia","id":"a7o6wl9pfsym"},"type":"Feature","geometry":{"type":"Point","coordinates":[-80.8111866,37.3315103]}},{"properties":{"City":"Newtown","Country":"Australia","State":"Victoria","id":"a7o6wlfp4im3"},"type":"Feature","geometry":{"type":"Point","coordinates":[144.346484,-38.150256]}},{"properties":{"City":"Norco","Country":"USA","State":"Louisiana","id":"a7o6wllax2do"},"type":"Feature","geometry":{"type":"Point","coordinates":[-90.4123042,29.9990924]}},{"properties":{"City":"North Regina","Country":"Canada","State":"Saskatchewan","id":"a7o6wllhns62"},"type":"Feature","geometry":{"type":"Point","coordinates":[-104.5544944,50.4640002]}},{"properties":{"City":"Olathe","Country":"USA","State":"Kansas","id":"a7o6wln4onps"},"type":"Feature","geometry":{"type":"Point","coordinates":[-94.8728093,38.9071042]}},{"properties":{"City":"Oregon","Country":"USA","State":"Ohio","id":"a7o6wlktpa5n"},"type":"Feature","geometry":{"type":"Point","coordinates":[-83.4868768,41.6436603]}},{"properties":{"City":"Pasadena","Country":"USA","State":"Texas","id":"a7o6wllp2pt1"},"type":"Feature","geometry":{"type":"Point","coordinates":[-95.0702794,29.6343793]}},{"properties":{"City":"Pasadena","Country":"USA","State":"Texas","id":"a7o6wll410hz"},"type":"Feature","geometry":{"type":"Point","coordinates":[-95.0702794,29.6343793]}},{"properties":{"City":"Pasadena","Country":"USA","State":"Texas","id":"a7o6wlbi57w0"},"type":"Feature","geometry":{"type":"Point","coordinates":[-95.2,29.69]}},{"properties":{"City":"Paulsboro","Country":"USA","State":"New Jersey","id":"a7o6wlhco5xi"},"type":"Feature","geometry":{"type":"Point","coordinates":[-75.2452,39.8367]}},{"properties":{"City":"Paulsboro","Country":"USA","State":"New Jersey","id":"a7o6wlanur51"},"type":"Feature","geometry":{"type":"Point","coordinates":[-75.2452,39.8367]}},{"properties":{"City":"Peru","Country":"USA","State":"Illinois","id":"a7o6wlk5mvyi"},"type":"Feature","geometry":{"type":"Point","coordinates":[-89.1289728,41.3275349]}},{"properties":{"City":"Philadelphia","Country":"USA","State":"Pennsylvania","id":"a7o6wldg5pdt"},"type":"Feature","geometry":{"type":"Point","coordinates":[-75.2994578,39.8590657]}},{"properties":{"City":"Philadelphia","Country":"USA","State":"Pennsylvania","id":"a7o6wlkqgycy"},"type":"Feature","geometry":{"type":"Point","coordinates":[-75.1749671,39.9531865]}},{"properties":{"City":"Philadelphia","Country":"USA","State":"Pennsylvania","id":"a7o6wli3g1yu"},"type":"Feature","geometry":{"type":"Point","coordinates":[-75.0669552,40.0018403]}},{"properties":{"City":"Phoenix","Country":"USA","State":"Arizona","id":"a7o6wl98o14p"},"type":"Feature","geometry":{"type":"Point","coordinates":[-112.1310986,33.4438042]}},{"properties":{"City":"Pittsburgh","Country":"USA","State":"Pennsylvania","id":"a7o6wlchgdh2"},"type":"Feature","geometry":{"type":"Point","coordinates":[-79.9836108,40.440368]}},{"properties":{"City":"Ponca City","Country":"USA","State":"Oklahoma","id":"a7o6wl8ygj6a"},"type":"Feature","geometry":{"type":"Point","coordinates":[-97.0855,36.7067]}},{"properties":{"City":"Port Allen","Country":"USA","State":"Texas","id":"a7o6wll6gz9x"},"type":"Feature","geometry":{"type":"Point","coordinates":[-91.176475,30.423999]}},{"properties":{"City":"Port Arthur","Country":"USA","State":"Texas","id":"a7o6wlo1zgsq"},"type":"Feature","geometry":{"type":"Point","coordinates":[-94.0082563,29.8440545]}},{"properties":{"City":"Port Arthur","Country":"USA","State":"Texas","id":"a7o6wli2ertc"},"type":"Feature","geometry":{"type":"Point","coordinates":[-94.0082563,29.8440545]}},{"properties":{"City":"Port Arthur","Country":"USA","State":"Texas","id":"a7o6wlh1944r"},"type":"Feature","geometry":{"type":"Point","coordinates":[-93.9288,29.8987]}},{"properties":{"City":"Port Neches","Country":"USA","State":"Texas","id":"a7o6wlo0bzvr"},"type":"Feature","geometry":{"type":"Point","coordinates":[-93.9585067,29.9913244]}},{"properties":{"City":"Port Reading","Country":"USA","State":"New Jersey","id":"a7o6wllr4b89"},"type":"Feature","geometry":{"type":"Point","coordinates":[-74.2525178,40.5699775]}},{"properties":{"City":"Portland","Country":"USA","State":"Oregon","id":"a7o6wllka21w"},"type":"Feature","geometry":{"type":"Point","coordinates":[-122.6929967,45.5093283]}},{"properties":{"City":"Portland","Country":"USA","State":"Oregon","id":"a7o6wlbk1icx"},"type":"Feature","geometry":{"type":"Point","coordinates":[-122.8229838,45.6704753]}},{"properties":{"City":"Portland","Country":"USA","State":"Oregon","id":"a7o6wld2nrvj"},"type":"Feature","geometry":{"type":"Point","coordinates":[-122.7384041,45.5552753]}},{"properties":{"City":"Rodeo","Country":"USA","State":"California","id":"a7o6wllkqs74"},"type":"Feature","geometry":{"type":"Point","coordinates":[-122.2669138,38.032977]}},{"properties":{"City":"Roxana","Country":"USA","State":"Illinois","id":"a7o6wla5dqd0"},"type":"Feature","geometry":{"type":"Point","coordinates":[-90.0641933,38.8307099]}},{"properties":{"City":"Saint John","Country":"Canada","State":"New Brunswick","id":"a7o6wlfiss5t"},"type":"Feature","geometry":{"type":"Point","coordinates":[-66.0494996,45.2857697]}},{"properties":{"City":"San Antonio","Country":"USA","State":"Texas","id":"a7o6wlf4oytk"},"type":"Feature","geometry":{"type":"Point","coordinates":[-98.4935,29.4239]}},{"properties":{"City":"San Ramon","Country":"USA","State":"California","id":"a7o6wlde64xt"},"type":"Feature","geometry":{"type":"Point","coordinates":[-121.9780153,37.7799273]}},{"properties":{"City":"Savannah","Country":"USA","State":"Georgia","id":"a7o6wlgo3oyq"},"type":"Feature","geometry":{"type":"Point","coordinates":[-81.0423429,32.0728891]}},{"properties":{"City":"Seattle","Country":"USA","State":"Washington","id":"a7o6wl9xu3sg"},"type":"Feature","geometry":{"type":"Point","coordinates":[-122.3671104,47.742858]}},{"properties":{"City":"Sergeant Bluff","Country":"USA","State":"Iowa","id":"a7o6wl95tcql"},"type":"Feature","geometry":{"type":"Point","coordinates":[-96.355592,42.400651]}},{"properties":{"City":"South Shelby","Country":"USA","State":"North Carolina","id":"a7o6wlh49xqi"},"type":"Feature","geometry":{"type":"Point","coordinates":[-81.54,35.29]}},{"properties":{"City":"St Lima","Country":"USA","State":"Ohio","id":"a7o6wljpkl7j"},"type":"Feature","geometry":{"type":"Point","coordinates":[-84.1452267,40.7372729]}},{"properties":{"City":"Sulphur","Country":"USA","State":"Louisiana","id":"a7o6wlfdrfqa"},"type":"Feature","geometry":{"type":"Point","coordinates":[-93.3773783,30.2365943]}},{"properties":{"City":"Sulphur","Country":"USA","State":"Louisiana","id":"a7o6wlmgy11j"},"type":"Feature","geometry":{"type":"Point","coordinates":[-93.3773783,30.2365943]}},{"properties":{"City":"Sunray","Country":"USA","State":"Texas","id":"a7o6wlogkiq5"},"type":"Feature","geometry":{"type":"Point","coordinates":[-101.824616,36.0167027]}},{"properties":{"City":"Superior","Country":"USA","State":"Wisconsin","id":"a7o6wlnmr5jw"},"type":"Feature","geometry":{"type":"Point","coordinates":[-92.1040796,46.7207737]}},{"properties":{"City":"Sweeny","Country":"USA","State":"Texas","id":"a7o6wlkwkm0r"},"type":"Feature","geometry":{"type":"Point","coordinates":[-95.6985608,29.0388615]}},{"properties":{"City":"Sydney","Country":"Australia","State":"New South Wales","id":"a7o6wllip2n0"},"type":"Feature","geometry":{"type":"Point","coordinates":[151.207114,-33.867139]}},{"properties":{"City":"Three Rivers","Country":"USA","State":"Texas","id":"a7o6wlmufd7m"},"type":"Feature","geometry":{"type":"Point","coordinates":[-98.1825071,28.4602717]}},{"properties":{"City":"Trainer","Country":"USA","State":"Pennsylvania","id":"a7o6wlhsi3fj"},"type":"Feature","geometry":{"type":"Point","coordinates":[-75.4143604,39.8276126]}},{"properties":{"City":"Tulsa","Country":"USA","State":"Oklahoma","id":"a7o6wljn8lph"},"type":"Feature","geometry":{"type":"Point","coordinates":[-96.0361574,36.1004591]}},{"properties":{"City":"Vancouver","Country":"Canada","State":"British Columbia","id":"a7o6wle17bk0"},"type":"Feature","geometry":{"type":"Point","coordinates":[-123.1192901,49.2870088]}},{"properties":{"City":"Vansant","Country":"USA","State":"Virginia","id":"a7o6wl8ti50r"},"type":"Feature","geometry":{"type":"Point","coordinates":[-82.1387233,37.1753174]}},{"properties":{"City":"Vernon","Country":"USA","State":"California","id":"a7o6wlhldgdx"},"type":"Feature","geometry":{"type":"Point","coordinates":[-118.230073,34.003903]}},{"properties":{"City":"Wichita","Country":"USA","State":"Kansas","id":"a7o6wlbc45vt"},"type":"Feature","geometry":{"type":"Point","coordinates":[-97.276076,37.7434078]}},{"properties":{"City":"Wilmington","Country":"USA","State":"California","id":"a7o6wlhlrtzq"},"type":"Feature","geometry":{"type":"Point","coordinates":[-118.2643567,33.7857948]}},{"properties":{"City":"Wilmington","Country":"USA","State":"California","id":"a7o6wln66zzh"},"type":"Feature","geometry":{"type":"Point","coordinates":[-118.26,33.78]}},{"properties":{"City":"Wilmington","Country":"USA","State":"North Carolina","id":"a7o6wllj1bhq"},"type":"Feature","geometry":{"type":"Point","coordinates":[-77.9451,34.2259]}},{"properties":{"City":"Woodbridge","Country":"USA","State":"New Jersey","id":"a7o6wlh2yieq"},"type":"Feature","geometry":{"type":"Point","coordinates":[-74.2764207,40.5497046]}},{"properties":{"City":"Woods Cross","Country":"USA","State":"Utah","id":"a7o6wlg6ngdb"},"type":"Feature","geometry":{"type":"Point","coordinates":[-111.89216,40.8716119]}},{"properties":{"City":"Woodward","Country":"USA","State":"Oklahoma","id":"a7o6wloffaoq"},"type":"Feature","geometry":{"type":"Point","coordinates":[-99.3903862,36.4336481]}},{"properties":{"City":"Yazoo City","Country":"USA","State":"Mississippi","id":"a7o6wle82ml7"},"type":"Feature","geometry":{"type":"Point","coordinates":[-90.4056468,32.8551326]}}],"is_temporal":false,"author":{"url":"","metadata":"","contact_name":"","contact_address":"","source":"","contact_phone":""},"source":"","pagination":{"sort":null,"start":0,"total":141,"limit":1000000},"state":"complete","tags":"","published":"2014-08-10T18:34:22-04:00","id":57494}