{"type":"FeatureCollection","data_type":"Dataset","url_type":null,"permissions":[{"permissions":{"download":true,"view":true},"group_id":"everyone"}],"classification":null,"title":"JPalk's test polling data","count":65,"stream_id":5785,"contributor":{"url":"http://geocommons.com/users/958","name":"jmpalk"},"data_attributes":null,"calculation_params":null,"icon_link":null,"link":"http://geocommons.com/overlays/5785.json","extent":[-77.6243,39.3128,-77.1747,39.7014],"geometry_types":["point"],"unique_name":null,"name":"JPalk's test polling data","feature_count":65,"description":"test data for Google Maps experiment","next_feature":null,"is_raster":false,"short_classification":"Y","stats":{"zipcode":{"max":21798,"mean":21735.4769230769,"variance":1383.25336538462,"stdev":37.1921142903253,"min":21701,"median":21714},"diff":{"max":0.99,"mean":-0.0875384615384615,"variance":0.346221971153846,"stdev":0.588406297683706,"min":-0.98,"median":-0.1},"vanilla":{"max":0.99,"mean":0.543846153846154,"variance":0.0870084134615385,"stdev":0.294971885883279,"min":0,"median":0.55},"lat":{"max":39.701394,"mean":39.4354582,"variance":0.00669903163581878,"stdev":0.0818476122792765,"min":39.312818,"median":39.419711},"chocolate":{"max":1,"mean":0.456153846153846,"variance":0.0870084134615385,"stdev":0.294971885883279,"min":0.01,"median":0.45},"long":{"max":-77.174665,"mean":-77.4032189384615,"variance":0.0102447952787149,"stdev":0.10121657610646,"min":-77.624261,"median":-77.414308}},"features":[{"properties":{"city":"Middletown","zipcode":21769,"diff":-0.78,"site":"Middletown Middle School","id":"a6254h6c6b80","address":"100 High Street","vanilla":0.89,"lat":39.441473,"state":"MD","chocolate":0.11,"long":-77.536673},"type":"Feature","geometry":{"type":"Point","coordinates":[-77.536673,39.441473]}},{"properties":{"city":"Frederick","zipcode":21701,"diff":0.73,"site":"North Frederick Elementary School","id":"a6254h4jop5a","address":"1001 Motter Avenue","vanilla":0.13,"lat":39.427211,"state":"MD","chocolate":0.87,"long":-77.409978},"type":"Feature","geometry":{"type":"Point","coordinates":[-77.409978,39.427211]}},{"properties":{"city":"Woodsboro","zipcode":21798,"diff":-0.74,"site":"Woodsboro Elementary School","id":"a6254ha304rv","address":"101 Liberty Road","vanilla":0.87,"lat":39.533107,"state":"MD","chocolate":0.13,"long":-77.313442},"type":"Feature","geometry":{"type":"Point","coordinates":[-77.313442,39.533107]}},{"properties":{"city":"New Market","zipcode":21774,"diff":-0.68,"site":"Deer Crossing Elementary School","id":"a6254h2lg93l","address":"10601 Finn Drive","vanilla":0.84,"lat":39.400456,"state":"MD","chocolate":0.16,"long":-77.299888},"type":"Feature","geometry":{"type":"Point","coordinates":[-77.299888,39.400456]}},{"properties":{"city":"Mount Airy","zipcode":21771,"diff":-0.95,"site":"Twin Ridge Elementary School","id":"a6254ha8kgvt","address":"1106 Leafy Hollow Circle","vanilla":0.98,"lat":39.371197,"state":"MD","chocolate":0.02,"long":-77.174665},"type":"Feature","geometry":{"type":"Point","coordinates":[-77.174665,39.371197]}},{"properties":{"city":"Union Bridge","zipcode":21791,"diff":0.61,"site":"Johnsville Methodist Hall","id":"a6254he750p5","address":"11106 Green Valley Road","vanilla":0.2,"lat":39.539207,"state":"MD","chocolate":0.8,"long":-77.23075},"type":"Feature","geometry":{"type":"Point","coordinates":[-77.23075,39.539207]}},{"properties":{"city":"Thurmont","zipcode":21788,"diff":-0.21,"site":"Lewistown Elementary School","id":"a6254he0nfls","address":"11119 Hessong Bridge Road","vanilla":0.61,"lat":39.54053,"state":"MD","chocolate":0.39,"long":-77.416469},"type":"Feature","geometry":{"type":"Point","coordinates":[-77.416469,39.54053]}},{"properties":{"city":"Monrovia","zipcode":21770,"diff":-0.39,"site":"Green Valley Elementary School","id":"a6254hfw4x6k","address":"11501 Fingerboard Road","vanilla":0.69,"lat":39.345033,"state":"MD","chocolate":0.31,"long":-77.267493},"type":"Feature","geometry":{"type":"Point","coordinates":[-77.267493,39.345033]}},{"properties":{"city":"Frederick","zipcode":21701,"diff":0.65,"site":"Liberty Elementary School","id":"a6254hfmzmdj","address":"11820 Liberty Road","vanilla":0.17,"lat":39.482105,"state":"MD","chocolate":0.83,"long":-77.255027},"type":"Feature","geometry":{"type":"Point","coordinates":[-77.255027,39.482105]}},{"properties":{"city":"Frederick","zipcode":21701,"diff":-0.98,"site":"William R. Talley Recreation Center (Armory)","id":"a6254h9n9k2p","address":"121 North Bentz Street","vanilla":0.99,"lat":39.415971,"state":"MD","chocolate":0.01,"long":-77.414578},"type":"Feature","geometry":{"type":"Point","coordinates":[-77.414578,39.415971]}},{"properties":{"city":"Frederick","zipcode":21701,"diff":0.04,"site":"William R. Talley Recreation Center (Armory)","id":"a6254hfviddi","address":"121 North Bentz Street","vanilla":0.48,"lat":39.415971,"state":"MD","chocolate":0.52,"long":-77.414578},"type":"Feature","geometry":{"type":"Point","coordinates":[-77.414578,39.415971]}},{"properties":{"city":"New Market","zipcode":21774,"diff":-0.51,"site":"New Market Middle School","id":"a6254h8vw9tf","address":"125 West Main Street","vanilla":0.75,"lat":39.383173,"state":"MD","chocolate":0.25,"long":-77.278716},"type":"Feature","geometry":{"type":"Point","coordinates":[-77.278716,39.383173]}},{"properties":{"city":"Myersville","zipcode":21773,"diff":-0.61,"site":"Wolfsville Elementary School","id":"a6254hbcv2ee","address":"12520 Wolfsville Road","vanilla":0.81,"lat":39.575512,"state":"MD","chocolate":0.19,"long":-77.552697},"type":"Feature","geometry":{"type":"Point","coordinates":[-77.552697,39.575512]}},{"properties":{"city":"Frederick","zipcode":21703,"diff":0.62,"site":"Hillcrest Elementary School","id":"a6254h8ng25m","address":"1285 Hillcrest Drive","vanilla":0.19,"lat":39.410209,"state":"MD","chocolate":0.81,"long":-77.450223},"type":"Feature","geometry":{"type":"Point","coordinates":[-77.450223,39.410209]}},{"properties":{"city":"Frederick","zipcode":21703,"diff":-0.06,"site":"Hillcrest Elementary School","id":"a6254h9myb1n","address":"1285 Hillcrest Drive","vanilla":0.53,"lat":39.410209,"state":"MD","chocolate":0.47,"long":-77.450223},"type":"Feature","geometry":{"type":"Point","coordinates":[-77.450223,39.410209]}},{"properties":{"city":"Mount Airy","zipcode":21771,"diff":0.83,"site":"Linganore Grange Hall","id":"a6254h3krgj2","address":"13629 Unionville Road","vanilla":0.09,"lat":39.47411,"state":"MD","chocolate":0.91,"long":-77.184899},"type":"Feature","geometry":{"type":"Point","coordinates":[-77.184899,39.47411]}},{"properties":{"city":"Sabillasville","zipcode":21780,"diff":0.08,"site":"Sabillasville Elementary School","id":"a6254h6e5qo1","address":"16210-B Sabillasville Road","vanilla":0.46,"lat":39.677829,"state":"MD","chocolate":0.54,"long":-77.454754},"type":"Feature","geometry":{"type":"Point","coordinates":[-77.454754,39.677829]}},{"properties":{"city":"Frederick","zipcode":21701,"diff":0.81,"site":"Governor Thomas Johnson Middle School","id":"a6254h3ju7xh","address":"1799 Schifferstadt Blvd.","vanilla":0.1,"lat":39.438438,"state":"MD","chocolate":0.9,"long":-77.399204},"type":"Feature","geometry":{"type":"Point","coordinates":[-77.399204,39.438438]}},{"properties":{"city":"Frederick","zipcode":21701,"diff":-0.44,"site":"Church of Jesus Christ of Latter Day Saints","id":"a6254h8k9pfl","address":"1811 Latham Drive","vanilla":0.72,"lat":39.450278,"state":"MD","chocolate":0.28,"long":-77.373976},"type":"Feature","geometry":{"type":"Point","coordinates":[-77.373976,39.450278]}},{"properties":{"city":"Frederick","zipcode":21701,"diff":-0.32,"site":"Lincoln Elementary School B","id":"a6254h70gxft","address":"200 Madison Street","vanilla":0.66,"lat":39.407958,"state":"MD","chocolate":0.34,"long":-77.414308},"type":"Feature","geometry":{"type":"Point","coordinates":[-77.414308,39.407958]}},{"properties":{"city":"Middletown","zipcode":21769,"diff":-0.26,"site":"Middletown Elementary School","id":"a6254h2ik3a3","address":"201 East Green Street","vanilla":0.63,"lat":39.443955,"state":"MD","chocolate":0.37,"long":-77.540082},"type":"Feature","geometry":{"type":"Point","coordinates":[-77.540082,39.443955]}},{"properties":{"city":"Frederick","zipcode":21702,"diff":0.94,"site":"Waverley Elementary School","id":"a6254h8tgx6u","address":"201 Waverley Drive","vanilla":0.03,"lat":39.42764,"state":"MD","chocolate":0.97,"long":-77.460762},"type":"Feature","geometry":{"type":"Point","coordinates":[-77.460762,39.42764]}},{"properties":{"city":"Knoxville","zipcode":21758,"diff":0,"site":"Faith Baptist Church","id":"a6254h07d76c","address":"2212 Jefferson Pike","vanilla":0.5,"lat":39.352487,"state":"MD","chocolate":0.5,"long":-77.593071},"type":"Feature","geometry":{"type":"Point","coordinates":[-77.593071,39.352487]}},{"properties":{"city":"Frederick","zipcode":21702,"diff":-0.67,"site":"Whittier Elementary School","id":"a6254h1bpriw","address":"2400 Whittier Drive","vanilla":0.84,"lat":39.454826,"state":"MD","chocolate":0.16,"long":-77.450821},"type":"Feature","geometry":{"type":"Point","coordinates":[-77.450821,39.454826]}},{"properties":{"city":"Frederick","zipcode":21701,"diff":0.81,"site":"Lincoln Elementary School A","id":"a6254hc4b3ut","address":"250 Madison Street","vanilla":0.09,"lat":39.408636,"state":"MD","chocolate":0.91,"long":-77.416245},"type":"Feature","geometry":{"type":"Point","coordinates":[-77.416245,39.408636]}},{"properties":{"city":"Emmitsburg","zipcode":21727,"diff":-0.47,"site":"Emmitsburg Elementary School","id":"a6254het8six","address":"300 South Seton Avenue","vanilla":0.74,"lat":39.701394,"state":"MD","chocolate":0.26,"long":-77.328379},"type":"Feature","geometry":{"type":"Point","coordinates":[-77.328379,39.701394]}},{"properties":{"city":"Brunswick","zipcode":21716,"diff":0.16,"site":"Brunswick Middle School","id":"a6254heztp44","address":"301 Cummings Drive","vanilla":0.42,"lat":39.313936,"state":"MD","chocolate":0.58,"long":-77.608113},"type":"Feature","geometry":{"type":"Point","coordinates":[-77.608113,39.313936]}},{"properties":{"city":"Frederick","zipcode":21701,"diff":-0.09,"site":"Evangelical Lutheran Church","id":"a6254h46f6sw","address":"31 East Church Street","vanilla":0.55,"lat":39.415472,"state":"MD","chocolate":0.45,"long":-77.410133},"type":"Feature","geometry":{"type":"Point","coordinates":[-77.410133,39.415472]}},{"properties":{"city":"Frederick","zipcode":21702,"diff":-0.27,"site":"Independent Hose Company","id":"a6254hd714rr","address":"310 Baughmans Lane","vanilla":0.64,"lat":39.427357,"state":"MD","chocolate":0.36,"long":-77.434752},"type":"Feature","geometry":{"type":"Point","coordinates":[-77.434752,39.427357]}},{"properties":{"city":"Monrovia","zipcode":21770,"diff":-0.69,"site":"Kemptown Elementary School","id":"a6254hf35e4h","address":"3456 Kemptown Church Road","vanilla":0.85,"lat":39.329643,"state":"MD","chocolate":0.15,"long":-77.232493},"type":"Feature","geometry":{"type":"Point","coordinates":[-77.232493,39.329643]}},{"properties":{"city":"Ijamsville","zipcode":21754,"diff":-0.36,"site":"Urbana High School","id":"a6254hgn2j30","address":"3471 Campus Drive","vanilla":0.68,"lat":39.326533,"state":"MD","chocolate":0.32,"long":-77.341183},"type":"Feature","geometry":{"type":"Point","coordinates":[-77.341183,39.326533]}},{"properties":{"city":"Frederick","zipcode":21704,"diff":-0.26,"site":"Urbana Elementary School","id":"a6254hfps35l","address":"3554 Urbana Pike","vanilla":0.63,"lat":39.327422,"state":"MD","chocolate":0.37,"long":-77.355703},"type":"Feature","geometry":{"type":"Point","coordinates":[-77.355703,39.327422]}},{"properties":{"city":"Frederick","zipcode":21704,"diff":-0.85,"site":"Centerville Elementary School","id":"a6254h2rib56","address":"3601 Carraige Hill Drive","vanilla":0.93,"lat":39.35442,"state":"MD","chocolate":0.07,"long":-77.360108},"type":"Feature","geometry":{"type":"Point","coordinates":[-77.360108,39.35442]}},{"properties":{"city":"Middletown","zipcode":21769,"diff":-0.83,"site":"Middletown Primary School","id":"a6254h9lcbyb","address":"403 Franklin Street","vanilla":0.91,"lat":39.437215,"state":"MD","chocolate":0.09,"long":-77.541907},"type":"Feature","geometry":{"type":"Point","coordinates":[-77.541907,39.437215]}},{"properties":{"city":"Thurmont","zipcode":21788,"diff":-0.87,"site":"Thurmont Middle School","id":"a6254h2ut01r","address":"408 East Main Street","vanilla":0.93,"lat":39.621197,"state":"MD","chocolate":0.07,"long":-77.404376},"type":"Feature","geometry":{"type":"Point","coordinates":[-77.404376,39.621197]}},{"properties":{"city":"Jefferson","zipcode":21755,"diff":-0.38,"site":"Jefferson Ruritan Community Center","id":"a6254hd3rmx5","address":"4603B Lander Road","vanilla":0.69,"lat":39.360432,"state":"MD","chocolate":0.31,"long":-77.531816},"type":"Feature","geometry":{"type":"Point","coordinates":[-77.531816,39.360432]}},{"properties":{"city":"Braddock Hts.","zipcode":21714,"diff":0.12,"site":"Braddock Heights Community Center","id":"a6254h5d7gps","address":"4830 Schley Avenue","vanilla":0.44,"lat":39.419834,"state":"MD","chocolate":0.56,"long":-77.500904},"type":"Feature","geometry":{"type":"Point","coordinates":[-77.500904,39.419834]}},{"properties":{"city":"Burkittsville","zipcode":21718,"diff":-0.98,"site":"Burkittsville Community Center","id":"a6254hfxza7q","address":"500 East Main Street","vanilla":0.99,"lat":39.388624,"state":"MD","chocolate":0.01,"long":-77.624261},"type":"Feature","geometry":{"type":"Point","coordinates":[-77.624261,39.388624]}},{"properties":{"city":"Frederick","zipcode":21703,"diff":-0.04,"site":"Ballenger Creek Elementary School","id":"a6254hfa4n5r","address":"5250 Kingsbrook Drive","vanilla":0.52,"lat":39.378351,"state":"MD","chocolate":0.48,"long":-77.429792},"type":"Feature","geometry":{"type":"Point","coordinates":[-77.429792,39.378351]}},{"properties":{"city":"Frederick","zipcode":21703,"diff":-0.83,"site":"Tuscarora High School","id":"a6254h8xlc3s","address":"5312 Ballenger Creek Pike","vanilla":0.92,"lat":39.378139,"state":"MD","chocolate":0.08,"long":-77.444483},"type":"Feature","geometry":{"type":"Point","coordinates":[-77.444483,39.378139]}},{"properties":{"city":"Walkersville","zipcode":21793,"diff":-0.87,"site":"Walkersville Middle School","id":"a6254h2eys0i","address":"55 Frederick Street","vanilla":0.93,"lat":39.484295,"state":"MD","chocolate":0.07,"long":-77.345571},"type":"Feature","geometry":{"type":"Point","coordinates":[-77.345571,39.484295]}},{"properties":{"city":"Frederick","zipcode":21703,"diff":-0.55,"site":"Ballenger Creek Middle School","id":"a6254h5d3af8","address":"5525 Ballenger Creek Pike","vanilla":0.78,"lat":39.384742,"state":"MD","chocolate":0.22,"long":-77.442593},"type":"Feature","geometry":{"type":"Point","coordinates":[-77.442593,39.384742]}},{"properties":{"city":"Adamstown","zipcode":21710,"diff":0.85,"site":"Carroll Manor Elementary School","id":"a6254h75eeqg","address":"5624 Adamstown Road","vanilla":0.07,"lat":39.312818,"state":"MD","chocolate":0.93,"long":-77.471316},"type":"Feature","geometry":{"type":"Point","coordinates":[-77.471316,39.312818]}},{"properties":{"city":"Frederick","zipcode":21703,"diff":0.46,"site":"Orchard Grove Elementary School","id":"a6254h6p6vt1","address":"5898 Hannover Drive","vanilla":0.27,"lat":39.394674,"state":"MD","chocolate":0.73,"long":-77.438116},"type":"Feature","geometry":{"type":"Point","coordinates":[-77.438116,39.394674]}},{"properties":{"city":"Frederick","zipcode":21703,"diff":0.07,"site":"Orchard Grove Elementary School","id":"a6254h6gwii8","address":"5898 Hannover Drive","vanilla":0.46,"lat":39.394674,"state":"MD","chocolate":0.54,"long":-77.438116},"type":"Feature","geometry":{"type":"Point","coordinates":[-77.438116,39.394674]}},{"properties":{"city":"Mount Airy","zipcode":21771,"diff":0.46,"site":"Prospect United Methodist Church","id":"a6254hatened","address":"5923 Woodville Road","vanilla":0.27,"lat":39.395124,"state":"MD","chocolate":0.73,"long":-77.181067},"type":"Feature","geometry":{"type":"Point","coordinates":[-77.181067,39.395124]}},{"properties":{"city":"Frederick","zipcode":21702,"diff":0.09,"site":"Cornerstone Fellowship Church","id":"a6254h32sx02","address":"66 Waverley Drive","vanilla":0.45,"lat":39.421188,"state":"MD","chocolate":0.55,"long":-77.460248},"type":"Feature","geometry":{"type":"Point","coordinates":[-77.460248,39.421188]}},{"properties":{"city":"Braddock Hts.","zipcode":21714,"diff":-0.34,"site":"Braddock Heights Fire Hall","id":"a6254hd8iy0e","address":"6715 Jefferson Blvd.","vanilla":0.67,"lat":39.419711,"state":"MD","chocolate":0.33,"long":-77.502553},"type":"Feature","geometry":{"type":"Point","coordinates":[-77.502553,39.419711]}},{"properties":{"city":"Frederick","zipcode":21702,"diff":0.52,"site":"Masonic Temple","id":"a6254h4aj6o4","address":"6816 Blentlinger Road","vanilla":0.24,"lat":39.421287,"state":"MD","chocolate":0.76,"long":-77.470973},"type":"Feature","geometry":{"type":"Point","coordinates":[-77.470973,39.421287]}},{"properties":{"city":"Frederick","zipcode":21703,"diff":0.47,"site":"Crestwood Middle School","id":"a6254hedba7g","address":"7100 Foxcroft Drive","vanilla":0.26,"lat":39.39318,"state":"MD","chocolate":0.74,"long":-77.424857},"type":"Feature","geometry":{"type":"Point","coordinates":[-77.424857,39.39318]}},{"properties":{"city":"Frederick","zipcode":21702,"diff":-0.72,"site":"Monocacy Elementary School","id":"a6254hdn6lls","address":"7421 Hayward Road","vanilla":0.86,"lat":39.456043,"state":"MD","chocolate":0.14,"long":-77.408256},"type":"Feature","geometry":{"type":"Point","coordinates":[-77.408256,39.456043]}},{"properties":{"city":"Frederick","zipcode":21702,"diff":-0.68,"site":"Monocacy Middle School","id":"a6254hcldurh","address":"8009 Opossumtown Pike","vanilla":0.84,"lat":39.453046,"state":"MD","chocolate":0.16,"long":-77.413892},"type":"Feature","geometry":{"type":"Point","coordinates":[-77.413892,39.453046]}},{"properties":{"city":"Thurmont","zipcode":21788,"diff":-0.04,"site":"Thurmont Elementary School","id":"a6254hbxukzg","address":"805 East Main Street","vanilla":0.52,"lat":39.617357,"state":"MD","chocolate":0.48,"long":-77.397808},"type":"Feature","geometry":{"type":"Point","coordinates":[-77.397808,39.617357]}},{"properties":{"city":"Walkersville","zipcode":21793,"diff":0.44,"site":"Walkersville High School","id":"a6254h08wlmh","address":"81 Frederick Street","vanilla":0.28,"lat":39.484458,"state":"MD","chocolate":0.72,"long":-77.345226},"type":"Feature","geometry":{"type":"Point","coordinates":[-77.345226,39.484458]}},{"properties":{"city":"Walkersville","zipcode":21793,"diff":0.4,"site":"Mt. Pleasant Ruritan Club","id":"a6254h5m1312","address":"8101 Crum Road","vanilla":0.3,"lat":39.45694,"state":"MD","chocolate":0.7,"long":-77.331379},"type":"Feature","geometry":{"type":"Point","coordinates":[-77.331379,39.45694]}},{"properties":{"city":"Walkersville","zipcode":21793,"diff":0.99,"site":"Mt. Pleasant Ruritan Club","id":"a6254hc61kx0","address":"8101 Crum Road","vanilla":0,"lat":39.45694,"state":"MD","chocolate":1,"long":-77.331379},"type":"Feature","geometry":{"type":"Point","coordinates":[-77.331379,39.45694]}},{"properties":{"city":"Thurmont","zipcode":21788,"diff":-0.5,"site":"Creagerstown Lutheran Parish Hall","id":"a6254h4jjf6r","address":"8619 Blacks Mill Road","vanilla":0.75,"lat":39.576374,"state":"MD","chocolate":0.25,"long":-77.368326},"type":"Feature","geometry":{"type":"Point","coordinates":[-77.368326,39.576374]}},{"properties":{"city":"Frederick","zipcode":21702,"diff":0.32,"site":"Yellow Springs Elementary School","id":"a6254hd4aem2","address":"8717 Yellow Springs Road","vanilla":0.34,"lat":39.473411,"state":"MD","chocolate":0.66,"long":-77.454316},"type":"Feature","geometry":{"type":"Point","coordinates":[-77.454316,39.473411]}},{"properties":{"city":"Frederick","zipcode":21702,"diff":0.63,"site":"Brook Hill United Methodist Church","id":"a6254hc0hfqd","address":"8946 Indian Springs Road","vanilla":0.18,"lat":39.480148,"state":"MD","chocolate":0.82,"long":-77.463965},"type":"Feature","geometry":{"type":"Point","coordinates":[-77.463965,39.480148]}},{"properties":{"city":"Frederick","zipcode":21704,"diff":-0.56,"site":"Urbana Regional Library","id":"a6254ha37sii","address":"9020 Amelung Street","vanilla":0.78,"lat":39.33115,"state":"MD","chocolate":0.22,"long":-77.354889},"type":"Feature","geometry":{"type":"Point","coordinates":[-77.354889,39.33115]}},{"properties":{"city":"Frederick","zipcode":21701,"diff":0.27,"site":"Spring Ridge Elementary School","id":"a6254h6b33hf","address":"9051 Ridgefield Drive","vanilla":0.36,"lat":39.400533,"state":"MD","chocolate":0.64,"long":-77.352207},"type":"Feature","geometry":{"type":"Point","coordinates":[-77.352207,39.400533]}},{"properties":{"city":"Frederick","zipcode":21701,"diff":0.97,"site":"Spring Ridge Elementary School","id":"a6254h2s2y5k","address":"9051 Ridgefield Drive","vanilla":0.02,"lat":39.400533,"state":"MD","chocolate":0.98,"long":-77.352207},"type":"Feature","geometry":{"type":"Point","coordinates":[-77.352207,39.400533]}},{"properties":{"city":"Ijamsville","zipcode":21754,"diff":-0.67,"site":"Oakdale Middle School","id":"a6254hceq1gw","address":"9840 Old National Pike","vanilla":0.84,"lat":39.392597,"state":"MD","chocolate":0.16,"long":-77.320998},"type":"Feature","geometry":{"type":"Point","coordinates":[-77.320998,39.392597]}},{"properties":{"city":"Myersville","zipcode":21773,"diff":-0.1,"site":"Myersville Elementary School","id":"a6254h0nvdia","address":"Lushbaugh Way","vanilla":0.55,"lat":39.51205,"state":"MD","chocolate":0.45,"long":-77.567249},"type":"Feature","geometry":{"type":"Point","coordinates":[-77.567249,39.51205]}},{"properties":{"city":"New Market","zipcode":21774,"diff":0.52,"site":"New Market United Methodist Church","id":"a6254h5moew3","address":"Route 874 and North Alley","vanilla":0.24,"lat":39.38402,"state":"MD","chocolate":0.76,"long":-77.269799},"type":"Feature","geometry":{"type":"Point","coordinates":[-77.269799,39.38402]}}],"is_temporal":false,"author":{"url":"","metadata":"","contact_name":"","contact_address":"","source":"","contact_phone":""},"source":"","pagination":{"sort":null,"start":0,"total":65,"limit":1000000},"state":"complete","tags":"test","published":"2008-10-30T12:00:00Z","id":5785}