{"type":"FeatureCollection","data_type":"Dataset","url_type":null,"permissions":[{"permissions":{"download":true,"view":true},"group_id":"everyone"}],"classification":null,"title":"Ben &amp; Jerry's Scoop Shop Locations, USA, 7.2010","count":342,"stream_id":58199,"contributor":{"url":"http://geocommons.com/users/139","name":"Burkey"},"data_attributes":null,"calculation_params":null,"icon_link":null,"link":"http://geocommons.com/overlays/58199.json","extent":[-157.797,21.396,-69.9874,47.6857],"geometry_types":["point"],"unique_name":null,"name":"Ben & Jerry's Scoop Shop Locations, USA, 7.2010","feature_count":342,"description":"This dataset displays the locations of Ben &amp; Jerry's Scoop Shops in the USA as of 7.2010.\n\n","next_feature":null,"is_raster":false,"short_classification":"Y","stats":{"lon":{"max":-69.9874098,"mean":-88.6984587254386,"variance":316.08833166369,"stdev":17.7788731831826,"min":-157.797344,"median":-81.534818},"lat":{"max":47.685721,"mean":38.3671865491228,"variance":22.5594001738472,"stdev":4.74967369130208,"min":21.395973,"median":39.2865922}},"features":[{"properties":{"lon":-90.644717,"city":"Monmouth","zip":"61462","store":"Aramark Ed. Svcs Monmouth College","id":"a6229bbwb12t","lat":40.923616,"address":"Scotland Yard Food Court","state":"IL"},"type":"Feature","geometry":{"type":"Point","coordinates":[-90.644717,40.923616]}},{"properties":{"lon":-84.9193082,"city":"Belterra","zip":"47020","store":"Belterra Casino","id":"a6229bcgr4ea","lat":38.8148436,"address":"777 Belterra Drive","state":"IN"},"type":"Feature","geometry":{"type":"Point","coordinates":[-84.9193082,38.8148436]}},{"properties":{"lon":-122.266176,"city":"Berkeley","zip":"94704","store":"Ben &amp; Jerry's - Berkeley - Center Street","id":"a6229boc6bpe","lat":37.87026,"address":"2130 Center Street","state":"CA"},"type":"Feature","geometry":{"type":"Point","coordinates":[-122.266176,37.87026]}},{"properties":{"lon":-73.967937,"city":"New York","zip":"10025","store":"Ben &amp; Jerry's 104th &amp; Broadway","id":"a6229bgm6a92","lat":40.7998099,"address":"2722 Broadway","state":"NY"},"type":"Feature","geometry":{"type":"Point","coordinates":[-73.967937,40.7998099]}},{"properties":{"lon":-75.183507,"city":"Philadelphia","zip":"19104","store":"Ben &amp; Jerry's 30th Street Station","id":"a6229beor9vl","lat":39.954774,"address":"Amtrack - 30th Street Station","state":"PA"},"type":"Feature","geometry":{"type":"Point","coordinates":[-75.183507,39.954774]}},{"properties":{"lon":-83.7408641,"city":"Ann Arbor","zip":"48104","store":"Ben &amp; Jerry's Ann Arbor","id":"a6229bd3qjw7","lat":42.2792579,"address":"304 South State Street","state":"MI"},"type":"Feature","geometry":{"type":"Point","coordinates":[-83.7408641,42.2792579]}},{"properties":{"lon":-80.7779757,"city":"Charlotte","zip":"28277","store":"Ben &amp; Jerry's Arboretum","id":"a6229bpfwv1w","lat":35.0970671,"address":"8200 Providence Road","state":"NC"},"type":"Feature","geometry":{"type":"Point","coordinates":[-80.7779757,35.0970671]}},{"properties":{"lon":-82.380705,"city":"Gainsville","zip":"32601","store":"Ben &amp; Jerry's Archer Road - Gainesville","id":"a6229bo0orxe","lat":29.619641,"address":"3773 Archer Rd","state":"FL"},"type":"Feature","geometry":{"type":"Point","coordinates":[-82.380705,29.619641]}},{"properties":{"lon":-122.4203202,"city":"San Francisco","zip":"94109","store":"Ben &amp; Jerry's Argonaut","id":"a6229bgl0xfz","lat":37.8076371,"address":"475 Jeffersont Street","state":"CA"},"type":"Feature","geometry":{"type":"Point","coordinates":[-122.4203202,37.8076371]}},{"properties":{"lon":-83.3752595,"city":"Athens","zip":"30601","store":"Ben &amp; Jerry's Athens","id":"a6229bo40n5k","lat":33.9577332,"address":"105 College Aveune","state":"GA"},"type":"Feature","geometry":{"type":"Point","coordinates":[-83.3752595,33.9577332]}},{"properties":{"lon":-84.444032,"city":"Atlanta","zip":"30320","store":"Ben &amp; Jerry's Atlanta Airport A","id":"a6229bc67ikh","lat":33.640012,"address":"Hartsfield Atlanta Intl Airport","state":"GA"},"type":"Feature","geometry":{"type":"Point","coordinates":[-84.444032,33.640012]}},{"properties":{"lon":-84.444032,"city":"Atlanta","zip":"30320","store":"Ben &amp; Jerry's Atlanta Airport B","id":"a6229bn1i3h5","lat":33.640012,"address":"Hartsfield International Airport","state":"GA"},"type":"Feature","geometry":{"type":"Point","coordinates":[-84.444032,33.640012]}},{"properties":{"lon":-84.444032,"city":"Atlanta","zip":"30320","store":"Ben &amp; Jerry's Atlanta Airport C","id":"a6229bkplqdj","lat":33.640012,"address":"Hartsfield Atlanta Intl Airport","state":"GA"},"type":"Feature","geometry":{"type":"Point","coordinates":[-84.444032,33.640012]}},{"properties":{"lon":-74.432764,"city":"Atlantic City","zip":"08401","store":"Ben &amp; Jerry's Atlantic City Bally's","id":"a6229be197ra","lat":39.356326,"address":"1901 Boardwalk","state":"NJ"},"type":"Feature","geometry":{"type":"Point","coordinates":[-74.432764,39.356326]}},{"properties":{"lon":-80.141412,"city":"Aventura","zip":"33180","store":"Ben &amp; Jerry's Aventura","id":"a6229bg7wbtj","lat":25.957466,"address":"19575 Biscayne Boulevard","state":"FL"},"type":"Feature","geometry":{"type":"Point","coordinates":[-80.141412,25.957466]}},{"properties":{"lon":-71.316182,"city":"Newport","zip":"02840","store":"Ben &amp; Jerry's Bannister's Wharf","id":"a6229bnvjb3g","lat":41.486181,"address":"33 Bannister's Wharf","state":"RI"},"type":"Feature","geometry":{"type":"Point","coordinates":[-71.316182,41.486181]}},{"properties":{"lon":-74.235387,"city":"Beach Haven","zip":"08008","store":"Ben &amp; Jerry's Beach Haven","id":"a6229bfs19ni","lat":39.569679,"address":"905 North Bay Avenue","state":"NJ"},"type":"Feature","geometry":{"type":"Point","coordinates":[-74.235387,39.569679]}},{"properties":{"lon":-74.237768,"city":"Beach Haven","zip":"08008","store":"Ben &amp; Jerry's Beach Haven II","id":"a6229beaap2k","lat":39.567394,"address":"600 N Bay Avenue","state":"NJ"},"type":"Feature","geometry":{"type":"Point","coordinates":[-74.237768,39.567394]}},{"properties":{"lon":-105.076485,"city":"Lakewood","zip":"80226","store":"Ben &amp; Jerry's Belmar","id":"a6229bpipwmc","lat":39.7092287,"address":"7181 West Alaska Drive","state":"CO"},"type":"Feature","geometry":{"type":"Point","coordinates":[-105.076485,39.7092287]}},{"properties":{"lon":-121.314286,"city":"Bend","zip":"97702","store":"Ben &amp; Jerry's Bend","id":"a6229bpm6zyj","lat":44.044329,"address":"680 SW Powerhouse Drive","state":"OR"},"type":"Feature","geometry":{"type":"Point","coordinates":[-121.314286,44.044329]}},{"properties":{"lon":-77.0966934,"city":"Bethesda","zip":"20814","store":"Ben &amp; Jerry's Bethesda","id":"a6229bbs31i5","lat":38.9883856,"address":"4901B Fairmont Avenue","state":"MD"},"type":"Feature","geometry":{"type":"Point","coordinates":[-77.0966934,38.9883856]}},{"properties":{"lon":-80.412512,"city":"Blacksburg","zip":"24060","store":"Ben &amp; Jerry's Blacksburg - Kent Square","id":"a6229bbdw9lg","lat":37.2278761,"address":"109 Washington Street","state":"VA"},"type":"Feature","geometry":{"type":"Point","coordinates":[-80.412512,37.2278761]}},{"properties":{"lon":-71.5842643,"city":"Block Island","zip":"02807","store":"Ben &amp; Jerry's Block Island","id":"a6229bk4ruvp","lat":41.1616556,"address":"237 Bridge Gate Square","state":"RI"},"type":"Feature","geometry":{"type":"Point","coordinates":[-71.5842643,41.1616556]}},{"properties":{"lon":-73.655461,"city":"Bolton Landing","zip":"12814","store":"Ben &amp; Jerry's Bolton Landing","id":"a6229blkbytn","lat":43.539538,"address":"Route 9 North","state":"NY"},"type":"Feature","geometry":{"type":"Point","coordinates":[-73.655461,43.539538]}},{"properties":{"lon":-122.523424,"city":"Greenbrae","zip":"94904","store":"Ben &amp; Jerry's Bon Air Center","id":"a6229bko275a","lat":37.945837,"address":"290 Bon Air Center","state":"CA"},"type":"Feature","geometry":{"type":"Point","coordinates":[-122.523424,37.945837]}},{"properties":{"lon":-74.4353955,"city":"Atlantic City","zip":"08401","store":"Ben &amp; Jerry's Borgata","id":"a6229bn3tssb","lat":39.3770497,"address":"One Borgata Way","state":"NJ"},"type":"Feature","geometry":{"type":"Point","coordinates":[-74.4353955,39.3770497]}},{"properties":{"lon":-105.2798974,"city":"Boulder","zip":"80302","store":"Ben &amp; Jerry's Boulder","id":"a6229bjlq5n3","lat":40.0181129,"address":"1203 Pearl Street","state":"CO"},"type":"Feature","geometry":{"type":"Point","coordinates":[-105.2798974,40.0181129]}},{"properties":{"lon":-72.8115718,"city":"Branford","zip":"06405","store":"Ben &amp; Jerry's Branford","id":"a6229begr4k1","lat":41.2815285,"address":"978 Main Street","state":"CT"},"type":"Feature","geometry":{"type":"Point","coordinates":[-72.8115718,41.2815285]}},{"properties":{"lon":-118.3107446,"city":"Burbank","zip":"91501","store":"Ben &amp; Jerry's Burbank","id":"a6229bdqta97","lat":34.1820216,"address":"164 E Palm Avenue","state":"CA"},"type":"Feature","geometry":{"type":"Point","coordinates":[-118.3107446,34.1820216]}},{"properties":{"lon":-73.212563,"city":"Burlington","zip":"05401","store":"Ben &amp; Jerry's Burlington","id":"a6229bdhzgne","lat":44.479461,"address":"36 Church Street","state":"VT"},"type":"Feature","geometry":{"type":"Point","coordinates":[-73.212563,44.479461]}},{"properties":{"lon":-90.1913404,"city":"St. Louis","zip":"63102","store":"Ben &amp; Jerry's Busch Stadium","id":"a6229bkeu6rv","lat":38.6222525,"address":"405 South Broadway","state":"MO"},"type":"Feature","geometry":{"type":"Point","coordinates":[-90.1913404,38.6222525]}},{"properties":{"lon":-93.3219287,"city":"Minneapolis","zip":"55416","store":"Ben &amp; Jerry's Calhoun Commons","id":"a6229bb6c79a","lat":44.9464309,"address":"3070 Excelsior Boulevard","state":"MN"},"type":"Feature","geometry":{"type":"Point","coordinates":[-93.3219287,44.9464309]}},{"properties":{"lon":-71.1208551,"city":"Cambridge","zip":"02138","store":"Ben &amp; Jerry's Cambridge","id":"a6229bazy5x3","lat":42.372075,"address":"36 JFK Street","state":"MA"},"type":"Feature","geometry":{"type":"Point","coordinates":[-71.1208551,42.372075]}},{"properties":{"lon":-77.337443,"city":"Camp Lejeune","zip":"28547","store":"Ben &amp; Jerry's Camp Lejeune","id":"a6229bnh5joq","lat":34.67066,"address":"Camp Lejeune Marine Exchange","state":"NC"},"type":"Feature","geometry":{"type":"Point","coordinates":[-77.337443,34.67066]}},{"properties":{"lon":-72.88094,"city":"Canton","zip":"06019","store":"Ben &amp; Jerry's Canton","id":"a6229bbiau8u","lat":41.821694,"address":"110 Albany Turnpike","state":"CT"},"type":"Feature","geometry":{"type":"Point","coordinates":[-72.88094,41.821694]}},{"properties":{"lon":-74.922792,"city":"Cape May","zip":"08204","store":"Ben &amp; Jerry's Cape May","id":"a6229bgfx3md","lat":38.93253,"address":"414 Washington Street","state":"NJ"},"type":"Feature","geometry":{"type":"Point","coordinates":[-74.922792,38.93253]}},{"properties":{"lon":-77.411051,"city":"Frederick","zip":"21701","store":"Ben &amp; Jerry's Carroll Creek","id":"a6229bf9whkn","lat":39.4133321,"address":"30 South Market Street","state":"MD"},"type":"Feature","geometry":{"type":"Point","coordinates":[-77.411051,39.4133321]}},{"properties":{"lon":-115.171377,"city":"Las Vegas","zip":"89109","store":"Ben &amp; Jerry's Casino Royale Hotel","id":"a6229bfa7wp8","lat":36.120395,"address":"3411 Las Vegas Boulevard South","state":"NV"},"type":"Feature","geometry":{"type":"Point","coordinates":[-115.171377,36.120395]}},{"properties":{"lon":-118.419048,"city":"Century City","zip":"90067","store":"Ben &amp; Jerry's Century City","id":"a6229bhvjtcs","lat":34.058603,"address":"10250 Santa Monica Boulevard","state":"CA"},"type":"Feature","geometry":{"type":"Point","coordinates":[-118.419048,34.058603]}},{"properties":{"lon":-95.513667,"city":"Houston","zip":"77069","store":"Ben &amp; Jerry's Champions","id":"a6229bcyr2pv","lat":29.979869,"address":"5602 FM 1960 West","state":"TX"},"type":"Feature","geometry":{"type":"Point","coordinates":[-95.513667,29.979869]}},{"properties":{"lon":-79.0558809,"city":"Chapel Hill","zip":"27516","store":"Ben &amp; Jerry's Chapel Hill","id":"a6229bld4vkd","lat":35.9131138,"address":"102 West Franklin Street","state":"NC"},"type":"Feature","geometry":{"type":"Point","coordinates":[-79.0558809,35.9131138]}},{"properties":{"lon":-79.930758,"city":"Charleston","zip":"29401","store":"Ben &amp; Jerry's Charleston","id":"a6229bfnobt6","lat":32.781091,"address":"96 N Market Street","state":"SC"},"type":"Feature","geometry":{"type":"Point","coordinates":[-79.930758,32.781091]}},{"properties":{"lon":-78.5003946,"city":"Charlottesville","zip":"22905","store":"Ben &amp; Jerry's Charlottesville","id":"a6229bg4eopb","lat":38.0515385,"address":"1112 Emmet Street","state":"VA"},"type":"Feature","geometry":{"type":"Point","coordinates":[-78.5003946,38.0515385]}},{"properties":{"lon":-85.311189,"city":"Chattanooga","zip":"37402","store":"Ben &amp; Jerry's Chattanooga","id":"a6229bo9yf23","lat":35.054403,"address":"201 Broad Street","state":"TN"},"type":"Feature","geometry":{"type":"Point","coordinates":[-85.311189,35.054403]}},{"properties":{"lon":-90.6084801,"city":"Chesterfield","zip":"63005","store":"Ben &amp; Jerry's Chesterfield","id":"a6229bm27tlj","lat":38.6683212,"address":"17408 Chesterfield Airport Road","state":"MO"},"type":"Feature","geometry":{"type":"Point","coordinates":[-90.6084801,38.6683212]}},{"properties":{"lon":-121.8768122,"city":"Chico","zip":"95973","store":"Ben &amp; Jerry's Chico","id":"a6229bb6ikzg","lat":39.747458,"address":"855 East Avenue","state":"CA"},"type":"Feature","geometry":{"type":"Point","coordinates":[-121.8768122,39.747458]}},{"properties":{"lon":-77.0257921,"city":"Silver Spring","zip":"20910","store":"Ben &amp; Jerry's City Place","id":"a6229blr6xmc","lat":38.9965392,"address":"903 Ellsworth Drive","state":"MD"},"type":"Feature","geometry":{"type":"Point","coordinates":[-77.0257921,38.9965392]}},{"properties":{"lon":-122.57651,"city":"Happy Valley","zip":"97086","store":"Ben &amp; Jerry's Clackamas Town Center","id":"a6229barue2g","lat":45.4368989,"address":"12000 SE 82nd Ave","state":"OR"},"type":"Feature","geometry":{"type":"Point","coordinates":[-122.57651,45.4368989]}},{"properties":{"lon":-81.7079438,"city":"Cleveland","zip":"44109","store":"Ben &amp; Jerry's Cleveland Zoo","id":"a6229bh2h32z","lat":41.4455217,"address":"3900 Wildlife Way","state":"OH"},"type":"Feature","geometry":{"type":"Point","coordinates":[-81.7079438,41.4455217]}},{"properties":{"lon":-123.0717862,"city":"Eugene","zip":"97401","store":"Ben &amp; Jerry's Coburg Road","id":"a6229bdn98sh","lat":44.0676748,"address":"495 Coburg Road","state":"OR"},"type":"Feature","geometry":{"type":"Point","coordinates":[-123.0717862,44.0676748]}},{"properties":{"lon":-96.3263636,"city":"College Station","zip":"77840","store":"Ben &amp; Jerry's College Station","id":"a6229bgzyc4b","lat":30.6345906,"address":"830 University Drive East","state":"TX"},"type":"Feature","geometry":{"type":"Point","coordinates":[-96.3263636,30.6345906]}},{"properties":{"lon":-80.256153,"city":"Coral Gables","zip":"33134","store":"Ben &amp; Jerry's Coral Gables","id":"a6229bo1pd11","lat":25.750252,"address":"80 Aragon Ave","state":"FL"},"type":"Feature","geometry":{"type":"Point","coordinates":[-80.256153,25.750252]}},{"properties":{"lon":-80.849464,"city":"Davidson","zip":"28036","store":"Ben &amp; Jerry's Davidson","id":"a6229bke3d6f","lat":35.4980959,"address":"202 South Main Street","state":"NC"},"type":"Feature","geometry":{"type":"Point","coordinates":[-80.849464,35.4980959]}},{"properties":{"lon":-121.741016,"city":"Davis","zip":"95616","store":"Ben &amp; Jerry's Davis","id":"a6229b9rmeck","lat":38.541101,"address":"500 First Street","state":"CA"},"type":"Feature","geometry":{"type":"Point","coordinates":[-121.741016,38.541101]}},{"properties":{"lon":-73.196186,"city":"Burlington","zip":"05405","store":"Ben &amp; Jerry's Davis Center","id":"a6229bpziurc","lat":44.476061,"address":"590 Main Street","state":"VT"},"type":"Feature","geometry":{"type":"Point","coordinates":[-73.196186,44.476061]}},{"properties":{"lon":-84.1801973,"city":"Dayton","zip":"45409","store":"Ben &amp; Jerry's Dayton","id":"a6229bn3d4w2","lat":39.7334737,"address":"1934 Brown Street","state":"OH"},"type":"Feature","geometry":{"type":"Point","coordinates":[-84.1801973,39.7334737]}},{"properties":{"lon":-94.6677091,"city":"Overland Park","zip":"66223","store":"Ben &amp; Jerry's Deer Creek Marketplace","id":"a6229bnae1os","lat":38.8838489,"address":"6984 W 135th Street","state":"KS"},"type":"Feature","geometry":{"type":"Point","coordinates":[-94.6677091,38.8838489]}},{"properties":{"lon":-80.076232,"city":"Deerfield Beach","zip":"33441","store":"Ben &amp; Jerry's Deerfield Beach","id":"a6229bh8ushy","lat":26.32059,"address":"241 North Ocean Drive","state":"FL"},"type":"Feature","geometry":{"type":"Point","coordinates":[-80.076232,26.32059]}},{"properties":{"lon":-80.060165,"city":"Delray Beach","zip":"33483","store":"Ben &amp; Jerry's Delray Beach","id":"a6229bofysfq","lat":26.461992,"address":"1155 E Atlantic Ave","state":"FL"},"type":"Feature","geometry":{"type":"Point","coordinates":[-80.060165,26.461992]}},{"properties":{"lon":-104.6685339,"city":"Denver","zip":"80249","store":"Ben &amp; Jerry's Denver International Airport - Concourse A","id":"a6229bmb7l2d","lat":39.858767,"address":"8900 Pena Boulevard","state":"CO"},"type":"Feature","geometry":{"type":"Point","coordinates":[-104.6685339,39.858767]}},{"properties":{"lon":-104.6685339,"city":"Denver","zip":"80249","store":"Ben &amp; Jerry's Denver International Airport - Concourse B","id":"a6229bp3mu4k","lat":39.858767,"address":"8900 Pena Boulevard","state":"CO"},"type":"Feature","geometry":{"type":"Point","coordinates":[-104.6685339,39.858767]}},{"properties":{"lon":-116.2058365,"city":"Boise","zip":"83702","store":"Ben &amp; Jerry's Downtown Boise","id":"a6229bcau4vm","lat":43.6168541,"address":"103 North 10th Street","state":"ID"},"type":"Feature","geometry":{"type":"Point","coordinates":[-116.2058365,43.6168541]}},{"properties":{"lon":-77.452151,"city":"Chantilly","zip":"22021","store":"Ben &amp; Jerry's Dulles Airport A","id":"a6229bgg5cgy","lat":38.949689,"address":"North Service Road","state":"VA"},"type":"Feature","geometry":{"type":"Point","coordinates":[-77.452151,38.949689]}},{"properties":{"lon":-77.423402,"city":"Dulles","zip":"20166","store":"Ben &amp; Jerry's Dulles Town Center","id":"a6229bou8atz","lat":39.032286,"address":"21100 Dulles Town Circle","state":"VA"},"type":"Feature","geometry":{"type":"Point","coordinates":[-77.423402,39.032286]}},{"properties":{"lon":-77.043128,"city":"Washington","zip":"20036","store":"Ben &amp; Jerry's Dupont Circle","id":"a6229bpuido9","lat":38.907841,"address":"1333 19th Street NW","state":"DC"},"type":"Feature","geometry":{"type":"Point","coordinates":[-77.043128,38.907841]}},{"properties":{"lon":-78.920432,"city":"Durham","zip":"27705","store":"Ben &amp; Jerry's Durham","id":"a6229bosl4e1","lat":36.006939,"address":"609 Broad Street","state":"NC"},"type":"Feature","geometry":{"type":"Point","coordinates":[-78.920432,36.006939]}},{"properties":{"lon":-118.959612,"city":"Bakersfield","zip":"93306","store":"Ben &amp; Jerry's East Hills Mall","id":"a6229biz61c9","lat":35.394021,"address":"3000 Mall View Road","state":"CA"},"type":"Feature","geometry":{"type":"Point","coordinates":[-118.959612,35.394021]}},{"properties":{"lon":-89.8950962,"city":"Memphis","zip":"38117","store":"Ben &amp; Jerry's East Memphis","id":"a6229be8szbj","lat":35.1143333,"address":"5007 Black Road","state":"TN"},"type":"Feature","geometry":{"type":"Point","coordinates":[-89.8950962,35.1143333]}},{"properties":{"lon":-93.4188231,"city":"Eden Prairie","zip":"55344","store":"Ben &amp; Jerry's Eden Prairie","id":"a6229bnza8ll","lat":44.8642593,"address":"125 Eden Prairie Center","state":"MN"},"type":"Feature","geometry":{"type":"Point","coordinates":[-93.4188231,44.8642593]}},{"properties":{"lon":-111.92644,"city":"Scottsdale","zip":"85262","store":"Ben &amp; Jerry's El Pedgregal","id":"a6229bnvtloi","lat":33.79816,"address":"34505 North Scottsdale Road","state":"AZ"},"type":"Feature","geometry":{"type":"Point","coordinates":[-111.92644,33.79816]}},{"properties":{"lon":-71.4631758,"city":"Manchester","zip":"03101","store":"Ben &amp; Jerry's Elm Street","id":"a6229bdubwj6","lat":42.9915337,"address":"940 Elm St","state":"NH"},"type":"Feature","geometry":{"type":"Point","coordinates":[-71.4631758,42.9915337]}},{"properties":{"lon":-77.0357766,"city":"Emerald Isle","zip":"28594","store":"Ben &amp; Jerry's Emerald Isle","id":"a6229bhh3hdw","lat":34.664685,"address":"8204 Emerald Drive","state":"NC"},"type":"Feature","geometry":{"type":"Point","coordinates":[-77.0357766,34.664685]}},{"properties":{"lon":-73.975171,"city":"Englewood","zip":"07631","store":"Ben &amp; Jerry's Englewood","id":"a6229bmr9wwz","lat":40.893634,"address":"46 East Palisade Avenue","state":"NJ"},"type":"Feature","geometry":{"type":"Point","coordinates":[-73.975171,40.893634]}},{"properties":{"lon":-77.3559077,"city":"Fairfax","zip":"22033","store":"Ben &amp; Jerry's Fairfax Corner","id":"a6229be34c4h","lat":38.8574145,"address":"4205 Fairfax Corner East","state":"VA"},"type":"Feature","geometry":{"type":"Point","coordinates":[-77.3559077,38.8574145]}},{"properties":{"lon":-122.411973,"city":"San Francisco","zip":"94133","store":"Ben &amp; Jerry's Fisherman's Wharf","id":"a6229bl7phqs","lat":37.809025,"address":"Pier 41","state":"CA"},"type":"Feature","geometry":{"type":"Point","coordinates":[-122.411973,37.809025]}},{"properties":{"lon":-105.076252,"city":"Ft. Collins","zip":"80524","store":"Ben &amp; Jerry's Fort Collins","id":"a6229blpfgl7","lat":40.587156,"address":"1 Old Town Square","state":"CO"},"type":"Feature","geometry":{"type":"Point","coordinates":[-105.076252,40.587156]}},{"properties":{"lon":-80.82962,"city":"Charlotte","zip":"28226","store":"Ben &amp; Jerry's Foxcroft","id":"a6229bdpl6x6","lat":35.148911,"address":"Foxcroft East Shopping Center","state":"NC"},"type":"Feature","geometry":{"type":"Point","coordinates":[-80.82962,35.148911]}},{"properties":{"lon":-71.9549457,"city":"Mashantucket","zip":"06338","store":"Ben &amp; Jerry's Foxwoods Casino","id":"a6229bn3dgj8","lat":41.4740014,"address":"39 Norwich-Westerly Road","state":"CT"},"type":"Feature","geometry":{"type":"Point","coordinates":[-71.9549457,41.4740014]}},{"properties":{"lon":-86.870582,"city":"Franklin","zip":"37064","store":"Ben &amp; Jerry's Franklin","id":"a6229bi5k129","lat":35.9246849,"address":"400 Main Street","state":"TN"},"type":"Feature","geometry":{"type":"Point","coordinates":[-86.870582,35.9246849]}},{"properties":{"lon":-83.641339,"city":"Toledo","zip":"43623","store":"Ben &amp; Jerry's Franklin Park Mall 16","id":"a6229bpmrko0","lat":41.697339,"address":"5001 Munroe St","state":"OH"},"type":"Feature","geometry":{"type":"Point","coordinates":[-83.641339,41.697339]}},{"properties":{"lon":-70.110168,"city":"Freeport","zip":"04032","store":"Ben &amp; Jerry's Freeport","id":"a6229bjur4xl","lat":43.8227935,"address":"83 Main Street","state":"ME"},"type":"Feature","geometry":{"type":"Point","coordinates":[-70.110168,43.8227935]}},{"properties":{"lon":-79.831047,"city":"Greensboro","zip":"27410","store":"Ben &amp; Jerry's Friendly","id":"a6229bgdcs5u","lat":36.084995,"address":"The Shops at Friendly Center","state":"NC"},"type":"Feature","geometry":{"type":"Point","coordinates":[-79.831047,36.084995]}},{"properties":{"lon":-81.1109443,"city":"Gastonia","zip":"28056","store":"Ben &amp; Jerry's Gastonia-Franklin Square","id":"a6229bpa35vu","lat":35.2572018,"address":"3908 East Franklin Boulevard","state":"NC"},"type":"Feature","geometry":{"type":"Point","coordinates":[-81.1109443,35.2572018]}},{"properties":{"lon":-83.5145521,"city":"Gatlinburg","zip":"37738","store":"Ben &amp; Jerry's Gatlinburg","id":"a6229b9muyhd","lat":35.712732,"address":"638 Parkway","state":"TN"},"type":"Feature","geometry":{"type":"Point","coordinates":[-83.5145521,35.712732]}},{"properties":{"lon":-77.062109,"city":"Washington","zip":"20007","store":"Ben &amp; Jerry's Georgetown","id":"a6229bigznt4","lat":38.905465,"address":"3135 M Street, NW","state":"DC"},"type":"Feature","geometry":{"type":"Point","coordinates":[-77.062109,38.905465]}},{"properties":{"lon":-89.75848,"city":"Germantown","zip":"38138","store":"Ben &amp; Jerry's Germantown","id":"a6229bkdy3im","lat":35.06792,"address":"The Village Shops of Forest Hill","state":"TN"},"type":"Feature","geometry":{"type":"Point","coordinates":[-89.75848,35.06792]}},{"properties":{"lon":-122.337353,"city":"Seattle","zip":"98103","store":"Ben &amp; Jerry's Green Lake","id":"a6229bnerhmp","lat":47.685721,"address":"7900 E Green Lake Dr N","state":"WA"},"type":"Feature","geometry":{"type":"Point","coordinates":[-122.337353,47.685721]}},{"properties":{"lon":-115.086978,"city":"Henderson","zip":"89052","store":"Ben &amp; Jerry's Green Valley","id":"a6229bcbokkz","lat":36.021971,"address":"The Shops at Green Valley Ranch","state":"NV"},"type":"Feature","geometry":{"type":"Point","coordinates":[-115.086978,36.021971]}},{"properties":{"lon":-122.4467279,"city":"San Francisco","zip":"94117","store":"Ben &amp; Jerry's Haight Ashbury","id":"a6229bc1tf1f","lat":37.7700524,"address":"1480 Haight Street","state":"CA"},"type":"Feature","geometry":{"type":"Point","coordinates":[-122.4467279,37.7700524]}},{"properties":{"lon":-72.2879402,"city":"Hanover","zip":"03755","store":"Ben &amp; Jerry's Hanover","id":"a6229bgsin4n","lat":43.7008015,"address":"11 Lebanon St","state":"NH"},"type":"Feature","geometry":{"type":"Point","coordinates":[-72.2879402,43.7008015]}},{"properties":{"lon":-76.6121382,"city":"Baltimore","zip":"21202","store":"Ben &amp; Jerry's Harborplace","id":"a6229ba35k06","lat":39.2865922,"address":"200 East Pratt Street","state":"MD"},"type":"Feature","geometry":{"type":"Point","coordinates":[-76.6121382,39.2865922]}},{"properties":{"lon":-88.887484,"city":"Biloxi","zip":"39530","store":"Ben &amp; Jerry's Hard Rock Casino - Biloxi","id":"a6229bk2qo35","lat":30.392483,"address":"777 East Beach Boulevard","state":"MS"},"type":"Feature","geometry":{"type":"Point","coordinates":[-88.887484,30.392483]}},{"properties":{"lon":-80.2109577,"city":"Hollywood","zip":"33314","store":"Ben &amp; Jerry's Hard Rock Casino - Hollywood","id":"a6229ba4q9m1","lat":26.0503384,"address":"5725 Seminole Way","state":"FL"},"type":"Feature","geometry":{"type":"Point","coordinates":[-80.2109577,26.0503384]}},{"properties":{"lon":-80.3451173,"city":"Winston-Salem","zip":"27104","store":"Ben &amp; Jerry's Harper HIlls Commons","id":"a6229bpyb9he","lat":36.0839546,"address":"151 Vinegar Hill Road","state":"NC"},"type":"Feature","geometry":{"type":"Point","coordinates":[-80.3451173,36.0839546]}},{"properties":{"lon":-74.4272593,"city":"Atlantic City","zip":"08401","store":"Ben &amp; Jerry's Harrah's Resort Atlantic City","id":"a6229bi7szbn","lat":39.383804,"address":"777 Harrah's Boulevard","state":"NJ"},"type":"Feature","geometry":{"type":"Point","coordinates":[-74.4272593,39.383804]}},{"properties":{"lon":-77.570725,"city":"Fredericksburg","zip":"22407","store":"Ben &amp; Jerry's Harrison Crossing","id":"a6229bki06v0","lat":38.292331,"address":"5825 Plank Road","state":"VA"},"type":"Feature","geometry":{"type":"Point","coordinates":[-77.570725,38.292331]}},{"properties":{"lon":-122.626649,"city":"Portland","zip":"97214","store":"Ben &amp; Jerry's Hawthorne","id":"a6229bdlx1w9","lat":45.512298,"address":"1428 SE 36th Avenue","state":"OR"},"type":"Feature","geometry":{"type":"Point","coordinates":[-122.626649,45.512298]}},{"properties":{"lon":-115.0402332,"city":"Henderson","zip":"89014","store":"Ben &amp; Jerry's Henderson Galleria Mall","id":"a6229bgio4q1","lat":36.0638235,"address":"1300 W Sunset Rd","state":"NV"},"type":"Feature","geometry":{"type":"Point","coordinates":[-115.0402332,36.0638235]}},{"properties":{"lon":-84.3525297,"city":"Atlanta","zip":"30306","store":"Ben &amp; Jerry's Highland","id":"a6229bfeolx4","lat":33.7763986,"address":"800 North Highland Avenue","state":"GA"},"type":"Feature","geometry":{"type":"Point","coordinates":[-84.3525297,33.7763986]}},{"properties":{"lon":-97.081822,"city":"Highland Village","zip":"75077","store":"Ben &amp; Jerry's Highland Village","id":"a6229bg4yldz","lat":33.077595,"address":"The Shops at Highland Village","state":"TX"},"type":"Feature","geometry":{"type":"Point","coordinates":[-97.081822,33.077595]}},{"properties":{"lon":-74.029318,"city":"Hoboken","zip":"07030","store":"Ben &amp; Jerry's Hoboken","id":"a6229bc5dkgz","lat":40.741438,"address":"405 Washington Street","state":"NJ"},"type":"Feature","geometry":{"type":"Point","coordinates":[-74.029318,40.741438]}},{"properties":{"lon":-117.162437,"city":"San Diego","zip":"92101","store":"Ben &amp; Jerry's Horton Plaza","id":"a6229bejwzzm","lat":32.713654,"address":"471 Horton Plaza","state":"CA"},"type":"Feature","geometry":{"type":"Point","coordinates":[-117.162437,32.713654]}},{"properties":{"lon":-118.391937,"city":"Los Angeles","zip":"90045","store":"Ben &amp; Jerry's Howard Hughes","id":"a6229bacj86k","lat":33.978116,"address":"Promenade @ Howard Hughes Center","state":"CA"},"type":"Feature","geometry":{"type":"Point","coordinates":[-118.391937,33.978116]}},{"properties":{"lon":-73.4278719,"city":"Huntington Village","zip":"11743","store":"Ben &amp; Jerry's Huntington Village","id":"a6229befed0p","lat":40.8707629,"address":"298 Main Street","state":"NY"},"type":"Feature","geometry":{"type":"Point","coordinates":[-73.4278719,40.8707629]}},{"properties":{"lon":-70.2827184,"city":"Hyannis","zip":"02601","store":"Ben &amp; Jerry's Hyannis","id":"a6229bm43ld4","lat":41.6533328,"address":"352 Main Street","state":"MA"},"type":"Feature","geometry":{"type":"Point","coordinates":[-70.2827184,41.6533328]}},{"properties":{"lon":-87.886615,"city":"Kenosha","zip":"53142","store":"Ben &amp; Jerry's Indian Trail Plaza","id":"a6229bo4z7ez","lat":42.574482,"address":"6610 Green Bay Road","state":"WI"},"type":"Feature","geometry":{"type":"Point","coordinates":[-87.886615,42.574482]}},{"properties":{"lon":-79.7892376,"city":"Isle of Palms","zip":"29451","store":"Ben &amp; Jerry's Isle of Palms","id":"a6229bbfpdm5","lat":32.7853913,"address":"1109 Ocean Boulevard","state":"SC"},"type":"Feature","geometry":{"type":"Point","coordinates":[-79.7892376,32.7853913]}},{"properties":{"lon":-122.2777317,"city":"Oakland","zip":"94607","store":"Ben &amp; Jerry's Jack London","id":"a6229bmzhs8e","lat":37.7963163,"address":"505 Embarcadero","state":"CA"},"type":"Feature","geometry":{"type":"Point","coordinates":[-122.2777317,37.7963163]}},{"properties":{"lon":-77.4302414,"city":"Jacksonville","zip":"28546","store":"Ben &amp; Jerry's Jacksonville Mall","id":"a6229bdksy2v","lat":34.7540524,"address":"312 Jacksonville Mall","state":"NC"},"type":"Feature","geometry":{"type":"Point","coordinates":[-77.4302414,34.7540524]}},{"properties":{"lon":-70.4762119,"city":"Kennebunkport","zip":"04046","store":"Ben &amp; Jerry's Kennebunkport","id":"a6229blmpybr","lat":43.361216,"address":"5 Union Street","state":"ME"},"type":"Feature","geometry":{"type":"Point","coordinates":[-70.4762119,43.361216]}},{"properties":{"lon":-95.418317,"city":"Houston","zip":"77005","store":"Ben &amp; Jerry's Kirby","id":"a6229bkx8irl","lat":29.722505,"address":"5515 Kirby Drive","state":"TX"},"type":"Feature","geometry":{"type":"Point","coordinates":[-95.418317,29.722505]}},{"properties":{"lon":-122.2059561,"city":"Kirkland","zip":"98033","store":"Ben &amp; Jerry's Kirkland","id":"a6229blyu5ca","lat":47.6742387,"address":"176 Lake Street South","state":"WA"},"type":"Feature","geometry":{"type":"Point","coordinates":[-122.2059561,47.6742387]}},{"properties":{"lon":-83.977946,"city":"Knoxville","zip":"37919","store":"Ben &amp; Jerry's Knoxville Western Plaza","id":"a6229bnzdkxn","lat":35.9411779,"address":"4477 Kingston Pike","state":"TN"},"type":"Feature","geometry":{"type":"Point","coordinates":[-83.977946,35.9411779]}},{"properties":{"lon":-73.7133668,"city":"Lake George","zip":"12845","store":"Ben &amp; Jerry's Lake George","id":"a6229bfgejpr","lat":43.4234792,"address":"170 Canada Street","state":"NY"},"type":"Feature","geometry":{"type":"Point","coordinates":[-73.7133668,43.4234792]}},{"properties":{"lon":-73.985201,"city":"Lake Placid","zip":"12946","store":"Ben &amp; Jerry's Lake Placid","id":"a6229boe7gev","lat":44.2895347,"address":"83 Main Street","state":"NY"},"type":"Feature","geometry":{"type":"Point","coordinates":[-73.985201,44.2895347]}},{"properties":{"lon":-122.2098618,"city":"Auburn","zip":"98092","store":"Ben &amp; Jerry's Lake Tapps","id":"a6229bihrpme","lat":47.2449275,"address":"1410 Lake Tapps Parkway East","state":"WA"},"type":"Feature","geometry":{"type":"Point","coordinates":[-122.2098618,47.2449275]}},{"properties":{"lon":-73.7657048,"city":"Albany","zip":"12210","store":"Ben &amp; Jerry's Lark Street","id":"a6229bdk71yr","lat":42.6543398,"address":"250 Lark Street","state":"NY"},"type":"Feature","geometry":{"type":"Point","coordinates":[-73.7657048,42.6543398]}},{"properties":{"lon":-95.2358847,"city":"Lawrence","zip":"66044","store":"Ben &amp; Jerry's Lawrence","id":"a6229bkc7lro","lat":38.9686405,"address":"818 Massachusetts St","state":"KS"},"type":"Feature","geometry":{"type":"Point","coordinates":[-95.2358847,38.9686405]}},{"properties":{"lon":-118.0935975,"city":"Long Beach","zip":"90808","store":"Ben &amp; Jerry's Long Beach","id":"a6229bba6c1g","lat":33.8318395,"address":"7559 Carson Street","state":"CA"},"type":"Feature","geometry":{"type":"Point","coordinates":[-118.0935975,33.8318395]}},{"properties":{"lon":-122.407305,"city":"San Francisco","zip":"94102","store":"Ben &amp; Jerry's Macy's","id":"a6229bhlv81x","lat":37.786927,"address":"Macy's Department Store","state":"CA"},"type":"Feature","geometry":{"type":"Point","coordinates":[-122.407305,37.786927]}},{"properties":{"lon":-117.345006,"city":"Victorville","zip":"92392","store":"Ben &amp; Jerry's Mall of Victor Valley","id":"a6229bac9z3t","lat":34.473443,"address":"14400 Bear Valley Raod","state":"CA"},"type":"Feature","geometry":{"type":"Point","coordinates":[-117.345006,34.473443]}},{"properties":{"lon":-118.985489,"city":"Mammoth Lakes","zip":"93546","store":"Ben &amp; Jerry's Mammoth","id":"a6229bkyshmk","lat":37.651044,"address":"The Village at Mammoth","state":"CA"},"type":"Feature","geometry":{"type":"Point","coordinates":[-118.985489,37.651044]}},{"properties":{"lon":-73.049377,"city":"Manchester","zip":"05255","store":"Ben &amp; Jerry's Manchester Outdoor Cafe","id":"a6229bfnlhqw","lat":43.173191,"address":"460 Depot Street","state":"VT"},"type":"Feature","geometry":{"type":"Point","coordinates":[-73.049377,43.173191]}},{"properties":{"lon":-96.64248,"city":"McKinney","zip":"75070","store":"Ben &amp; Jerry's McKinney","id":"a6229baca728","lat":33.173228,"address":"2851 Craig Drive","state":"TX"},"type":"Feature","geometry":{"type":"Point","coordinates":[-96.64248,33.173228]}},{"properties":{"lon":-90.1616747,"city":"Metairie","zip":"70002","store":"Ben &amp; Jerry's Metairie","id":"a6229bjzp8n3","lat":30.0034001,"address":"3500A Veterans Memorial Blvd","state":"LA"},"type":"Feature","geometry":{"type":"Point","coordinates":[-90.1616747,30.0034001]}},{"properties":{"lon":-87.7416068,"city":"Chicago","zip":"60638","store":"Ben &amp; Jerry's Midway Airport","id":"a6229bk3do0r","lat":41.7893809,"address":"5700 So Cicero","state":"IL"},"type":"Feature","geometry":{"type":"Point","coordinates":[-87.7416068,41.7893809]}},{"properties":{"lon":-71.499152,"city":"Meredith","zip":"03253","store":"Ben &amp; Jerry's Mill Falls Marketplace","id":"a6229bm4e0fo","lat":43.656571,"address":"312 Daniel Webster Highway","state":"NH"},"type":"Feature","geometry":{"type":"Point","coordinates":[-71.499152,43.656571]}},{"properties":{"lon":-115.172703,"city":"Las Vegas","zip":"89109","store":"Ben &amp; Jerry's Miracle Mile Shops","id":"a6229blits3a","lat":36.108951,"address":"3663 Las Vegas Boulevard","state":"NV"},"type":"Feature","geometry":{"type":"Point","coordinates":[-115.172703,36.108951]}},{"properties":{"lon":-72.092274,"city":"Uncasville","zip":"06382","store":"Ben &amp; Jerry's Mohegan Sun","id":"a6229batwu2k","lat":41.492279,"address":"Mohegan Sun Casino Complex","state":"CT"},"type":"Feature","geometry":{"type":"Point","coordinates":[-72.092274,41.492279]}},{"properties":{"lon":-75.811476,"city":"Plains","zip":"18702","store":"Ben &amp; Jerry's Mohegan Sun at Pocono Downs","id":"a6229befb2wm","lat":41.2689522,"address":"1280 Highway 315","state":"PA"},"type":"Feature","geometry":{"type":"Point","coordinates":[-75.811476,41.2689522]}},{"properties":{"lon":-71.953339,"city":"Montauk","zip":"11954","store":"Ben &amp; Jerry's Montauk","id":"a6229baph0l0","lat":41.051944,"address":"PO Box Box 667","state":"NY"},"type":"Feature","geometry":{"type":"Point","coordinates":[-71.953339,41.051944]}},{"properties":{"lon":-106.5152487,"city":"Albuquerque","zip":"87111","store":"Ben &amp; Jerry's Montgomery","id":"a6229bb0cz8x","lat":35.1307633,"address":"11225 Montgomery NE","state":"NM"},"type":"Feature","geometry":{"type":"Point","coordinates":[-106.5152487,35.1307633]}},{"properties":{"lon":-73.7291827,"city":"Mt. Kisco","zip":"10549","store":"Ben &amp; Jerry's Mount Kisco","id":"a6229bjkr7v7","lat":41.1910853,"address":"639 E Main Street","state":"NY"},"type":"Feature","geometry":{"type":"Point","coordinates":[-73.7291827,41.1910853]}},{"properties":{"lon":-80.824432,"city":"Charlotte","zip":"28207","store":"Ben &amp; Jerry's Myers Park","id":"a6229bjyh3d3","lat":35.203373,"address":"507 Providence Road","state":"NC"},"type":"Feature","geometry":{"type":"Point","coordinates":[-80.824432,35.203373]}},{"properties":{"lon":-78.8785058,"city":"Myrtle Beach","zip":"29577","store":"Ben &amp; Jerry's Myrtle Beach (South)","id":"a6229bg2qhck","lat":33.7186395,"address":"1303 Celebrity Circle","state":"SC"},"type":"Feature","geometry":{"type":"Point","coordinates":[-78.8785058,33.7186395]}},{"properties":{"lon":-78.8850884,"city":"Myrtle Beach","zip":"29577","store":"Ben &amp; Jerry's Myrtle Beach II (North)","id":"a6229b9whkv4","lat":33.715182,"address":"1200 Celebrity Circle","state":"SC"},"type":"Feature","geometry":{"type":"Point","coordinates":[-78.8850884,33.715182]}},{"properties":{"lon":-122.2881118,"city":"Napa","zip":"94559","store":"Ben &amp; Jerry's Napa","id":"a6229bc4w3d7","lat":38.2986241,"address":"1299 Napa Town Center","state":"CA"},"type":"Feature","geometry":{"type":"Point","coordinates":[-122.2881118,38.2986241]}},{"properties":{"lon":-81.813578,"city":"Naples","zip":"34103","store":"Ben &amp; Jerry's Naples","id":"a6229benboss","lat":26.19657,"address":"The Village","state":"FL"},"type":"Feature","geometry":{"type":"Point","coordinates":[-81.813578,26.19657]}},{"properties":{"lon":-71.3845642,"city":"Natick","zip":"01760","store":"Ben &amp; Jerry's Natick","id":"a6229bnlvz0b","lat":42.2992722,"address":"1265 Worcester Road","state":"MA"},"type":"Feature","geometry":{"type":"Point","coordinates":[-71.3845642,42.2992722]}},{"properties":{"lon":-76.610954,"city":"National Harbor","zip":"20745","store":"Ben &amp; Jerry's National Harbor","id":"a6229bgfmp1b","lat":39.28639,"address":"Space D1-5 Building D, Ground Floor","state":"MD"},"type":"Feature","geometry":{"type":"Point","coordinates":[-76.610954,39.28639]}},{"properties":{"lon":-87.608097,"city":"Chicago","zip":"60611","store":"Ben &amp; Jerry's Navy Pier","id":"a6229bb2ktfq","lat":41.891432,"address":"700 East Grand Ave","state":"IL"},"type":"Feature","geometry":{"type":"Point","coordinates":[-87.608097,41.891432]}},{"properties":{"lon":-87.609615,"city":"Chicago","zip":"60611","store":"Ben &amp; Jerry's Navy Pier Kiosk","id":"a6229bms2cgq","lat":41.891975,"address":"600 East Grand Avenue","state":"IL"},"type":"Feature","geometry":{"type":"Point","coordinates":[-87.609615,41.891975]}},{"properties":{"lon":-80.429078,"city":"Christiansburg","zip":"24073","store":"Ben &amp; Jerry's New River Valley Mall","id":"a6229ba4iox1","lat":37.1634456,"address":"782 New River Road","state":"VA"},"type":"Feature","geometry":{"type":"Point","coordinates":[-80.429078,37.1634456]}},{"properties":{"lon":-71.0790205,"city":"Boston","zip":"02116","store":"Ben &amp; Jerry's Newbury","id":"a6229bmtrwmo","lat":42.3503939,"address":"174 Newbury Street","state":"MA"},"type":"Feature","geometry":{"type":"Point","coordinates":[-71.0790205,42.3503939]}},{"properties":{"lon":-78.976026,"city":"Niagara Falls","zip":"14304","store":"Ben &amp; Jerry's Niagara Falls","id":"a6229bmp03p1","lat":43.0982847,"address":"1994 Military Road","state":"NY"},"type":"Feature","geometry":{"type":"Point","coordinates":[-78.976026,43.0982847]}},{"properties":{"lon":-84.9576709,"city":"Columbus","zip":"31909","store":"Ben &amp; Jerry's North Columbus Crossing","id":"a6229bfvi5p6","lat":32.530098,"address":"6770 Veterans Parkway","state":"GA"},"type":"Feature","geometry":{"type":"Point","coordinates":[-84.9576709,32.530098]}},{"properties":{"lon":-71.1281941,"city":"North Conway","zip":"03860","store":"Ben &amp; Jerry's North Conway","id":"a6229bm8m1f9","lat":44.0514309,"address":"26 Norcross Circle","state":"NH"},"type":"Feature","geometry":{"type":"Point","coordinates":[-71.1281941,44.0514309]}},{"properties":{"lon":-69.9874098,"city":"North Eastham","zip":"02651","store":"Ben &amp; Jerry's North Eastham","id":"a6229bpexqdm","lat":41.855476,"address":"Rte 6 at Brackett Road","state":"MA"},"type":"Feature","geometry":{"type":"Point","coordinates":[-69.9874098,41.855476]}},{"properties":{"lon":-78.6426238,"city":"Raleigh","zip":"27609","store":"Ben &amp; Jerry's North Hills Mall","id":"a6229bjb8zmv","lat":35.8403641,"address":"4217 Six Folks Road","state":"NC"},"type":"Feature","geometry":{"type":"Point","coordinates":[-78.6426238,35.8403641]}},{"properties":{"lon":-87.8025074,"city":"Oak Park","zip":"60301","store":"Ben &amp; Jerry's Oak Park","id":"a6229bf5o4cq","lat":41.8886347,"address":"1025 West Lake Street","state":"IL"},"type":"Feature","geometry":{"type":"Point","coordinates":[-87.8025074,41.8886347]}},{"properties":{"lon":-70.599528,"city":"Ogunquit","zip":"03907","store":"Ben &amp; Jerry's Ogunquit","id":"a6229bbvu92d","lat":43.2559109,"address":"238 Main Street","state":"ME"},"type":"Feature","geometry":{"type":"Point","coordinates":[-70.599528,43.2559109]}},{"properties":{"lon":-77.027335,"city":"Washington","zip":"20004","store":"Ben &amp; Jerry's Old Post Office","id":"a6229bc2egf4","lat":38.895308,"address":"1100 Pennsylvania Avenue, NW","state":"DC"},"type":"Feature","geometry":{"type":"Point","coordinates":[-77.027335,38.895308]}},{"properties":{"lon":-81.717717,"city":"Orange Park","zip":"32073","store":"Ben &amp; Jerry's Orange Park","id":"a6229bhq67vx","lat":30.1902184,"address":"1635 Wells Rd","state":"FL"},"type":"Feature","geometry":{"type":"Point","coordinates":[-81.717717,30.1902184]}},{"properties":{"lon":-119.248627,"city":"Ventura","zip":"93003","store":"Ben &amp; Jerry's Pacific View Mall","id":"a6229bdfl1o6","lat":34.2682969,"address":"3301 East Main Street","state":"CA"},"type":"Feature","geometry":{"type":"Point","coordinates":[-119.248627,34.2682969]}},{"properties":{"lon":-88.0630714,"city":"Palatine","zip":"60067","store":"Ben &amp; Jerry's Palatine","id":"a6229bffl4re","lat":42.1243807,"address":"807 North Quentin Road","state":"IL"},"type":"Feature","geometry":{"type":"Point","coordinates":[-88.0630714,42.1243807]}},{"properties":{"lon":-79.9603622,"city":"High Point","zip":"27265","store":"Ben &amp; Jerry's Palladium","id":"a6229bhbxsuq","lat":36.0335649,"address":"5836 Samet Drive","state":"NC"},"type":"Feature","geometry":{"type":"Point","coordinates":[-79.9603622,36.0335649]}},{"properties":{"lon":-116.5456093,"city":"Palm Springs","zip":"92264","store":"Ben &amp; Jerry's Palm Springs","id":"a6229bq0tyba","lat":33.8030701,"address":"110 South Palm Canyon Drive","state":"CA"},"type":"Feature","geometry":{"type":"Point","coordinates":[-116.5456093,33.8030701]}},{"properties":{"lon":-98.2611414,"city":"McAllen","zip":"78501","store":"Ben &amp; Jerry's Palms Crossing","id":"a6229bosgeyg","lat":26.1947204,"address":"3300 Expressway 83","state":"TX"},"type":"Feature","geometry":{"type":"Point","coordinates":[-98.2611414,26.1947204]}},{"properties":{"lon":-104.8924988,"city":"Lone Tree","zip":"80124","store":"Ben &amp; Jerry's Park Meadows Mall","id":"a6229badxzap","lat":39.5628593,"address":"8401 Park Meadows Drive","state":"CO"},"type":"Feature","geometry":{"type":"Point","coordinates":[-104.8924988,39.5628593]}},{"properties":{"lon":-71.0690116,"city":"Boston","zip":"02116","store":"Ben &amp; Jerry's Park Plaza","id":"a6229bm4rjpw","lat":42.3515538,"address":"20 Park Plaza","state":"MA"},"type":"Feature","geometry":{"type":"Point","coordinates":[-71.0690116,42.3515538]}},{"properties":{"lon":-80.849326,"city":"Charlotte","zip":"28209","store":"Ben &amp; Jerry's Parktowne Village","id":"a6229bcfaouw","lat":35.1720117,"address":"1600 East Woodlawn Road","state":"NC"},"type":"Feature","geometry":{"type":"Point","coordinates":[-80.849326,35.1720117]}},{"properties":{"lon":-86.5895406,"city":"Huntsville","zip":"35801","store":"Ben &amp; Jerry's Parkway Place Mall","id":"a6229bo67f1n","lat":34.7076636,"address":"2801 Memorial Parkway SW","state":"AL"},"type":"Feature","geometry":{"type":"Point","coordinates":[-86.5895406,34.7076636]}},{"properties":{"lon":-80.23799,"city":"Pittsburgh","zip":"15231","store":"Ben &amp; Jerry's Pittsburgh Airport - Center 19A","id":"a6229bb0jx4h","lat":40.494552,"address":"Pittsburgh International Airport","state":"PA"},"type":"Feature","geometry":{"type":"Point","coordinates":[-80.23799,40.494552]}},{"properties":{"lon":-73.2549464,"city":"Pittsfield","zip":"01201","store":"Ben &amp; Jerry's Pittsfield","id":"a6229bf6zfp9","lat":42.4442325,"address":"179 South Street","state":"MA"},"type":"Feature","geometry":{"type":"Point","coordinates":[-73.2549464,42.4442325]}},{"properties":{"lon":-77.5155107,"city":"Pittsford","zip":"14534","store":"Ben &amp; Jerry's Pittsford Village","id":"a6229bbchnbv","lat":43.090696,"address":"5 South Main Street","state":"NY"},"type":"Feature","geometry":{"type":"Point","coordinates":[-77.5155107,43.090696]}},{"properties":{"lon":-96.7952945,"city":"Plano","zip":"75093","store":"Ben &amp; Jerry's Plano Parkway","id":"a6229bns6w73","lat":33.0203305,"address":"1501 Preston Road","state":"TX"},"type":"Feature","geometry":{"type":"Point","coordinates":[-96.7952945,33.0203305]}},{"properties":{"lon":-81.470468,"city":"Orlando","zip":"32819","store":"Ben &amp; Jerry's Pointe Orlando","id":"a6229bc51ndm","lat":28.431591,"address":"9101 International Dr","state":"FL"},"type":"Feature","geometry":{"type":"Point","coordinates":[-81.470468,28.431591]}},{"properties":{"lon":-122.6813667,"city":"Portland","zip":"97209","store":"Ben &amp; Jerry's Portland Pearl District","id":"a6229bd99ptl","lat":45.5251996,"address":"301 NW 10th Street","state":"OR"},"type":"Feature","geometry":{"type":"Point","coordinates":[-122.6813667,45.5251996]}},{"properties":{"lon":-76.6121382,"city":"Baltimore","zip":"21202","store":"Ben &amp; Jerry's Pride of Baltimore","id":"a6229bji8a3j","lat":39.2865922,"address":"200 East Pratt Street","state":"MD"},"type":"Feature","geometry":{"type":"Point","coordinates":[-76.6121382,39.2865922]}},{"properties":{"lon":-76.73624,"city":"Williamsburg","zip":"23188","store":"Ben &amp; Jerry's Prime Outlets at Williamsburg","id":"a6229b9sig3f","lat":37.319629,"address":"5699-18 Richmond Road","state":"VA"},"type":"Feature","geometry":{"type":"Point","coordinates":[-76.73624,37.319629]}},{"properties":{"lon":-71.4003516,"city":"Providence","zip":"02906","store":"Ben &amp; Jerry's Providence","id":"a6229bfwvalf","lat":41.8291073,"address":"237 Meeting Street","state":"RI"},"type":"Feature","geometry":{"type":"Point","coordinates":[-71.4003516,41.8291073]}},{"properties":{"lon":-71.4176933,"city":"Providence","zip":"02903","store":"Ben &amp; Jerry's Providence Place Mall","id":"a6229bb5p0t3","lat":41.8275404,"address":"25 Providence Place","state":"RI"},"type":"Feature","geometry":{"type":"Point","coordinates":[-71.4176933,41.8275404]}},{"properties":{"lon":-70.1882,"city":"Provincetown","zip":"02657","store":"Ben &amp; Jerry's Provincetown","id":"a6229bk8o9j4","lat":42.0509,"address":"258 Commercial Street","state":"MA"},"type":"Feature","geometry":{"type":"Point","coordinates":[-70.1882,42.0509]}},{"properties":{"lon":-71.083099,"city":"Boston","zip":"02116","store":"Ben &amp; Jerry's Prudential Center","id":"a6229bpdtacx","lat":42.348296,"address":"800 Boylston St","state":"MA"},"type":"Feature","geometry":{"type":"Point","coordinates":[-71.083099,42.348296]}},{"properties":{"lon":-73.6771922,"city":"Troy","zip":"12180","store":"Ben &amp; Jerry's RPI","id":"a6229bnodpo3","lat":42.73077,"address":"Sage and 15th Street","state":"NY"},"type":"Feature","geometry":{"type":"Point","coordinates":[-73.6771922,42.73077]}},{"properties":{"lon":-117.6198638,"city":"Rancho Cucamonga","zip":"91730","store":"Ben &amp; Jerry's Rancho Cucamonga","id":"a6229bmrw7hs","lat":34.0931378,"address":"12513 North Main Street","state":"CA"},"type":"Feature","geometry":{"type":"Point","coordinates":[-117.6198638,34.0931378]}},{"properties":{"lon":-116.409881,"city":"Rancho Mirage","zip":"92270","store":"Ben &amp; Jerry's Rancho Mirage","id":"a6229bghms60","lat":33.740352,"address":"The River at Rancho Mirage","state":"CA"},"type":"Feature","geometry":{"type":"Point","coordinates":[-116.409881,33.740352]}},{"properties":{"lon":-77.3577544,"city":"Reston","zip":"20190","store":"Ben &amp; Jerry's Reston Town Center","id":"a6229bg65w44","lat":38.95873,"address":"11928 Market Street","state":"VA"},"type":"Feature","geometry":{"type":"Point","coordinates":[-77.3577544,38.95873]}},{"properties":{"lon":-74.117362,"city":"Ridgewood","zip":"07450","store":"Ben &amp; Jerry's Ridgewood","id":"a6229bpeiw40","lat":40.980655,"address":"104-106 Franklin Ave","state":"NJ"},"type":"Feature","geometry":{"type":"Point","coordinates":[-74.117362,40.980655]}},{"properties":{"lon":-117.4236387,"city":"Spokane","zip":"99201","store":"Ben &amp; Jerry's Riverpark Square","id":"a6229bhlvud0","lat":47.6590022,"address":"808 West Main Street","state":"WA"},"type":"Feature","geometry":{"type":"Point","coordinates":[-117.4236387,47.6590022]}},{"properties":{"lon":-74.0062201,"city":"West New York","zip":"07093","store":"Ben &amp; Jerry's Riverwalk - Edgewater","id":"a6229ba0yrwu","lat":40.7820925,"address":"22 Riverwalk Place","state":"NJ"},"type":"Feature","geometry":{"type":"Point","coordinates":[-74.0062201,40.7820925]}},{"properties":{"lon":-98.4883625,"city":"San Antonio","zip":"78205","store":"Ben &amp; Jerry's Riverwalk South Bank","id":"a6229bjr36k6","lat":29.4268906,"address":"111 West Crocket Street","state":"TX"},"type":"Feature","geometry":{"type":"Point","coordinates":[-98.4883625,29.4268906]}},{"properties":{"lon":-73.978399,"city":"New York","zip":"10020","store":"Ben &amp; Jerry's Rockefeller Center","id":"a6229bhjg2f4","lat":40.759029,"address":"Rockefeller Plaza","state":"NY"},"type":"Feature","geometry":{"type":"Point","coordinates":[-73.978399,40.759029]}},{"properties":{"lon":-77.149719,"city":"Rockville","zip":"20850","store":"Ben &amp; Jerry's Rockville Center","id":"a6229bnc81xp","lat":39.084009,"address":"199 East Montgomery Avenue","state":"MD"},"type":"Feature","geometry":{"type":"Point","coordinates":[-77.149719,39.084009]}},{"properties":{"lon":-78.688603,"city":"Raleigh","zip":"27607","store":"Ben &amp; Jerry's Royal Bakery","id":"a6229blchl9b","lat":35.793859,"address":"3801 Hillsborough St","state":"NC"},"type":"Feature","geometry":{"type":"Point","coordinates":[-78.688603,35.793859]}},{"properties":{"lon":-72.9552461,"city":"Rutland","zip":"05701","store":"Ben &amp; Jerry's Rutland","id":"a6229bkcxnpv","lat":43.61926,"address":"221 Woodstock Ave","state":"VT"},"type":"Feature","geometry":{"type":"Point","coordinates":[-72.9552461,43.61926]}},{"properties":{"lon":-90.3476196,"city":"St. Louis","zip":"63117","store":"Ben &amp; Jerry's Saint Louis Galleria","id":"a6229bck6gwy","lat":38.6373723,"address":"1155 St Louis Galleria","state":"MO"},"type":"Feature","geometry":{"type":"Point","coordinates":[-90.3476196,38.6373723]}},{"properties":{"lon":-70.8960097,"city":"Salem","zip":"01970","store":"Ben &amp; Jerry's Salem","id":"a6229bdklily","lat":42.5224688,"address":"60 Washington Street","state":"MA"},"type":"Feature","geometry":{"type":"Point","coordinates":[-70.8960097,42.5224688]}},{"properties":{"lon":-121.8843772,"city":"San Jose","zip":"95112","store":"Ben &amp; Jerry's San Jose","id":"a6229blkafpf","lat":37.3328782,"address":"115 East San Carlos","state":"CA"},"type":"Feature","geometry":{"type":"Point","coordinates":[-121.8843772,37.3328782]}},{"properties":{"lon":-118.052301,"city":"Arcadia","zip":"91007","store":"Ben &amp; Jerry's Santa Anita, Arcadia","id":"a6229bombrcp","lat":34.132837,"address":"400 South Baldwin Avenue","state":"CA"},"type":"Feature","geometry":{"type":"Point","coordinates":[-118.052301,34.132837]}},{"properties":{"lon":-119.7020606,"city":"Santa Barbara","zip":"93101","store":"Ben &amp; Jerry's Santa Barbara","id":"a6229bjkos41","lat":34.4201172,"address":"305 Paseo Nuevo","state":"CA"},"type":"Feature","geometry":{"type":"Point","coordinates":[-119.7020606,34.4201172]}},{"properties":{"lon":-118.4850134,"city":"Santa Monica","zip":"90405","store":"Ben &amp; Jerry's Santa Monica","id":"a6229bkx5iib","lat":34.0034752,"address":"2441 Main Street","state":"CA"},"type":"Feature","geometry":{"type":"Point","coordinates":[-118.4850134,34.0034752]}},{"properties":{"lon":-121.948071,"city":"San Jose","zip":"95128","store":"Ben &amp; Jerry's Santana Row","id":"a6229bkmirr2","lat":37.319305,"address":"377 Santana Row","state":"CA"},"type":"Feature","geometry":{"type":"Point","coordinates":[-121.948071,37.319305]}},{"properties":{"lon":-82.577398,"city":"Sarasota","zip":"34236","store":"Ben &amp; Jerry's Sarasota","id":"a6229bedj5fh","lat":27.317622,"address":"372 A Saint Armands Circle","state":"FL"},"type":"Feature","geometry":{"type":"Point","coordinates":[-82.577398,27.317622]}},{"properties":{"lon":-73.7837931,"city":"Saratoga Springs","zip":"12866","store":"Ben &amp; Jerry's Saratoga","id":"a6229bjhauij","lat":43.0804081,"address":"34 Phila Street","state":"NY"},"type":"Feature","geometry":{"type":"Point","coordinates":[-73.7837931,43.0804081]}},{"properties":{"lon":-80.3161115,"city":"Sunrise","zip":"33323","store":"Ben &amp; Jerry's Sawgrass Mills Collonade","id":"a6229blr7yof","lat":26.1551573,"address":"1800 Sawgrass Mills Circle","state":"FL"},"type":"Feature","geometry":{"type":"Point","coordinates":[-80.3161115,26.1551573]}},{"properties":{"lon":-117.1701674,"city":"San Diego","zip":"92102","store":"Ben &amp; Jerry's Seaport Village","id":"a6229bin7hzp","lat":32.7113799,"address":"859 A West Harbor Drive","state":"CA"},"type":"Feature","geometry":{"type":"Point","coordinates":[-117.1701674,32.7113799]}},{"properties":{"lon":-94.809906,"city":"Galveston","zip":"77550","store":"Ben &amp; Jerry's Seawall - Galveston Island","id":"a6229b9xwus2","lat":29.276331,"address":"4408 Seawall Blvd","state":"TX"},"type":"Feature","geometry":{"type":"Point","coordinates":[-94.809906,29.276331]}},{"properties":{"lon":-83.572317,"city":"Sevierville","zip":"37862","store":"Ben &amp; Jerry's Sevierville","id":"a6229bmqa5ha","lat":35.833181,"address":"Shoppes at Five Oaks","state":"TN"},"type":"Feature","geometry":{"type":"Point","coordinates":[-83.572317,35.833181]}},{"properties":{"lon":-118.466606,"city":"Sherman Oaks","zip":"91403","store":"Ben &amp; Jerry's Sherman Oaks II","id":"a6229bgr13o9","lat":34.154005,"address":"15301 Ventura Boulevard","state":"CA"},"type":"Feature","geometry":{"type":"Point","coordinates":[-118.466606,34.154005]}},{"properties":{"lon":-83.68004,"city":"Ypsilanti","zip":"48197","store":"Ben &amp; Jerry's Showcase Ann Arbor","id":"a6229bo1qfzq","lat":42.227643,"address":"4100 Carpenter Road","state":"MI"},"type":"Feature","geometry":{"type":"Point","coordinates":[-83.68004,42.227643]}},{"properties":{"lon":-83.660679,"city":"Maumee","zip":"43537","store":"Ben &amp; Jerry's Showcase Maumee","id":"a6229bpw1sle","lat":41.576845,"address":"1360 Conant Street","state":"OH"},"type":"Feature","geometry":{"type":"Point","coordinates":[-83.660679,41.576845]}},{"properties":{"lon":-122.2483726,"city":"Vallejo","zip":"94589","store":"Ben &amp; Jerry's Six Flags Discovery Kingdom - Walrus","id":"a6229bg7rd39","lat":38.1432225,"address":"1001 Fairground Dr","state":"CA"},"type":"Feature","geometry":{"type":"Point","coordinates":[-122.2483726,38.1432225]}},{"properties":{"lon":-98.603949,"city":"San Antonio","zip":"78257","store":"Ben &amp; Jerry's Six Flags Fiesta Texas - Front Gate","id":"a6229beubq3a","lat":29.603333,"address":"Six Flags Theme Parks of Fiesta Texas","state":"TX"},"type":"Feature","geometry":{"type":"Point","coordinates":[-98.603949,29.603333]}},{"properties":{"lon":-98.603949,"city":"San Antonio","zip":"78257","store":"Ben &amp; Jerry's Six Flags Fiesta Texas - Sangerfest Hall","id":"a6229bet4poq","lat":29.603333,"address":"Six Flags Theme Parks of Fiesta Texas","state":"TX"},"type":"Feature","geometry":{"type":"Point","coordinates":[-98.603949,29.603333]}},{"properties":{"lon":-97.074056,"city":"Arlington","zip":"76010","store":"Ben &amp; Jerry's Six Flags Over Texas - Front Gate","id":"a6229bpg53t0","lat":32.754839,"address":"Six Flags Over Texas","state":"TX"},"type":"Feature","geometry":{"type":"Point","coordinates":[-97.074056,32.754839]}},{"properties":{"lon":-97.074056,"city":"Arlington","zip":"76010","store":"Ben &amp; Jerry's Six Flags Over Texas - Smith Street","id":"a6229bm9ls4s","lat":32.754839,"address":"Six Flags Over Texas","state":"TX"},"type":"Feature","geometry":{"type":"Point","coordinates":[-97.074056,32.754839]}},{"properties":{"lon":-122.4563839,"city":"Sonoma","zip":"95476","store":"Ben &amp; Jerry's Sonoma Plaza","id":"a6229bp3qc9x","lat":38.2934217,"address":"408 1st Street East","state":"CA"},"type":"Feature","geometry":{"type":"Point","coordinates":[-122.4563839,38.2934217]}},{"properties":{"lon":-122.2612406,"city":"Tukwila","zip":"98188","store":"Ben &amp; Jerry's Southcenter Mall","id":"a6229bejkrdc","lat":47.4588084,"address":"2800 Southcenter Mall","state":"WA"},"type":"Feature","geometry":{"type":"Point","coordinates":[-122.2612406,47.4588084]}},{"properties":{"lon":-93.3288276,"city":"Edina","zip":"55435","store":"Ben &amp; Jerry's Southdale Center","id":"a6229bp9a2ci","lat":44.8835242,"address":"6601 France Avenue","state":"MN"},"type":"Feature","geometry":{"type":"Point","coordinates":[-93.3288276,44.8835242]}},{"properties":{"lon":-79.919907,"city":"Pittsburgh","zip":"15232","store":"Ben &amp; Jerry's Squirrel Hill","id":"a6229bn4xwu7","lat":40.438253,"address":"5885 Forbes Ave","state":"PA"},"type":"Feature","geometry":{"type":"Point","coordinates":[-79.919907,40.438253]}},{"properties":{"lon":-90.292511,"city":"St. Louis","zip":"63110","store":"Ben &amp; Jerry's St. Louis Zoo","id":"a6229bpf8omz","lat":38.636651,"address":"One Government Drive","state":"MO"},"type":"Feature","geometry":{"type":"Point","coordinates":[-90.292511,38.636651]}},{"properties":{"lon":-87.7124567,"city":"Chicago","zip":"60655","store":"Ben &amp; Jerry's St. Xavier University","id":"a6229bn6wqd5","lat":41.6913994,"address":"3660 W 111th Street","state":"IL"},"type":"Feature","geometry":{"type":"Point","coordinates":[-87.7124567,41.6913994]}},{"properties":{"lon":-93.2285551,"city":"Minneapolis","zip":"55414","store":"Ben &amp; Jerry's Stadium Village","id":"a6229bnyuwo4","lat":44.9736325,"address":"702 Washington Avenue SE","state":"MN"},"type":"Feature","geometry":{"type":"Point","coordinates":[-93.2285551,44.9736325]}},{"properties":{"lon":-78.6793522,"city":"Raleigh","zip":"27613","store":"Ben &amp; Jerry's Stonehenge Marketplace","id":"a6229bdxb7g2","lat":35.8857495,"address":"7490 Creedmoor Rd","state":"NC"},"type":"Feature","geometry":{"type":"Point","coordinates":[-78.6793522,35.8857495]}},{"properties":{"lon":-85.595936,"city":"Louisville","zip":"40220","store":"Ben &amp; Jerry's Stonybrook Cinemas","id":"a6229bca52c5","lat":38.210522,"address":"2745 South Hurtsbourne Parkway","state":"KY"},"type":"Feature","geometry":{"type":"Point","coordinates":[-85.595936,38.210522]}},{"properties":{"lon":-115.155365,"city":"Las Vegas","zip":"89104","store":"Ben &amp; Jerry's Stratosphere","id":"a6229bnmbbil","lat":36.147371,"address":"2000 Las Vegas Boulevard South","state":"NV"},"type":"Feature","geometry":{"type":"Point","coordinates":[-115.155365,36.147371]}},{"properties":{"lon":-95.622676,"city":"Sugar Land","zip":"77479","store":"Ben &amp; Jerry's Sugar Land Town Square","id":"a6229ba7fnuq","lat":29.595282,"address":"16155 City Walk","state":"TX"},"type":"Feature","geometry":{"type":"Point","coordinates":[-95.622676,29.595282]}},{"properties":{"lon":-115.1357889,"city":"Henderson","zip":"89104","store":"Ben &amp; Jerry's Sunset Station","id":"a6229bm8wnn0","lat":36.0717555,"address":"1301 West Sunset Road","state":"NV"},"type":"Feature","geometry":{"type":"Point","coordinates":[-115.1357889,36.0717555]}},{"properties":{"lon":-78.774412,"city":"Myrtle Beach","zip":"29572","store":"Ben &amp; Jerry's Tanger Outlets (Myrtle Beach)","id":"a6229be2w68m","lat":33.7841058,"address":"10835 Kings Road South","state":"SC"},"type":"Feature","geometry":{"type":"Point","coordinates":[-78.774412,33.7841058]}},{"properties":{"lon":-71.314761,"city":"Newport","zip":"02840","store":"Ben &amp; Jerry's Thames Street","id":"a6229bjhu392","lat":41.483604,"address":"359 Thames Street","state":"RI"},"type":"Feature","geometry":{"type":"Point","coordinates":[-71.314761,41.483604]}},{"properties":{"lon":-89.722175,"city":"Collierville","zip":"38017","store":"Ben &amp; Jerry's The Avenue Carriage Crossing","id":"a6229befz5cg","lat":35.022895,"address":"4630 Merchant Park Circle","state":"TN"},"type":"Feature","geometry":{"type":"Point","coordinates":[-89.722175,35.022895]}},{"properties":{"lon":-117.8286195,"city":"Tustin","zip":"92782","store":"Ben &amp; Jerry's The District at Tustin Legacy","id":"a6229bo7ur28","lat":33.700099,"address":"2459 Park Ave","state":"CA"},"type":"Feature","geometry":{"type":"Point","coordinates":[-117.8286195,33.700099]}},{"properties":{"lon":-111.9040427,"city":"Salt Lake City","zip":"84101","store":"Ben &amp; Jerry's The Gateway","id":"a6229blxnzzs","lat":40.7686317,"address":"7 South Rio Grande Street","state":"UT"},"type":"Feature","geometry":{"type":"Point","coordinates":[-111.9040427,40.7686317]}},{"properties":{"lon":-87.826208,"city":"Glenview","zip":"60025","store":"Ben &amp; Jerry's The Glen","id":"a6229b9r36wx","lat":42.091255,"address":"The Glen Town Center","state":"IL"},"type":"Feature","geometry":{"type":"Point","coordinates":[-87.826208,42.091255]}},{"properties":{"lon":-81.4198173,"city":"Kissimmee","zip":"34741","store":"Ben &amp; Jerry's The Loop","id":"a6229bhk44qv","lat":28.3475428,"address":"3234 N John Young Parkway","state":"FL"},"type":"Feature","geometry":{"type":"Point","coordinates":[-81.4198173,28.3475428]}},{"properties":{"lon":-73.9892465,"city":"New York","zip":"10003","store":"Ben &amp; Jerry's Third Ave.","id":"a6229bkp97d2","lat":40.7303952,"address":"41 Third Avenue","state":"NY"},"type":"Feature","geometry":{"type":"Point","coordinates":[-73.9892465,40.7303952]}},{"properties":{"lon":-75.202743,"city":"Philadelphia","zip":"19104","store":"Ben &amp; Jerry's U-Penn (West Philly)","id":"a6229bjhedf1","lat":39.9534828,"address":"218 S 40th Street","state":"PA"},"type":"Feature","geometry":{"type":"Point","coordinates":[-75.202743,39.9534828]}},{"properties":{"lon":-90.3043992,"city":"University City","zip":"63130","store":"Ben &amp; Jerry's U. City","id":"a6229bemlaq4","lat":38.6558939,"address":"6380 Delmar Boulevard","state":"MO"},"type":"Feature","geometry":{"type":"Point","coordinates":[-90.3043992,38.6558939]}},{"properties":{"lon":-77.0064998,"city":"Washington","zip":"20002","store":"Ben &amp; Jerry's Union Station","id":"a6229bdyctma","lat":38.8970284,"address":"50 Massachusetts Avenue, NE","state":"DC"},"type":"Feature","geometry":{"type":"Point","coordinates":[-77.0064998,38.8970284]}},{"properties":{"lon":-118.3517567,"city":"Universal City","zip":"91608","store":"Ben &amp; Jerry's Universal Studios - City Walk","id":"a6229bhn9ivh","lat":34.1406281,"address":"100 Universal City Plaza","state":"CA"},"type":"Feature","geometry":{"type":"Point","coordinates":[-118.3517567,34.1406281]}},{"properties":{"lon":-81.474674,"city":"Orlando","zip":"32819","store":"Ben &amp; Jerry's Universal Studios Florida","id":"a6229bdu3kti","lat":28.477877,"address":"1000 Universal Studios Plaza","state":"FL"},"type":"Feature","geometry":{"type":"Point","coordinates":[-81.474674,28.477877]}},{"properties":{"lon":-81.534818,"city":"University Heights","zip":"44118","store":"Ben &amp; Jerry's University Heights","id":"a6229bhqkajt","lat":41.4876829,"address":"20650 North Park Blvd","state":"OH"},"type":"Feature","geometry":{"type":"Point","coordinates":[-81.534818,41.4876829]}},{"properties":{"lon":-73.183815,"city":"South Burlington","zip":"05403","store":"Ben &amp; Jerry's University Mall","id":"a6229bhyzj4y","lat":44.465664,"address":"University Mall","state":"VT"},"type":"Feature","geometry":{"type":"Point","coordinates":[-73.183815,44.465664]}},{"properties":{"lon":-117.212298,"city":"San Diego","zip":"92122","store":"Ben &amp; Jerry's University Town Center","id":"a6229bb1rz7m","lat":32.869802,"address":"4545 La Jolla Village Drive","state":"CA"},"type":"Feature","geometry":{"type":"Point","coordinates":[-117.212298,32.869802]}},{"properties":{"lon":-104.9597648,"city":"Denver","zip":"80210","store":"Ben &amp; Jerry's University of Denver","id":"a6229bhs3g8s","lat":39.6785202,"address":"2339 East Evans Ave","state":"CO"},"type":"Feature","geometry":{"type":"Point","coordinates":[-104.9597648,39.6785202]}},{"properties":{"lon":-122.6997941,"city":"Portland","zip":"97210","store":"Ben &amp; Jerry's Uptown Center","id":"a6229bbu700g","lat":45.5240338,"address":"39 NW 23rd Place","state":"OR"},"type":"Feature","geometry":{"type":"Point","coordinates":[-122.6997941,45.5240338]}},{"properties":{"lon":-122.5791999,"city":"Gig Harbor","zip":"98335","store":"Ben &amp; Jerry's Uptown Gig Harbor","id":"a6229bpfjds4","lat":47.3004098,"address":"4635 Point Fosdick Drive","state":"WA"},"type":"Feature","geometry":{"type":"Point","coordinates":[-122.5791999,47.3004098]}},{"properties":{"lon":-118.5553135,"city":"Santa Clarita","zip":"91355","store":"Ben &amp; Jerry's Valencia","id":"a6229bfmw0ej","lat":34.419288,"address":"Creekside Plaza","state":"CA"},"type":"Feature","geometry":{"type":"Point","coordinates":[-118.5553135,34.419288]}},{"properties":{"lon":-79.961393,"city":"Roanoke","zip":"24012","store":"Ben &amp; Jerry's Valley View Mall","id":"a6229bp5ig21","lat":37.30514,"address":"4802 Valley View Boulevard, NW","state":"VA"},"type":"Feature","geometry":{"type":"Point","coordinates":[-79.961393,37.30514]}},{"properties":{"lon":-86.7991119,"city":"Nashville","zip":"37203","store":"Ben &amp; Jerry's Vanderbilt","id":"a6229bch9t1b","lat":36.1485431,"address":"416 21st Avenue South","state":"TN"},"type":"Feature","geometry":{"type":"Point","coordinates":[-86.7991119,36.1485431]}},{"properties":{"lon":-86.8018001,"city":"Nashville","zip":"37232","store":"Ben &amp; Jerry's Vanderbilt Children's Hospital","id":"a6229bpr0qew","lat":36.138782,"address":"2200 Children's Way","state":"TN"},"type":"Feature","geometry":{"type":"Point","coordinates":[-86.8018001,36.138782]}},{"properties":{"lon":-119.291894,"city":"Ventura","zip":"93001","store":"Ben &amp; Jerry's Ventura","id":"a6229bmo1d0k","lat":34.2810289,"address":"523 East Main Street","state":"CA"},"type":"Feature","geometry":{"type":"Point","coordinates":[-119.291894,34.2810289]}},{"properties":{"lon":-75.974023,"city":"Virginia Beach","zip":"23452","store":"Ben &amp; Jerry's Virginia Beach - 1400 Atlantic Ave","id":"a6229bhimnjh","lat":36.842901,"address":"1400 Atlantic Avenue","state":"VA"},"type":"Feature","geometry":{"type":"Point","coordinates":[-75.974023,36.842901]}},{"properties":{"lon":-75.976997,"city":"Virginia Beach","zip":"23451","store":"Ben &amp; Jerry's Virginia Beach - 2510 Atlantic Ave","id":"a6229bapgx0f","lat":36.854201,"address":"2510 Atlantic Ave","state":"VA"},"type":"Feature","geometry":{"type":"Point","coordinates":[-75.976997,36.854201]}},{"properties":{"lon":-72.7619565,"city":"Waterbury","zip":"05676","store":"Ben &amp; Jerry's Waterbury Scoop","id":"a6229bfpldnc","lat":44.31475,"address":"Route 100","state":"VT"},"type":"Feature","geometry":{"type":"Point","coordinates":[-72.7619565,44.31475]}},{"properties":{"lon":-93.5145102,"city":"Wayzata","zip":"55391","store":"Ben &amp; Jerry's Wayzata","id":"a6229bcoocxh","lat":44.9698127,"address":"539 East Lake Street","state":"MN"},"type":"Feature","geometry":{"type":"Point","coordinates":[-93.5145102,44.9698127]}},{"properties":{"lon":-95.1335278,"city":"Webster","zip":"77598","store":"Ben &amp; Jerry's Webster Plaza","id":"a6229bdf6n39","lat":29.545364,"address":"528 West Bay Area Boulevard","state":"TX"},"type":"Feature","geometry":{"type":"Point","coordinates":[-95.1335278,29.545364]}},{"properties":{"lon":-72.7418262,"city":"West Hartford","zip":"06107","store":"Ben &amp; Jerry's West Hartford","id":"a6229bc8brb9","lat":41.7619237,"address":"5 1/2 South Main","state":"CT"},"type":"Feature","geometry":{"type":"Point","coordinates":[-72.7418262,41.7619237]}},{"properties":{"lon":-73.758259,"city":"White Plains","zip":"10601","store":"Ben &amp; Jerry's Westchester Mall","id":"a6229bc94cgk","lat":41.03146,"address":"125 Westchester Ave","state":"NY"},"type":"Feature","geometry":{"type":"Point","coordinates":[-73.758259,41.03146]}},{"properties":{"lon":-72.64278,"city":"Westhampton Beach","zip":"11978","store":"Ben &amp; Jerry's Westhampton Beach","id":"a6229bgydame","lat":40.809689,"address":"121 Main Street","state":"NY"},"type":"Feature","geometry":{"type":"Point","coordinates":[-72.64278,40.809689]}},{"properties":{"lon":-123.0916874,"city":"Eugene","zip":"97405","store":"Ben &amp; Jerry's Willamette","id":"a6229bq3to5g","lat":44.0268292,"address":"2864 Willamette Street","state":"OR"},"type":"Feature","geometry":{"type":"Point","coordinates":[-123.0916874,44.0268292]}},{"properties":{"lon":-157.797344,"city":"Kaneohe","zip":"96744","store":"Ben &amp; Jerry's Windward Mall","id":"a6229bcnoe5x","lat":21.395973,"address":"45-056 Kamehameha Highway","state":"HI"},"type":"Feature","geometry":{"type":"Point","coordinates":[-157.797344,21.395973]}},{"properties":{"lon":-83.0472985,"city":"Detroit","zip":"48226","store":"Ben &amp; Jerry's Woodward Ave.","id":"a6229bhuqvmq","lat":42.3322356,"address":"1014 Woodward Ave","state":"MI"},"type":"Feature","geometry":{"type":"Point","coordinates":[-83.0472985,42.3322356]}},{"properties":{"lon":-122.6786315,"city":"Portland","zip":"97204","store":"Ben &amp; Jerry's Yamhill","id":"a6229bfcqmw2","lat":45.5182534,"address":"524 SW Yamhill","state":"OR"},"type":"Feature","geometry":{"type":"Point","coordinates":[-122.6786315,45.5182534]}},{"properties":{"lon":-76.508672,"city":"Yorktown","zip":"23693","store":"Ben &amp; Jerry's Yorktown Riverwalk Landing","id":"a6229bckwp93","lat":37.23823,"address":"332 Water St","state":"VA"},"type":"Feature","geometry":{"type":"Point","coordinates":[-76.508672,37.23823]}},{"properties":{"lon":-71.778259,"city":"Milbury","zip":"01427","store":"Blackstone Valley 14 Cinemas Delux","id":"a6229bb9jxz8","lat":42.199783,"address":"70 Providence Worcester Highway","state":"MA"},"type":"Feature","geometry":{"type":"Point","coordinates":[-71.778259,42.199783]}},{"properties":{"lon":-73.8364432,"city":"Whitestone","zip":"11357","store":"College Point Mulitplex","id":"a6229bbbwvg2","lat":40.7715858,"address":"28-55 Ulmer Street","state":"NY"},"type":"Feature","geometry":{"type":"Point","coordinates":[-73.8364432,40.7715858]}},{"properties":{"lon":-73.9209727,"city":"Bronx","zip":"10451","store":"Concourse Plaza Multiplex","id":"a6229bdovk5b","lat":40.8263245,"address":"214 East 161st Street","state":"NY"},"type":"Feature","geometry":{"type":"Point","coordinates":[-73.9209727,40.8263245]}},{"properties":{"lon":-73.038225,"city":"Milford","zip":"06460","store":"Connecticut Post 14 De Lux","id":"a6229bcdc24o","lat":41.234656,"address":"1201 Boston Post Road","state":"CT"},"type":"Feature","geometry":{"type":"Point","coordinates":[-73.038225,41.234656]}},{"properties":{"lon":-73.8565545,"city":"Yonkers","zip":"10704","store":"Cross Country Multiplex","id":"a6229bla2nw6","lat":40.9268216,"address":"2 South Drive","state":"NY"},"type":"Feature","geometry":{"type":"Point","coordinates":[-73.8565545,40.9268216]}},{"properties":{"lon":-96.8253045,"city":"Dallas","zip":"75261","store":"DFW International Airport - Terminal D North Side","id":"a6229bbi2pdw","lat":32.9409389,"address":"2333 S International Parkway","state":"TX"},"type":"Feature","geometry":{"type":"Point","coordinates":[-96.8253045,32.9409389]}},{"properties":{"lon":-96.8253045,"city":"Dallas","zip":"75261","store":"DFW International Airport - Terminal D South Side","id":"a6229bf671ce","lat":32.9409389,"address":"2333 S International Parkway","state":"TX"},"type":"Feature","geometry":{"type":"Point","coordinates":[-96.8253045,32.9409389]}},{"properties":{"lon":-89.346743,"city":"Madison","zip":"53704","store":"Dane County Regional Airport","id":"a6229bo3yx2j","lat":43.134032,"address":"4000 International Lane","state":"WI"},"type":"Feature","geometry":{"type":"Point","coordinates":[-89.346743,43.134032]}},{"properties":{"lon":-84.22774,"city":"West Carrollton","zip":"45449","store":"Dayton South","id":"a6229bgwbm2e","lat":39.64362,"address":"195 Woods Drive","state":"OH"},"type":"Feature","geometry":{"type":"Point","coordinates":[-84.22774,39.64362]}},{"properties":{"lon":-73.990088,"city":"Edgewater","zip":"07020","store":"Edgewater Multiplex","id":"a6229blkas05","lat":40.807751,"address":"339 River Road","state":"NJ"},"type":"Feature","geometry":{"type":"Point","coordinates":[-73.990088,40.807751]}},{"properties":{"lon":-84.647276,"city":"Florence","zip":"41042","store":"Florence 14 Cinema De Lux","id":"a6229bfh9xs6","lat":38.993772,"address":"7860 Mall Road","state":"KY"},"type":"Feature","geometry":{"type":"Point","coordinates":[-84.647276,38.993772]}},{"properties":{"lon":-73.8141962,"city":"Elmsford","zip":"10523","store":"Greenburgh Multiplex","id":"a6229bldlpu5","lat":41.0646607,"address":"320 Saw Mill River Road","state":"NY"},"type":"Feature","geometry":{"type":"Point","coordinates":[-73.8141962,41.0646607]}},{"properties":{"lon":-74.1689961,"city":"Hazlet","zip":"07730","store":"Hazlet Multiplex","id":"a6229b9ufqt1","lat":40.4170122,"address":"2821 Highway 35","state":"NJ"},"type":"Feature","geometry":{"type":"Point","coordinates":[-74.1689961,40.4170122]}},{"properties":{"lon":-73.766284,"city":"White Plains","zip":"10601","store":"Holtsville M.T. - White Plains","id":"a6229biqm2d4","lat":41.031859,"address":"City Center 15 Cinema De Lux","state":"NY"},"type":"Feature","geometry":{"type":"Point","coordinates":[-73.766284,41.031859]}},{"properties":{"lon":-73.057279,"city":"Holtsville","zip":"11742","store":"Holtsville Multiplex Theatres","id":"a6229bpfxxt6","lat":40.816722,"address":"185 Morris Avenue","state":"NY"},"type":"Feature","geometry":{"type":"Point","coordinates":[-73.057279,40.816722]}},{"properties":{"lon":-73.777779,"city":"Jamaica","zip":"11430","store":"JFK Airport - Terminal 5","id":"a6229bq1toj7","lat":40.645421,"address":"Space 6 NC Terminal 5 Jet Blue","state":"NY"},"type":"Feature","geometry":{"type":"Point","coordinates":[-73.777779,40.645421]}},{"properties":{"lon":-73.800041,"city":"Jamaica","zip":"11432","store":"Jamaica Multiplex","id":"a6229bdo3643","lat":40.7033817,"address":"15902 Jamaica Avenue","state":"NY"},"type":"Feature","geometry":{"type":"Point","coordinates":[-73.800041,40.7033817]}},{"properties":{"lon":-73.8614078,"city":"Brooklyn","zip":"11208","store":"Linden Blvd. Multiplex","id":"a6229bodyvng","lat":40.6694881,"address":"2784 Linden Blvd","state":"NY"},"type":"Feature","geometry":{"type":"Point","coordinates":[-73.8614078,40.6694881]}},{"properties":{"lon":-73.9875136,"city":"New York","zip":"10001","store":"Macys Herald Square","id":"a6229bf4f2zr","lat":40.750133,"address":"151 West 34th Street","state":"NY"},"type":"Feature","geometry":{"type":"Point","coordinates":[-73.9875136,40.750133]}},{"properties":{"lon":-122.2015715,"city":"Oakland","zip":"94621","store":"McAfee Coliseum","id":"a6229biv94te","lat":37.7515541,"address":"7000 Coliseum Way","state":"CA"},"type":"Feature","geometry":{"type":"Point","coordinates":[-122.2015715,37.7515541]}},{"properties":{"lon":-74.376417,"city":"E. Brunswick","zip":"08816","store":"Mega Movies","id":"a6229belotxt","lat":40.420967,"address":"Brunswick Square Mall","state":"NJ"},"type":"Feature","geometry":{"type":"Point","coordinates":[-74.376417,40.420967]}},{"properties":{"lon":-84.270304,"city":"Milford","zip":"45150","store":"Milford 16","id":"a6229bo58t9m","lat":39.163526,"address":"500 Rivers Edge Drive","state":"OH"},"type":"Feature","geometry":{"type":"Point","coordinates":[-84.270304,39.163526]}},{"properties":{"lon":-93.207176,"city":"St. Paul","zip":"55111","store":"Minneapolis St. Paul International Airport","id":"a6229ba9jqdb","lat":44.881472,"address":"Lindbergh Terminal","state":"MN"},"type":"Feature","geometry":{"type":"Point","coordinates":[-93.207176,44.881472]}},{"properties":{"lon":-115.174634,"city":"Las Vegas","zip":"89109","store":"New York, New York Casino","id":"a6229bi6glfz","lat":36.102099,"address":"3790 Las Vegas Blvd","state":"NV"},"type":"Feature","geometry":{"type":"Point","coordinates":[-115.174634,36.102099]}},{"properties":{"lon":-74.177941,"city":"Newark","zip":"07114","store":"Newark Airport","id":"a6229bfpmbxb","lat":40.69004,"address":"Newark International Airport","state":"NJ"},"type":"Feature","geometry":{"type":"Point","coordinates":[-74.177941,40.69004]}},{"properties":{"lon":-71.252217,"city":"Foxboro","zip":"02035","store":"Patriot Place 14 Cinema De Lux","id":"a6229bgcadym","lat":42.094593,"address":"24 Patriot Place","state":"MA"},"type":"Feature","geometry":{"type":"Point","coordinates":[-71.252217,42.094593]}},{"properties":{"lon":-88.2553612,"city":"St. Charles","zip":"60174","store":"Pheasant Run Resort &amp; Spa","id":"a6229bb9f93l","lat":41.9203293,"address":"4051 E Main Street","state":"IL"},"type":"Feature","geometry":{"type":"Point","coordinates":[-88.2553612,41.9203293]}},{"properties":{"lon":-85.6537627,"city":"Okolona","zip":"40229","store":"Preston Cinemas Delux 16","id":"a6229bgnk06o","lat":38.099271,"address":"9700 Preston Crossing Road","state":"KY"},"type":"Feature","geometry":{"type":"Point","coordinates":[-85.6537627,38.099271]}},{"properties":{"lon":-80.548239,"city":"Radford","zip":"24142","store":"Radford University","id":"a6229bi9z1v2","lat":37.136987,"address":"Dalton Hall","state":"VA"},"type":"Feature","geometry":{"type":"Point","coordinates":[-80.548239,37.136987]}},{"properties":{"lon":-115.3335795,"city":"Las Vegas","zip":"89135","store":"Red Rocks Station Casino Spa","id":"a6229bd05kaj","lat":36.1588535,"address":"10973 West Charleston Blvd","state":"NV"},"type":"Feature","geometry":{"type":"Point","coordinates":[-115.3335795,36.1588535]}},{"properties":{"lon":-77.6748874,"city":"Rochester","zip":"14623","store":"Rochester Institute of Technology","id":"a6229bh4kyjo","lat":43.090784,"address":"139 Lomb Memorial Drive","state":"NY"},"type":"Feature","geometry":{"type":"Point","coordinates":[-77.6748874,43.090784]}},{"properties":{"lon":-72.547751,"city":"Manchester","zip":"06045","store":"Showcase Buckland Hills","id":"a6229bb9w93g","lat":41.801041,"address":"99 Redstone Road","state":"CT"},"type":"Feature","geometry":{"type":"Point","coordinates":[-72.547751,41.801041]}},{"properties":{"lon":-71.1797,"city":"Dedham","zip":"02026","store":"Showcase Cinema de Lux at Legacy Place","id":"a6229bei2u19","lat":42.2324,"address":"950 Providence Highway","state":"MA"},"type":"Feature","geometry":{"type":"Point","coordinates":[-71.1797,42.2324]}},{"properties":{"lon":-72.742883,"city":"Berlin","zip":"06037","store":"Showcase Cinemas Berlin","id":"a6229bll0m6r","lat":41.629182,"address":"19 Frontage Road","state":"CT"},"type":"Feature","geometry":{"type":"Point","coordinates":[-72.742883,41.629182]}},{"properties":{"lon":-83.7051804,"city":"Maumee","zip":"43537","store":"Showcase Cinemas Fallen Timbers","id":"a6229bb3lbzc","lat":41.5449424,"address":"2300 Village Drive West","state":"OH"},"type":"Feature","geometry":{"type":"Point","coordinates":[-83.7051804,41.5449424]}},{"properties":{"lon":-83.640461,"city":"Perrysburg","zip":"43551","store":"Showcase Cinemas Levis Commons","id":"a6229bhba23z","lat":41.5248397,"address":"2005 Hollenbeck Drive","state":"OH"},"type":"Feature","geometry":{"type":"Point","coordinates":[-83.640461,41.5248397]}},{"properties":{"lon":-72.8693862,"city":"North Haven","zip":"06473","store":"Showcase Cinemas North Haven","id":"a6229bpqqtr5","lat":41.3453501,"address":"550 Universal Drive","state":"CT"},"type":"Feature","geometry":{"type":"Point","coordinates":[-72.8693862,41.3453501]}},{"properties":{"lon":-72.4868,"city":"Sprinfield","zip":"01129","store":"Showcase Eastfield Mall","id":"a6229bj405ul","lat":42.1402,"address":"1655 Boston Road","state":"MA"},"type":"Feature","geometry":{"type":"Point","coordinates":[-72.4868,42.1402]}},{"properties":{"lon":-83.751402,"city":"Flint","zip":"48532","store":"Showcase Flint West","id":"a6229blotce8","lat":43.004337,"address":"1591 Graham Road","state":"MI"},"type":"Feature","geometry":{"type":"Point","coordinates":[-83.751402,43.004337]}},{"properties":{"lon":-84.1435,"city":"Huber Heights","zip":"45424","store":"Showcase Huber Heights","id":"a6229bdtunvg","lat":39.867637,"address":"7737 Waynetown Blvd","state":"OH"},"type":"Feature","geometry":{"type":"Point","coordinates":[-84.1435,39.867637]}},{"properties":{"lon":-84.2679,"city":"Mason","zip":"45040","store":"Showcase Kings Island","id":"a6229bawj4ie","lat":39.3519,"address":"5937 Kings Island Drive","state":"OH"},"type":"Feature","geometry":{"type":"Point","coordinates":[-84.2679,39.3519]}},{"properties":{"lon":-71.143899,"city":"Lawerence","zip":"01843","store":"Showcase Lawerence 7-14","id":"a6229bftottm","lat":42.689155,"address":"6 Chickering Street","state":"MA"},"type":"Feature","geometry":{"type":"Point","coordinates":[-71.143899,42.689155]}},{"properties":{"lon":-71.3218,"city":"Lowell","zip":"01853","store":"Showcase Lowell","id":"a6229baw3saj","lat":42.6140727,"address":"32 Reiss Avenue","state":"MA"},"type":"Feature","geometry":{"type":"Point","coordinates":[-71.3218,42.6140727]}},{"properties":{"lon":-71.3395737,"city":"North Attleborough","zip":"02760","store":"Showcase North Attleborough","id":"a6229bo4htbc","lat":41.9647781,"address":"640 South Washington Street","state":"MA"},"type":"Feature","geometry":{"type":"Point","coordinates":[-71.3395737,41.9647781]}},{"properties":{"lon":-71.061019,"city":"Randolph","zip":"02368","store":"Showcase Randolph","id":"a6229bbn9t1x","lat":42.162608,"address":"73 Mazzeo Drive","state":"MA"},"type":"Feature","geometry":{"type":"Point","coordinates":[-71.061019,42.162608]}},{"properties":{"lon":-71.020426,"city":"Revere","zip":"02151","store":"Showcase Revere","id":"a6229bk6l9zp","lat":42.432284,"address":"565 Squire Road","state":"MA"},"type":"Feature","geometry":{"type":"Point","coordinates":[-71.020426,42.432284]}},{"properties":{"lon":-71.495861,"city":"Warwick","zip":"02886","store":"Showcase Warwick","id":"a6229bitfpnp","lat":41.66397,"address":"1200 Quaker Lane","state":"RI"},"type":"Feature","geometry":{"type":"Point","coordinates":[-71.495861,41.66397]}},{"properties":{"lon":-71.476804,"city":"Warwick","zip":"02886","store":"Showcase Warwick Mall","id":"a6229bq3d3kk","lat":41.7244848,"address":"400 Bald Hill Road","state":"RI"},"type":"Feature","geometry":{"type":"Point","coordinates":[-71.476804,41.7244848]}},{"properties":{"lon":-72.6309,"city":"West Springfield","zip":"01089","store":"Showcase West Springfield","id":"a6229bjwvxky","lat":42.1292,"address":"864 Riverdale Road","state":"MA"},"type":"Feature","geometry":{"type":"Point","coordinates":[-72.6309,42.1292]}},{"properties":{"lon":-84.6412391,"city":"Cincinnati","zip":"42548","store":"Showcase Western Hills","id":"a6229bd5ak2l","lat":39.1736938,"address":"5870 Harrison Avenue","state":"OH"},"type":"Feature","geometry":{"type":"Point","coordinates":[-84.6412391,39.1736938]}},{"properties":{"lon":-71.1572007,"city":"Woburn","zip":"01801","store":"Showcase Woburn","id":"a6229bfpo9qw","lat":42.4963367,"address":"25 Middlesex Canal Parkway","state":"MA"},"type":"Feature","geometry":{"type":"Point","coordinates":[-71.1572007,42.4963367]}},{"properties":{"lon":-71.767877,"city":"Worcester","zip":"01606","store":"Showcase Worcester North","id":"a6229bak0u8r","lat":42.3048251,"address":"135 Brook Street","state":"MA"},"type":"Feature","geometry":{"type":"Point","coordinates":[-71.767877,42.3048251]}},{"properties":{"lon":-76.7758743,"city":"Mitchellville","zip":"20721","store":"Six Flags America - Back Store","id":"a6229boofwsx","lat":38.9008278,"address":"13740 Central Ave","state":"MD"},"type":"Feature","geometry":{"type":"Point","coordinates":[-76.7758743,38.9008278]}},{"properties":{"lon":-76.7758743,"city":"Mitchellville","zip":"20721","store":"Six Flags America - Hurricane Harbor","id":"a6229bitj2kl","lat":38.9008278,"address":"13740 Central Ave","state":"MD"},"type":"Feature","geometry":{"type":"Point","coordinates":[-76.7758743,38.9008278]}},{"properties":{"lon":-76.7758743,"city":"Mitchellville","zip":"20721","store":"Six Flags America - Texas Twister","id":"a6229bf8ss6h","lat":38.9008278,"address":"13740 Central Ave","state":"MD"},"type":"Feature","geometry":{"type":"Point","coordinates":[-76.7758743,38.9008278]}},{"properties":{"lon":-122.2483726,"city":"Vallejo","zip":"94589","store":"Six Flags Discovery Kingdom - African Outpost","id":"a6229bkkisrn","lat":38.1432225,"address":"1001 Fairground Dr","state":"CA"},"type":"Feature","geometry":{"type":"Point","coordinates":[-122.2483726,38.1432225]}},{"properties":{"lon":-122.2483726,"city":"Vallejo","zip":"94589","store":"Six Flags Discovery Kingdom - Food Court","id":"a6229bd6whi9","lat":38.1432225,"address":"1001 Fairground Drive","state":"CA"},"type":"Feature","geometry":{"type":"Point","coordinates":[-122.2483726,38.1432225]}},{"properties":{"lon":-74.4245958,"city":"Jackson","zip":"08527","store":"Six Flags Great Adventure - Boardwalk","id":"a6229bc0s2dd","lat":40.1598533,"address":"Route 537","state":"NJ"},"type":"Feature","geometry":{"type":"Point","coordinates":[-74.4245958,40.1598533]}},{"properties":{"lon":-74.4245958,"city":"Jackson","zip":"08527","store":"Six Flags Great Adventure - Food Court","id":"a6229bcy037w","lat":40.1598533,"address":"Route 537","state":"NJ"},"type":"Feature","geometry":{"type":"Point","coordinates":[-74.4245958,40.1598533]}},{"properties":{"lon":-74.4245958,"city":"Jackson","zip":"08527","store":"Six Flags Great Adventure - Franklins","id":"a6229blqqo42","lat":40.1598533,"address":"Route 537","state":"NJ"},"type":"Feature","geometry":{"type":"Point","coordinates":[-74.4245958,40.1598533]}},{"properties":{"lon":-87.938915,"city":"Gurnee","zip":"60031","store":"Six Flags Great America - Firehouse","id":"a6229b9u5m5i","lat":42.372915,"address":"542 North Route 21","state":"IL"},"type":"Feature","geometry":{"type":"Point","coordinates":[-87.938915,42.372915]}},{"properties":{"lon":-87.938915,"city":"Gurnee","zip":"60031","store":"Six Flags Great America - New England Cafe","id":"a6229bbnsc39","lat":42.372915,"address":"542 North Route 21","state":"IL"},"type":"Feature","geometry":{"type":"Point","coordinates":[-87.938915,42.372915]}},{"properties":{"lon":-73.6666617,"city":"Queensbury","zip":"12804","store":"Six Flags Great Escape - Bridge","id":"a6229bj3w22u","lat":43.3270372,"address":"1172 Route 9","state":"NY"},"type":"Feature","geometry":{"type":"Point","coordinates":[-73.6666617,43.3270372]}},{"properties":{"lon":-73.6666617,"city":"Queensbury","zip":"12804","store":"Six Flags Great Escape - Main","id":"a6229bi2bhzn","lat":43.3270372,"address":"1172 Route 9","state":"NY"},"type":"Feature","geometry":{"type":"Point","coordinates":[-73.6666617,43.3270372]}},{"properties":{"lon":-73.6666617,"city":"Queensbury","zip":"12804","store":"Six Flags Great Escape - Waterpark","id":"a6229bl6ac9b","lat":43.3270372,"address":"1172 Route 9","state":"NY"},"type":"Feature","geometry":{"type":"Point","coordinates":[-73.6666617,43.3270372]}},{"properties":{"lon":-118.593088,"city":"Valencia","zip":"91355","store":"Six Flags Magic Mountain - Colossus Cookery","id":"a6229bpahge8","lat":34.423089,"address":"26101 Magic Mountain Parkway","state":"CA"},"type":"Feature","geometry":{"type":"Point","coordinates":[-118.593088,34.423089]}},{"properties":{"lon":-118.593088,"city":"Valencia","zip":"91355","store":"Six Flags Magic Mountain - Food, Etc.","id":"a6229bg22hvn","lat":34.423089,"address":"26101 Magic Mountain Parkway","state":"CA"},"type":"Feature","geometry":{"type":"Point","coordinates":[-118.593088,34.423089]}},{"properties":{"lon":-118.593088,"city":"Valencia","zip":"91355","store":"Six Flags Magic Mountain - Hurricane Harbor","id":"a6229bbkka1x","lat":34.423089,"address":"26101 Magic Mountain Parkway","state":"CA"},"type":"Feature","geometry":{"type":"Point","coordinates":[-118.593088,34.423089]}},{"properties":{"lon":-72.616314,"city":"Agawam","zip":"01001","store":"Six Flags New England - Gotham City","id":"a6229bd6bfes","lat":42.038297,"address":"1623 Main Street","state":"MA"},"type":"Feature","geometry":{"type":"Point","coordinates":[-72.616314,42.038297]}},{"properties":{"lon":-84.557049,"city":"Austell","zip":"30168","store":"Six Flags Over Georgia - French Area","id":"a6229bdp27ik","lat":33.767599,"address":"275 Riverside Parkway SW","state":"GA"},"type":"Feature","geometry":{"type":"Point","coordinates":[-84.557049,33.767599]}},{"properties":{"lon":-84.557049,"city":"Austell","zip":"30168","store":"Six Flags Over Georgia - Front Gate","id":"a6229blq7hz8","lat":33.767599,"address":"275 Riverside Parkway SW","state":"GA"},"type":"Feature","geometry":{"type":"Point","coordinates":[-84.557049,33.767599]}},{"properties":{"lon":-72.616314,"city":"Agawam","zip":"01001","store":"Six Flags of New England - Strawberries &amp; Cream","id":"a6229bn12ry4","lat":42.038297,"address":"1623 Main Street","state":"MA"},"type":"Feature","geometry":{"type":"Point","coordinates":[-72.616314,42.038297]}},{"properties":{"lon":-72.7767638,"city":"Smugglers' Notch","zip":"05464","store":"Smugglers' Notch","id":"a6229bopdbuf","lat":44.5722148,"address":"4323 VT Rte 108 South","state":"VT"},"type":"Feature","geometry":{"type":"Point","coordinates":[-72.7767638,44.5722148]}},{"properties":{"lon":-84.480336,"city":"Springdale","zip":"45246","store":"Springdale 18 Cinema DeLux","id":"a6229baae27r","lat":39.300743,"address":"12064 Springfield Pike","state":"OH"},"type":"Feature","geometry":{"type":"Point","coordinates":[-84.480336,39.300743]}},{"properties":{"lon":-74.0664848,"city":"Staten Island","zip":"10305","store":"Staten Island Boardwalk","id":"a6229bj80uuc","lat":40.590353,"address":"280 Father Capodano Blvd","state":"NY"},"type":"Feature","geometry":{"type":"Point","coordinates":[-74.0664848,40.590353]}},{"properties":{"lon":-84.1044997,"city":"Beavercreek","zip":"45432","store":"The Greene Cinemas De Lux 14","id":"a6229bc379f2","lat":39.6936316,"address":"4489 Glengarry Drive","state":"OH"},"type":"Feature","geometry":{"type":"Point","coordinates":[-84.1044997,39.6936316]}},{"properties":{"lon":-80.621591,"city":"Melbourne","zip":"32901","store":"The Oaks 10 Theater","id":"a6229ba6azwl","lat":28.0832116,"address":"1800 W Hisbiscus Blvd","state":"FL"},"type":"Feature","geometry":{"type":"Point","coordinates":[-80.621591,28.0832116]}},{"properties":{"lon":-115.1711726,"city":"Las Vegas","zip":"89109","store":"Treasure Island @ The Mirage","id":"a6229bny9dvs","lat":36.1240302,"address":"3300 Las Vegas Blvd S","state":"NV"},"type":"Feature","geometry":{"type":"Point","coordinates":[-115.1711726,36.1240302]}},{"properties":{"lon":-118.3517567,"city":"Universal City","zip":"91608","store":"Universal Studios - Louie's","id":"a6229bd42ba9","lat":34.1406281,"address":"100 Universal City Plaza","state":"CA"},"type":"Feature","geometry":{"type":"Point","coordinates":[-118.3517567,34.1406281]}},{"properties":{"lon":-81.474674,"city":"Orlando","zip":"32819","store":"Universal Studios Florida - Coney Island Arcade","id":"a6229bek4zfh","lat":28.477877,"address":"1000 Universal Studios Plaza","state":"FL"},"type":"Feature","geometry":{"type":"Point","coordinates":[-81.474674,28.477877]}},{"properties":{"lon":-81.474674,"city":"Orlando","zip":"32819","store":"Universal Studios Florida - Schwabs","id":"a6229bfqmz2g","lat":28.477877,"address":"1000 Universal Studios Plaza","state":"FL"},"type":"Feature","geometry":{"type":"Point","coordinates":[-81.474674,28.477877]}},{"properties":{"lon":-82.4135887,"city":"Tampa","zip":"33620","store":"University of South Florida","id":"a6229bbo0jew","lat":28.0545925,"address":"4204 East Fowler Ave","state":"FL"},"type":"Feature","geometry":{"type":"Point","coordinates":[-82.4135887,28.0545925]}},{"properties":{"lon":-82.4136143,"city":"Tampa","zip":"33620","store":"University of South Florida - Student Union","id":"a6229bb7yefl","lat":28.0545924,"address":"4202 E Fowler Avenue","state":"FL"},"type":"Feature","geometry":{"type":"Point","coordinates":[-82.4136143,28.0545924]}},{"properties":{"lon":-93.5194444,"city":"Shakopee","zip":"55379","store":"Valleyfair","id":"a6229beyj83p","lat":44.7986111,"address":"One Valleyfair Drive","state":"MN"},"type":"Feature","geometry":{"type":"Point","coordinates":[-93.5194444,44.7986111]}},{"properties":{"lon":-73.842416,"city":"Bronx","zip":"10465","store":"Whitestone Multiplex","id":"a6229bk9yyfc","lat":40.828732,"address":"2505 Bruckner Boulevard","state":"NY"},"type":"Feature","geometry":{"type":"Point","coordinates":[-73.842416,40.828732]}},{"properties":{"lon":-83.189571,"city":"Royal Oak","zip":"48073","store":"William Beaumont Hospital","id":"a6229bf9rogi","lat":42.513756,"address":"3601 W Thirteen Mile Road","state":"MI"},"type":"Feature","geometry":{"type":"Point","coordinates":[-83.189571,42.513756]}}],"is_temporal":false,"author":{"url":"http://www.benjerry.com/scoop-shops/scoop-shop-locator/","metadata":"","contact_name":"","contact_address":"","source":"Ben & Jerry's","contact_phone":""},"source":"http://www.benjerry.com/scoop-shops/scoop-shop-locator/","pagination":{"sort":null,"start":0,"total":342,"limit":1000000},"state":"complete","tags":"dining,food,recreation","published":"2010-07-08T15:23:31Z","id":58199}