{"type":"FeatureCollection","data_type":"Dataset","url_type":null,"permissions":[{"permissions":{"download":true,"view":true},"group_id":"everyone"}],"classification":null,"title":"Steve's Restaurants","count":47,"stream_id":5821,"contributor":{"url":"http://geocommons.com/users/2522","name":"holland141"},"data_attributes":null,"calculation_params":null,"icon_link":null,"link":"http://geocommons.com/overlays/5821.json","extent":[-104.433,0.0,0.0,53.2134],"geometry_types":["point"],"unique_name":null,"name":"Steve's Restaurants","feature_count":47,"description":"","next_feature":null,"is_raster":false,"short_classification":"Y","stats":{"lat":{"max":53.213445,"mean":41.7877987021276,"variance":124.73137034821,"stdev":11.1683199429552,"min":0,"median":42.223247},"long":{"max":0,"mean":-50.1275266595745,"variance":1491.79043323125,"stdev":38.6237029973985,"min":-104.432663,"median":-71.189713}},"features":[{"properties":{"restaurant":"5th Floor Harvey Nics","postcode":"","type":"Modern British","country":"England","town":"London","id":"a6hpdhktjvmy","address":"","lat":39.76486,"london area":"Kensington","long":-99.031824},"type":"Feature","geometry":{"type":"Point","coordinates":[-99.031824,39.76486]}},{"properties":{"restaurant":"Almedia","postcode":"","type":"French","country":"England","town":"London","id":"a6hpdhscd8vf","address":"","lat":42.223247,"london area":"Islington","long":-71.189713},"type":"Feature","geometry":{"type":"Point","coordinates":[-71.189713,42.223247]}},{"properties":{"restaurant":"Ask Pizza","postcode":"","type":"Pizza","country":"England","town":"London","id":"a6hpdhrya1bj","address":"Kew Bridge","lat":51.487019,"london area":"Chiswick","long":-0.28742},"type":"Feature","geometry":{"type":"Point","coordinates":[-0.28742,51.487019]}},{"properties":{"restaurant":"Baltic","postcode":"","type":"Polish","country":"England","town":"London","id":"a6hpdhqtu6we","address":"74 Blackfriers Road","lat":0,"london area":"Southwark","long":0},"type":"Feature","geometry":{"type":"Point","coordinates":[0.0,0.0]}},{"properties":{"restaurant":"Baozi Inn","postcode":"","type":"Sichuan","country":"England","town":"London","id":"a6hpdhyet8ye","address":"25 Newport Street","lat":40.43731,"london area":"Soho","long":-79.982674},"type":"Feature","geometry":{"type":"Point","coordinates":[-79.982674,40.43731]}},{"properties":{"restaurant":"Bar Shu","postcode":"","type":"Sichuan","country":"England","town":"London","id":"a6hpdhou0o2i","address":"28 Frith Street","lat":40.43731,"london area":"Soho","long":-79.982674},"type":"Feature","geometry":{"type":"Point","coordinates":[-79.982674,40.43731]}},{"properties":{"restaurant":"Bleeding Heart Tavern","postcode":"","type":"English","country":"England","town":"London","id":"a6hpdhnmgg6i","address":"19 Greville Street","lat":53.213445,"london area":"Hatton Garden","long":-3.010129},"type":"Feature","geometry":{"type":"Point","coordinates":[-3.010129,53.213445]}},{"properties":{"restaurant":"Cafe Pacifico","postcode":"","type":"Mexican","country":"England","town":"London","id":"a6hpdhx0aqq8","address":"5 Langley Street","lat":51.51298,"london area":"Covent Garden","long":-0.124792},"type":"Feature","geometry":{"type":"Point","coordinates":[-0.124792,51.51298]}},{"properties":{"restaurant":"Cafe Rouge","postcode":"","type":"French","country":"England","town":"London","id":"a6hpdhrjw1if","address":"","lat":51.48944,"london area":"Chiswick","long":-0.261939},"type":"Feature","geometry":{"type":"Point","coordinates":[-0.261939,51.48944]}},{"properties":{"restaurant":"Cote","postcode":"W1F 0TY","type":"French","country":"England","town":"London","id":"a6hpdhqzldws","address":"124 Wardour Stree","lat":51.514172,"london area":"Soho","long":-0.13434},"type":"Feature","geometry":{"type":"Point","coordinates":[-0.13434,51.514172]}},{"properties":{"restaurant":"Fifty Six","postcode":"","type":"French","country":"England","town":"London","id":"a6hpdhrq3pbc","address":"56 Newington Green","lat":41.697016,"london area":"Stoke Newington","long":-72.731201},"type":"Feature","geometry":{"type":"Point","coordinates":[-72.731201,41.697016]}},{"properties":{"restaurant":"Gallipoli II","postcode":"","type":"Turkish","country":"England","town":"London","id":"a6hpdhwjogtw","address":"Upper Street","lat":42.223247,"london area":"Islington","long":-71.189713},"type":"Feature","geometry":{"type":"Point","coordinates":[-71.189713,42.223247]}},{"properties":{"restaurant":"Gopal's Of Soho","postcode":"","type":"Indian","country":"England","town":"London","id":"a6hpdhnsy540","address":"12 Bateman Street","lat":40.43731,"london area":"Soho","long":-79.982674},"type":"Feature","geometry":{"type":"Point","coordinates":[-79.982674,40.43731]}},{"properties":{"restaurant":"Grills and Martinis","postcode":"","type":"Modern British","country":"England","town":"London","id":"a6hpdhzcbce9","address":"2 Exmouth Market","lat":42.223247,"london area":"Islington","long":-71.189713},"type":"Feature","geometry":{"type":"Point","coordinates":[-71.189713,42.223247]}},{"properties":{"restaurant":"Huong Viet","postcode":"","type":"Vietnamese","country":"England","town":"London","id":"a6hpdhw81b23","address":"12 Englefield Road","lat":40.031653,"london area":"Hackney","long":-80.218781},"type":"Feature","geometry":{"type":"Point","coordinates":[-80.218781,40.031653]}},{"properties":{"restaurant":"Huong Viet","postcode":"","type":"Vietnamese","country":"England","town":"London","id":"a6hpdhxkutv6","address":"12 Englefield Road","lat":40.031653,"london area":"Hackney","long":-80.218781},"type":"Feature","geometry":{"type":"Point","coordinates":[-80.218781,40.031653]}},{"properties":{"restaurant":"Huong Viet","postcode":"","type":"Vietnamese","country":"England","town":"London","id":"a6hpdhlo2cxd","address":"12 Englefield Road","lat":40.031653,"london area":"Hackney","long":-80.218781},"type":"Feature","geometry":{"type":"Point","coordinates":[-80.218781,40.031653]}},{"properties":{"restaurant":"Khas Tandoori","postcode":"N1 4QT","type":"Indian","country":"England","town":"London","id":"a6hpdhzvab1q","address":"41 Newington Green Road","lat":51.548,"london area":"Stoke Newington","long":-0.08724},"type":"Feature","geometry":{"type":"Point","coordinates":[-0.08724,51.548]}},{"properties":{"restaurant":"Kiplings","postcode":"","type":"Indian","country":"England","town":"London","id":"a6hpdhldeids","address":"","lat":44.938419,"london area":"Highgate","long":-73.047377},"type":"Feature","geometry":{"type":"Point","coordinates":[-73.047377,44.938419]}},{"properties":{"restaurant":"Konstam","postcode":"","type":"British","country":"England","town":"London","id":"a6hpdhn0hkho","address":"","lat":35.638101,"london area":"Kings Cross","long":-77.551697},"type":"Feature","geometry":{"type":"Point","coordinates":[-77.551697,35.638101]}},{"properties":{"restaurant":"Le Petite Auberge","postcode":"","type":"French","country":"England","town":"London","id":"a6hpdhunitjx","address":"Upper Street","lat":42.223247,"london area":"Islington","long":-71.189713},"type":"Feature","geometry":{"type":"Point","coordinates":[-71.189713,42.223247]}},{"properties":{"restaurant":"Mandalay","postcode":"W2 1EG","type":"Burmese","country":"England","town":"London","id":"a6hpdhwyxjn0","address":"444 Edgeware Road","lat":51.522869,"london area":"Edgeware Road","long":-0.17405},"type":"Feature","geometry":{"type":"Point","coordinates":[-0.17405,51.522869]}},{"properties":{"restaurant":"Mayflower","postcode":"","type":"Chinese","country":"England","town":"London","id":"a6hpdhzsegdz","address":"Shaftsberry Avenue","lat":35.236915,"london area":"West End","long":-79.567994},"type":"Feature","geometry":{"type":"Point","coordinates":[-79.567994,35.236915]}},{"properties":{"restaurant":"Melati","postcode":"","type":"Malaysian","country":"England","town":"London","id":"a6hpdhshsjkg","address":"21 Great Windmill Street","lat":40.43731,"london area":"Soho","long":-79.982674},"type":"Feature","geometry":{"type":"Point","coordinates":[-79.982674,40.43731]}},{"properties":{"restaurant":"Meson Los Barriles","postcode":"","type":"Tapas","country":"England","town":"London","id":"a6hpdhy7aef3","address":"Lamb Street","lat":34.068851,"london area":"Shorditch","long":-102.3507},"type":"Feature","geometry":{"type":"Point","coordinates":[-102.3507,34.068851]}},{"properties":{"restaurant":"Morgan M","postcode":"","type":"French","country":"England","town":"London","id":"a6hpdhlyp7fi","address":"489 Liverpool Road","lat":19.53828,"london area":"Holloway","long":-104.432663},"type":"Feature","geometry":{"type":"Point","coordinates":[-104.432663,19.53828]}},{"properties":{"restaurant":"Oxo Tower","postcode":"","type":"European","country":"England","town":"London","id":"a6hpdhma90sw","address":"Barge House Street","lat":0,"london area":"Southwark","long":0},"type":"Feature","geometry":{"type":"Point","coordinates":[0.0,0.0]}},{"properties":{"restaurant":"Parveen Tandoori","postcode":"","type":"Indian","country":"England","town":"London","id":"a6hpdhpfz5sb","address":"","lat":42.223247,"london area":"Islington","long":-71.189713},"type":"Feature","geometry":{"type":"Point","coordinates":[-71.189713,42.223247]}},{"properties":{"restaurant":"Ping Pong","postcode":"","type":"Chinese","country":"England","town":"London","id":"a6hpdhwk5b3v","address":"South Bank","lat":35.236915,"london area":"West End","long":-79.567994},"type":"Feature","geometry":{"type":"Point","coordinates":[-79.567994,35.236915]}},{"properties":{"restaurant":"Pizza Express","postcode":"","type":"Pizza","country":"England","town":"London","id":"a6hpdhveng7u","address":"Upper Street","lat":42.223247,"london area":"Islington","long":-71.189713},"type":"Feature","geometry":{"type":"Point","coordinates":[-71.189713,42.223247]}},{"properties":{"restaurant":"Pizza Express","postcode":"","type":"Pizza","country":"England","town":"London","id":"a6hpdhwo6fys","address":"Upper Street","lat":42.223247,"london area":"Islington","long":-71.189713},"type":"Feature","geometry":{"type":"Point","coordinates":[-71.189713,42.223247]}},{"properties":{"restaurant":"Puji Puji","postcode":"","type":"Malaysian","country":"England","town":"London","id":"a6hpdhsonbgc","address":"","lat":42.223247,"london area":"Islington","long":-71.189713},"type":"Feature","geometry":{"type":"Point","coordinates":[-71.189713,42.223247]}},{"properties":{"restaurant":"Puji Puji","postcode":"","type":"Malaysian","country":"England","town":"London","id":"a6hpdhvjc5te","address":"","lat":42.223247,"london area":"Islington","long":-71.189713},"type":"Feature","geometry":{"type":"Point","coordinates":[-71.189713,42.223247]}},{"properties":{"restaurant":"Rasa Travancore","postcode":"","type":"Indian","country":"England","town":"London","id":"a6hpdhozb8wp","address":"55 Stoke Newington Church Street","lat":51.562041,"london area":"Stoke Newington","long":-0.076253},"type":"Feature","geometry":{"type":"Point","coordinates":[-0.076253,51.562041]}},{"properties":{"restaurant":"Snazz Sichuan","postcode":"","type":"Sichuan","country":"England","town":"London","id":"a6hpdhwf39m7","address":"37 Charlton Street","lat":33.296258,"london area":"Kings Cross","long":-80.16334},"type":"Feature","geometry":{"type":"Point","coordinates":[-80.16334,33.296258]}},{"properties":{"restaurant":"Snazz Sichuan","postcode":"Nw1 1JD","type":"Sichuan","country":"England","town":"London","id":"a6hpdhykdy5i","address":"37 Charlton Street","lat":51.53258,"london area":"Kings Cross","long":-0.127944},"type":"Feature","geometry":{"type":"Point","coordinates":[-0.127944,51.53258]}},{"properties":{"restaurant":"Strand Tandoori","postcode":"WC2 9HA","type":"Indian","country":"England","town":"London","id":"a6hpdhrqsosq","address":"45 Bedford Street","lat":51.510129,"london area":"Covent Garden","long":-0.123605},"type":"Feature","geometry":{"type":"Point","coordinates":[-0.123605,51.510129]}},{"properties":{"restaurant":"Thai Pot","postcode":"","type":"Thai","country":"England","town":"London","id":"a6hpdhnl953a","address":"","lat":51.51532,"london area":"Covent Garden","long":-0.126944},"type":"Feature","geometry":{"type":"Point","coordinates":[-0.126944,51.51532]}},{"properties":{"restaurant":"The Empress of India","postcode":"","type":"Modern British","country":"England","town":"London","id":"a6hpdhra7gv6","address":"103 Lauriston Road","lat":40.031653,"london area":"Hackney","long":-80.218781},"type":"Feature","geometry":{"type":"Point","coordinates":[-80.218781,40.031653]}},{"properties":{"restaurant":"The Marquess Tavern","postcode":"","type":"Pub Food","country":"England","town":"London","id":"a6hpdhmkjn7n","address":"32 Canonbury Street","lat":51.532795,"london area":"Islington","long":-0.106149},"type":"Feature","geometry":{"type":"Point","coordinates":[-0.106149,51.532795]}},{"properties":{"restaurant":"The Northgate","postcode":"","type":"Modern British","country":"England","town":"London","id":"a6hpdhwxwzo2","address":"","lat":42.223247,"london area":"Islington","long":-71.189713},"type":"Feature","geometry":{"type":"Point","coordinates":[-71.189713,42.223247]}},{"properties":{"restaurant":"The Scolt Head","postcode":"","type":"Pub Food","country":"England","town":"London","id":"a6hpdhy3us1x","address":"107 Culford Road","lat":42.223247,"london area":"Islington","long":-71.189713},"type":"Feature","geometry":{"type":"Point","coordinates":[-71.189713,42.223247]}},{"properties":{"restaurant":"The Well","postcode":"","type":"Modern British","country":"England","town":"London","id":"a6hpdhl0mtv9","address":"180 St John STreet","lat":41.449928,"london area":"Shorditch","long":-87.469009},"type":"Feature","geometry":{"type":"Point","coordinates":[-87.469009,41.449928]}},{"properties":{"restaurant":"Wahaca","postcode":"","type":"Mexican","country":"England","town":"London","id":"a6hpdhscllsq","address":"","lat":51.51532,"london area":"Covent Garden","long":-0.126944},"type":"Feature","geometry":{"type":"Point","coordinates":[-0.126944,51.51532]}},{"properties":{"restaurant":"Wahaca","postcode":"","type":"Mexican","country":"England","town":"London","id":"a6hpdhwxxxqv","address":"","lat":51.51532,"london area":"Covent Garden","long":-0.126944},"type":"Feature","geometry":{"type":"Point","coordinates":[-0.126944,51.51532]}},{"properties":{"restaurant":"Winchmore Tandoori","postcode":"","type":"Indian","country":"England","town":"London","id":"a6hpdhwjjti7","address":"13 Wades Hill","lat":51.63475,"london area":"Winchmore Hill","long":-0.102885},"type":"Feature","geometry":{"type":"Point","coordinates":[-0.102885,51.63475]}},{"properties":{"restaurant":"Yo Sushi","postcode":"","type":"Japanese","country":"England","town":"London","id":"a6hpdhuytmh3","address":"Crappy Shopping Precinct","lat":42.223247,"london area":"Islington","long":-71.189713},"type":"Feature","geometry":{"type":"Point","coordinates":[-71.189713,42.223247]}}],"is_temporal":false,"author":{"url":"","metadata":"","contact_name":"","contact_address":"","source":"","contact_phone":""},"source":"","pagination":{"sort":null,"start":0,"total":47,"limit":1000000},"state":"complete","tags":"","published":"2014-08-11T06:28:46-04:00","id":5821}