{"type":"FeatureCollection","data_type":"Dataset","url_type":null,"permissions":[{"permissions":{"download":true,"view":true},"group_id":"everyone"}],"classification":null,"title":"zip3","count":205,"stream_id":58218,"contributor":{"url":"http://geocommons.com/users/14638","name":"rbhangare"},"data_attributes":null,"calculation_params":null,"icon_link":null,"link":"http://geocommons.com/overlays/58218.json","extent":[-122.421,32.7673,-74.3626,44.3881],"geometry_types":["point"],"unique_name":null,"name":"zip3","feature_count":205,"description":"","next_feature":null,"is_raster":false,"short_classification":"Y","stats":{"geo_score":{"max":1.0,"mean":0.9838,"variance":0.0017230137254902,"stdev":0.041509200492062,"min":0.857,"median":1.0}},"features":[{"properties":{"city":"Albion","geo_score":0.878,"zip code":"49224","id":"a6ccqkcbkhwe","geo_precision":"zip","state":"MI"},"type":"Feature","geometry":{"type":"Point","coordinates":[-84.84859,42.27143]}},{"properties":{"city":"Alliance","geo_score":0.905,"zip code":"44601","id":"a6ccqkhyz0x4","geo_precision":"zip","state":"OH"},"type":"Feature","geometry":{"type":"Point","coordinates":[-81.249549,40.984502]}},{"properties":{"city":"Arlington Heights","geo_score":1.0,"zip code":"60004","id":"a6ccqkeqbnag","geo_precision":"zip","state":"IL"},"type":"Feature","geometry":{"type":"Point","coordinates":[-87.99822,42.085626]}},{"properties":{"city":"Aurora","geo_score":0.857,"zip code":"60502","id":"a6ccqk5hm4bs","geo_precision":"city","state":"IL"},"type":"Feature","geometry":{"type":"Point","coordinates":[-88.136616,41.768399]}},{"properties":{"city":"Aurora","geo_score":1.0,"zip code":"60504","id":"a6ccqk5xa0v0","geo_precision":"zip","state":"IL"},"type":"Feature","geometry":{"type":"Point","coordinates":[-88.136616,41.768399]}},{"properties":{"city":"Aurora","geo_score":0.857,"zip code":"60502","id":"a6ccqkc7sc1j","geo_precision":"city","state":"IL"},"type":"Feature","geometry":{"type":"Point","coordinates":[-88.136616,41.768399]}},{"properties":{"city":"Aurora","geo_score":0.857,"zip code":"60502","id":"a6ccqk7a05iy","geo_precision":"city","state":"IL"},"type":"Feature","geometry":{"type":"Point","coordinates":[-88.136616,41.768399]}},{"properties":{"city":"Burr Ridge","geo_score":0.873,"zip code":"60527","id":"a6ccqk93o64i","geo_precision":"zip","state":"IL"},"type":"Feature","geometry":{"type":"Point","coordinates":[-88.088716,41.839679]}},{"properties":{"city":"CHICAGO","geo_score":1.0,"zip code":"60657","id":"a6ccqk4g1lz8","geo_precision":"zip","state":"IL"},"type":"Feature","geometry":{"type":"Point","coordinates":[-87.68732,41.811929]}},{"properties":{"city":"Cedar Rapids","geo_score":1.0,"zip code":"52405","id":"a6ccqk6ci2yg","geo_precision":"zip","state":"IA"},"type":"Feature","geometry":{"type":"Point","coordinates":[-91.753326,41.987067]}},{"properties":{"city":"Cedar Rapids","geo_score":1.0,"zip code":"52403","id":"a6ccqk6iiquo","geo_precision":"zip","state":"IA"},"type":"Feature","geometry":{"type":"Point","coordinates":[-91.58127,41.972936]}},{"properties":{"city":"Cedar Rapids","geo_score":1.0,"zip code":"52405","id":"a6ccqkbjfitj","geo_precision":"zip","state":"IA"},"type":"Feature","geometry":{"type":"Point","coordinates":[-91.753326,41.987067]}},{"properties":{"city":"Champaign","geo_score":0.879,"zip code":"61820","id":"a6ccqk656kdf","geo_precision":"zip","state":"IL"},"type":"Feature","geometry":{"type":"Point","coordinates":[-88.235605,40.142532]}},{"properties":{"city":"Chicago","geo_score":1.0,"zip code":"60614","id":"a6ccqkg17hbq","geo_precision":"zip","state":"IL"},"type":"Feature","geometry":{"type":"Point","coordinates":[-87.68732,41.811929]}},{"properties":{"city":"Chicago","geo_score":1.0,"zip code":"60614","id":"a6ccqk5oz9gb","geo_precision":"zip","state":"IL"},"type":"Feature","geometry":{"type":"Point","coordinates":[-87.68732,41.811929]}},{"properties":{"city":"Chicago","geo_score":1.0,"zip code":"60614","id":"a6ccqk6gs7kl","geo_precision":"zip","state":"IL"},"type":"Feature","geometry":{"type":"Point","coordinates":[-87.68732,41.811929]}},{"properties":{"city":"Chicago","geo_score":1.0,"zip code":"60640","id":"a6ccqkhonspa","geo_precision":"zip","state":"IL"},"type":"Feature","geometry":{"type":"Point","coordinates":[-87.68732,41.811929]}},{"properties":{"city":"Chicago","geo_score":1.0,"zip code":"60657","id":"a6ccqkfvibvd","geo_precision":"zip","state":"IL"},"type":"Feature","geometry":{"type":"Point","coordinates":[-87.68732,41.811929]}},{"properties":{"city":"Chicago","geo_score":1.0,"zip code":"60614","id":"a6ccqk5c4w6g","geo_precision":"zip","state":"IL"},"type":"Feature","geometry":{"type":"Point","coordinates":[-87.68732,41.811929]}},{"properties":{"city":"Chicago","geo_score":1.0,"zip code":"60657","id":"a6ccqk9wy0uh","geo_precision":"zip","state":"IL"},"type":"Feature","geometry":{"type":"Point","coordinates":[-87.68732,41.811929]}},{"properties":{"city":"Chicago","geo_score":1.0,"zip code":"60657","id":"a6ccqkbkc1yf","geo_precision":"zip","state":"IL"},"type":"Feature","geometry":{"type":"Point","coordinates":[-87.68732,41.811929]}},{"properties":{"city":"Chicago","geo_score":1.0,"zip code":"60647","id":"a6ccqkcuy680","geo_precision":"zip","state":"IL"},"type":"Feature","geometry":{"type":"Point","coordinates":[-87.68732,41.811929]}},{"properties":{"city":"Chicago","geo_score":1.0,"zip code":"60622","id":"a6ccqk76jjb1","geo_precision":"zip","state":"IL"},"type":"Feature","geometry":{"type":"Point","coordinates":[-87.68732,41.811929]}},{"properties":{"city":"Chicago","geo_score":1.0,"zip code":"60657","id":"a6ccqka8nrr2","geo_precision":"zip","state":"IL"},"type":"Feature","geometry":{"type":"Point","coordinates":[-87.68732,41.811929]}},{"properties":{"city":"Chicago","geo_score":1.0,"zip code":"60614","id":"a6ccqkeuojqo","geo_precision":"zip","state":"IL"},"type":"Feature","geometry":{"type":"Point","coordinates":[-87.68732,41.811929]}},{"properties":{"city":"Chicago","geo_score":1.0,"zip code":"60610","id":"a6ccqkb43k6y","geo_precision":"zip","state":"IL"},"type":"Feature","geometry":{"type":"Point","coordinates":[-87.68732,41.811929]}},{"properties":{"city":"Chicago","geo_score":1.0,"zip code":"60641","id":"a6ccqk958ox9","geo_precision":"zip","state":"IL"},"type":"Feature","geometry":{"type":"Point","coordinates":[-87.68732,41.811929]}},{"properties":{"city":"Chicago","geo_score":1.0,"zip code":"60640","id":"a6ccqkhx7h3x","geo_precision":"zip","state":"IL"},"type":"Feature","geometry":{"type":"Point","coordinates":[-87.68732,41.811929]}},{"properties":{"city":"Chicago","geo_score":1.0,"zip code":"60637","id":"a6ccqkfuej90","geo_precision":"zip","state":"IL"},"type":"Feature","geometry":{"type":"Point","coordinates":[-87.68732,41.811929]}},{"properties":{"city":"Chicago","geo_score":1.0,"zip code":"60657","id":"a6ccqk3e6qyi","geo_precision":"zip","state":"IL"},"type":"Feature","geometry":{"type":"Point","coordinates":[-87.68732,41.811929]}},{"properties":{"city":"Chicago","geo_score":1.0,"zip code":"60614","id":"a6ccqk6lkswd","geo_precision":"zip","state":"IL"},"type":"Feature","geometry":{"type":"Point","coordinates":[-87.68732,41.811929]}},{"properties":{"city":"Chicago","geo_score":1.0,"zip code":"60657","id":"a6ccqkeeios2","geo_precision":"zip","state":"IL"},"type":"Feature","geometry":{"type":"Point","coordinates":[-87.68732,41.811929]}},{"properties":{"city":"Chicago","geo_score":1.0,"zip code":"60657","id":"a6ccqk4r2ers","geo_precision":"zip","state":"IL"},"type":"Feature","geometry":{"type":"Point","coordinates":[-87.68732,41.811929]}},{"properties":{"city":"Chicago","geo_score":1.0,"zip code":"60614","id":"a6ccqkeo3u1p","geo_precision":"zip","state":"IL"},"type":"Feature","geometry":{"type":"Point","coordinates":[-87.68732,41.811929]}},{"properties":{"city":"Chicago","geo_score":1.0,"zip code":"60657","id":"a6ccqki4mhi2","geo_precision":"zip","state":"IL"},"type":"Feature","geometry":{"type":"Point","coordinates":[-87.68732,41.811929]}},{"properties":{"city":"Chicago","geo_score":1.0,"zip code":"60613","id":"a6ccqk4gdo45","geo_precision":"zip","state":"IL"},"type":"Feature","geometry":{"type":"Point","coordinates":[-87.68732,41.811929]}},{"properties":{"city":"Chicago","geo_score":1.0,"zip code":"60613","id":"a6ccqkiaxxv2","geo_precision":"zip","state":"IL"},"type":"Feature","geometry":{"type":"Point","coordinates":[-87.68732,41.811929]}},{"properties":{"city":"Chicago","geo_score":1.0,"zip code":"60624","id":"a6ccqka7yjpo","geo_precision":"zip","state":"IL"},"type":"Feature","geometry":{"type":"Point","coordinates":[-87.68732,41.811929]}},{"properties":{"city":"Chicago","geo_score":1.0,"zip code":"60657","id":"a6ccqk7dmn7v","geo_precision":"zip","state":"IL"},"type":"Feature","geometry":{"type":"Point","coordinates":[-87.68732,41.811929]}},{"properties":{"city":"Chicago","geo_score":1.0,"zip code":"60654","id":"a6ccqk8y7klg","geo_precision":"zip","state":"IL"},"type":"Feature","geometry":{"type":"Point","coordinates":[-87.68732,41.811929]}},{"properties":{"city":"Chicago","geo_score":1.0,"zip code":"60613","id":"a6ccqkda0cm2","geo_precision":"zip","state":"IL"},"type":"Feature","geometry":{"type":"Point","coordinates":[-87.68732,41.811929]}},{"properties":{"city":"Chicago","geo_score":1.0,"zip code":"60630","id":"a6ccqkdlgt07","geo_precision":"zip","state":"IL"},"type":"Feature","geometry":{"type":"Point","coordinates":[-87.68732,41.811929]}},{"properties":{"city":"Chicago","geo_score":1.0,"zip code":"60614","id":"a6ccqka7peh6","geo_precision":"zip","state":"IL"},"type":"Feature","geometry":{"type":"Point","coordinates":[-87.68732,41.811929]}},{"properties":{"city":"Chicago","geo_score":1.0,"zip code":"60614","id":"a6ccqk7dmfzo","geo_precision":"zip","state":"IL"},"type":"Feature","geometry":{"type":"Point","coordinates":[-87.68732,41.811929]}},{"properties":{"city":"Chicago","geo_score":1.0,"zip code":"60642","id":"a6ccqkd0z73j","geo_precision":"zip","state":"IL"},"type":"Feature","geometry":{"type":"Point","coordinates":[-87.650052,41.850033]}},{"properties":{"city":"Chicago","geo_score":1.0,"zip code":"60657","id":"a6ccqkdv9eoy","geo_precision":"zip","state":"IL"},"type":"Feature","geometry":{"type":"Point","coordinates":[-87.68732,41.811929]}},{"properties":{"city":"Chicago","geo_score":1.0,"zip code":"60614","id":"a6ccqk8cw432","geo_precision":"zip","state":"IL"},"type":"Feature","geometry":{"type":"Point","coordinates":[-87.68732,41.811929]}},{"properties":{"city":"Chicago","geo_score":1.0,"zip code":"60614","id":"a6ccqkdmsur8","geo_precision":"zip","state":"IL"},"type":"Feature","geometry":{"type":"Point","coordinates":[-87.68732,41.811929]}},{"properties":{"city":"Chicago","geo_score":1.0,"zip code":"60642","id":"a6ccqk7m69ul","geo_precision":"zip","state":"IL"},"type":"Feature","geometry":{"type":"Point","coordinates":[-87.650052,41.850033]}},{"properties":{"city":"Chicago","geo_score":1.0,"zip code":"60610","id":"a6ccqk9boce3","geo_precision":"zip","state":"IL"},"type":"Feature","geometry":{"type":"Point","coordinates":[-87.68732,41.811929]}},{"properties":{"city":"Chicago","geo_score":1.0,"zip code":"60657","id":"a6ccqkau189r","geo_precision":"zip","state":"IL"},"type":"Feature","geometry":{"type":"Point","coordinates":[-87.68732,41.811929]}},{"properties":{"city":"Chicago","geo_score":1.0,"zip code":"60605","id":"a6ccqk7e7zkq","geo_precision":"zip","state":"IL"},"type":"Feature","geometry":{"type":"Point","coordinates":[-87.68732,41.811929]}},{"properties":{"city":"Chicago","geo_score":1.0,"zip code":"60610","id":"a6ccqkerwoy2","geo_precision":"zip","state":"IL"},"type":"Feature","geometry":{"type":"Point","coordinates":[-87.68732,41.811929]}},{"properties":{"city":"Chicago","geo_score":1.0,"zip code":"60646","id":"a6ccqk6tg8lc","geo_precision":"zip","state":"IL"},"type":"Feature","geometry":{"type":"Point","coordinates":[-87.75901,42.00663]}},{"properties":{"city":"Chicago","geo_score":1.0,"zip code":"60613","id":"a6ccqk5d6696","geo_precision":"zip","state":"IL"},"type":"Feature","geometry":{"type":"Point","coordinates":[-87.68732,41.811929]}},{"properties":{"city":"Chicago","geo_score":1.0,"zip code":"60614","id":"a6ccqk6mslrd","geo_precision":"zip","state":"IL"},"type":"Feature","geometry":{"type":"Point","coordinates":[-87.68732,41.811929]}},{"properties":{"city":"Chicago","geo_score":1.0,"zip code":"60614","id":"a6ccqkhma2ez","geo_precision":"zip","state":"IL"},"type":"Feature","geometry":{"type":"Point","coordinates":[-87.68732,41.811929]}},{"properties":{"city":"Chicago","geo_score":1.0,"zip code":"60614","id":"a6ccqkimq10v","geo_precision":"zip","state":"IL"},"type":"Feature","geometry":{"type":"Point","coordinates":[-87.68732,41.811929]}},{"properties":{"city":"Chicago","geo_score":1.0,"zip code":"60614","id":"a6ccqk9sp55h","geo_precision":"zip","state":"IL"},"type":"Feature","geometry":{"type":"Point","coordinates":[-87.68732,41.811929]}},{"properties":{"city":"Chicago","geo_score":1.0,"zip code":"60642","id":"a6ccqk87l3mv","geo_precision":"zip","state":"IL"},"type":"Feature","geometry":{"type":"Point","coordinates":[-87.650052,41.850033]}},{"properties":{"city":"Chicago","geo_score":1.0,"zip code":"60614","id":"a6ccqkc0dttb","geo_precision":"zip","state":"IL"},"type":"Feature","geometry":{"type":"Point","coordinates":[-87.68732,41.811929]}},{"properties":{"city":"Chicago","geo_score":1.0,"zip code":"60610","id":"a6ccqke8xf2d","geo_precision":"zip","state":"IL"},"type":"Feature","geometry":{"type":"Point","coordinates":[-87.68732,41.811929]}},{"properties":{"city":"Chicago","geo_score":1.0,"zip code":"60657","id":"a6ccqk5nv83p","geo_precision":"zip","state":"IL"},"type":"Feature","geometry":{"type":"Point","coordinates":[-87.68732,41.811929]}},{"properties":{"city":"Chicago","geo_score":1.0,"zip code":"60614","id":"a6ccqkeh2rav","geo_precision":"zip","state":"IL"},"type":"Feature","geometry":{"type":"Point","coordinates":[-87.68732,41.811929]}},{"properties":{"city":"Chicago","geo_score":1.0,"zip code":"60657","id":"a6ccqkha5bei","geo_precision":"zip","state":"IL"},"type":"Feature","geometry":{"type":"Point","coordinates":[-87.68732,41.811929]}},{"properties":{"city":"Chicago","geo_score":1.0,"zip code":"60625","id":"a6ccqkc7r4rb","geo_precision":"zip","state":"IL"},"type":"Feature","geometry":{"type":"Point","coordinates":[-87.68732,41.811929]}},{"properties":{"city":"Chicago","geo_score":1.0,"zip code":"60614","id":"a6ccqkhmg4oi","geo_precision":"zip","state":"IL"},"type":"Feature","geometry":{"type":"Point","coordinates":[-87.68732,41.811929]}},{"properties":{"city":"Chicago","geo_score":1.0,"zip code":"60657","id":"a6ccqk8gr0k4","geo_precision":"zip","state":"IL"},"type":"Feature","geometry":{"type":"Point","coordinates":[-87.68732,41.811929]}},{"properties":{"city":"Chicago","geo_score":1.0,"zip code":"60639","id":"a6ccqk8hyoal","geo_precision":"zip","state":"IL"},"type":"Feature","geometry":{"type":"Point","coordinates":[-87.68732,41.811929]}},{"properties":{"city":"Chicago","geo_score":1.0,"zip code":"60642","id":"a6ccqk82cysp","geo_precision":"zip","state":"IL"},"type":"Feature","geometry":{"type":"Point","coordinates":[-87.650052,41.850033]}},{"properties":{"city":"Chicago","geo_score":1.0,"zip code":"60614","id":"a6ccqkdu8m6n","geo_precision":"zip","state":"IL"},"type":"Feature","geometry":{"type":"Point","coordinates":[-87.68732,41.811929]}},{"properties":{"city":"Chicago","geo_score":1.0,"zip code":"60640","id":"a6ccqkfmohql","geo_precision":"zip","state":"IL"},"type":"Feature","geometry":{"type":"Point","coordinates":[-87.68732,41.811929]}},{"properties":{"city":"Chicago","geo_score":1.0,"zip code":"60614","id":"a6ccqk4jk3bp","geo_precision":"zip","state":"IL"},"type":"Feature","geometry":{"type":"Point","coordinates":[-87.68732,41.811929]}},{"properties":{"city":"Chicago","geo_score":1.0,"zip code":"60614","id":"a6ccqkcmhu5o","geo_precision":"zip","state":"IL"},"type":"Feature","geometry":{"type":"Point","coordinates":[-87.68732,41.811929]}},{"properties":{"city":"Chicago","geo_score":1.0,"zip code":"60657","id":"a6ccqkgd67xy","geo_precision":"zip","state":"IL"},"type":"Feature","geometry":{"type":"Point","coordinates":[-87.68732,41.811929]}},{"properties":{"city":"Chicago","geo_score":1.0,"zip code":"60610","id":"a6ccqk5gittk","geo_precision":"zip","state":"IL"},"type":"Feature","geometry":{"type":"Point","coordinates":[-87.68732,41.811929]}},{"properties":{"city":"Chicago","geo_score":1.0,"zip code":"60657","id":"a6ccqk7autti","geo_precision":"zip","state":"IL"},"type":"Feature","geometry":{"type":"Point","coordinates":[-87.68732,41.811929]}},{"properties":{"city":"Chicago","geo_score":1.0,"zip code":"60614","id":"a6ccqkhj5h04","geo_precision":"zip","state":"IL"},"type":"Feature","geometry":{"type":"Point","coordinates":[-87.68732,41.811929]}},{"properties":{"city":"Chicago","geo_score":1.0,"zip code":"60614","id":"a6ccqkhjfscw","geo_precision":"zip","state":"IL"},"type":"Feature","geometry":{"type":"Point","coordinates":[-87.68732,41.811929]}},{"properties":{"city":"Chicago","geo_score":1.0,"zip code":"60614","id":"a6ccqk4spnd2","geo_precision":"zip","state":"IL"},"type":"Feature","geometry":{"type":"Point","coordinates":[-87.68732,41.811929]}},{"properties":{"city":"Chicago","geo_score":1.0,"zip code":"60661","id":"a6ccqkgqcspx","geo_precision":"zip","state":"IL"},"type":"Feature","geometry":{"type":"Point","coordinates":[-87.68732,41.811929]}},{"properties":{"city":"Chicago","geo_score":1.0,"zip code":"60613","id":"a6ccqkfrc6xj","geo_precision":"zip","state":"IL"},"type":"Feature","geometry":{"type":"Point","coordinates":[-87.68732,41.811929]}},{"properties":{"city":"Chicago","geo_score":1.0,"zip code":"60657","id":"a6ccqk2qt7ph","geo_precision":"zip","state":"IL"},"type":"Feature","geometry":{"type":"Point","coordinates":[-87.68732,41.811929]}},{"properties":{"city":"Chicago","geo_score":1.0,"zip code":"60611","id":"a6ccqk4h9zku","geo_precision":"zip","state":"IL"},"type":"Feature","geometry":{"type":"Point","coordinates":[-87.68732,41.811929]}},{"properties":{"city":"Chicago","geo_score":1.0,"zip code":"60614","id":"a6ccqk79kg2o","geo_precision":"zip","state":"IL"},"type":"Feature","geometry":{"type":"Point","coordinates":[-87.68732,41.811929]}},{"properties":{"city":"Chicago","geo_score":0.883,"zip code":"60643","id":"a6ccqk9vfdg6","geo_precision":"zip","state":"IL"},"type":"Feature","geometry":{"type":"Point","coordinates":[-87.660604,41.662812]}},{"properties":{"city":"Chicago","geo_score":1.0,"zip code":"60605","id":"a6ccqkhre8di","geo_precision":"zip","state":"IL"},"type":"Feature","geometry":{"type":"Point","coordinates":[-87.68732,41.811929]}},{"properties":{"city":"Chicago","geo_score":1.0,"zip code":"60657","id":"a6ccqk9ik2mc","geo_precision":"zip","state":"IL"},"type":"Feature","geometry":{"type":"Point","coordinates":[-87.68732,41.811929]}},{"properties":{"city":"Chicago","geo_score":1.0,"zip code":"60614","id":"a6ccqkcn2lsl","geo_precision":"zip","state":"IL"},"type":"Feature","geometry":{"type":"Point","coordinates":[-87.68732,41.811929]}},{"properties":{"city":"Chicago","geo_score":1.0,"zip code":"60601","id":"a6ccqk6b9qn7","geo_precision":"zip","state":"IL"},"type":"Feature","geometry":{"type":"Point","coordinates":[-87.68732,41.811929]}},{"properties":{"city":"Chicago","geo_score":1.0,"zip code":"60622","id":"a6ccqkfk0qib","geo_precision":"zip","state":"IL"},"type":"Feature","geometry":{"type":"Point","coordinates":[-87.68732,41.811929]}},{"properties":{"city":"Chicago","geo_score":1.0,"zip code":"60640","id":"a6ccqkhp59lc","geo_precision":"zip","state":"IL"},"type":"Feature","geometry":{"type":"Point","coordinates":[-87.68732,41.811929]}},{"properties":{"city":"Chicago","geo_score":1.0,"zip code":"60622","id":"a6ccqk6htm6z","geo_precision":"zip","state":"IL"},"type":"Feature","geometry":{"type":"Point","coordinates":[-87.68732,41.811929]}},{"properties":{"city":"Chicago","geo_score":1.0,"zip code":"60605","id":"a6ccqkb35iq3","geo_precision":"zip","state":"IL"},"type":"Feature","geometry":{"type":"Point","coordinates":[-87.68732,41.811929]}},{"properties":{"city":"Chicago","geo_score":1.0,"zip code":"60613","id":"a6ccqk48702w","geo_precision":"zip","state":"IL"},"type":"Feature","geometry":{"type":"Point","coordinates":[-87.68732,41.811929]}},{"properties":{"city":"Chicago","geo_score":1.0,"zip code":"60625","id":"a6ccqkdt9a1i","geo_precision":"zip","state":"IL"},"type":"Feature","geometry":{"type":"Point","coordinates":[-87.68732,41.811929]}},{"properties":{"city":"Chicago","geo_score":1.0,"zip code":"60622","id":"a6ccqk5gps35","geo_precision":"zip","state":"IL"},"type":"Feature","geometry":{"type":"Point","coordinates":[-87.68732,41.811929]}},{"properties":{"city":"Chicago","geo_score":1.0,"zip code":"60610","id":"a6ccqk7akm18","geo_precision":"zip","state":"IL"},"type":"Feature","geometry":{"type":"Point","coordinates":[-87.68732,41.811929]}},{"properties":{"city":"Chicago","geo_score":1.0,"zip code":"60661","id":"a6ccqk5twgru","geo_precision":"zip","state":"IL"},"type":"Feature","geometry":{"type":"Point","coordinates":[-87.68732,41.811929]}},{"properties":{"city":"Chicago","geo_score":1.0,"zip code":"60647","id":"a6ccqki5hsf4","geo_precision":"zip","state":"IL"},"type":"Feature","geometry":{"type":"Point","coordinates":[-87.68732,41.811929]}},{"properties":{"city":"Chicago","geo_score":1.0,"zip code":"60622","id":"a6ccqk8i0goy","geo_precision":"zip","state":"IL"},"type":"Feature","geometry":{"type":"Point","coordinates":[-87.68732,41.811929]}},{"properties":{"city":"Chicago","geo_score":1.0,"zip code":"60629","id":"a6ccqkimaucj","geo_precision":"zip","state":"IL"},"type":"Feature","geometry":{"type":"Point","coordinates":[-87.68732,41.811929]}},{"properties":{"city":"Chicago","geo_score":1.0,"zip code":"60657","id":"a6ccqkiivaxq","geo_precision":"zip","state":"IL"},"type":"Feature","geometry":{"type":"Point","coordinates":[-87.68732,41.811929]}},{"properties":{"city":"Chicago","geo_score":1.0,"zip code":"60647","id":"a6ccqkiqs93e","geo_precision":"zip","state":"IL"},"type":"Feature","geometry":{"type":"Point","coordinates":[-87.68732,41.811929]}},{"properties":{"city":"Chicago","geo_score":1.0,"zip code":"60613","id":"a6ccqk44w8qj","geo_precision":"zip","state":"IL"},"type":"Feature","geometry":{"type":"Point","coordinates":[-87.68732,41.811929]}},{"properties":{"city":"Chicago","geo_score":1.0,"zip code":"60614","id":"a6ccqk6kwkl3","geo_precision":"zip","state":"IL"},"type":"Feature","geometry":{"type":"Point","coordinates":[-87.68732,41.811929]}},{"properties":{"city":"Chicago","geo_score":1.0,"zip code":"60614","id":"a6ccqkdhpgfp","geo_precision":"zip","state":"IL"},"type":"Feature","geometry":{"type":"Point","coordinates":[-87.68732,41.811929]}},{"properties":{"city":"Chicago","geo_score":1.0,"zip code":"60641","id":"a6ccqkf03rv0","geo_precision":"zip","state":"IL"},"type":"Feature","geometry":{"type":"Point","coordinates":[-87.68732,41.811929]}},{"properties":{"city":"Chicago","geo_score":1.0,"zip code":"60610","id":"a6ccqkdijb7b","geo_precision":"zip","state":"IL"},"type":"Feature","geometry":{"type":"Point","coordinates":[-87.68732,41.811929]}},{"properties":{"city":"Chicago","geo_score":1.0,"zip code":"60614","id":"a6ccqk2kzus3","geo_precision":"zip","state":"IL"},"type":"Feature","geometry":{"type":"Point","coordinates":[-87.68732,41.811929]}},{"properties":{"city":"Chicago","geo_score":1.0,"zip code":"60610","id":"a6ccqk5ni05g","geo_precision":"zip","state":"IL"},"type":"Feature","geometry":{"type":"Point","coordinates":[-87.68732,41.811929]}},{"properties":{"city":"Chicago","geo_score":1.0,"zip code":"60640","id":"a6ccqk2yulba","geo_precision":"zip","state":"IL"},"type":"Feature","geometry":{"type":"Point","coordinates":[-87.68732,41.811929]}},{"properties":{"city":"Chicago","geo_score":1.0,"zip code":"60642","id":"a6ccqk6zm4l6","geo_precision":"zip","state":"IL"},"type":"Feature","geometry":{"type":"Point","coordinates":[-87.650052,41.850033]}},{"properties":{"city":"Chicago","geo_score":1.0,"zip code":"60614","id":"a6ccqkdot403","geo_precision":"zip","state":"IL"},"type":"Feature","geometry":{"type":"Point","coordinates":[-87.68732,41.811929]}},{"properties":{"city":"Chicago","geo_score":1.0,"zip code":"60611","id":"a6ccqk5jkdwg","geo_precision":"zip","state":"IL"},"type":"Feature","geometry":{"type":"Point","coordinates":[-87.68732,41.811929]}},{"properties":{"city":"Chicago","geo_score":1.0,"zip code":"60611","id":"a6ccqk9naxos","geo_precision":"zip","state":"IL"},"type":"Feature","geometry":{"type":"Point","coordinates":[-87.68732,41.811929]}},{"properties":{"city":"Chicago","geo_score":1.0,"zip code":"60614","id":"a6ccqkb5kqc8","geo_precision":"zip","state":"IL"},"type":"Feature","geometry":{"type":"Point","coordinates":[-87.68732,41.811929]}},{"properties":{"city":"Chicago","geo_score":1.0,"zip code":"60614","id":"a6ccqkhefqpa","geo_precision":"zip","state":"IL"},"type":"Feature","geometry":{"type":"Point","coordinates":[-87.68732,41.811929]}},{"properties":{"city":"Chicago","geo_score":1.0,"zip code":"60657","id":"a6ccqk4qbvd2","geo_precision":"zip","state":"IL"},"type":"Feature","geometry":{"type":"Point","coordinates":[-87.68732,41.811929]}},{"properties":{"city":"Chicago","geo_score":1.0,"zip code":"60654","id":"a6ccqkaks1te","geo_precision":"zip","state":"IL"},"type":"Feature","geometry":{"type":"Point","coordinates":[-87.68732,41.811929]}},{"properties":{"city":"Chicago","geo_score":1.0,"zip code":"60618","id":"a6ccqkbn5scz","geo_precision":"zip","state":"IL"},"type":"Feature","geometry":{"type":"Point","coordinates":[-87.68732,41.811929]}},{"properties":{"city":"Chicago","geo_score":1.0,"zip code":"60622","id":"a6ccqk7jlrbp","geo_precision":"zip","state":"IL"},"type":"Feature","geometry":{"type":"Point","coordinates":[-87.68732,41.811929]}},{"properties":{"city":"Chicago","geo_score":1.0,"zip code":"60614","id":"a6ccqki8jhzl","geo_precision":"zip","state":"IL"},"type":"Feature","geometry":{"type":"Point","coordinates":[-87.68732,41.811929]}},{"properties":{"city":"Chicago","geo_score":1.0,"zip code":"60623","id":"a6ccqkdtnjwu","geo_precision":"zip","state":"IL"},"type":"Feature","geometry":{"type":"Point","coordinates":[-87.68732,41.811929]}},{"properties":{"city":"Chicago","geo_score":1.0,"zip code":"60657","id":"a6ccqk28dub9","geo_precision":"zip","state":"IL"},"type":"Feature","geometry":{"type":"Point","coordinates":[-87.68732,41.811929]}},{"properties":{"city":"Chicago","geo_score":1.0,"zip code":"60657","id":"a6ccqk2ew70v","geo_precision":"zip","state":"IL"},"type":"Feature","geometry":{"type":"Point","coordinates":[-87.68732,41.811929]}},{"properties":{"city":"Chicago","geo_score":1.0,"zip code":"60657","id":"a6ccqk9jbphm","geo_precision":"zip","state":"IL"},"type":"Feature","geometry":{"type":"Point","coordinates":[-87.68732,41.811929]}},{"properties":{"city":"Chicago","geo_score":1.0,"zip code":"60657","id":"a6ccqkd3ca6k","geo_precision":"zip","state":"IL"},"type":"Feature","geometry":{"type":"Point","coordinates":[-87.68732,41.811929]}},{"properties":{"city":"Chicago","geo_score":1.0,"zip code":"60626","id":"a6ccqkfr79hk","geo_precision":"zip","state":"IL"},"type":"Feature","geometry":{"type":"Point","coordinates":[-87.68732,41.811929]}},{"properties":{"city":"Chicago","geo_score":1.0,"zip code":"60618","id":"a6ccqk9xe5lo","geo_precision":"zip","state":"IL"},"type":"Feature","geometry":{"type":"Point","coordinates":[-87.68732,41.811929]}},{"properties":{"city":"Chicago","geo_score":1.0,"zip code":"60618","id":"a6ccqkfs1uyt","geo_precision":"zip","state":"IL"},"type":"Feature","geometry":{"type":"Point","coordinates":[-87.68732,41.811929]}},{"properties":{"city":"Chicago","geo_score":1.0,"zip code":"60657","id":"a6ccqkd0memc","geo_precision":"zip","state":"IL"},"type":"Feature","geometry":{"type":"Point","coordinates":[-87.68732,41.811929]}},{"properties":{"city":"Chicago","geo_score":1.0,"zip code":"60614","id":"a6ccqkd5s9vf","geo_precision":"zip","state":"IL"},"type":"Feature","geometry":{"type":"Point","coordinates":[-87.68732,41.811929]}},{"properties":{"city":"Chicago","geo_score":1.0,"zip code":"60607","id":"a6ccqk8pjowh","geo_precision":"zip","state":"IL"},"type":"Feature","geometry":{"type":"Point","coordinates":[-87.81381,41.928881]}},{"properties":{"city":"Chicago","geo_score":1.0,"zip code":"60611","id":"a6ccqk9466as","geo_precision":"zip","state":"IL"},"type":"Feature","geometry":{"type":"Point","coordinates":[-87.68732,41.811929]}},{"properties":{"city":"Chicago","geo_score":1.0,"zip code":"60607","id":"a6ccqk70dyzq","geo_precision":"zip","state":"IL"},"type":"Feature","geometry":{"type":"Point","coordinates":[-87.81381,41.928881]}},{"properties":{"city":"Chicago","geo_score":1.0,"zip code":"60642","id":"a6ccqkfe0h3w","geo_precision":"zip","state":"IL"},"type":"Feature","geometry":{"type":"Point","coordinates":[-87.650052,41.850033]}},{"properties":{"city":"Chicago","geo_score":1.0,"zip code":"60614","id":"a6ccqkfwz8t3","geo_precision":"zip","state":"IL"},"type":"Feature","geometry":{"type":"Point","coordinates":[-87.68732,41.811929]}},{"properties":{"city":"Chicago","geo_score":1.0,"zip code":"60614","id":"a6ccqk6gruby","geo_precision":"zip","state":"IL"},"type":"Feature","geometry":{"type":"Point","coordinates":[-87.68732,41.811929]}},{"properties":{"city":"Chicago","geo_score":1.0,"zip code":"60657","id":"a6ccqk96c535","geo_precision":"zip","state":"IL"},"type":"Feature","geometry":{"type":"Point","coordinates":[-87.68732,41.811929]}},{"properties":{"city":"Chicago","geo_score":1.0,"zip code":"60657","id":"a6ccqk8s82yk","geo_precision":"zip","state":"IL"},"type":"Feature","geometry":{"type":"Point","coordinates":[-87.68732,41.811929]}},{"properties":{"city":"Chicago","geo_score":1.0,"zip code":"60613","id":"a6ccqk5l6j2v","geo_precision":"zip","state":"IL"},"type":"Feature","geometry":{"type":"Point","coordinates":[-87.68732,41.811929]}},{"properties":{"city":"Chicago","geo_score":1.0,"zip code":"60654","id":"a6ccqk699tga","geo_precision":"zip","state":"IL"},"type":"Feature","geometry":{"type":"Point","coordinates":[-87.68732,41.811929]}},{"properties":{"city":"Chicago","geo_score":1.0,"zip code":"60613","id":"a6ccqk3tqt67","geo_precision":"zip","state":"IL"},"type":"Feature","geometry":{"type":"Point","coordinates":[-87.68732,41.811929]}},{"properties":{"city":"Chicago","geo_score":1.0,"zip code":"60657","id":"a6ccqk71d0yc","geo_precision":"zip","state":"IL"},"type":"Feature","geometry":{"type":"Point","coordinates":[-87.68732,41.811929]}},{"properties":{"city":"Chicago","geo_score":1.0,"zip code":"60626","id":"a6ccqkalhjhg","geo_precision":"zip","state":"IL"},"type":"Feature","geometry":{"type":"Point","coordinates":[-87.68732,41.811929]}},{"properties":{"city":"Chicago","geo_score":1.0,"zip code":"60657","id":"a6ccqk3f9ede","geo_precision":"zip","state":"IL"},"type":"Feature","geometry":{"type":"Point","coordinates":[-87.68732,41.811929]}},{"properties":{"city":"Chicago","geo_score":1.0,"zip code":"60614","id":"a6ccqk56y50c","geo_precision":"zip","state":"IL"},"type":"Feature","geometry":{"type":"Point","coordinates":[-87.68732,41.811929]}},{"properties":{"city":"Chicago","geo_score":1.0,"zip code":"60614","id":"a6ccqk4r4smu","geo_precision":"zip","state":"IL"},"type":"Feature","geometry":{"type":"Point","coordinates":[-87.68732,41.811929]}},{"properties":{"city":"Deerfield","geo_score":0.886,"zip code":"60015","id":"a6ccqk52k93i","geo_precision":"zip","state":"IL"},"type":"Feature","geometry":{"type":"Point","coordinates":[-87.897014,42.167525]}},{"properties":{"city":"Des Moines","geo_score":1.0,"zip code":"50312","id":"a6ccqkdglwdb","geo_precision":"zip","state":"IA"},"type":"Feature","geometry":{"type":"Point","coordinates":[-93.691719,41.582645]}},{"properties":{"city":"Des Plaines","geo_score":0.886,"zip code":"60018","id":"a6ccqk3cmlwh","geo_precision":"zip","state":"IL"},"type":"Feature","geometry":{"type":"Point","coordinates":[-87.884509,41.995308]}},{"properties":{"city":"Downers Grove","geo_score":1.0,"zip code":"60515","id":"a6ccqk4eqm29","geo_precision":"zip","state":"IL"},"type":"Feature","geometry":{"type":"Point","coordinates":[-88.012267,41.796279]}},{"properties":{"city":"Duncanville","geo_score":1.0,"zip code":"75137","id":"a6ccqk7c1on6","geo_precision":"zip","state":"TX"},"type":"Feature","geometry":{"type":"Point","coordinates":[-96.777626,32.767268]}},{"properties":{"city":"Edison","geo_score":1.0,"zip code":"08820","id":"a6ccqk77ls8i","geo_precision":"zip","state":"NJ"},"type":"Feature","geometry":{"type":"Point","coordinates":[-74.362616,40.576611]}},{"properties":{"city":"Elgin","geo_score":1.0,"zip code":"60123","id":"a6ccqk4soexc","geo_precision":"zip","state":"IL"},"type":"Feature","geometry":{"type":"Point","coordinates":[-88.371044,42.036325]}},{"properties":{"city":"Elk Grove Village","geo_score":1.0,"zip code":"60007","id":"a6ccqketvlas","geo_precision":"zip","state":"IL"},"type":"Feature","geometry":{"type":"Point","coordinates":[-87.905866,42.020278]}},{"properties":{"city":"Evanston","geo_score":1.0,"zip code":"60201","id":"a6ccqk76n21e","geo_precision":"zip","state":"IL"},"type":"Feature","geometry":{"type":"Point","coordinates":[-87.702155,42.049148]}},{"properties":{"city":"Forest Park","geo_score":1.0,"zip code":"60130","id":"a6ccqk6962ac","geo_precision":"zip","state":"IL"},"type":"Feature","geometry":{"type":"Point","coordinates":[-87.68732,41.811929]}},{"properties":{"city":"Forest Park","geo_score":1.0,"zip code":"60130","id":"a6ccqk89toqo","geo_precision":"zip","state":"IL"},"type":"Feature","geometry":{"type":"Point","coordinates":[-87.68732,41.811929]}},{"properties":{"city":"Griffith","geo_score":0.886,"zip code":"46319","id":"a6ccqkghma29","geo_precision":"zip","state":"IN"},"type":"Feature","geometry":{"type":"Point","coordinates":[-87.417538,41.493092]}},{"properties":{"city":"Hinsdale","geo_score":0.87,"zip code":"60521","id":"a6ccqk5z3wmx","geo_precision":"zip","state":"IL"},"type":"Feature","geometry":{"type":"Point","coordinates":[-87.935893,41.769753]}},{"properties":{"city":"Huntley","geo_score":1.0,"zip code":"60142","id":"a6ccqkdj5f65","geo_precision":"zip","state":"IL"},"type":"Feature","geometry":{"type":"Point","coordinates":[-88.450815,42.197379]}},{"properties":{"city":"Iowa City","geo_score":0.881,"zip code":"52240","id":"a6ccqk9t8c0o","geo_precision":"zip","state":"IA"},"type":"Feature","geometry":{"type":"Point","coordinates":[-91.66128,41.569183]}},{"properties":{"city":"Kansas City","geo_score":1.0,"zip code":"64112","id":"a6ccqkeiiztk","geo_precision":"zip","state":"MO"},"type":"Feature","geometry":{"type":"Point","coordinates":[-94.594981,39.035705]}},{"properties":{"city":"Kansas City","geo_score":1.0,"zip code":"64112","id":"a6ccqk37p6hi","geo_precision":"zip","state":"MO"},"type":"Feature","geometry":{"type":"Point","coordinates":[-94.594981,39.035705]}},{"properties":{"city":"Lake In The Hills","geo_score":0.898,"zip code":"60156","id":"a6ccqk7fseif","geo_precision":"zip","state":"IL"},"type":"Feature","geometry":{"type":"Point","coordinates":[-88.383794,42.222769]}},{"properties":{"city":"Mt. Prospect","geo_score":0.87,"zip code":"60056","id":"a6ccqkgnvq2s","geo_precision":"zip","state":"IL"},"type":"Feature","geometry":{"type":"Point","coordinates":[-87.895067,42.076695]}},{"properties":{"city":"Mundelein","geo_score":0.871,"zip code":"60060","id":"a6ccqkhzy2hn","geo_precision":"zip","state":"IL"},"type":"Feature","geometry":{"type":"Point","coordinates":[-88.052855,42.243913]}},{"properties":{"city":"Naperville","geo_score":0.857,"zip code":"60540","id":"a6ccqk9jxnyx","geo_precision":"zip","state":"IL"},"type":"Feature","geometry":{"type":"Point","coordinates":[-88.232846,41.744752]}},{"properties":{"city":"Naperville","geo_score":0.857,"zip code":"60540","id":"a6ccqk7fldiq","geo_precision":"zip","state":"IL"},"type":"Feature","geometry":{"type":"Point","coordinates":[-88.232846,41.744752]}},{"properties":{"city":"Naperville","geo_score":1.0,"zip code":"60564","id":"a6ccqkapeqg8","geo_precision":"zip","state":"IL"},"type":"Feature","geometry":{"type":"Point","coordinates":[-88.201424,41.681479]}},{"properties":{"city":"New Lenox","geo_score":0.875,"zip code":"60451","id":"a6ccqkg5ppcg","geo_precision":"zip","state":"IL"},"type":"Feature","geometry":{"type":"Point","coordinates":[-87.94172,41.498088]}},{"properties":{"city":"Northbrook","geo_score":1.0,"zip code":"60062","id":"a6ccqk4gzgdl","geo_precision":"zip","state":"IL"},"type":"Feature","geometry":{"type":"Point","coordinates":[-87.838815,42.120176]}},{"properties":{"city":"Palatine","geo_score":1.0,"zip code":"60074","id":"a6ccqke8gnsy","geo_precision":"zip","state":"IL"},"type":"Feature","geometry":{"type":"Point","coordinates":[-88.049424,42.129875]}},{"properties":{"city":"Palatine","geo_score":1.0,"zip code":"60074","id":"a6ccqk60xkvf","geo_precision":"zip","state":"IL"},"type":"Feature","geometry":{"type":"Point","coordinates":[-88.049424,42.129875]}},{"properties":{"city":"Palatine","geo_score":0.873,"zip code":"60067","id":"a6ccqkfj6f6f","geo_precision":"zip","state":"IL"},"type":"Feature","geometry":{"type":"Point","coordinates":[-88.096187,42.118082]}},{"properties":{"city":"Park Ridge","geo_score":1.0,"zip code":"60068","id":"a6ccqkddomzr","geo_precision":"zip","state":"IL"},"type":"Feature","geometry":{"type":"Point","coordinates":[-87.843714,42.037228]}},{"properties":{"city":"Plainfield","geo_score":0.857,"zip code":"60585","id":"a6ccqk2iu5ak","geo_precision":"city","state":"IL"},"type":"Feature","geometry":{"type":"Point","coordinates":[-88.169698,41.632457]}},{"properties":{"city":"Prospect Heights","geo_score":1.0,"zip code":"60070","id":"a6ccqkbk1zps","geo_precision":"zip","state":"IL"},"type":"Feature","geometry":{"type":"Point","coordinates":[-87.939519,42.105805]}},{"properties":{"city":"River Forest","geo_score":1.0,"zip code":"60305","id":"a6ccqk7sj112","geo_precision":"zip","state":"IL"},"type":"Feature","geometry":{"type":"Point","coordinates":[-87.68732,41.811929]}},{"properties":{"city":"River Forest","geo_score":1.0,"zip code":"60305","id":"a6ccqk9oht1d","geo_precision":"zip","state":"IL"},"type":"Feature","geometry":{"type":"Point","coordinates":[-87.68732,41.811929]}},{"properties":{"city":"River Forest","geo_score":1.0,"zip code":"60305","id":"a6ccqk6ozelf","geo_precision":"zip","state":"IL"},"type":"Feature","geometry":{"type":"Point","coordinates":[-87.68732,41.811929]}},{"properties":{"city":"Rochester","geo_score":0.949,"zip code":"48306","id":"a6ccqk8s0cx0","geo_precision":"zip","state":"MI"},"type":"Feature","geometry":{"type":"Point","coordinates":[-83.158266,42.665588]}},{"properties":{"city":"SKOKIE","geo_score":1.0,"zip code":"60076","id":"a6ccqkfo9ifv","geo_precision":"zip","state":"IL"},"type":"Feature","geometry":{"type":"Point","coordinates":[-87.883566,42.057878]}},{"properties":{"city":"San Francisco","geo_score":1.0,"zip code":"94109","id":"a6ccqkf2wu9a","geo_precision":"zip","state":"CA"},"type":"Feature","geometry":{"type":"Point","coordinates":[-122.420782,37.795219]}},{"properties":{"city":"Schaumburg","geo_score":1.0,"zip code":"60193","id":"a6ccqkhf5eaj","geo_precision":"zip","state":"IL"},"type":"Feature","geometry":{"type":"Point","coordinates":[-88.117844,42.016827]}},{"properties":{"city":"Schaumburg","geo_score":1.0,"zip code":"60193","id":"a6ccqkbtj2t5","geo_precision":"zip","state":"IL"},"type":"Feature","geometry":{"type":"Point","coordinates":[-88.117844,42.016827]}},{"properties":{"city":"Schaumburg","geo_score":1.0,"zip code":"60193","id":"a6ccqk9u9ufa","geo_precision":"zip","state":"IL"},"type":"Feature","geometry":{"type":"Point","coordinates":[-88.117844,42.016827]}},{"properties":{"city":"Sheridan","geo_score":0.893,"zip code":"60551","id":"a6ccqk6pnv37","geo_precision":"zip","state":"IL"},"type":"Feature","geometry":{"type":"Point","coordinates":[-88.664518,41.465587]}},{"properties":{"city":"Somonauk","geo_score":0.875,"zip code":"60552","id":"a6ccqk9cbcc3","geo_precision":"zip","state":"IL"},"type":"Feature","geometry":{"type":"Point","coordinates":[-88.679801,41.710863]}},{"properties":{"city":"St. John","geo_score":0.952,"zip code":"46373","id":"a6ccqki6yml2","geo_precision":"zip","state":"IN"},"type":"Feature","geometry":{"type":"Point","coordinates":[-87.453086,41.453965]}},{"properties":{"city":"St. John","geo_score":0.952,"zip code":"46373","id":"a6ccqk5cixtr","geo_precision":"zip","state":"IN"},"type":"Feature","geometry":{"type":"Point","coordinates":[-87.453086,41.453965]}},{"properties":{"city":"Tinley Park","geo_score":0.857,"zip code":"60487","id":"a6ccqk925ne4","geo_precision":"city","state":"IL"},"type":"Feature","geometry":{"type":"Point","coordinates":[-88.026517,42.143475]}},{"properties":{"city":"Vernon Hills","geo_score":1.0,"zip code":"60061","id":"a6ccqkdx9731","geo_precision":"zip","state":"IL"},"type":"Feature","geometry":{"type":"Point","coordinates":[-87.962973,42.231183]}},{"properties":{"city":"Vernon Hills","geo_score":1.0,"zip code":"60061","id":"a6ccqk37l9b5","geo_precision":"zip","state":"IL"},"type":"Feature","geometry":{"type":"Point","coordinates":[-87.962973,42.231183]}},{"properties":{"city":"Vernon Hills","geo_score":1.0,"zip code":"60061","id":"a6ccqkepsdqt","geo_precision":"zip","state":"IL"},"type":"Feature","geometry":{"type":"Point","coordinates":[-87.962973,42.231183]}},{"properties":{"city":"WINONA","geo_score":0.952,"zip code":"55987","id":"a6ccqkd897mw","geo_precision":"zip","state":"MN"},"type":"Feature","geometry":{"type":"Point","coordinates":[-91.620146,43.933297]}},{"properties":{"city":"Washington","geo_score":0.893,"zip code":"20001","id":"a6ccqk70e2lu","geo_precision":"zip","state":"DC"},"type":"Feature","geometry":{"type":"Point","coordinates":[-77.011365,38.916778]}},{"properties":{"city":"Woodridge","geo_score":1.0,"zip code":"60517","id":"a6ccqkiiqvs6","geo_precision":"zip","state":"IL"},"type":"Feature","geometry":{"type":"Point","coordinates":[-88.041731,41.736788]}},{"properties":{"city":"brookfield","geo_score":1.0,"zip code":"53045","id":"a6ccqk8yk905","geo_precision":"zip","state":"WI"},"type":"Feature","geometry":{"type":"Point","coordinates":[-88.15589,43.06081]}},{"properties":{"city":"chicago","geo_score":1.0,"zip code":"60614","id":"a6ccqk32hkt6","geo_precision":"zip","state":"IL"},"type":"Feature","geometry":{"type":"Point","coordinates":[-87.68732,41.811929]}},{"properties":{"city":"chicago","geo_score":1.0,"zip code":"60613","id":"a6ccqkbvwjdw","geo_precision":"zip","state":"IL"},"type":"Feature","geometry":{"type":"Point","coordinates":[-87.68732,41.811929]}},{"properties":{"city":"chicago","geo_score":1.0,"zip code":"60636","id":"a6ccqke3pp6q","geo_precision":"zip","state":"IL"},"type":"Feature","geometry":{"type":"Point","coordinates":[-87.68732,41.811929]}},{"properties":{"city":"wisconsin rapids","geo_score":1.0,"zip code":"54495","id":"a6ccqkfzi224","geo_precision":"zip","state":"WI"},"type":"Feature","geometry":{"type":"Point","coordinates":[-89.922751,44.388082]}}],"is_temporal":false,"author":{"url":"","metadata":"","contact_name":"","contact_address":"","source":"","contact_phone":""},"source":"","pagination":{"sort":null,"start":0,"total":205,"limit":1000000},"state":"complete","tags":"","published":"2014-08-10T19:18:57-04:00","id":58218}