{"type":"FeatureCollection","data_type":"Dataset","url_type":null,"permissions":[{"permissions":{"download":true,"view":true},"group_id":"everyone"}],"classification":null,"title":"FoodCarts","count":19,"stream_id":58351,"contributor":{"url":"http://geocommons.com/users/4048","name":"cskelton"},"data_attributes":null,"calculation_params":null,"icon_link":null,"link":"http://geocommons.com/overlays/58351.json","extent":[-123.152,49.2047,-123.099,49.2873],"geometry_types":["point"],"unique_name":null,"name":"FoodCarts","feature_count":19,"description":"","next_feature":null,"is_raster":false,"short_classification":"Y","stats":{"lat":{"max":49.2873294,"mean":49.2747706578947,"variance":0.000462623063334832,"stdev":0.0215086741417232,"min":49.2046691,"median":49.282123},"long":{"max":-123.0985189,"mean":-123.120825952632,"variance":0.00017226643320373,"stdev":0.0131250307886774,"min":-123.1524838,"median":-123.1175053}},"features":[{"properties":{"city":"Vancouver","food type":"Fresh &amp; frozen fruits, chocolate dipped fruits (alternates with 1300 Arbutus)","id":"a6bf61yamcj0","lat":49.2844573,"province":"BC","long":-123.1211533,"location":"1000 W Georgia St"},"type":"Feature","geometry":{"type":"Point","coordinates":[-123.1211533,49.2844573]}},{"properties":{"city":"Vancouver","food type":"Greek Donair","id":"a6bf61uv4bec","lat":49.2801314,"province":"BC","long":-123.1275949,"location":"1100 Burrard St"},"type":"Feature","geometry":{"type":"Point","coordinates":[-123.1275949,49.2801314]}},{"properties":{"city":"Vancouver","food type":"Authentic Italian stone ground pizza (alternates with 400 Burrard)","id":"a6bf61ufgddn","lat":49.2743669,"province":"BC","long":-123.0985189,"location":"1100 Station St"},"type":"Feature","geometry":{"type":"Point","coordinates":[-123.0985189,49.2743669]}},{"properties":{"city":"Vancouver","food type":"Modern Satay Barbeque","id":"a6bf61sgt5gk","lat":49.2795885,"province":"BC","long":-123.1284162,"location":"1150 Burrard St"},"type":"Feature","geometry":{"type":"Point","coordinates":[-123.1284162,49.2795885]}},{"properties":{"city":"Vancouver","food type":"Fresh &amp; frozen fruits, chocolate dipped fruits (alternates with 1000 W. Georgia)","id":"a6bf61o85kr2","lat":49.2744281,"province":"BC","long":-123.1524838,"location":"1300 Arbutus St"},"type":"Feature","geometry":{"type":"Point","coordinates":[-123.1524838,49.2744281]}},{"properties":{"city":"Vancouver","food type":"Central European foods from Poland, Russia, using local organic products, borscht, schnitzel, kosher (alternates with 800 Hornby)","id":"a6bf61s7en95","lat":49.2046691,"province":"BC","long":-123.1394592,"location":"1400 NW Marine Dr"},"type":"Feature","geometry":{"type":"Point","coordinates":[-123.1394592,49.2046691]}},{"properties":{"city":"Vancouver","food type":"Chinese Dim Sum","id":"a6bf61p00oi4","lat":49.2873294,"province":"BC","long":-123.1129407,"location":"200 Howe St"},"type":"Feature","geometry":{"type":"Point","coordinates":[-123.1129407,49.2873294]}},{"properties":{"city":"Vancouver","food type":"Fresh squeezed Lemonade","id":"a6bf61ve151j","lat":49.2842064,"province":"BC","long":-123.1425953,"location":"2000 Beach Av"},"type":"Feature","geometry":{"type":"Point","coordinates":[-123.1425953,49.2842064]}},{"properties":{"city":"Vancouver","food type":"Authentic Italian stone ground pizza (alternates with 1100 Station St.)","id":"a6bf61u1wcu1","lat":49.2865796,"province":"BC","long":-123.1175053,"location":"400 Burrard St"},"type":"Feature","geometry":{"type":"Point","coordinates":[-123.1175053,49.2865796]}},{"properties":{"city":"Vancouver","food type":"Korean food with meat and vegetarian options","id":"a6bf622t6p3l","lat":49.280625,"province":"BC","long":-123.1152788,"location":"400 W Georgia St"},"type":"Feature","geometry":{"type":"Point","coordinates":[-123.1152788,49.280625]}},{"properties":{"city":"Vancouver","food type":"Healthy meals &amp; snacks, roll ups, sandwiches","id":"a6bf621gkcs8","lat":49.2836189,"province":"BC","long":-123.1164961,"location":"600 Granville St"},"type":"Feature","geometry":{"type":"Point","coordinates":[-123.1164961,49.2836189]}},{"properties":{"city":"Vancouver","food type":"speciality noodles","id":"a6bf61vx1rbq","lat":49.2271065,"province":"BC","long":-123.1162916,"location":"6400 Cambie St"},"type":"Feature","geometry":{"type":"Point","coordinates":[-123.1162916,49.2271065]}},{"properties":{"city":"Vancouver","food type":"chicken salad with lettuce, tomato. Fruit cup with melon, kiwi and mixed fruit.","id":"a6bf61r9arib","lat":49.2794234,"province":"BC","long":-123.1169588,"location":"700 Homer St"},"type":"Feature","geometry":{"type":"Point","coordinates":[-123.1169588,49.2794234]}},{"properties":{"city":"Vancouver","food type":"Southern BBQ, Rice, Veggies","id":"a6bf61rzhwbi","lat":49.283688,"province":"BC","long":-123.1201117,"location":"700 Hornby St"},"type":"Feature","geometry":{"type":"Point","coordinates":[-123.1201117,49.283688]}},{"properties":{"city":"Vancouver","food type":"Burritos, whole wheat, rice, beans, sauces, fillings","id":"a6bf622hljii","lat":49.2860235,"province":"BC","long":-123.1128329,"location":"700 W Cordova St"},"type":"Feature","geometry":{"type":"Point","coordinates":[-123.1128329,49.2860235]}},{"properties":{"city":"Vancouver","food type":"Traditional Chinese and Japanese Cuisine","id":"a6bf61stm2kv","lat":49.2824569,"province":"BC","long":-123.1180715,"location":"700 W Georgia St"},"type":"Feature","geometry":{"type":"Point","coordinates":[-123.1180715,49.2824569]}},{"properties":{"city":"Vancouver","food type":"Central European foods from Poland, Russia, using local organic products, borscht, schnitzel, kosher (alternates with 1400 NW Marine Dr.)","id":"a6bf61wxsfhc","lat":49.282123,"province":"BC","long":-123.121993,"location":"800 Hornby St"},"type":"Feature","geometry":{"type":"Point","coordinates":[-123.121993,49.282123]}},{"properties":{"city":"Vancouver","food type":"Skewers of beef and pork","id":"a6bf62278fn5","lat":49.28707,"province":"BC","long":-123.1168821,"location":"900 W Hastings St"},"type":"Feature","geometry":{"type":"Point","coordinates":[-123.1168821,49.28707]}},{"properties":{"city":"Vancouver","food type":"Falafel","id":"a6bf622fu74a","lat":49.2727506,"province":"BC","long":-123.100109,"location":"Main St. and Terminal"},"type":"Feature","geometry":{"type":"Point","coordinates":[-123.100109,49.2727506]}}],"is_temporal":false,"author":{"url":"","metadata":"","contact_name":"","contact_address":"","source":"","contact_phone":""},"source":"","pagination":{"sort":null,"start":0,"total":19,"limit":1000000},"state":"complete","tags":"","published":"2014-08-10T19:31:20-04:00","id":58351}