{"type":"FeatureCollection","data_type":"Dataset","url_type":null,"permissions":[{"permissions":{"download":true,"view":true},"group_id":"everyone"}],"classification":null,"title":"WR Itunes Geo 5.10 pt 3","count":602,"stream_id":58442,"contributor":{"url":"http://geocommons.com/users/14689","name":"riley"},"data_attributes":null,"calculation_params":null,"icon_link":null,"link":"http://geocommons.com/overlays/58442.json","extent":[-159.376,19.1392,-68.78,62.0494],"geometry_types":["point"],"unique_name":null,"name":"WR Itunes Geo 5.10 pt 3","feature_count":602,"description":"","next_feature":null,"is_raster":false,"short_classification":"Y","stats":{"geo_score":{"max":1.0,"mean":0.925036544850498,"variance":0.00338555606657786,"stdev":0.0581855314195708,"min":0.818,"median":0.89}},"features":[{"properties":{"city":"ABERDEEN","zip":"28315","geo_score":0.857,"id":"a6s4tivumi1e","geo_precision":"zip","state":"NC"},"type":"Feature","geometry":{"type":"Point","coordinates":[-79.509203,35.135156]}},{"properties":{"city":"ABERDEEN","zip":"28315","geo_score":0.857,"id":"a6s4tiuyma6e","geo_precision":"zip","state":"NC"},"type":"Feature","geometry":{"type":"Point","coordinates":[-79.509203,35.135156]}},{"properties":{"city":"ABERDEEN","zip":"28315","geo_score":0.857,"id":"a6s4tik1aio3","geo_precision":"zip","state":"NC"},"type":"Feature","geometry":{"type":"Point","coordinates":[-79.509203,35.135156]}},{"properties":{"city":"ABERDEEN","zip":"28315","geo_score":0.857,"id":"a6s4tiuwyu5f","geo_precision":"zip","state":"NC"},"type":"Feature","geometry":{"type":"Point","coordinates":[-79.509203,35.135156]}},{"properties":{"city":"AKRON","zip":"44301","geo_score":0.89,"id":"a6s4tijrljy2","geo_precision":"zip","state":"OH"},"type":"Feature","geometry":{"type":"Point","coordinates":[-81.516228,41.035056]}},{"properties":{"city":"AKRON","zip":"44301","geo_score":0.89,"id":"a6s4tipddeob","geo_precision":"zip","state":"OH"},"type":"Feature","geometry":{"type":"Point","coordinates":[-81.516228,41.035056]}},{"properties":{"city":"AKRON","zip":"44301","geo_score":0.89,"id":"a6s4tip5svhx","geo_precision":"zip","state":"OH"},"type":"Feature","geometry":{"type":"Point","coordinates":[-81.516228,41.035056]}},{"properties":{"city":"AKRON","zip":"44301","geo_score":0.89,"id":"a6s4tin0e6ds","geo_precision":"zip","state":"OH"},"type":"Feature","geometry":{"type":"Point","coordinates":[-81.516228,41.035056]}},{"properties":{"city":"AKRON","zip":"44301","geo_score":0.89,"id":"a6s4til7977n","geo_precision":"zip","state":"OH"},"type":"Feature","geometry":{"type":"Point","coordinates":[-81.516228,41.035056]}},{"properties":{"city":"AKRON","zip":"44319","geo_score":0.869,"id":"a6s4tirt510h","geo_precision":"zip","state":"OH"},"type":"Feature","geometry":{"type":"Point","coordinates":[-81.527062,41.007278]}},{"properties":{"city":"AKRON","zip":"44301","geo_score":0.89,"id":"a6s4tim21cue","geo_precision":"zip","state":"OH"},"type":"Feature","geometry":{"type":"Point","coordinates":[-81.516228,41.035056]}},{"properties":{"city":"AKRON","zip":"44301","geo_score":0.89,"id":"a6s4tiojw9s7","geo_precision":"zip","state":"OH"},"type":"Feature","geometry":{"type":"Point","coordinates":[-81.516228,41.035056]}},{"properties":{"city":"AKRON","zip":"44301","geo_score":0.89,"id":"a6s4tiqwenpt","geo_precision":"zip","state":"OH"},"type":"Feature","geometry":{"type":"Point","coordinates":[-81.516228,41.035056]}},{"properties":{"city":"AKRON","zip":"44301","geo_score":0.89,"id":"a6s4tiochaft","geo_precision":"zip","state":"OH"},"type":"Feature","geometry":{"type":"Point","coordinates":[-81.516228,41.035056]}},{"properties":{"city":"AKRON","zip":"44301","geo_score":0.89,"id":"a6s4tiuu04oi","geo_precision":"zip","state":"OH"},"type":"Feature","geometry":{"type":"Point","coordinates":[-81.516228,41.035056]}},{"properties":{"city":"AKRON","zip":"44301","geo_score":0.89,"id":"a6s4tim3f0im","geo_precision":"zip","state":"OH"},"type":"Feature","geometry":{"type":"Point","coordinates":[-81.516228,41.035056]}},{"properties":{"city":"ALBANY","zip":"31705","geo_score":0.879,"id":"a6s4tijsvz2t","geo_precision":"zip","state":"GA"},"type":"Feature","geometry":{"type":"Point","coordinates":[-84.135463,31.526286]}},{"properties":{"city":"ALBANY","zip":"31705","geo_score":0.879,"id":"a6s4tishpcrh","geo_precision":"zip","state":"GA"},"type":"Feature","geometry":{"type":"Point","coordinates":[-84.135463,31.526286]}},{"properties":{"city":"ALBANY","zip":"31705","geo_score":0.879,"id":"a6s4tirdjh5m","geo_precision":"zip","state":"GA"},"type":"Feature","geometry":{"type":"Point","coordinates":[-84.135463,31.526286]}},{"properties":{"city":"ANCHORAGE","zip":"99508","geo_score":0.881,"id":"a6s4tig4q92g","geo_precision":"zip","state":"AK"},"type":"Feature","geometry":{"type":"Point","coordinates":[-149.804167,61.226389]}},{"properties":{"city":"ANCHORAGE","zip":"99508","geo_score":0.881,"id":"a6s4tiugc3pu","geo_precision":"zip","state":"AK"},"type":"Feature","geometry":{"type":"Point","coordinates":[-149.804167,61.226389]}},{"properties":{"city":"ANSONIA","zip":"6401","geo_score":1.0,"id":"a6s4tipmat6k","geo_precision":"zip","state":"CT"},"type":"Feature","geometry":{"type":"Point","coordinates":[-73.070301,41.342514]}},{"properties":{"city":"APEX","zip":"27502","geo_score":0.875,"id":"a6s4tiisyoj6","geo_precision":"zip","state":"NC"},"type":"Feature","geometry":{"type":"Point","coordinates":[-78.857507,35.789317]}},{"properties":{"city":"APPLE VALLEY","zip":"92307","geo_score":0.879,"id":"a6s4tiumtmn7","geo_precision":"zip","state":"CA"},"type":"Feature","geometry":{"type":"Point","coordinates":[-117.171709,34.471388]}},{"properties":{"city":"APPLETON","zip":"54914","geo_score":1.0,"id":"a6s4tiu7nydx","geo_precision":"zip","state":"WI"},"type":"Feature","geometry":{"type":"Point","coordinates":[-88.486307,44.271285]}},{"properties":{"city":"ARDMORE","zip":"73401","geo_score":0.898,"id":"a6s4tiwa5ylo","geo_precision":"zip","state":"OK"},"type":"Feature","geometry":{"type":"Point","coordinates":[-97.27474,34.252869]}},{"properties":{"city":"ARKADELPHIA","zip":"71923","geo_score":0.87,"id":"a6s4tisb5by7","geo_precision":"zip","state":"AR"},"type":"Feature","geometry":{"type":"Point","coordinates":[-92.989062,34.158983]}},{"properties":{"city":"ARKANSAS CITY","zip":"67005","geo_score":0.857,"id":"a6s4tisuunvx","geo_precision":"zip","state":"KS"},"type":"Feature","geometry":{"type":"Point","coordinates":[-96.903367,37.041975]}},{"properties":{"city":"ARLINGTON","zip":"38002","geo_score":0.873,"id":"a6s4tiphav5n","geo_precision":"zip","state":"TN"},"type":"Feature","geometry":{"type":"Point","coordinates":[-89.740361,35.230644]}},{"properties":{"city":"ARLINGTON","zip":"98223","geo_score":0.921,"id":"a6s4tijm2qyd","geo_precision":"zip","state":"WA"},"type":"Feature","geometry":{"type":"Point","coordinates":[-122.058474,48.237047]}},{"properties":{"city":"ARVADA","zip":"80003","geo_score":1.0,"id":"a6s4titadmcc","geo_precision":"zip","state":"CO"},"type":"Feature","geometry":{"type":"Point","coordinates":[-105.105775,39.835086]}},{"properties":{"city":"ASTON","zip":"19014","geo_score":0.875,"id":"a6s4tivm9ftt","geo_precision":"zip","state":"PA"},"type":"Feature","geometry":{"type":"Point","coordinates":[-75.422139,39.839001]}},{"properties":{"city":"AUDUBON","zip":"8106","geo_score":0.948,"id":"a6s4tivcbhvz","geo_precision":"zip","state":"NJ"},"type":"Feature","geometry":{"type":"Point","coordinates":[-75.087674,39.896502]}},{"properties":{"city":"AURORA","zip":"60502","geo_score":0.857,"id":"a6s4tiiatpwv","geo_precision":"city","state":"IL"},"type":"Feature","geometry":{"type":"Point","coordinates":[-88.136616,41.768399]}},{"properties":{"city":"AURORA","zip":"80016","geo_score":0.857,"id":"a6s4tiu05lss","geo_precision":"zip","state":"CO"},"type":"Feature","geometry":{"type":"Point","coordinates":[-104.792475,39.591655]}},{"properties":{"city":"AUSTIN","zip":"78726","geo_score":1.0,"id":"a6s4tiq4ru9b","geo_precision":"zip","state":"TX"},"type":"Feature","geometry":{"type":"Point","coordinates":[-97.843801,30.427124]}},{"properties":{"city":"AUSTIN","zip":"78748","geo_score":0.889,"id":"a6s4tinbohvl","geo_precision":"zip","state":"TX"},"type":"Feature","geometry":{"type":"Point","coordinates":[-97.818061,30.145767]}},{"properties":{"city":"AZLE","zip":"76020","geo_score":0.873,"id":"a6s4tik136kg","geo_precision":"zip","state":"TX"},"type":"Feature","geometry":{"type":"Point","coordinates":[-97.584191,32.908737]}},{"properties":{"city":"BAKERSFIELD","zip":"93306","geo_score":0.883,"id":"a6s4tipevyby","geo_precision":"zip","state":"CA"},"type":"Feature","geometry":{"type":"Point","coordinates":[-119.145383,35.383571]}},{"properties":{"city":"BAKERSFIELD","zip":"93313","geo_score":1.0,"id":"a6s4tiu8dku7","geo_precision":"zip","state":"CA"},"type":"Feature","geometry":{"type":"Point","coordinates":[-119.013543,35.27581]}},{"properties":{"city":"BARABOO","zip":"53913","geo_score":0.948,"id":"a6s4tir39ojn","geo_precision":"zip","state":"WI"},"type":"Feature","geometry":{"type":"Point","coordinates":[-89.770402,43.474428]}},{"properties":{"city":"BARRINGTON","zip":"3825","geo_score":1.0,"id":"a6s4tinukrhl","geo_precision":"zip","state":"NH"},"type":"Feature","geometry":{"type":"Point","coordinates":[-71.097423,43.29779]}},{"properties":{"city":"BATON ROUGE","zip":"70817","geo_score":1.0,"id":"a6s4tiu0lhx3","geo_precision":"zip","state":"LA"},"type":"Feature","geometry":{"type":"Point","coordinates":[-90.972423,30.384123]}},{"properties":{"city":"BATTLE CREEK","zip":"49015","geo_score":0.867,"id":"a6s4tiw70rbt","geo_precision":"zip","state":"MI"},"type":"Feature","geometry":{"type":"Point","coordinates":[-85.173602,42.298653]}},{"properties":{"city":"BEALETON","zip":"22712","geo_score":0.857,"id":"a6s4titnvacf","geo_precision":"zip","state":"VA"},"type":"Feature","geometry":{"type":"Point","coordinates":[-77.699991,38.501792]}},{"properties":{"city":"BELLEVILLE","zip":"62223","geo_score":0.886,"id":"a6s4tin0oywf","geo_precision":"zip","state":"IL"},"type":"Feature","geometry":{"type":"Point","coordinates":[-90.056773,38.577273]}},{"properties":{"city":"BELLEVUE","zip":"68147","geo_score":1.0,"id":"a6s4tirjvc2y","geo_precision":"zip","state":"NE"},"type":"Feature","geometry":{"type":"Point","coordinates":[-95.95529,41.175798]}},{"properties":{"city":"BERTHOUD","zip":"80513","geo_score":0.893,"id":"a6s4tilduduh","geo_precision":"zip","state":"CO"},"type":"Feature","geometry":{"type":"Point","coordinates":[-105.017756,40.327762]}},{"properties":{"city":"BERTHOUD","zip":"80513","geo_score":0.893,"id":"a6s4tip04c3i","geo_precision":"zip","state":"CO"},"type":"Feature","geometry":{"type":"Point","coordinates":[-105.017756,40.327762]}},{"properties":{"city":"BERTHOUD","zip":"80513","geo_score":0.893,"id":"a6s4tiub6y6k","geo_precision":"zip","state":"CO"},"type":"Feature","geometry":{"type":"Point","coordinates":[-105.017756,40.327762]}},{"properties":{"city":"BERTHOUD","zip":"80513","geo_score":0.893,"id":"a6s4tilrsf4o","geo_precision":"zip","state":"CO"},"type":"Feature","geometry":{"type":"Point","coordinates":[-105.017756,40.327762]}},{"properties":{"city":"BILLINGS","zip":"59105","geo_score":0.933,"id":"a6s4tioyvmb0","geo_precision":"zip","state":"MT"},"type":"Feature","geometry":{"type":"Point","coordinates":[-108.459023,45.833287]}},{"properties":{"city":"BLOOMSBURG","zip":"17815","geo_score":0.901,"id":"a6s4tisdsend","geo_precision":"zip","state":"PA"},"type":"Feature","geometry":{"type":"Point","coordinates":[-76.316605,41.038419]}},{"properties":{"city":"BLYTHEVILLE","zip":"72315","geo_score":0.896,"id":"a6s4titqd1ye","geo_precision":"zip","state":"AR"},"type":"Feature","geometry":{"type":"Point","coordinates":[-89.972033,35.959794]}},{"properties":{"city":"BLYTHEVILLE","zip":"72315","geo_score":0.896,"id":"a6s4tindzkpf","geo_precision":"zip","state":"AR"},"type":"Feature","geometry":{"type":"Point","coordinates":[-89.972033,35.959794]}},{"properties":{"city":"BOISE","zip":"83709","geo_score":1.0,"id":"a6s4tihytvd5","geo_precision":"zip","state":"ID"},"type":"Feature","geometry":{"type":"Point","coordinates":[-116.276002,43.558127]}},{"properties":{"city":"BOWBELLS","zip":"58721","geo_score":0.893,"id":"a6s4tij7d8os","geo_precision":"zip","state":"ND"},"type":"Feature","geometry":{"type":"Point","coordinates":[-102.319057,48.756698]}},{"properties":{"city":"BRADENTON","zip":"34202","geo_score":1.0,"id":"a6s4tijzzs8d","geo_precision":"zip","state":"FL"},"type":"Feature","geometry":{"type":"Point","coordinates":[-82.37934,27.471379]}},{"properties":{"city":"BRANDON","zip":"39042","geo_score":0.888,"id":"a6s4tisvye9s","geo_precision":"zip","state":"MS"},"type":"Feature","geometry":{"type":"Point","coordinates":[-89.967026,32.208482]}},{"properties":{"city":"BRASELTON","zip":"30517","geo_score":1.0,"id":"a6s4tih32ii1","geo_precision":"zip","state":"GA"},"type":"Feature","geometry":{"type":"Point","coordinates":[-83.685149,34.109873]}},{"properties":{"city":"BRENTWOOD","zip":"37027","geo_score":1.0,"id":"a6s4tig0nvlj","geo_precision":"zip","state":"TN"},"type":"Feature","geometry":{"type":"Point","coordinates":[-86.816058,35.982981]}},{"properties":{"city":"BREWER","zip":"4412","geo_score":0.935,"id":"a6s4tioyyh3j","geo_precision":"zip","state":"ME"},"type":"Feature","geometry":{"type":"Point","coordinates":[-68.780036,44.770349]}},{"properties":{"city":"BRIDGETON","zip":"8302","geo_score":0.873,"id":"a6s4tipyfl30","geo_precision":"zip","state":"NJ"},"type":"Feature","geometry":{"type":"Point","coordinates":[-75.18574,39.468726]}},{"properties":{"city":"BROOKLAND","zip":"72417","geo_score":0.871,"id":"a6s4tiho1vdq","geo_precision":"zip","state":"AR"},"type":"Feature","geometry":{"type":"Point","coordinates":[-90.575664,35.951461]}},{"properties":{"city":"BROOKLINE","zip":"65619","geo_score":1.0,"id":"a6s4tiv9l4na","geo_precision":"zip","state":"MO"},"type":"Feature","geometry":{"type":"Point","coordinates":[-93.420192,37.163384]}},{"properties":{"city":"BROWNSBURG","zip":"46112","geo_score":0.886,"id":"a6s4titu14w2","geo_precision":"zip","state":"IN"},"type":"Feature","geometry":{"type":"Point","coordinates":[-86.338328,39.926986]}},{"properties":{"city":"BROWNSBURG","zip":"46112","geo_score":0.886,"id":"a6s4tinz7962","geo_precision":"zip","state":"IN"},"type":"Feature","geometry":{"type":"Point","coordinates":[-86.338328,39.926986]}},{"properties":{"city":"BROWNSBURG","zip":"46112","geo_score":0.886,"id":"a6s4tiuzta09","geo_precision":"zip","state":"IN"},"type":"Feature","geometry":{"type":"Point","coordinates":[-86.338328,39.926986]}},{"properties":{"city":"BROWNSBURG","zip":"46112","geo_score":0.886,"id":"a6s4tiuesukg","geo_precision":"zip","state":"IN"},"type":"Feature","geometry":{"type":"Point","coordinates":[-86.338328,39.926986]}},{"properties":{"city":"BRUNSWICK","zip":"44212","geo_score":1.0,"id":"a6s4tiq7my6w","geo_precision":"zip","state":"OH"},"type":"Feature","geometry":{"type":"Point","coordinates":[-81.82281,41.206132]}},{"properties":{"city":"BRUSH PRAIRIE","zip":"98606","geo_score":0.869,"id":"a6s4titg0mfn","geo_precision":"zip","state":"WA"},"type":"Feature","geometry":{"type":"Point","coordinates":[-122.48704,45.737895]}},{"properties":{"city":"BRUSH PRAIRIE","zip":"98606","geo_score":0.869,"id":"a6s4tihyqgem","geo_precision":"zip","state":"WA"},"type":"Feature","geometry":{"type":"Point","coordinates":[-122.48704,45.737895]}},{"properties":{"city":"BRUSH PRAIRIE","zip":"98606","geo_score":0.869,"id":"a6s4tirn5anc","geo_precision":"zip","state":"WA"},"type":"Feature","geometry":{"type":"Point","coordinates":[-122.48704,45.737895]}},{"properties":{"city":"BRUSH PRAIRIE","zip":"98606","geo_score":0.869,"id":"a6s4tik0k2lk","geo_precision":"zip","state":"WA"},"type":"Feature","geometry":{"type":"Point","coordinates":[-122.48704,45.737895]}},{"properties":{"city":"BURLESON","zip":"76028","geo_score":0.893,"id":"a6s4titvbldg","geo_precision":"zip","state":"TX"},"type":"Feature","geometry":{"type":"Point","coordinates":[-97.235569,32.55236]}},{"properties":{"city":"BURNET","zip":"78611","geo_score":1.0,"id":"a6s4tita8p8a","geo_precision":"zip","state":"TX"},"type":"Feature","geometry":{"type":"Point","coordinates":[-98.238816,30.749465]}},{"properties":{"city":"BURNSVILLE","zip":"55306","geo_score":1.0,"id":"a6s4tik8lsox","geo_precision":"zip","state":"MN"},"type":"Feature","geometry":{"type":"Point","coordinates":[-93.221535,44.762208]}},{"properties":{"city":"BURNSVILLE","zip":"55306","geo_score":1.0,"id":"a6s4tii1kc2u","geo_precision":"zip","state":"MN"},"type":"Feature","geometry":{"type":"Point","coordinates":[-93.221535,44.762208]}},{"properties":{"city":"BURNSVILLE","zip":"55306","geo_score":1.0,"id":"a6s4tin0f35w","geo_precision":"zip","state":"MN"},"type":"Feature","geometry":{"type":"Point","coordinates":[-93.221535,44.762208]}},{"properties":{"city":"BURNSVILLE","zip":"55306","geo_score":1.0,"id":"a6s4tipl69td","geo_precision":"zip","state":"MN"},"type":"Feature","geometry":{"type":"Point","coordinates":[-93.221535,44.762208]}},{"properties":{"city":"BURNSVILLE","zip":"55306","geo_score":1.0,"id":"a6s4tiksm416","geo_precision":"zip","state":"MN"},"type":"Feature","geometry":{"type":"Point","coordinates":[-93.221535,44.762208]}},{"properties":{"city":"BURNSVILLE","zip":"55306","geo_score":1.0,"id":"a6s4titttq7q","geo_precision":"zip","state":"MN"},"type":"Feature","geometry":{"type":"Point","coordinates":[-93.221535,44.762208]}},{"properties":{"city":"BURNSVILLE","zip":"55306","geo_score":1.0,"id":"a6s4tipcoey5","geo_precision":"zip","state":"MN"},"type":"Feature","geometry":{"type":"Point","coordinates":[-93.221535,44.762208]}},{"properties":{"city":"BURNSVILLE","zip":"55306","geo_score":1.0,"id":"a6s4tiicb90v","geo_precision":"zip","state":"MN"},"type":"Feature","geometry":{"type":"Point","coordinates":[-93.221535,44.762208]}},{"properties":{"city":"BURNSVILLE","zip":"55306","geo_score":1.0,"id":"a6s4timnbvnj","geo_precision":"zip","state":"MN"},"type":"Feature","geometry":{"type":"Point","coordinates":[-93.221535,44.762208]}},{"properties":{"city":"BURNSVILLE","zip":"55306","geo_score":1.0,"id":"a6s4tipwe0pq","geo_precision":"zip","state":"MN"},"type":"Feature","geometry":{"type":"Point","coordinates":[-93.221535,44.762208]}},{"properties":{"city":"BURNSVILLE","zip":"55306","geo_score":1.0,"id":"a6s4tirc8joz","geo_precision":"zip","state":"MN"},"type":"Feature","geometry":{"type":"Point","coordinates":[-93.221535,44.762208]}},{"properties":{"city":"CANTON","zip":"30115","geo_score":1.0,"id":"a6s4tiun29rb","geo_precision":"zip","state":"GA"},"type":"Feature","geometry":{"type":"Point","coordinates":[-84.419935,34.199345]}},{"properties":{"city":"CANTON","zip":"39046","geo_score":0.881,"id":"a6s4tijpnrn7","geo_precision":"zip","state":"MS"},"type":"Feature","geometry":{"type":"Point","coordinates":[-90.03314,32.744024]}},{"properties":{"city":"CANUTILLO","zip":"79835","geo_score":0.873,"id":"a6s4tiik81z2","geo_precision":"zip","state":"TX"},"type":"Feature","geometry":{"type":"Point","coordinates":[-106.578047,31.958713]}},{"properties":{"city":"CANUTILLO","zip":"79835","geo_score":0.873,"id":"a6s4tisad4oe","geo_precision":"zip","state":"TX"},"type":"Feature","geometry":{"type":"Point","coordinates":[-106.578047,31.958713]}},{"properties":{"city":"CANUTILLO","zip":"79835","geo_score":0.873,"id":"a6s4tij6nwkz","geo_precision":"zip","state":"TX"},"type":"Feature","geometry":{"type":"Point","coordinates":[-106.578047,31.958713]}},{"properties":{"city":"CANUTILLO","zip":"79835","geo_score":0.873,"id":"a6s4tiv5ige3","geo_precision":"zip","state":"TX"},"type":"Feature","geometry":{"type":"Point","coordinates":[-106.578047,31.958713]}},{"properties":{"city":"CANUTILLO","zip":"79835","geo_score":0.873,"id":"a6s4tiit32q2","geo_precision":"zip","state":"TX"},"type":"Feature","geometry":{"type":"Point","coordinates":[-106.578047,31.958713]}},{"properties":{"city":"CANUTILLO","zip":"79835","geo_score":0.873,"id":"a6s4tiiqzolp","geo_precision":"zip","state":"TX"},"type":"Feature","geometry":{"type":"Point","coordinates":[-106.578047,31.958713]}},{"properties":{"city":"CANUTILLO","zip":"79835","geo_score":0.873,"id":"a6s4tik9bxsy","geo_precision":"zip","state":"TX"},"type":"Feature","geometry":{"type":"Point","coordinates":[-106.578047,31.958713]}},{"properties":{"city":"CANUTILLO","zip":"79835","geo_score":0.873,"id":"a6s4tipc33ut","geo_precision":"zip","state":"TX"},"type":"Feature","geometry":{"type":"Point","coordinates":[-106.578047,31.958713]}},{"properties":{"city":"CANUTILLO","zip":"79835","geo_score":0.873,"id":"a6s4tigxgcoi","geo_precision":"zip","state":"TX"},"type":"Feature","geometry":{"type":"Point","coordinates":[-106.578047,31.958713]}},{"properties":{"city":"CANUTILLO","zip":"79835","geo_score":0.873,"id":"a6s4tiocdc76","geo_precision":"zip","state":"TX"},"type":"Feature","geometry":{"type":"Point","coordinates":[-106.578047,31.958713]}},{"properties":{"city":"CANUTILLO","zip":"79835","geo_score":0.873,"id":"a6s4timxq0zk","geo_precision":"zip","state":"TX"},"type":"Feature","geometry":{"type":"Point","coordinates":[-106.578047,31.958713]}},{"properties":{"city":"CAREY","zip":"43316","geo_score":0.87,"id":"a6s4tiohl1d5","geo_precision":"zip","state":"OH"},"type":"Feature","geometry":{"type":"Point","coordinates":[-83.386591,41.009777]}},{"properties":{"city":"CAREY","zip":"43316","geo_score":0.87,"id":"a6s4tit8bl0n","geo_precision":"zip","state":"OH"},"type":"Feature","geometry":{"type":"Point","coordinates":[-83.386591,41.009777]}},{"properties":{"city":"CAREY","zip":"43316","geo_score":0.87,"id":"a6s4tilu9c83","geo_precision":"zip","state":"OH"},"type":"Feature","geometry":{"type":"Point","coordinates":[-83.386591,41.009777]}},{"properties":{"city":"CAREY","zip":"43316","geo_score":0.87,"id":"a6s4tiivak1m","geo_precision":"zip","state":"OH"},"type":"Feature","geometry":{"type":"Point","coordinates":[-83.386591,41.009777]}},{"properties":{"city":"CARROLL","zip":"51401","geo_score":0.857,"id":"a6s4tintc36y","geo_precision":"zip","state":"IA"},"type":"Feature","geometry":{"type":"Point","coordinates":[-94.822207,41.979153]}},{"properties":{"city":"CEDAR KEY","zip":"32625","geo_score":1.0,"id":"a6s4tiiy2p50","geo_precision":"zip","state":"FL"},"type":"Feature","geometry":{"type":"Point","coordinates":[-82.991541,29.188034]}},{"properties":{"city":"CENTREVILLE","zip":"20120","geo_score":1.0,"id":"a6s4tip69ov2","geo_precision":"zip","state":"VA"},"type":"Feature","geometry":{"type":"Point","coordinates":[-77.46701,38.84479]}},{"properties":{"city":"CHARLOTTE","zip":"28216","geo_score":1.0,"id":"a6s4tiu4mrxy","geo_precision":"zip","state":"NC"},"type":"Feature","geometry":{"type":"Point","coordinates":[-80.895731,35.298775]}},{"properties":{"city":"CHERAW","zip":"29520","geo_score":0.883,"id":"a6s4tis8i42z","geo_precision":"zip","state":"SC"},"type":"Feature","geometry":{"type":"Point","coordinates":[-79.923953,34.70099]}},{"properties":{"city":"CHESHIRE","zip":"6410","geo_score":0.952,"id":"a6s4tipaw3pn","geo_precision":"zip","state":"CT"},"type":"Feature","geometry":{"type":"Point","coordinates":[-72.918436,41.511486]}},{"properties":{"city":"CHESTER","zip":"23836","geo_score":1.0,"id":"a6s4titr30vz","geo_precision":"zip","state":"VA"},"type":"Feature","geometry":{"type":"Point","coordinates":[-77.338551,37.347458]}},{"properties":{"city":"CHICAGO","zip":"60655","geo_score":0.876,"id":"a6s4tindzxmf","geo_precision":"zip","state":"IL"},"type":"Feature","geometry":{"type":"Point","coordinates":[-87.700328,41.6842]}},{"properties":{"city":"CICERO","zip":"60804","geo_score":1.0,"id":"a6s4tim5mrdt","geo_precision":"zip","state":"IL"},"type":"Feature","geometry":{"type":"Point","coordinates":[-87.68732,41.811929]}},{"properties":{"city":"CINCINNATI","zip":"45238","geo_score":0.871,"id":"a6s4tihoyupc","geo_precision":"zip","state":"OH"},"type":"Feature","geometry":{"type":"Point","coordinates":[-84.612723,39.092837]}},{"properties":{"city":"CINCINNATI","zip":"45238","geo_score":0.871,"id":"a6s4tim9zpy9","geo_precision":"zip","state":"OH"},"type":"Feature","geometry":{"type":"Point","coordinates":[-84.612723,39.092837]}},{"properties":{"city":"CINCINNATI","zip":"45238","geo_score":0.871,"id":"a6s4tiulq210","geo_precision":"zip","state":"OH"},"type":"Feature","geometry":{"type":"Point","coordinates":[-84.612723,39.092837]}},{"properties":{"city":"CLEVELAND","zip":"30528","geo_score":0.905,"id":"a6s4tijx9jb5","geo_precision":"zip","state":"GA"},"type":"Feature","geometry":{"type":"Point","coordinates":[-83.661011,34.574541]}},{"properties":{"city":"CLEVELAND","zip":"30528","geo_score":0.905,"id":"a6s4tivwk6xa","geo_precision":"zip","state":"GA"},"type":"Feature","geometry":{"type":"Point","coordinates":[-83.661011,34.574541]}},{"properties":{"city":"CLEVELAND","zip":"30528","geo_score":0.905,"id":"a6s4tii44aoc","geo_precision":"zip","state":"GA"},"type":"Feature","geometry":{"type":"Point","coordinates":[-83.661011,34.574541]}},{"properties":{"city":"CLEVELAND","zip":"30528","geo_score":0.905,"id":"a6s4tit4nj9l","geo_precision":"zip","state":"GA"},"type":"Feature","geometry":{"type":"Point","coordinates":[-83.661011,34.574541]}},{"properties":{"city":"CLIVE","zip":"50325","geo_score":1.0,"id":"a6s4tigkkl7v","geo_precision":"zip","state":"IA"},"type":"Feature","geometry":{"type":"Point","coordinates":[-93.744905,41.607588]}},{"properties":{"city":"COLORADO CITY","zip":"79512","geo_score":0.881,"id":"a6s4tiscpnu5","geo_precision":"zip","state":"TX"},"type":"Feature","geometry":{"type":"Point","coordinates":[-100.775946,32.494005]}},{"properties":{"city":"COLORADO CITY","zip":"79512","geo_score":0.881,"id":"a6s4tiiey6yw","geo_precision":"zip","state":"TX"},"type":"Feature","geometry":{"type":"Point","coordinates":[-100.775946,32.494005]}},{"properties":{"city":"COLORADO SPRINGS","zip":"80906","geo_score":0.876,"id":"a6s4tigunbfv","geo_precision":"zip","state":"CO"},"type":"Feature","geometry":{"type":"Point","coordinates":[-104.81164,38.803326]}},{"properties":{"city":"COLUMBIA","zip":"29229","geo_score":1.0,"id":"a6s4tiwhdkdt","geo_precision":"zip","state":"SC"},"type":"Feature","geometry":{"type":"Point","coordinates":[-80.884194,34.12266]}},{"properties":{"city":"COLUMBUS","zip":"28722","geo_score":1.0,"id":"a6s4tij80994","geo_precision":"zip","state":"NC"},"type":"Feature","geometry":{"type":"Point","coordinates":[-82.123534,35.261201]}},{"properties":{"city":"COLVILLE","zip":"99114","geo_score":0.875,"id":"a6s4tiirk7ac","geo_precision":"zip","state":"WA"},"type":"Feature","geometry":{"type":"Point","coordinates":[-117.650533,48.829635]}},{"properties":{"city":"COMBINED LOCKS","zip":"54113","geo_score":1.0,"id":"a6s4tilopsuf","geo_precision":"zip","state":"WI"},"type":"Feature","geometry":{"type":"Point","coordinates":[-88.361208,44.348711]}},{"properties":{"city":"COOS BAY","zip":"97420","geo_score":0.857,"id":"a6s4tis653ll","geo_precision":"zip","state":"OR"},"type":"Feature","geometry":{"type":"Point","coordinates":[-124.150941,43.281778]}},{"properties":{"city":"CORAM","zip":"11727","geo_score":0.879,"id":"a6s4tindsk63","geo_precision":"zip","state":"NY"},"type":"Feature","geometry":{"type":"Point","coordinates":[-72.970661,40.85871]}},{"properties":{"city":"CORINNE","zip":"84307","geo_score":0.886,"id":"a6s4tina203h","geo_precision":"zip","state":"UT"},"type":"Feature","geometry":{"type":"Point","coordinates":[-112.548304,41.618537]}},{"properties":{"city":"CRAIG","zip":"99921","geo_score":1.0,"id":"a6s4tiq5zmhs","geo_precision":"zip","state":"AK"},"type":"Feature","geometry":{"type":"Point","coordinates":[-133.117022,55.513301]}},{"properties":{"city":"CREAL SPRINGS","zip":"62922","geo_score":0.881,"id":"a6s4tiky3rcd","geo_precision":"zip","state":"IL"},"type":"Feature","geometry":{"type":"Point","coordinates":[-88.800062,37.570328]}},{"properties":{"city":"CROSS PLAINS","zip":"53528","geo_score":0.87,"id":"a6s4tiq0179q","geo_precision":"zip","state":"WI"},"type":"Feature","geometry":{"type":"Point","coordinates":[-89.655678,43.060829]}},{"properties":{"city":"CROSS PLAINS","zip":"53528","geo_score":0.87,"id":"a6s4tijoa9km","geo_precision":"zip","state":"WI"},"type":"Feature","geometry":{"type":"Point","coordinates":[-89.655678,43.060829]}},{"properties":{"city":"CUMMING","zip":"30028","geo_score":1.0,"id":"a6s4tigys1qn","geo_precision":"zip","state":"GA"},"type":"Feature","geometry":{"type":"Point","coordinates":[-84.092588,34.193041]}},{"properties":{"city":"DALLAS","zip":"75201","geo_score":1.0,"id":"a6s4tirpbfcw","geo_precision":"zip","state":"TX"},"type":"Feature","geometry":{"type":"Point","coordinates":[-96.790329,32.781179]}},{"properties":{"city":"DALTON","zip":"30721","geo_score":1.0,"id":"a6s4tiglrjb0","geo_precision":"zip","state":"GA"},"type":"Feature","geometry":{"type":"Point","coordinates":[-84.91381,34.788493]}},{"properties":{"city":"DAMASCUS","zip":"20872","geo_score":0.878,"id":"a6s4tijj75j2","geo_precision":"zip","state":"MD"},"type":"Feature","geometry":{"type":"Point","coordinates":[-77.19776,39.317327]}},{"properties":{"city":"DANBURY","zip":"6811","geo_score":1.0,"id":"a6s4tinrspwb","geo_precision":"zip","state":"CT"},"type":"Feature","geometry":{"type":"Point","coordinates":[-73.478717,41.42333]}},{"properties":{"city":"DANVILLE","zip":"94506","geo_score":0.873,"id":"a6s4tiiqohog","geo_precision":"zip","state":"CA"},"type":"Feature","geometry":{"type":"Point","coordinates":[-121.907736,37.82076]}},{"properties":{"city":"DANVILLE","zip":"24541","geo_score":0.889,"id":"a6s4tijjp0sl","geo_precision":"zip","state":"VA"},"type":"Feature","geometry":{"type":"Point","coordinates":[-79.472525,36.547083]}},{"properties":{"city":"DAVENPORT","zip":"33837","geo_score":1.0,"id":"a6s4tige35r0","geo_precision":"zip","state":"FL"},"type":"Feature","geometry":{"type":"Point","coordinates":[-81.647317,28.164093]}},{"properties":{"city":"DAVIS","zip":"95618","geo_score":0.875,"id":"a6s4tiqwgyrq","geo_precision":"zip","state":"CA"},"type":"Feature","geometry":{"type":"Point","coordinates":[-121.685904,38.54431]}},{"properties":{"city":"DAVIS","zip":"95618","geo_score":0.875,"id":"a6s4tiisfpju","geo_precision":"zip","state":"CA"},"type":"Feature","geometry":{"type":"Point","coordinates":[-121.685904,38.54431]}},{"properties":{"city":"DAYTON","zip":"45431","geo_score":0.873,"id":"a6s4tih6viui","geo_precision":"zip","state":"OH"},"type":"Feature","geometry":{"type":"Point","coordinates":[-84.057435,39.727837]}},{"properties":{"city":"DECATUR","zip":"76234","geo_score":0.871,"id":"a6s4tiiyk9my","geo_precision":"zip","state":"TX"},"type":"Feature","geometry":{"type":"Point","coordinates":[-97.87837,33.167894]}},{"properties":{"city":"DENTON","zip":"76210","geo_score":0.869,"id":"a6s4tiuftq4k","geo_precision":"zip","state":"TX"},"type":"Feature","geometry":{"type":"Point","coordinates":[-97.029776,33.110119]}},{"properties":{"city":"DRAPER","zip":"84020","geo_score":1.0,"id":"a6s4tiox8gd9","geo_precision":"zip","state":"UT"},"type":"Feature","geometry":{"type":"Point","coordinates":[-111.869671,40.506148]}},{"properties":{"city":"DUBLIN","zip":"43016","geo_score":1.0,"id":"a6s4tii2o2pg","geo_precision":"zip","state":"OH"},"type":"Feature","geometry":{"type":"Point","coordinates":[-83.011389,39.969036]}},{"properties":{"city":"EDGEWOOD","zip":"21040","geo_score":0.878,"id":"a6s4tir5r2vn","geo_precision":"zip","state":"MD"},"type":"Feature","geometry":{"type":"Point","coordinates":[-76.308013,39.448164]}},{"properties":{"city":"EDMOND","zip":"73034","geo_score":0.875,"id":"a6s4tih1wjpa","geo_precision":"zip","state":"OK"},"type":"Feature","geometry":{"type":"Point","coordinates":[-97.478096,35.72533]}},{"properties":{"city":"EL CAJON","zip":"92021","geo_score":0.875,"id":"a6s4tiis4e54","geo_precision":"zip","state":"CA"},"type":"Feature","geometry":{"type":"Point","coordinates":[-116.905859,32.832273]}},{"properties":{"city":"ELGIN","zip":"73538","geo_score":0.886,"id":"a6s4til107ae","geo_precision":"zip","state":"OK"},"type":"Feature","geometry":{"type":"Point","coordinates":[-98.386721,34.782568]}},{"properties":{"city":"ELK GROVE","zip":"95758","geo_score":1.0,"id":"a6s4tij5axvw","geo_precision":"zip","state":"CA"},"type":"Feature","geometry":{"type":"Point","coordinates":[-121.428681,38.347205]}},{"properties":{"city":"ELKHART","zip":"75839","geo_score":0.878,"id":"a6s4tiso45b6","geo_precision":"zip","state":"TX"},"type":"Feature","geometry":{"type":"Point","coordinates":[-95.462173,31.631286]}},{"properties":{"city":"ELLENSBURG","zip":"98926","geo_score":0.857,"id":"a6s4tiprs5s6","geo_precision":"zip","state":"WA"},"type":"Feature","geometry":{"type":"Point","coordinates":[-120.51118,46.930404]}},{"properties":{"city":"ELY","zip":"89301","geo_score":0.878,"id":"a6s4tigrpyy6","geo_precision":"zip","state":"NV"},"type":"Feature","geometry":{"type":"Point","coordinates":[-115.060573,38.913553]}},{"properties":{"city":"ENCINITAS","zip":"92024","geo_score":0.871,"id":"a6s4tiowkm6d","geo_precision":"zip","state":"CA"},"type":"Feature","geometry":{"type":"Point","coordinates":[-117.234758,33.046153]}},{"properties":{"city":"ENDICOTT","zip":"13760","geo_score":0.896,"id":"a6s4tirmp6ro","geo_precision":"zip","state":"NY"},"type":"Feature","geometry":{"type":"Point","coordinates":[-76.069092,42.151464]}},{"properties":{"city":"ENDICOTT","zip":"13760","geo_score":0.896,"id":"a6s4tih80crj","geo_precision":"zip","state":"NY"},"type":"Feature","geometry":{"type":"Point","coordinates":[-76.069092,42.151464]}},{"properties":{"city":"ENFIELD","zip":"6082","geo_score":0.867,"id":"a6s4tig1zyja","geo_precision":"zip","state":"CT"},"type":"Feature","geometry":{"type":"Point","coordinates":[-72.571477,41.962597]}},{"properties":{"city":"ENGLEWOOD","zip":"80112","geo_score":1.0,"id":"a6s4tilvnla2","geo_precision":"zip","state":"CO"},"type":"Feature","geometry":{"type":"Point","coordinates":[-104.862194,39.581238]}},{"properties":{"city":"ESCONDIDO","zip":"92027","geo_score":1.0,"id":"a6s4tis0krx5","geo_precision":"zip","state":"CA"},"type":"Feature","geometry":{"type":"Point","coordinates":[-116.846046,33.016928]}},{"properties":{"city":"ESCONDIDO","zip":"92027","geo_score":1.0,"id":"a6s4tirsdn6s","geo_precision":"zip","state":"CA"},"type":"Feature","geometry":{"type":"Point","coordinates":[-116.846046,33.016928]}},{"properties":{"city":"ESCONDIDO","zip":"92027","geo_score":1.0,"id":"a6s4tiqsyr4h","geo_precision":"zip","state":"CA"},"type":"Feature","geometry":{"type":"Point","coordinates":[-116.846046,33.016928]}},{"properties":{"city":"ESCONDIDO","zip":"92027","geo_score":1.0,"id":"a6s4titn2l03","geo_precision":"zip","state":"CA"},"type":"Feature","geometry":{"type":"Point","coordinates":[-116.846046,33.016928]}},{"properties":{"city":"ETOWAH","zip":"37331","geo_score":0.869,"id":"a6s4tiw05vib","geo_precision":"zip","state":"TN"},"type":"Feature","geometry":{"type":"Point","coordinates":[-84.529375,35.353962]}},{"properties":{"city":"FAIRFAX","zip":"22033","geo_score":1.0,"id":"a6s4tijtvv84","geo_precision":"zip","state":"VA"},"type":"Feature","geometry":{"type":"Point","coordinates":[-77.378858,38.879466]}},{"properties":{"city":"FAIRFAX","zip":"22033","geo_score":1.0,"id":"a6s4tipkdgfn","geo_precision":"zip","state":"VA"},"type":"Feature","geometry":{"type":"Point","coordinates":[-77.378858,38.879466]}},{"properties":{"city":"FAIRFAX","zip":"22033","geo_score":1.0,"id":"a6s4tigdbvqh","geo_precision":"zip","state":"VA"},"type":"Feature","geometry":{"type":"Point","coordinates":[-77.378858,38.879466]}},{"properties":{"city":"FAIRFAX","zip":"22033","geo_score":1.0,"id":"a6s4tiumqd34","geo_precision":"zip","state":"VA"},"type":"Feature","geometry":{"type":"Point","coordinates":[-77.378858,38.879466]}},{"properties":{"city":"FAIRFAX","zip":"22030","geo_score":0.868,"id":"a6s4tit46t79","geo_precision":"zip","state":"VA"},"type":"Feature","geometry":{"type":"Point","coordinates":[-77.40471,38.839835]}},{"properties":{"city":"FAIRFIELD","zip":"94534","geo_score":0.889,"id":"a6s4tioc5v2h","geo_precision":"zip","state":"CA"},"type":"Feature","geometry":{"type":"Point","coordinates":[-122.264316,38.107945]}},{"properties":{"city":"FAIRFIELD","zip":"94534","geo_score":0.889,"id":"a6s4tils0b8n","geo_precision":"zip","state":"CA"},"type":"Feature","geometry":{"type":"Point","coordinates":[-122.264316,38.107945]}},{"properties":{"city":"FAIRPORT","zip":"14450","geo_score":0.893,"id":"a6s4tikbtfcz","geo_precision":"zip","state":"NY"},"type":"Feature","geometry":{"type":"Point","coordinates":[-77.407491,43.06423]}},{"properties":{"city":"FAIRPORT","zip":"14450","geo_score":0.893,"id":"a6s4tisn97sx","geo_precision":"zip","state":"NY"},"type":"Feature","geometry":{"type":"Point","coordinates":[-77.407491,43.06423]}},{"properties":{"city":"FAIRPORT","zip":"14450","geo_score":0.893,"id":"a6s4timluk7p","geo_precision":"zip","state":"NY"},"type":"Feature","geometry":{"type":"Point","coordinates":[-77.407491,43.06423]}},{"properties":{"city":"FAIRPORT","zip":"14450","geo_score":0.893,"id":"a6s4tihse955","geo_precision":"zip","state":"NY"},"type":"Feature","geometry":{"type":"Point","coordinates":[-77.407491,43.06423]}},{"properties":{"city":"FALKVILLE","zip":"35622","geo_score":0.889,"id":"a6s4tijhew2a","geo_precision":"zip","state":"AL"},"type":"Feature","geometry":{"type":"Point","coordinates":[-86.800834,34.333429]}},{"properties":{"city":"FALMOUTH","zip":"4105","geo_score":0.879,"id":"a6s4tiudcklg","geo_precision":"zip","state":"ME"},"type":"Feature","geometry":{"type":"Point","coordinates":[-70.217271,43.706193]}},{"properties":{"city":"FALMOUTH","zip":"4105","geo_score":0.879,"id":"a6s4tilmotgw","geo_precision":"zip","state":"ME"},"type":"Feature","geometry":{"type":"Point","coordinates":[-70.217271,43.706193]}},{"properties":{"city":"FALMOUTH","zip":"4105","geo_score":0.879,"id":"a6s4tijzqz4c","geo_precision":"zip","state":"ME"},"type":"Feature","geometry":{"type":"Point","coordinates":[-70.217271,43.706193]}},{"properties":{"city":"FARMINGTON","zip":"55024","geo_score":0.871,"id":"a6s4tin7ry3v","geo_precision":"zip","state":"MN"},"type":"Feature","geometry":{"type":"Point","coordinates":[-93.014657,44.659134]}},{"properties":{"city":"FARMINGTON","zip":"55024","geo_score":0.871,"id":"a6s4tigt5bbx","geo_precision":"zip","state":"MN"},"type":"Feature","geometry":{"type":"Point","coordinates":[-93.014657,44.659134]}},{"properties":{"city":"FARMINGTON","zip":"55024","geo_score":0.871,"id":"a6s4tigl1z5z","geo_precision":"zip","state":"MN"},"type":"Feature","geometry":{"type":"Point","coordinates":[-93.014657,44.659134]}},{"properties":{"city":"FARMINGTON","zip":"55024","geo_score":0.871,"id":"a6s4tikkkb1n","geo_precision":"zip","state":"MN"},"type":"Feature","geometry":{"type":"Point","coordinates":[-93.014657,44.659134]}},{"properties":{"city":"FAYETTEVILLE","zip":"17222","geo_score":0.964,"id":"a6s4tiqxeobn","geo_precision":"zip","state":"PA"},"type":"Feature","geometry":{"type":"Point","coordinates":[-77.574156,39.916758]}},{"properties":{"city":"FAYETTEVILLE","zip":"28314","geo_score":1.0,"id":"a6s4tirabewv","geo_precision":"zip","state":"NC"},"type":"Feature","geometry":{"type":"Point","coordinates":[-79.011328,35.05425]}},{"properties":{"city":"FAYETTEVILLE","zip":"17222","geo_score":0.964,"id":"a6s4tim6psk6","geo_precision":"zip","state":"PA"},"type":"Feature","geometry":{"type":"Point","coordinates":[-77.574156,39.916758]}},{"properties":{"city":"FERRYVILLE","zip":"54628","geo_score":0.857,"id":"a6s4tii3yee5","geo_precision":"zip","state":"WI"},"type":"Feature","geometry":{"type":"Point","coordinates":[-90.958184,43.418031]}},{"properties":{"city":"FOLCROFT","zip":"19032","geo_score":1.0,"id":"a6s4tig0iua2","geo_precision":"zip","state":"PA"},"type":"Feature","geometry":{"type":"Point","coordinates":[-75.278829,39.895162]}},{"properties":{"city":"FOREST GROVE","zip":"97116","geo_score":0.883,"id":"a6s4tiu2k7ue","geo_precision":"zip","state":"OR"},"type":"Feature","geometry":{"type":"Point","coordinates":[-123.086774,45.549559]}},{"properties":{"city":"FOREST PARK","zip":"60130","geo_score":1.0,"id":"a6s4tik41aci","geo_precision":"zip","state":"IL"},"type":"Feature","geometry":{"type":"Point","coordinates":[-87.68732,41.811929]}},{"properties":{"city":"FORT KNOX","zip":"40121","geo_score":0.883,"id":"a6s4tithtaw6","geo_precision":"zip","state":"KY"},"type":"Feature","geometry":{"type":"Point","coordinates":[-85.977186,37.89507]}},{"properties":{"city":"FORT LAUDERDALE","zip":"33328","geo_score":0.878,"id":"a6s4tips2b5d","geo_precision":"zip","state":"FL"},"type":"Feature","geometry":{"type":"Point","coordinates":[-80.233104,26.062867]}},{"properties":{"city":"FORT LAUDERDALE","zip":"33328","geo_score":0.878,"id":"a6s4tikc9aex","geo_precision":"zip","state":"FL"},"type":"Feature","geometry":{"type":"Point","coordinates":[-80.233104,26.062867]}},{"properties":{"city":"FORT WALTON BEACH","zip":"32547","geo_score":1.0,"id":"a6s4tiiboeks","geo_precision":"zip","state":"FL"},"type":"Feature","geometry":{"type":"Point","coordinates":[-86.62545,30.448726]}},{"properties":{"city":"FRAMINGHAM","zip":"1702","geo_score":1.0,"id":"a6s4tis7bszn","geo_precision":"zip","state":"MA"},"type":"Feature","geometry":{"type":"Point","coordinates":[-71.459405,42.446396]}},{"properties":{"city":"FRONT ROYAL","zip":"22630","geo_score":0.886,"id":"a6s4tiu4rzb6","geo_precision":"zip","state":"VA"},"type":"Feature","geometry":{"type":"Point","coordinates":[-78.14111,38.989553]}},{"properties":{"city":"FUQUAY VARINA","zip":"27526","geo_score":0.869,"id":"a6s4tis5fizq","geo_precision":"zip","state":"NC"},"type":"Feature","geometry":{"type":"Point","coordinates":[-78.836957,35.597656]}},{"properties":{"city":"GAITHERSBURG","zip":"20877","geo_score":1.0,"id":"a6s4tit6z9r8","geo_precision":"zip","state":"MD"},"type":"Feature","geometry":{"type":"Point","coordinates":[-77.182953,39.139336]}},{"properties":{"city":"GAITHERSBURG","zip":"20877","geo_score":1.0,"id":"a6s4tindxyyz","geo_precision":"zip","state":"MD"},"type":"Feature","geometry":{"type":"Point","coordinates":[-77.182953,39.139336]}},{"properties":{"city":"GAITHERSBURG","zip":"20877","geo_score":1.0,"id":"a6s4tiq12556","geo_precision":"zip","state":"MD"},"type":"Feature","geometry":{"type":"Point","coordinates":[-77.182953,39.139336]}},{"properties":{"city":"GAITHERSBURG","zip":"20877","geo_score":1.0,"id":"a6s4tii4a71a","geo_precision":"zip","state":"MD"},"type":"Feature","geometry":{"type":"Point","coordinates":[-77.182953,39.139336]}},{"properties":{"city":"GARDEN CITY","zip":"67846","geo_score":0.9,"id":"a6s4tipyy5q5","geo_precision":"zip","state":"KS"},"type":"Feature","geometry":{"type":"Point","coordinates":[-100.910993,38.163356]}},{"properties":{"city":"GEFF","zip":"62842","geo_score":0.888,"id":"a6s4tiq1ptx1","geo_precision":"zip","state":"IL"},"type":"Feature","geometry":{"type":"Point","coordinates":[-88.403971,38.442396]}},{"properties":{"city":"GIBSON","zip":"28343","geo_score":0.875,"id":"a6s4tili70rh","geo_precision":"zip","state":"NC"},"type":"Feature","geometry":{"type":"Point","coordinates":[-79.561441,34.734604]}},{"properties":{"city":"GOLDEN","zip":"80403","geo_score":0.893,"id":"a6s4tisz003l","geo_precision":"zip","state":"CO"},"type":"Feature","geometry":{"type":"Point","coordinates":[-105.34277,39.92832]}},{"properties":{"city":"GOODYEAR","zip":"85338","geo_score":1.0,"id":"a6s4tio5ws71","geo_precision":"zip","state":"AZ"},"type":"Feature","geometry":{"type":"Point","coordinates":[-112.18717,33.276539]}},{"properties":{"city":"GOSHEN","zip":"45122","geo_score":0.881,"id":"a6s4til3afcn","geo_precision":"zip","state":"OH"},"type":"Feature","geometry":{"type":"Point","coordinates":[-84.107156,39.193117]}},{"properties":{"city":"GRAND RAPIDS","zip":"49506","geo_score":0.962,"id":"a6s4tiim9idj","geo_precision":"zip","state":"MI"},"type":"Feature","geometry":{"type":"Point","coordinates":[-85.610028,42.941139]}},{"properties":{"city":"GREAT FALLS","zip":"59405","geo_score":1.0,"id":"a6s4tioypvqc","geo_precision":"zip","state":"MT"},"type":"Feature","geometry":{"type":"Point","coordinates":[-111.290803,47.277623]}},{"properties":{"city":"GREAT FALLS","zip":"59405","geo_score":1.0,"id":"a6s4timh76m7","geo_precision":"zip","state":"MT"},"type":"Feature","geometry":{"type":"Point","coordinates":[-111.290803,47.277623]}},{"properties":{"city":"GREAT FALLS","zip":"59405","geo_score":1.0,"id":"a6s4tirss745","geo_precision":"zip","state":"MT"},"type":"Feature","geometry":{"type":"Point","coordinates":[-111.290803,47.277623]}},{"properties":{"city":"GREAT FALLS","zip":"59405","geo_score":1.0,"id":"a6s4tit4vzfh","geo_precision":"zip","state":"MT"},"type":"Feature","geometry":{"type":"Point","coordinates":[-111.290803,47.277623]}},{"properties":{"city":"GREELEY","zip":"80634","geo_score":1.0,"id":"a6s4tivg6whx","geo_precision":"zip","state":"CO"},"type":"Feature","geometry":{"type":"Point","coordinates":[-104.796453,40.281195]}},{"properties":{"city":"GREENVILLE","zip":"29611","geo_score":0.882,"id":"a6s4tiv2arjx","geo_precision":"zip","state":"SC"},"type":"Feature","geometry":{"type":"Point","coordinates":[-82.459013,34.860951]}},{"properties":{"city":"GREENWOOD","zip":"29646","geo_score":0.857,"id":"a6s4tiqr80u3","geo_precision":"zip","state":"SC"},"type":"Feature","geometry":{"type":"Point","coordinates":[-82.210957,34.082067]}},{"properties":{"city":"GRETNA","zip":"70056","geo_score":0.889,"id":"a6s4tiiw2e1b","geo_precision":"zip","state":"LA"},"type":"Feature","geometry":{"type":"Point","coordinates":[-90.032571,29.910205]}},{"properties":{"city":"GULFPORT","zip":"39501","geo_score":0.945,"id":"a6s4tihugkqa","geo_precision":"zip","state":"MS"},"type":"Feature","geometry":{"type":"Point","coordinates":[-89.094205,30.414364]}},{"properties":{"city":"GULFPORT","zip":"39501","geo_score":0.945,"id":"a6s4tijyyabs","geo_precision":"zip","state":"MS"},"type":"Feature","geometry":{"type":"Point","coordinates":[-89.094205,30.414364]}},{"properties":{"city":"GULFPORT","zip":"39501","geo_score":0.945,"id":"a6s4tiiyi7nj","geo_precision":"zip","state":"MS"},"type":"Feature","geometry":{"type":"Point","coordinates":[-89.094205,30.414364]}},{"properties":{"city":"GULFPORT","zip":"39501","geo_score":0.945,"id":"a6s4tiobzw2a","geo_precision":"zip","state":"MS"},"type":"Feature","geometry":{"type":"Point","coordinates":[-89.094205,30.414364]}},{"properties":{"city":"GULFPORT","zip":"39501","geo_score":0.945,"id":"a6s4tiksgpgs","geo_precision":"zip","state":"MS"},"type":"Feature","geometry":{"type":"Point","coordinates":[-89.094205,30.414364]}},{"properties":{"city":"GULFPORT","zip":"39501","geo_score":0.945,"id":"a6s4tiq6e9yh","geo_precision":"zip","state":"MS"},"type":"Feature","geometry":{"type":"Point","coordinates":[-89.094205,30.414364]}},{"properties":{"city":"GULFPORT","zip":"39501","geo_score":0.945,"id":"a6s4tig32i7c","geo_precision":"zip","state":"MS"},"type":"Feature","geometry":{"type":"Point","coordinates":[-89.094205,30.414364]}},{"properties":{"city":"GULFPORT","zip":"39501","geo_score":0.945,"id":"a6s4tirh05hu","geo_precision":"zip","state":"MS"},"type":"Feature","geometry":{"type":"Point","coordinates":[-89.094205,30.414364]}},{"properties":{"city":"GUYTON","zip":"31312","geo_score":0.878,"id":"a6s4tin3564q","geo_precision":"zip","state":"GA"},"type":"Feature","geometry":{"type":"Point","coordinates":[-81.3915,32.286864]}},{"properties":{"city":"HAMILTON","zip":"45013","geo_score":0.873,"id":"a6s4tive15lf","geo_precision":"zip","state":"OH"},"type":"Feature","geometry":{"type":"Point","coordinates":[-84.654393,39.389222]}},{"properties":{"city":"HAMILTON","zip":"45013","geo_score":0.873,"id":"a6s4tiw0sbsz","geo_precision":"zip","state":"OH"},"type":"Feature","geometry":{"type":"Point","coordinates":[-84.654393,39.389222]}},{"properties":{"city":"HAMILTON","zip":"45013","geo_score":0.873,"id":"a6s4tipdoccy","geo_precision":"zip","state":"OH"},"type":"Feature","geometry":{"type":"Point","coordinates":[-84.654393,39.389222]}},{"properties":{"city":"HAMMOND","zip":"70401","geo_score":0.879,"id":"a6s4tigywy7m","geo_precision":"zip","state":"LA"},"type":"Feature","geometry":{"type":"Point","coordinates":[-90.542035,30.454915]}},{"properties":{"city":"HARRISBURG","zip":"17112","geo_score":0.87,"id":"a6s4tilwpo01","geo_precision":"zip","state":"PA"},"type":"Feature","geometry":{"type":"Point","coordinates":[-76.725525,40.339256]}},{"properties":{"city":"HARRISBURG","zip":"17112","geo_score":0.87,"id":"a6s4tihkcqoi","geo_precision":"zip","state":"PA"},"type":"Feature","geometry":{"type":"Point","coordinates":[-76.725525,40.339256]}},{"properties":{"city":"HARRISBURG","zip":"17112","geo_score":0.87,"id":"a6s4tiudaqvy","geo_precision":"zip","state":"PA"},"type":"Feature","geometry":{"type":"Point","coordinates":[-76.725525,40.339256]}},{"properties":{"city":"HARRISBURG","zip":"17112","geo_score":0.87,"id":"a6s4tiroaje9","geo_precision":"zip","state":"PA"},"type":"Feature","geometry":{"type":"Point","coordinates":[-76.725525,40.339256]}},{"properties":{"city":"HARRISBURG","zip":"17112","geo_score":0.87,"id":"a6s4tiw9ihck","geo_precision":"zip","state":"PA"},"type":"Feature","geometry":{"type":"Point","coordinates":[-76.725525,40.339256]}},{"properties":{"city":"HARTLY","zip":"19953","geo_score":0.905,"id":"a6s4tiswerno","geo_precision":"zip","state":"DE"},"type":"Feature","geometry":{"type":"Point","coordinates":[-75.64215,39.116501]}},{"properties":{"city":"HARTSELLE","zip":"35640","geo_score":0.879,"id":"a6s4tipf5hy5","geo_precision":"zip","state":"AL"},"type":"Feature","geometry":{"type":"Point","coordinates":[-86.931395,34.422318]}},{"properties":{"city":"HATTIESBURG","zip":"39401","geo_score":0.883,"id":"a6s4tij3n3eu","geo_precision":"zip","state":"MS"},"type":"Feature","geometry":{"type":"Point","coordinates":[-89.213948,31.312398]}},{"properties":{"city":"HATTIESBURG","zip":"39401","geo_score":0.883,"id":"a6s4tigh6mhd","geo_precision":"zip","state":"MS"},"type":"Feature","geometry":{"type":"Point","coordinates":[-89.213948,31.312398]}},{"properties":{"city":"HAYES","zip":"23072","geo_score":0.875,"id":"a6s4tikgi9dc","geo_precision":"zip","state":"VA"},"type":"Feature","geometry":{"type":"Point","coordinates":[-76.483005,37.267921]}},{"properties":{"city":"HAYS","zip":"67601","geo_score":0.857,"id":"a6s4tipdb6lk","geo_precision":"zip","state":"KS"},"type":"Feature","geometry":{"type":"Point","coordinates":[-99.423996,38.907234]}},{"properties":{"city":"HELENA","zip":"35080","geo_score":1.0,"id":"a6s4titp2wdm","geo_precision":"zip","state":"AL"},"type":"Feature","geometry":{"type":"Point","coordinates":[-86.901975,33.266341]}},{"properties":{"city":"HEMINGWAY","zip":"29554","geo_score":0.873,"id":"a6s4tijf5obe","geo_precision":"zip","state":"SC"},"type":"Feature","geometry":{"type":"Point","coordinates":[-79.51256,33.731833]}},{"properties":{"city":"HENRIETTA","zip":"14467","geo_score":1.0,"id":"a6s4tisskxbm","geo_precision":"zip","state":"NY"},"type":"Feature","geometry":{"type":"Point","coordinates":[-77.558902,43.058863]}},{"properties":{"city":"HERRIMAN","zip":"84096","geo_score":0.857,"id":"a6s4tijmimz0","geo_precision":"city","state":"UT"},"type":"Feature","geometry":{"type":"Point","coordinates":[-112.032994,40.514115]}},{"properties":{"city":"HIGHLAND PARK","zip":"60035","geo_score":0.869,"id":"a6s4timm79lt","geo_precision":"zip","state":"IL"},"type":"Feature","geometry":{"type":"Point","coordinates":[-87.772286,42.152526]}},{"properties":{"city":"HIGHLANDS","zip":"77562","geo_score":1.0,"id":"a6s4tig73x8z","geo_precision":"zip","state":"TX"},"type":"Feature","geometry":{"type":"Point","coordinates":[-95.434241,29.83399]}},{"properties":{"city":"HILLSBOROUGH","zip":"3244","geo_score":0.929,"id":"a6s4tim5dqng","geo_precision":"zip","state":"NH"},"type":"Feature","geometry":{"type":"Point","coordinates":[-71.975915,43.130635]}},{"properties":{"city":"HILMAR","zip":"95324","geo_score":0.881,"id":"a6s4titfny1q","geo_precision":"zip","state":"CA"},"type":"Feature","geometry":{"type":"Point","coordinates":[-120.849925,37.396882]}},{"properties":{"city":"HOLLY SPRINGS","zip":"27540","geo_score":1.0,"id":"a6s4tiw5j4n2","geo_precision":"zip","state":"NC"},"type":"Feature","geometry":{"type":"Point","coordinates":[-78.829724,35.607666]}},{"properties":{"city":"HOMER","zip":"61849","geo_score":1.0,"id":"a6s4tig6ojcv","geo_precision":"zip","state":"IL"},"type":"Feature","geometry":{"type":"Point","coordinates":[-88.154018,40.110684]}},{"properties":{"city":"HONOLULU","zip":"96818","geo_score":0.879,"id":"a6s4til7omus","geo_precision":"zip","state":"HI"},"type":"Feature","geometry":{"type":"Point","coordinates":[-157.927778,21.365278]}},{"properties":{"city":"HOT SPRINGS NATIONAL PARK","zip":"71913","geo_score":0.87,"id":"a6s4tihxjs7b","geo_precision":"zip","state":"AR"},"type":"Feature","geometry":{"type":"Point","coordinates":[-93.133793,34.464257]}},{"properties":{"city":"HOUMA","zip":"70360","geo_score":0.893,"id":"a6s4tij6b4i9","geo_precision":"zip","state":"LA"},"type":"Feature","geometry":{"type":"Point","coordinates":[-90.672589,29.554104]}},{"properties":{"city":"HOUSTON","zip":"77079","geo_score":0.857,"id":"a6s4tipj3qdi","geo_precision":"zip","state":"TX"},"type":"Feature","geometry":{"type":"Point","coordinates":[-95.642446,29.782451]}},{"properties":{"city":"HOUSTON","zip":"77079","geo_score":0.857,"id":"a6s4titcbz8p","geo_precision":"zip","state":"TX"},"type":"Feature","geometry":{"type":"Point","coordinates":[-95.642446,29.782451]}},{"properties":{"city":"HOUSTON","zip":"77064","geo_score":1.0,"id":"a6s4tiu4k66f","geo_precision":"zip","state":"TX"},"type":"Feature","geometry":{"type":"Point","coordinates":[-95.434241,29.83399]}},{"properties":{"city":"HOUSTON","zip":"77079","geo_score":0.857,"id":"a6s4tiw2u9qx","geo_precision":"zip","state":"TX"},"type":"Feature","geometry":{"type":"Point","coordinates":[-95.642446,29.782451]}},{"properties":{"city":"HOUSTON","zip":"77095","geo_score":1.0,"id":"a6s4tis310hp","geo_precision":"zip","state":"TX"},"type":"Feature","geometry":{"type":"Point","coordinates":[-95.434241,29.83399]}},{"properties":{"city":"IOWA CITY","zip":"52245","geo_score":1.0,"id":"a6s4tijsvvux","geo_precision":"zip","state":"IA"},"type":"Feature","geometry":{"type":"Point","coordinates":[-91.518388,41.668592]}},{"properties":{"city":"JACKSON","zip":"63755","geo_score":0.878,"id":"a6s4tigbzld0","geo_precision":"zip","state":"MO"},"type":"Feature","geometry":{"type":"Point","coordinates":[-89.74204,37.33033]}},{"properties":{"city":"JACKSONVILLE","zip":"32277","geo_score":1.0,"id":"a6s4tiw72nvi","geo_precision":"zip","state":"FL"},"type":"Feature","geometry":{"type":"Point","coordinates":[-81.586394,30.370439]}},{"properties":{"city":"JASPER","zip":"75951","geo_score":0.881,"id":"a6s4tijnqjs0","geo_precision":"zip","state":"TX"},"type":"Feature","geometry":{"type":"Point","coordinates":[-93.884072,30.897144]}},{"properties":{"city":"JERSEY CITY","zip":"7302","geo_score":1.0,"id":"a6s4tilltlz5","geo_precision":"zip","state":"NJ"},"type":"Feature","geometry":{"type":"Point","coordinates":[-74.047304,40.726001]}},{"properties":{"city":"JERSEY CITY","zip":"7302","geo_score":1.0,"id":"a6s4tinh0ga6","geo_precision":"zip","state":"NJ"},"type":"Feature","geometry":{"type":"Point","coordinates":[-74.047304,40.726001]}},{"properties":{"city":"JERSEY CITY","zip":"7302","geo_score":1.0,"id":"a6s4tiobim0d","geo_precision":"zip","state":"NJ"},"type":"Feature","geometry":{"type":"Point","coordinates":[-74.047304,40.726001]}},{"properties":{"city":"JERSEY CITY","zip":"7302","geo_score":1.0,"id":"a6s4tis0g2na","geo_precision":"zip","state":"NJ"},"type":"Feature","geometry":{"type":"Point","coordinates":[-74.047304,40.726001]}},{"properties":{"city":"JESSUP","zip":"20794","geo_score":0.871,"id":"a6s4tiqr9sbm","geo_precision":"zip","state":"MD"},"type":"Feature","geometry":{"type":"Point","coordinates":[-76.766916,39.162608]}},{"properties":{"city":"KALAMAZOO","zip":"49048","geo_score":1.0,"id":"a6s4timpfym1","geo_precision":"zip","state":"MI"},"type":"Feature","geometry":{"type":"Point","coordinates":[-85.588195,42.274887]}},{"properties":{"city":"KANEOHE","zip":"96744","geo_score":0.898,"id":"a6s4tiib3t4h","geo_precision":"zip","state":"HI"},"type":"Feature","geometry":{"type":"Point","coordinates":[-157.855,21.500556]}},{"properties":{"city":"KATY","zip":"77493","geo_score":1.0,"id":"a6s4tivlrerk","geo_precision":"zip","state":"TX"},"type":"Feature","geometry":{"type":"Point","coordinates":[-95.434241,29.83399]}},{"properties":{"city":"KAYENTA","zip":"86033","geo_score":0.889,"id":"a6s4tivx94ph","geo_precision":"zip","state":"AZ"},"type":"Feature","geometry":{"type":"Point","coordinates":[-109.709002,36.943058]}},{"properties":{"city":"KINGWOOD","zip":"77345","geo_score":0.857,"id":"a6s4tiou7xfd","geo_precision":"zip","state":"TX"},"type":"Feature","geometry":{"type":"Point","coordinates":[-95.434241,29.83399]}},{"properties":{"city":"KINGWOOD","zip":"77345","geo_score":0.857,"id":"a6s4tipgribr","geo_precision":"zip","state":"TX"},"type":"Feature","geometry":{"type":"Point","coordinates":[-95.434241,29.83399]}},{"properties":{"city":"KINTA","zip":"74552","geo_score":0.875,"id":"a6s4tiqvyxkm","geo_precision":"zip","state":"OK"},"type":"Feature","geometry":{"type":"Point","coordinates":[-95.156075,35.130653]}},{"properties":{"city":"KNIGHTDALE","zip":"27545","geo_score":0.886,"id":"a6s4tismp12u","geo_precision":"zip","state":"NC"},"type":"Feature","geometry":{"type":"Point","coordinates":[-78.444723,35.737097]}},{"properties":{"city":"KNOXVILLE","zip":"37918","geo_score":0.87,"id":"a6s4tilsgzue","geo_precision":"zip","state":"TN"},"type":"Feature","geometry":{"type":"Point","coordinates":[-83.771014,36.063418]}},{"properties":{"city":"KOKOMO","zip":"46902","geo_score":1.0,"id":"a6s4tiqsuzwf","geo_precision":"zip","state":"IN"},"type":"Feature","geometry":{"type":"Point","coordinates":[-86.17559,40.444291]}},{"properties":{"city":"LA HABRA","zip":"90631","geo_score":0.929,"id":"a6s4tipnm7a4","geo_precision":"zip","state":"CA"},"type":"Feature","geometry":{"type":"Point","coordinates":[-117.950619,33.960846]}},{"properties":{"city":"LAFAYETTE","zip":"94549","geo_score":1.0,"id":"a6s4tikk717l","geo_precision":"zip","state":"CA"},"type":"Feature","geometry":{"type":"Point","coordinates":[-122.120089,37.901223]}},{"properties":{"city":"LAKE JACKSON","zip":"77566","geo_score":0.955,"id":"a6s4tisprgso","geo_precision":"zip","state":"TX"},"type":"Feature","geometry":{"type":"Point","coordinates":[-95.471609,29.057746]}},{"properties":{"city":"LAKE WACCAMAW","zip":"28450","geo_score":0.881,"id":"a6s4tio88iah","geo_precision":"zip","state":"NC"},"type":"Feature","geometry":{"type":"Point","coordinates":[-78.500287,34.322113]}},{"properties":{"city":"LAKELAND","zip":"33810","geo_score":1.0,"id":"a6s4tii9upep","geo_precision":"zip","state":"FL"},"type":"Feature","geometry":{"type":"Point","coordinates":[-82.037153,28.147923]}},{"properties":{"city":"LAKEWOOD","zip":"90712","geo_score":1.0,"id":"a6s4tisp999d","geo_precision":"zip","state":"CA"},"type":"Feature","geometry":{"type":"Point","coordinates":[-118.14645,33.845624]}},{"properties":{"city":"LAKEWOOD","zip":"90712","geo_score":1.0,"id":"a6s4tiq7t54v","geo_precision":"zip","state":"CA"},"type":"Feature","geometry":{"type":"Point","coordinates":[-118.14645,33.845624]}},{"properties":{"city":"LANDER","zip":"82520","geo_score":0.874,"id":"a6s4tijwd0vk","geo_precision":"zip","state":"WY"},"type":"Feature","geometry":{"type":"Point","coordinates":[-108.183704,42.542182]}},{"properties":{"city":"LANDER","zip":"82520","geo_score":0.874,"id":"a6s4tiuhjv5l","geo_precision":"zip","state":"WY"},"type":"Feature","geometry":{"type":"Point","coordinates":[-108.183704,42.542182]}},{"properties":{"city":"LANDER","zip":"82520","geo_score":0.874,"id":"a6s4tigko050","geo_precision":"zip","state":"WY"},"type":"Feature","geometry":{"type":"Point","coordinates":[-108.183704,42.542182]}},{"properties":{"city":"LANDER","zip":"82520","geo_score":0.874,"id":"a6s4tin41hza","geo_precision":"zip","state":"WY"},"type":"Feature","geometry":{"type":"Point","coordinates":[-108.183704,42.542182]}},{"properties":{"city":"LANDER","zip":"82520","geo_score":0.874,"id":"a6s4tiq06zhg","geo_precision":"zip","state":"WY"},"type":"Feature","geometry":{"type":"Point","coordinates":[-108.183704,42.542182]}},{"properties":{"city":"LARAMIE","zip":"82070","geo_score":0.878,"id":"a6s4tirnasyt","geo_precision":"zip","state":"WY"},"type":"Feature","geometry":{"type":"Point","coordinates":[-105.636657,41.477475]}},{"properties":{"city":"LAS VEGAS","zip":"89131","geo_score":1.0,"id":"a6s4tis6zne0","geo_precision":"zip","state":"NV"},"type":"Feature","geometry":{"type":"Point","coordinates":[-115.253899,36.343521]}},{"properties":{"city":"LEESVILLE","zip":"71446","geo_score":0.937,"id":"a6s4tivn4z4g","geo_precision":"zip","state":"LA"},"type":"Feature","geometry":{"type":"Point","coordinates":[-92.829873,31.231571]}},{"properties":{"city":"LEXINGTON","zip":"40515","geo_score":1.0,"id":"a6s4tiobsa5m","geo_precision":"zip","state":"KY"},"type":"Feature","geometry":{"type":"Point","coordinates":[-84.437207,37.924774]}},{"properties":{"city":"LEXINGTON","zip":"61753","geo_score":0.893,"id":"a6s4tirewz1m","geo_precision":"zip","state":"IL"},"type":"Feature","geometry":{"type":"Point","coordinates":[-88.74701,40.61309]}},{"properties":{"city":"LIHUE","zip":"96766","geo_score":0.878,"id":"a6s4tin8fhs2","geo_precision":"zip","state":"HI"},"type":"Feature","geometry":{"type":"Point","coordinates":[-159.375833,21.972222]}},{"properties":{"city":"LITTLE ROCK","zip":"72227","geo_score":1.0,"id":"a6s4tinj4aai","geo_precision":"zip","state":"AR"},"type":"Feature","geometry":{"type":"Point","coordinates":[-92.372386,34.775747]}},{"properties":{"city":"LITTLE ROCK","zip":"72227","geo_score":1.0,"id":"a6s4tinfnfp6","geo_precision":"zip","state":"AR"},"type":"Feature","geometry":{"type":"Point","coordinates":[-92.372386,34.775747]}},{"properties":{"city":"LITTLE ROCK","zip":"72227","geo_score":1.0,"id":"a6s4timnzlkw","geo_precision":"zip","state":"AR"},"type":"Feature","geometry":{"type":"Point","coordinates":[-92.372386,34.775747]}},{"properties":{"city":"LITTLE ROCK","zip":"72227","geo_score":1.0,"id":"a6s4tir0xo02","geo_precision":"zip","state":"AR"},"type":"Feature","geometry":{"type":"Point","coordinates":[-92.372386,34.775747]}},{"properties":{"city":"LITTLETON","zip":"80123","geo_score":0.876,"id":"a6s4tiks9b3a","geo_precision":"zip","state":"CO"},"type":"Feature","geometry":{"type":"Point","coordinates":[-105.032206,39.601099]}},{"properties":{"city":"LITTLETON","zip":"80121","geo_score":1.0,"id":"a6s4tikmxwab","geo_precision":"zip","state":"CO"},"type":"Feature","geometry":{"type":"Point","coordinates":[-104.88773,39.612789]}},{"properties":{"city":"LIVERMORE","zip":"94550","geo_score":0.889,"id":"a6s4tii01bw8","geo_precision":"zip","state":"CA"},"type":"Feature","geometry":{"type":"Point","coordinates":[-121.716063,37.702985]}},{"properties":{"city":"LIVERMORE","zip":"94550","geo_score":0.889,"id":"a6s4tig3rpy1","geo_precision":"zip","state":"CA"},"type":"Feature","geometry":{"type":"Point","coordinates":[-121.716063,37.702985]}},{"properties":{"city":"LIVERMORE","zip":"94550","geo_score":0.889,"id":"a6s4tirajpwz","geo_precision":"zip","state":"CA"},"type":"Feature","geometry":{"type":"Point","coordinates":[-121.716063,37.702985]}},{"properties":{"city":"LIVONIA","zip":"14487","geo_score":0.94,"id":"a6s4tigd4y97","geo_precision":"zip","state":"NY"},"type":"Feature","geometry":{"type":"Point","coordinates":[-77.671109,42.770897]}},{"properties":{"city":"LIVONIA","zip":"14487","geo_score":0.94,"id":"a6s4titus2ku","geo_precision":"zip","state":"NY"},"type":"Feature","geometry":{"type":"Point","coordinates":[-77.671109,42.770897]}},{"properties":{"city":"LODA","zip":"60948","geo_score":1.0,"id":"a6s4tirpunea","geo_precision":"zip","state":"IL"},"type":"Feature","geometry":{"type":"Point","coordinates":[-87.9663,40.537227]}},{"properties":{"city":"LOGAN","zip":"84321","geo_score":0.869,"id":"a6s4tiv7mvyz","geo_precision":"zip","state":"UT"},"type":"Feature","geometry":{"type":"Point","coordinates":[-111.821332,41.721598]}},{"properties":{"city":"LOMBARD","zip":"60148","geo_score":0.871,"id":"a6s4tis43kst","geo_precision":"zip","state":"IL"},"type":"Feature","geometry":{"type":"Point","coordinates":[-87.987842,41.856974]}},{"properties":{"city":"LOMPOC","zip":"93437","geo_score":0.87,"id":"a6s4tio8djno","geo_precision":"zip","state":"CA"},"type":"Feature","geometry":{"type":"Point","coordinates":[-120.51817,34.748305]}},{"properties":{"city":"LOS OSOS","zip":"93412","geo_score":1.0,"id":"a6s4tiset9qc","geo_precision":"zip","state":"CA"},"type":"Feature","geometry":{"type":"Point","coordinates":[-120.455345,35.347065]}},{"properties":{"city":"LUTZ","zip":"33558","geo_score":0.857,"id":"a6s4tihddbgt","geo_precision":"zip","state":"FL"},"type":"Feature","geometry":{"type":"Point","coordinates":[-82.552994,28.182062]}},{"properties":{"city":"MADISON","zip":"53719","geo_score":1.0,"id":"a6s4tip5v0i2","geo_precision":"zip","state":"WI"},"type":"Feature","geometry":{"type":"Point","coordinates":[-89.494568,43.03125]}},{"properties":{"city":"MADISON","zip":"53704","geo_score":0.886,"id":"a6s4tioysy2a","geo_precision":"zip","state":"WI"},"type":"Feature","geometry":{"type":"Point","coordinates":[-89.379563,43.118328]}},{"properties":{"city":"MADISON","zip":"53719","geo_score":1.0,"id":"a6s4tih6xdd7","geo_precision":"zip","state":"WI"},"type":"Feature","geometry":{"type":"Point","coordinates":[-89.494568,43.03125]}},{"properties":{"city":"MADISON","zip":"53704","geo_score":0.886,"id":"a6s4tivcn2kw","geo_precision":"zip","state":"WI"},"type":"Feature","geometry":{"type":"Point","coordinates":[-89.379563,43.118328]}},{"properties":{"city":"MADISON","zip":"53719","geo_score":1.0,"id":"a6s4tijq29bz","geo_precision":"zip","state":"WI"},"type":"Feature","geometry":{"type":"Point","coordinates":[-89.494568,43.03125]}},{"properties":{"city":"MADISON","zip":"53704","geo_score":0.886,"id":"a6s4tig827as","geo_precision":"zip","state":"WI"},"type":"Feature","geometry":{"type":"Point","coordinates":[-89.379563,43.118328]}},{"properties":{"city":"MADISONVILLE","zip":"70447","geo_score":0.94,"id":"a6s4tisslycf","geo_precision":"zip","state":"LA"},"type":"Feature","geometry":{"type":"Point","coordinates":[-90.142301,30.406861]}},{"properties":{"city":"MAMARONECK","zip":"10543","geo_score":0.871,"id":"a6s4tig5ouw5","geo_precision":"zip","state":"NY"},"type":"Feature","geometry":{"type":"Point","coordinates":[-73.728464,40.937321]}},{"properties":{"city":"MANHATTAN","zip":"66502","geo_score":0.889,"id":"a6s4tisdnsvs","geo_precision":"zip","state":"KS"},"type":"Feature","geometry":{"type":"Point","coordinates":[-96.426666,39.159442]}},{"properties":{"city":"MANHATTAN","zip":"66503","geo_score":1.0,"id":"a6s4till0s1t","geo_precision":"zip","state":"KS"},"type":"Feature","geometry":{"type":"Point","coordinates":[-96.633596,39.245797]}},{"properties":{"city":"MANSFIELD","zip":"76063","geo_score":0.909,"id":"a6s4tiwhy4uj","geo_precision":"zip","state":"TX"},"type":"Feature","geometry":{"type":"Point","coordinates":[-97.13251,32.614857]}},{"properties":{"city":"MANSFIELD","zip":"76063","geo_score":0.909,"id":"a6s4tig6nt5g","geo_precision":"zip","state":"TX"},"type":"Feature","geometry":{"type":"Point","coordinates":[-97.13251,32.614857]}},{"properties":{"city":"MANVILLE","zip":"2838","geo_score":0.922,"id":"a6s4tinztluf","geo_precision":"zip","state":"RI"},"type":"Feature","geometry":{"type":"Point","coordinates":[-71.416169,42.008432]}},{"properties":{"city":"MARIETTA","zip":"30066","geo_score":1.0,"id":"a6s4tigk6u0p","geo_precision":"zip","state":"GA"},"type":"Feature","geometry":{"type":"Point","coordinates":[-84.498365,34.024849]}},{"properties":{"city":"MARIETTA","zip":"30066","geo_score":1.0,"id":"a6s4tisei005","geo_precision":"zip","state":"GA"},"type":"Feature","geometry":{"type":"Point","coordinates":[-84.498365,34.024849]}},{"properties":{"city":"MARIETTA","zip":"30066","geo_score":1.0,"id":"a6s4tirvdz2z","geo_precision":"zip","state":"GA"},"type":"Feature","geometry":{"type":"Point","coordinates":[-84.498365,34.024849]}},{"properties":{"city":"MARIETTA","zip":"30066","geo_score":1.0,"id":"a6s4tiv9hjg3","geo_precision":"zip","state":"GA"},"type":"Feature","geometry":{"type":"Point","coordinates":[-84.498365,34.024849]}},{"properties":{"city":"MARLBOROUGH","zip":"1752","geo_score":1.0,"id":"a6s4tih5gag7","geo_precision":"zip","state":"MA"},"type":"Feature","geometry":{"type":"Point","coordinates":[-71.459405,42.446396]}},{"properties":{"city":"MARLTON","zip":"8053","geo_score":0.871,"id":"a6s4tijji9f0","geo_precision":"zip","state":"NJ"},"type":"Feature","geometry":{"type":"Point","coordinates":[-74.947389,39.902058]}},{"properties":{"city":"MARLTON","zip":"8053","geo_score":0.871,"id":"a6s4tivbothn","geo_precision":"zip","state":"NJ"},"type":"Feature","geometry":{"type":"Point","coordinates":[-74.947389,39.902058]}},{"properties":{"city":"MARSHALL","zip":"75672","geo_score":1.0,"id":"a6s4tigokdhh","geo_precision":"zip","state":"TX"},"type":"Feature","geometry":{"type":"Point","coordinates":[-94.32511,32.516507]}},{"properties":{"city":"MARYSVILLE","zip":"43040","geo_score":0.886,"id":"a6s4tit8jhb4","geo_precision":"zip","state":"OH"},"type":"Feature","geometry":{"type":"Point","coordinates":[-83.246861,40.212561]}},{"properties":{"city":"MASON","zip":"62443","geo_score":0.878,"id":"a6s4tio6a0dk","geo_precision":"zip","state":"IL"},"type":"Feature","geometry":{"type":"Point","coordinates":[-88.717553,38.987544]}},{"properties":{"city":"MC FARLAND","zip":"53558","geo_score":1.0,"id":"a6s4tikca84w","geo_precision":"zip","state":"WI"},"type":"Feature","geometry":{"type":"Point","coordinates":[-89.363862,43.010519]}},{"properties":{"city":"MC FARLAND","zip":"53558","geo_score":1.0,"id":"a6s4tiqryj2u","geo_precision":"zip","state":"WI"},"type":"Feature","geometry":{"type":"Point","coordinates":[-89.363862,43.010519]}},{"properties":{"city":"MC FARLAND","zip":"53558","geo_score":1.0,"id":"a6s4tinvu1xe","geo_precision":"zip","state":"WI"},"type":"Feature","geometry":{"type":"Point","coordinates":[-89.363862,43.010519]}},{"properties":{"city":"MC FARLAND","zip":"53558","geo_score":1.0,"id":"a6s4tisa22zb","geo_precision":"zip","state":"WI"},"type":"Feature","geometry":{"type":"Point","coordinates":[-89.363862,43.010519]}},{"properties":{"city":"MC FARLAND","zip":"53558","geo_score":1.0,"id":"a6s4tischr9s","geo_precision":"zip","state":"WI"},"type":"Feature","geometry":{"type":"Point","coordinates":[-89.363862,43.010519]}},{"properties":{"city":"MC FARLAND","zip":"53558","geo_score":1.0,"id":"a6s4tij59b3r","geo_precision":"zip","state":"WI"},"type":"Feature","geometry":{"type":"Point","coordinates":[-89.363862,43.010519]}},{"properties":{"city":"MC FARLAND","zip":"53558","geo_score":1.0,"id":"a6s4tiv8txmd","geo_precision":"zip","state":"WI"},"type":"Feature","geometry":{"type":"Point","coordinates":[-89.363862,43.010519]}},{"properties":{"city":"MC FARLAND","zip":"53558","geo_score":1.0,"id":"a6s4tiptto5m","geo_precision":"zip","state":"WI"},"type":"Feature","geometry":{"type":"Point","coordinates":[-89.363862,43.010519]}},{"properties":{"city":"MC FARLAND","zip":"53558","geo_score":1.0,"id":"a6s4tijnon0d","geo_precision":"zip","state":"WI"},"type":"Feature","geometry":{"type":"Point","coordinates":[-89.363862,43.010519]}},{"properties":{"city":"MC FARLAND","zip":"53558","geo_score":1.0,"id":"a6s4tis9wf1r","geo_precision":"zip","state":"WI"},"type":"Feature","geometry":{"type":"Point","coordinates":[-89.363862,43.010519]}},{"properties":{"city":"MC FARLAND","zip":"53558","geo_score":1.0,"id":"a6s4tirq9r1l","geo_precision":"zip","state":"WI"},"type":"Feature","geometry":{"type":"Point","coordinates":[-89.363862,43.010519]}},{"properties":{"city":"MC FARLAND","zip":"53558","geo_score":1.0,"id":"a6s4tiiuix90","geo_precision":"zip","state":"WI"},"type":"Feature","geometry":{"type":"Point","coordinates":[-89.363862,43.010519]}},{"properties":{"city":"MC FARLAND","zip":"53558","geo_score":1.0,"id":"a6s4timway47","geo_precision":"zip","state":"WI"},"type":"Feature","geometry":{"type":"Point","coordinates":[-89.363862,43.010519]}},{"properties":{"city":"MC INTIRE","zip":"50455","geo_score":0.893,"id":"a6s4tiwhj7sl","geo_precision":"zip","state":"IA"},"type":"Feature","geometry":{"type":"Point","coordinates":[-92.692684,43.457746]}},{"properties":{"city":"MCALLEN","zip":"78503","geo_score":1.0,"id":"a6s4tinjvjav","geo_precision":"zip","state":"TX"},"type":"Feature","geometry":{"type":"Point","coordinates":[-98.33773,26.182171]}},{"properties":{"city":"MEADVILLE","zip":"16335","geo_score":0.914,"id":"a6s4tisd2uev","geo_precision":"zip","state":"PA"},"type":"Feature","geometry":{"type":"Point","coordinates":[-80.144782,41.628388]}},{"properties":{"city":"MECHANICSVILLE","zip":"20659","geo_score":0.857,"id":"a6s4tiijecij","geo_precision":"zip","state":"MD"},"type":"Feature","geometry":{"type":"Point","coordinates":[-76.7858,38.449568]}},{"properties":{"city":"MENOMINEE","zip":"49858","geo_score":0.886,"id":"a6s4timym8nt","geo_precision":"zip","state":"MI"},"type":"Feature","geometry":{"type":"Point","coordinates":[-87.611221,45.202759]}},{"properties":{"city":"MERCED","zip":"95341","geo_score":1.0,"id":"a6s4tiiwf3on","geo_precision":"zip","state":"CA"},"type":"Feature","geometry":{"type":"Point","coordinates":[-120.650351,37.186872]}},{"properties":{"city":"MERIDIAN","zip":"83646","geo_score":0.857,"id":"a6s4tipr9gnf","geo_precision":"city","state":"ID"},"type":"Feature","geometry":{"type":"Point","coordinates":[-116.421656,43.579067]}},{"properties":{"city":"MERIDIAN","zip":"83646","geo_score":0.857,"id":"a6s4tiu4umj6","geo_precision":"city","state":"ID"},"type":"Feature","geometry":{"type":"Point","coordinates":[-116.421656,43.579067]}},{"properties":{"city":"MERRILL","zip":"54452","geo_score":0.889,"id":"a6s4tii7br3z","geo_precision":"zip","state":"WI"},"type":"Feature","geometry":{"type":"Point","coordinates":[-89.622068,45.134134]}},{"properties":{"city":"MERRILL","zip":"54452","geo_score":0.889,"id":"a6s4tikjyuxh","geo_precision":"zip","state":"WI"},"type":"Feature","geometry":{"type":"Point","coordinates":[-89.622068,45.134134]}},{"properties":{"city":"MIAMI","zip":"79059","geo_score":1.0,"id":"a6s4tikaf08n","geo_precision":"zip","state":"TX"},"type":"Feature","geometry":{"type":"Point","coordinates":[-100.676817,35.71814]}},{"properties":{"city":"MIDDLETON","zip":"53562","geo_score":0.878,"id":"a6s4tio4ygnx","geo_precision":"zip","state":"WI"},"type":"Feature","geometry":{"type":"Point","coordinates":[-89.484009,43.104162]}},{"properties":{"city":"MIDDLETON","zip":"53562","geo_score":0.878,"id":"a6s4tinh8l19","geo_precision":"zip","state":"WI"},"type":"Feature","geometry":{"type":"Point","coordinates":[-89.484009,43.104162]}},{"properties":{"city":"MIDDLETON","zip":"53562","geo_score":0.878,"id":"a6s4tin42zud","geo_precision":"zip","state":"WI"},"type":"Feature","geometry":{"type":"Point","coordinates":[-89.484009,43.104162]}},{"properties":{"city":"MIDDLETON","zip":"53562","geo_score":0.878,"id":"a6s4tinaddvf","geo_precision":"zip","state":"WI"},"type":"Feature","geometry":{"type":"Point","coordinates":[-89.484009,43.104162]}},{"properties":{"city":"MIDLAND","zip":"48642","geo_score":0.898,"id":"a6s4tim0z27l","geo_precision":"zip","state":"MI"},"type":"Feature","geometry":{"type":"Point","coordinates":[-84.409165,43.589195]}},{"properties":{"city":"MIDLAND","zip":"79706","geo_score":1.0,"id":"a6s4tijmp22f","geo_precision":"zip","state":"TX"},"type":"Feature","geometry":{"type":"Point","coordinates":[-102.01343,31.881592]}},{"properties":{"city":"MINERAL POINT","zip":"53565","geo_score":0.893,"id":"a6s4tim6nhq3","geo_precision":"zip","state":"WI"},"type":"Feature","geometry":{"type":"Point","coordinates":[-90.039847,42.825555]}},{"properties":{"city":"MINNEAPOLIS","zip":"55437","geo_score":1.0,"id":"a6s4tik7kxp3","geo_precision":"zip","state":"MN"},"type":"Feature","geometry":{"type":"Point","coordinates":[-93.353791,44.826064]}},{"properties":{"city":"MINNEAPOLIS","zip":"55437","geo_score":1.0,"id":"a6s4tip4wxnv","geo_precision":"zip","state":"MN"},"type":"Feature","geometry":{"type":"Point","coordinates":[-93.353791,44.826064]}},{"properties":{"city":"MINNEAPOLIS","zip":"55426","geo_score":1.0,"id":"a6s4tish3k4j","geo_precision":"zip","state":"MN"},"type":"Feature","geometry":{"type":"Point","coordinates":[-93.382928,44.955014]}},{"properties":{"city":"MINNEAPOLIS","zip":"55437","geo_score":1.0,"id":"a6s4tiq788g7","geo_precision":"zip","state":"MN"},"type":"Feature","geometry":{"type":"Point","coordinates":[-93.353791,44.826064]}},{"properties":{"city":"MINNEAPOLIS","zip":"55437","geo_score":1.0,"id":"a6s4tip1dqbf","geo_precision":"zip","state":"MN"},"type":"Feature","geometry":{"type":"Point","coordinates":[-93.353791,44.826064]}},{"properties":{"city":"MISSION VIEJO","zip":"92692","geo_score":1.0,"id":"a6s4tija5kcw","geo_precision":"zip","state":"CA"},"type":"Feature","geometry":{"type":"Point","coordinates":[-117.659899,33.575026]}},{"properties":{"city":"MISSOURI CITY","zip":"77459","geo_score":1.0,"id":"a6s4til0h8d4","geo_precision":"zip","state":"TX"},"type":"Feature","geometry":{"type":"Point","coordinates":[-95.649939,29.323965]}},{"properties":{"city":"MONROE","zip":"71203","geo_score":0.889,"id":"a6s4tisgc03e","geo_precision":"zip","state":"LA"},"type":"Feature","geometry":{"type":"Point","coordinates":[-92.029577,32.535143]}},{"properties":{"city":"MONROE TOWNSHIP","zip":"8831","geo_score":0.878,"id":"a6s4tirf9f92","geo_precision":"zip","state":"NJ"},"type":"Feature","geometry":{"type":"Point","coordinates":[-74.407373,40.37733]}},{"properties":{"city":"MORGAN","zip":"84050","geo_score":0.893,"id":"a6s4tiji6kw1","geo_precision":"zip","state":"UT"},"type":"Feature","geometry":{"type":"Point","coordinates":[-111.711323,41.066889]}},{"properties":{"city":"MOUND","zip":"55364","geo_score":0.886,"id":"a6s4tim3mdxi","geo_precision":"zip","state":"MN"},"type":"Feature","geometry":{"type":"Point","coordinates":[-93.638293,44.924685]}},{"properties":{"city":"MOUNT AIRY","zip":"21771","geo_score":0.873,"id":"a6s4tihu5elr","geo_precision":"zip","state":"MD"},"type":"Feature","geometry":{"type":"Point","coordinates":[-77.17776,39.410103]}},{"properties":{"city":"MOUNT HOREB","zip":"53572","geo_score":0.935,"id":"a6s4tinf1lh8","geo_precision":"zip","state":"WI"},"type":"Feature","geometry":{"type":"Point","coordinates":[-89.655956,42.946943]}},{"properties":{"city":"MOUNT NEBO","zip":"26679","geo_score":0.889,"id":"a6s4tiiazhse","geo_precision":"zip","state":"WV"},"type":"Feature","geometry":{"type":"Point","coordinates":[-80.851207,38.14289]}},{"properties":{"city":"MUSKEGO","zip":"53150","geo_score":1.0,"id":"a6s4tivz6d8e","geo_precision":"zip","state":"WI"},"type":"Feature","geometry":{"type":"Point","coordinates":[-88.132708,42.88799]}},{"properties":{"city":"MYERSTOWN","zip":"17067","geo_score":0.886,"id":"a6s4tintyxrz","geo_precision":"zip","state":"PA"},"type":"Feature","geometry":{"type":"Point","coordinates":[-76.302732,40.327314]}},{"properties":{"city":"MYERSTOWN","zip":"17067","geo_score":0.886,"id":"a6s4tiussw3d","geo_precision":"zip","state":"PA"},"type":"Feature","geometry":{"type":"Point","coordinates":[-76.302732,40.327314]}},{"properties":{"city":"MYERSTOWN","zip":"17067","geo_score":0.886,"id":"a6s4tilw4125","geo_precision":"zip","state":"PA"},"type":"Feature","geometry":{"type":"Point","coordinates":[-76.302732,40.327314]}},{"properties":{"city":"MYERSTOWN","zip":"17067","geo_score":0.886,"id":"a6s4tivjwb10","geo_precision":"zip","state":"PA"},"type":"Feature","geometry":{"type":"Point","coordinates":[-76.302732,40.327314]}},{"properties":{"city":"MYRTLE BEACH","zip":"29588","geo_score":0.87,"id":"a6s4tirgadig","geo_precision":"zip","state":"SC"},"type":"Feature","geometry":{"type":"Point","coordinates":[-79.426166,33.873776]}},{"properties":{"city":"MYRTLE BEACH","zip":"29588","geo_score":0.87,"id":"a6s4tisizq8o","geo_precision":"zip","state":"SC"},"type":"Feature","geometry":{"type":"Point","coordinates":[-79.426166,33.873776]}},{"properties":{"city":"MYRTLE BEACH","zip":"29588","geo_score":0.87,"id":"a6s4tii3d4ja","geo_precision":"zip","state":"SC"},"type":"Feature","geometry":{"type":"Point","coordinates":[-79.426166,33.873776]}},{"properties":{"city":"NAPOLEONVILLE","zip":"70390","geo_score":0.868,"id":"a6s4tiuzqizs","geo_precision":"zip","state":"LA"},"type":"Feature","geometry":{"type":"Point","coordinates":[-91.006765,29.893537]}},{"properties":{"city":"NATICK","zip":"1760","geo_score":0.943,"id":"a6s4tijr264l","geo_precision":"zip","state":"MA"},"type":"Feature","geometry":{"type":"Point","coordinates":[-71.378671,42.277874]}},{"properties":{"city":"NEW LONDON","zip":"6320","geo_score":0.956,"id":"a6s4tiibttyw","geo_precision":"zip","state":"CT"},"type":"Feature","geometry":{"type":"Point","coordinates":[-72.099243,41.366487]}},{"properties":{"city":"NEW ORLEANS","zip":"70115","geo_score":1.0,"id":"a6s4tigp6o5j","geo_precision":"zip","state":"LA"},"type":"Feature","geometry":{"type":"Point","coordinates":[-90.100773,29.938343]}},{"properties":{"city":"NEW ORLEANS","zip":"70115","geo_score":1.0,"id":"a6s4tip5nupp","geo_precision":"zip","state":"LA"},"type":"Feature","geometry":{"type":"Point","coordinates":[-90.100773,29.938343]}},{"properties":{"city":"NEW PHILADELPHIA","zip":"44663","geo_score":0.886,"id":"a6s4tiul83cm","geo_precision":"zip","state":"OH"},"type":"Feature","geometry":{"type":"Point","coordinates":[-81.44956,40.47701]}},{"properties":{"city":"NEW YORK","zip":"10022","geo_score":1.0,"id":"a6s4tiqu69oa","geo_precision":"zip","state":"NY"},"type":"Feature","geometry":{"type":"Point","coordinates":[-73.967842,40.758775]}},{"properties":{"city":"NEW YORK","zip":"10033","geo_score":1.0,"id":"a6s4tij42ruf","geo_precision":"zip","state":"NY"},"type":"Feature","geometry":{"type":"Point","coordinates":[-73.934764,40.851293]}},{"properties":{"city":"NEW YORK","zip":"10033","geo_score":1.0,"id":"a6s4tircnist","geo_precision":"zip","state":"NY"},"type":"Feature","geometry":{"type":"Point","coordinates":[-73.934764,40.851293]}},{"properties":{"city":"NEW YORK","zip":"10033","geo_score":1.0,"id":"a6s4tiw89gih","geo_precision":"zip","state":"NY"},"type":"Feature","geometry":{"type":"Point","coordinates":[-73.934764,40.851293]}},{"properties":{"city":"NEW YORK","zip":"10033","geo_score":1.0,"id":"a6s4titaqu89","geo_precision":"zip","state":"NY"},"type":"Feature","geometry":{"type":"Point","coordinates":[-73.934764,40.851293]}},{"properties":{"city":"NEWBURG","zip":"58762","geo_score":0.857,"id":"a6s4tivyqlm8","geo_precision":"zip","state":"ND"},"type":"Feature","geometry":{"type":"Point","coordinates":[-100.901539,48.671405]}},{"properties":{"city":"NEWBURGH","zip":"47630","geo_score":0.871,"id":"a6s4tijfq0mk","geo_precision":"zip","state":"IN"},"type":"Feature","geometry":{"type":"Point","coordinates":[-87.297782,37.917546]}},{"properties":{"city":"NEWCASTLE","zip":"73065","geo_score":1.0,"id":"a6s4tinfclrz","geo_precision":"zip","state":"OK"},"type":"Feature","geometry":{"type":"Point","coordinates":[-97.574274,35.219694]}},{"properties":{"city":"NICHOLASVILLE","zip":"40356","geo_score":0.879,"id":"a6s4tit3phc9","geo_precision":"zip","state":"KY"},"type":"Feature","geometry":{"type":"Point","coordinates":[-84.587719,37.843968]}},{"properties":{"city":"NORTHFORD","zip":"6472","geo_score":1.0,"id":"a6s4tiwd3dta","geo_precision":"zip","state":"CT"},"type":"Feature","geometry":{"type":"Point","coordinates":[-72.772991,41.379797]}},{"properties":{"city":"NOVATO","zip":"94947","geo_score":0.898,"id":"a6s4tiq6li7d","geo_precision":"zip","state":"CA"},"type":"Feature","geometry":{"type":"Point","coordinates":[-122.53859,38.070199]}},{"properties":{"city":"OAKMAN","zip":"30732","geo_score":1.0,"id":"a6s4tissj23j","geo_precision":"zip","state":"GA"},"type":"Feature","geometry":{"type":"Point","coordinates":[-84.711863,34.569015]}},{"properties":{"city":"OCEANSIDE","zip":"92054","geo_score":0.882,"id":"a6s4tisqgt36","geo_precision":"zip","state":"CA"},"type":"Feature","geometry":{"type":"Point","coordinates":[-117.36865,33.181704]}},{"properties":{"city":"OKLAHOMA CITY","zip":"73170","geo_score":1.0,"id":"a6s4tij9cmyi","geo_precision":"zip","state":"OK"},"type":"Feature","geometry":{"type":"Point","coordinates":[-97.501459,35.2972]}},{"properties":{"city":"OLYMPIA","zip":"98513","geo_score":1.0,"id":"a6s4tita8uot","geo_precision":"zip","state":"WA"},"type":"Feature","geometry":{"type":"Point","coordinates":[-122.743016,46.993897]}},{"properties":{"city":"OMAHA","zip":"68134","geo_score":0.857,"id":"a6s4tinplxfg","geo_precision":"zip","state":"NE"},"type":"Feature","geometry":{"type":"Point","coordinates":[-96.054739,41.321109]}},{"properties":{"city":"OREGON","zip":"53575","geo_score":0.881,"id":"a6s4titoqivq","geo_precision":"zip","state":"WI"},"type":"Feature","geometry":{"type":"Point","coordinates":[-89.310118,42.874725]}},{"properties":{"city":"OREGON","zip":"53575","geo_score":0.881,"id":"a6s4tisnx258","geo_precision":"zip","state":"WI"},"type":"Feature","geometry":{"type":"Point","coordinates":[-89.310118,42.874725]}},{"properties":{"city":"OREGON","zip":"53575","geo_score":0.881,"id":"a6s4tiopxxb4","geo_precision":"zip","state":"WI"},"type":"Feature","geometry":{"type":"Point","coordinates":[-89.310118,42.874725]}},{"properties":{"city":"OTIS ORCHARDS","zip":"99027","geo_score":0.939,"id":"a6s4tisob5py","geo_precision":"zip","state":"WA"},"type":"Feature","geometry":{"type":"Point","coordinates":[-117.08548,47.702971]}},{"properties":{"city":"OWINGS","zip":"20736","geo_score":0.881,"id":"a6s4tiptxmcu","geo_precision":"zip","state":"MD"},"type":"Feature","geometry":{"type":"Point","coordinates":[-76.582737,38.702618]}},{"properties":{"city":"PAHALA","zip":"96777","geo_score":0.918,"id":"a6s4timns016","geo_precision":"zip","state":"HI"},"type":"Feature","geometry":{"type":"Point","coordinates":[-155.507222,19.139167]}},{"properties":{"city":"PAINESVILLE","zip":"44077","geo_score":0.936,"id":"a6s4tir24ll0","geo_precision":"zip","state":"OH"},"type":"Feature","geometry":{"type":"Point","coordinates":[-81.230935,41.766711]}},{"properties":{"city":"PALM BEACH GARDENS","zip":"33410","geo_score":1.0,"id":"a6s4tir730fi","geo_precision":"zip","state":"FL"},"type":"Feature","geometry":{"type":"Point","coordinates":[-80.138655,26.823395]}},{"properties":{"city":"PALMER","zip":"99645","geo_score":0.878,"id":"a6s4tiivd3ta","geo_precision":"zip","state":"AK"},"type":"Feature","geometry":{"type":"Point","coordinates":[-146.538333,62.049444]}},{"properties":{"city":"PALMER","zip":"99645","geo_score":0.878,"id":"a6s4tilcdb1l","geo_precision":"zip","state":"AK"},"type":"Feature","geometry":{"type":"Point","coordinates":[-146.538333,62.049444]}},{"properties":{"city":"PALMER","zip":"99645","geo_score":0.878,"id":"a6s4tiwj8oo8","geo_precision":"zip","state":"AK"},"type":"Feature","geometry":{"type":"Point","coordinates":[-146.538333,62.049444]}},{"properties":{"city":"PALMER","zip":"99645","geo_score":0.878,"id":"a6s4tiqie237","geo_precision":"zip","state":"AK"},"type":"Feature","geometry":{"type":"Point","coordinates":[-146.538333,62.049444]}},{"properties":{"city":"PATTERSON","zip":"70392","geo_score":0.873,"id":"a6s4tihpw6bn","geo_precision":"zip","state":"LA"},"type":"Feature","geometry":{"type":"Point","coordinates":[-91.293439,29.678265]}},{"properties":{"city":"PELZER","zip":"29669","geo_score":0.873,"id":"a6s4tihkgo9i","geo_precision":"zip","state":"SC"},"type":"Feature","geometry":{"type":"Point","coordinates":[-82.388734,34.650116]}},{"properties":{"city":"PHILADELPHIA","zip":"39350","geo_score":0.879,"id":"a6s4tis6f4tf","geo_precision":"zip","state":"MS"},"type":"Feature","geometry":{"type":"Point","coordinates":[-89.143673,32.759023]}},{"properties":{"city":"PHILADELPHIA","zip":"39350","geo_score":0.879,"id":"a6s4tip8fezd","geo_precision":"zip","state":"MS"},"type":"Feature","geometry":{"type":"Point","coordinates":[-89.143673,32.759023]}},{"properties":{"city":"PHILADELPHIA","zip":"39350","geo_score":0.879,"id":"a6s4tihrpehh","geo_precision":"zip","state":"MS"},"type":"Feature","geometry":{"type":"Point","coordinates":[-89.143673,32.759023]}},{"properties":{"city":"PHILADELPHIA","zip":"39350","geo_score":0.879,"id":"a6s4titt9ysi","geo_precision":"zip","state":"MS"},"type":"Feature","geometry":{"type":"Point","coordinates":[-89.143673,32.759023]}},{"properties":{"city":"PINELLAS PARK","zip":"33781","geo_score":1.0,"id":"a6s4tingj8ek","geo_precision":"zip","state":"FL"},"type":"Feature","geometry":{"type":"Point","coordinates":[-82.758523,27.868101]}},{"properties":{"city":"PITTSBURGH","zip":"15237","geo_score":0.871,"id":"a6s4tij3sicx","geo_precision":"zip","state":"PA"},"type":"Feature","geometry":{"type":"Point","coordinates":[-80.036445,40.555068]}},{"properties":{"city":"PITTSBURGH","zip":"15227","geo_score":0.871,"id":"a6s4til8nrbi","geo_precision":"zip","state":"PA"},"type":"Feature","geometry":{"type":"Point","coordinates":[-79.990886,40.361181]}},{"properties":{"city":"PITTSBURGH","zip":"15239","geo_score":0.879,"id":"a6s4tirft5lq","geo_precision":"zip","state":"PA"},"type":"Feature","geometry":{"type":"Point","coordinates":[-79.785881,40.498124]}},{"properties":{"city":"PITTSFIELD","zip":"1201","geo_score":0.867,"id":"a6s4tijnjmkc","geo_precision":"zip","state":"MA"},"type":"Feature","geometry":{"type":"Point","coordinates":[-73.198159,42.451196]}},{"properties":{"city":"PLACENTIA","zip":"92870","geo_score":1.0,"id":"a6s4tik5x5q8","geo_precision":"zip","state":"CA"},"type":"Feature","geometry":{"type":"Point","coordinates":[-117.769442,33.640302]}},{"properties":{"city":"PLEASANT VIEW","zip":"37146","geo_score":1.0,"id":"a6s4timgeq36","geo_precision":"zip","state":"TN"},"type":"Feature","geometry":{"type":"Point","coordinates":[-87.047966,36.271077]}},{"properties":{"city":"POQUOSON","zip":"23662","geo_score":1.0,"id":"a6s4tiv31w7m","geo_precision":"zip","state":"VA"},"type":"Feature","geometry":{"type":"Point","coordinates":[-76.365419,37.132326]}},{"properties":{"city":"PORTERFIELD","zip":"54159","geo_score":0.857,"id":"a6s4tila40pc","geo_precision":"zip","state":"WI"},"type":"Feature","geometry":{"type":"Point","coordinates":[-87.762608,45.179425]}},{"properties":{"city":"PRAIRIE DU SAC","zip":"53578","geo_score":1.0,"id":"a6s4tisngy6f","geo_precision":"zip","state":"WI"},"type":"Feature","geometry":{"type":"Point","coordinates":[-89.808407,43.360759]}},{"properties":{"city":"PRAIRIE VILLAGE","zip":"66208","geo_score":0.888,"id":"a6s4tiljsfsv","geo_precision":"zip","state":"KS"},"type":"Feature","geometry":{"type":"Point","coordinates":[-94.616901,39.017783]}},{"properties":{"city":"PRAIRIE VILLAGE","zip":"66208","geo_score":0.888,"id":"a6s4tiuk06yt","geo_precision":"zip","state":"KS"},"type":"Feature","geometry":{"type":"Point","coordinates":[-94.616901,39.017783]}},{"properties":{"city":"PRESTO","zip":"15142","geo_score":1.0,"id":"a6s4tiq288df","geo_precision":"zip","state":"PA"},"type":"Feature","geometry":{"type":"Point","coordinates":[-80.166896,40.402452]}},{"properties":{"city":"READING","zip":"19606","geo_score":0.879,"id":"a6s4tip97evm","geo_precision":"zip","state":"PA"},"type":"Feature","geometry":{"type":"Point","coordinates":[-75.87187,40.327037]}},{"properties":{"city":"REDMOND","zip":"97756","geo_score":0.871,"id":"a6s4timghele","geo_precision":"zip","state":"OR"},"type":"Feature","geometry":{"type":"Point","coordinates":[-121.45282,44.291227]}},{"properties":{"city":"RICHLAND","zip":"49083","geo_score":0.873,"id":"a6s4tisdp8xo","geo_precision":"zip","state":"MI"},"type":"Feature","geometry":{"type":"Point","coordinates":[-85.40167,42.375317]}},{"properties":{"city":"RICHLAND CENTER","zip":"53581","geo_score":0.867,"id":"a6s4tiqro7er","geo_precision":"zip","state":"WI"},"type":"Feature","geometry":{"type":"Point","coordinates":[-90.42735,43.472478]}},{"properties":{"city":"RIDGEFIELD","zip":"6877","geo_score":0.886,"id":"a6s4tio03fmk","geo_precision":"zip","state":"CT"},"type":"Feature","geometry":{"type":"Point","coordinates":[-73.503457,41.292318]}},{"properties":{"city":"RIDGEFIELD","zip":"6877","geo_score":0.886,"id":"a6s4tivb8ypf","geo_precision":"zip","state":"CT"},"type":"Feature","geometry":{"type":"Point","coordinates":[-73.503457,41.292318]}},{"properties":{"city":"RIFLE","zip":"81650","geo_score":0.905,"id":"a6s4tiqcubpa","geo_precision":"zip","state":"CO"},"type":"Feature","geometry":{"type":"Point","coordinates":[-107.945351,39.737754]}},{"properties":{"city":"RIO VISTA","zip":"76093","geo_score":1.0,"id":"a6s4tilts4z6","geo_precision":"zip","state":"TX"},"type":"Feature","geometry":{"type":"Point","coordinates":[-97.326177,32.295054]}},{"properties":{"city":"RISING SUN","zip":"47040","geo_score":0.869,"id":"a6s4tiv65yi9","geo_precision":"zip","state":"IN"},"type":"Feature","geometry":{"type":"Point","coordinates":[-84.922727,38.853395]}},{"properties":{"city":"RIVERSIDE","zip":"92508","geo_score":0.891,"id":"a6s4tisvl09h","geo_precision":"zip","state":"CA"},"type":"Feature","geometry":{"type":"Point","coordinates":[-117.2631,33.892091]}},{"properties":{"city":"ROGERS","zip":"72756","geo_score":0.898,"id":"a6s4tipvsuln","geo_precision":"zip","state":"AR"},"type":"Feature","geometry":{"type":"Point","coordinates":[-94.069091,36.287298]}},{"properties":{"city":"ROWLAND HEIGHTS","zip":"91748","geo_score":0.888,"id":"a6s4tilx7v76","geo_precision":"zip","state":"CA"},"type":"Feature","geometry":{"type":"Point","coordinates":[-117.884784,33.987513]}},{"properties":{"city":"RUNNEMEDE","zip":"8078","geo_score":1.0,"id":"a6s4tits4ec5","geo_precision":"zip","state":"NJ"},"type":"Feature","geometry":{"type":"Point","coordinates":[-75.070672,39.850163]}},{"properties":{"city":"RUSTON","zip":"71270","geo_score":0.857,"id":"a6s4tig1vkh3","geo_precision":"zip","state":"LA"},"type":"Feature","geometry":{"type":"Point","coordinates":[-92.698484,32.457652]}},{"properties":{"city":"SACRAMENTO","zip":"95829","geo_score":1.0,"id":"a6s4titduxjj","geo_precision":"zip","state":"CA"},"type":"Feature","geometry":{"type":"Point","coordinates":[-121.321524,38.495328]}},{"properties":{"city":"SAINT CHARLES","zip":"55972","geo_score":0.881,"id":"a6s4tim77swp","geo_precision":"zip","state":"MN"},"type":"Feature","geometry":{"type":"Point","coordinates":[-92.067937,43.870797]}},{"properties":{"city":"SAINT JOHNS","zip":"32259","geo_score":0.869,"id":"a6s4tilm7zbt","geo_precision":"zip","state":"FL"},"type":"Feature","geometry":{"type":"Point","coordinates":[-81.582558,30.076654]}},{"properties":{"city":"SALEM","zip":"36874","geo_score":0.893,"id":"a6s4tipg0hwm","geo_precision":"zip","state":"AL"},"type":"Feature","geometry":{"type":"Point","coordinates":[-85.154383,32.62708]}},{"properties":{"city":"SAN ANTONIO","zip":"78240","geo_score":1.0,"id":"a6s4tig6obw0","geo_precision":"zip","state":"TX"},"type":"Feature","geometry":{"type":"Point","coordinates":[-98.461582,29.437532]}},{"properties":{"city":"SAN CLEMENTE","zip":"92673","geo_score":1.0,"id":"a6s4tii74uav","geo_precision":"zip","state":"CA"},"type":"Feature","geometry":{"type":"Point","coordinates":[-117.625076,33.459745]}},{"properties":{"city":"SAN DIEGO","zip":"92120","geo_score":0.9,"id":"a6s4tiv3v37z","geo_precision":"zip","state":"CA"},"type":"Feature","geometry":{"type":"Point","coordinates":[-117.097254,32.78755]}},{"properties":{"city":"SAN DIEGO","zip":"92129","geo_score":1.0,"id":"a6s4tipago70","geo_precision":"zip","state":"CA"},"type":"Feature","geometry":{"type":"Point","coordinates":[-117.126619,32.965012]}},{"properties":{"city":"SAN JOSE","zip":"95123","geo_score":1.0,"id":"a6s4tij80urq","geo_precision":"zip","state":"CA"},"type":"Feature","geometry":{"type":"Point","coordinates":[-121.705327,37.189396]}},{"properties":{"city":"SAN RAFAEL","zip":"94901","geo_score":1.0,"id":"a6s4tisd1er4","geo_precision":"zip","state":"CA"},"type":"Feature","geometry":{"type":"Point","coordinates":[-122.504286,37.970948]}},{"properties":{"city":"SAN SABA","zip":"76877","geo_score":0.87,"id":"a6s4tiildkdq","geo_precision":"zip","state":"TX"},"type":"Feature","geometry":{"type":"Point","coordinates":[-98.785599,31.210723]}},{"properties":{"city":"SAN SABA","zip":"76877","geo_score":0.87,"id":"a6s4tiqhotgr","geo_precision":"zip","state":"TX"},"type":"Feature","geometry":{"type":"Point","coordinates":[-98.785599,31.210723]}},{"properties":{"city":"SANDY","zip":"84070","geo_score":0.873,"id":"a6s4tildmavj","geo_precision":"zip","state":"UT"},"type":"Feature","geometry":{"type":"Point","coordinates":[-111.864378,40.565782]}},{"properties":{"city":"SCHRIEVER","zip":"70395","geo_score":0.871,"id":"a6s4til4o62e","geo_precision":"zip","state":"LA"},"type":"Feature","geometry":{"type":"Point","coordinates":[-90.911207,29.706043]}},{"properties":{"city":"SCHRIEVER","zip":"70395","geo_score":0.871,"id":"a6s4tikd7g5q","geo_precision":"zip","state":"LA"},"type":"Feature","geometry":{"type":"Point","coordinates":[-90.911207,29.706043]}},{"properties":{"city":"SCHRIEVER","zip":"70395","geo_score":0.871,"id":"a6s4tikwr36v","geo_precision":"zip","state":"LA"},"type":"Feature","geometry":{"type":"Point","coordinates":[-90.911207,29.706043]}},{"properties":{"city":"SCHRIEVER","zip":"70395","geo_score":0.871,"id":"a6s4tilupmko","geo_precision":"zip","state":"LA"},"type":"Feature","geometry":{"type":"Point","coordinates":[-90.911207,29.706043]}},{"properties":{"city":"SCHRIEVER","zip":"70395","geo_score":0.871,"id":"a6s4tiuc6yi4","geo_precision":"zip","state":"LA"},"type":"Feature","geometry":{"type":"Point","coordinates":[-90.911207,29.706043]}},{"properties":{"city":"SCHRIEVER","zip":"70395","geo_score":0.871,"id":"a6s4tii3j1o3","geo_precision":"zip","state":"LA"},"type":"Feature","geometry":{"type":"Point","coordinates":[-90.911207,29.706043]}},{"properties":{"city":"SCHRIEVER","zip":"70395","geo_score":0.871,"id":"a6s4tiiykx7i","geo_precision":"zip","state":"LA"},"type":"Feature","geometry":{"type":"Point","coordinates":[-90.911207,29.706043]}},{"properties":{"city":"SCHRIEVER","zip":"70395","geo_score":0.871,"id":"a6s4tigdn34q","geo_precision":"zip","state":"LA"},"type":"Feature","geometry":{"type":"Point","coordinates":[-90.911207,29.706043]}},{"properties":{"city":"SHERIDAN","zip":"82801","geo_score":0.893,"id":"a6s4titueock","geo_precision":"zip","state":"WY"},"type":"Feature","geometry":{"type":"Point","coordinates":[-107.129795,44.748581]}},{"properties":{"city":"SHREVEPORT","zip":"71107","geo_score":0.886,"id":"a6s4tikyh7wj","geo_precision":"zip","state":"LA"},"type":"Feature","geometry":{"type":"Point","coordinates":[-93.79768,32.648203]}},{"properties":{"city":"SHREVEPORT","zip":"71107","geo_score":0.886,"id":"a6s4tiswfggj","geo_precision":"zip","state":"LA"},"type":"Feature","geometry":{"type":"Point","coordinates":[-93.79768,32.648203]}},{"properties":{"city":"SHREWSBURY","zip":"17361","geo_score":1.0,"id":"a6s4tiofedj3","geo_precision":"zip","state":"PA"},"type":"Feature","geometry":{"type":"Point","coordinates":[-76.687931,39.799799]}},{"properties":{"city":"SIERRA VISTA","zip":"85635","geo_score":0.878,"id":"a6s4tiqycmc1","geo_precision":"zip","state":"AZ"},"type":"Feature","geometry":{"type":"Point","coordinates":[-110.271469,31.550095]}},{"properties":{"city":"SILVER SPRING","zip":"20904","geo_score":0.869,"id":"a6s4tiwatwjt","geo_precision":"zip","state":"MD"},"type":"Feature","geometry":{"type":"Point","coordinates":[-76.996366,39.061776]}},{"properties":{"city":"SMYRNA","zip":"37167","geo_score":0.875,"id":"a6s4tiq1wn66","geo_precision":"zip","state":"TN"},"type":"Feature","geometry":{"type":"Point","coordinates":[-86.494993,36.006452]}},{"properties":{"city":"SMYRNA","zip":"37167","geo_score":0.875,"id":"a6s4tirb65e8","geo_precision":"zip","state":"TN"},"type":"Feature","geometry":{"type":"Point","coordinates":[-86.494993,36.006452]}},{"properties":{"city":"SMYRNA","zip":"37167","geo_score":0.875,"id":"a6s4tigu9bb3","geo_precision":"zip","state":"TN"},"type":"Feature","geometry":{"type":"Point","coordinates":[-86.494993,36.006452]}},{"properties":{"city":"SMYRNA","zip":"37167","geo_score":0.875,"id":"a6s4tiiy8s2s","geo_precision":"zip","state":"TN"},"type":"Feature","geometry":{"type":"Point","coordinates":[-86.494993,36.006452]}},{"properties":{"city":"SOLDOTNA","zip":"99669","geo_score":0.893,"id":"a6s4titl7mgd","geo_precision":"zip","state":"AK"},"type":"Feature","geometry":{"type":"Point","coordinates":[-151.306389,60.368611]}},{"properties":{"city":"SOUTH PLAINFIELD","zip":"7080","geo_score":1.0,"id":"a6s4tinnldhv","geo_precision":"zip","state":"NJ"},"type":"Feature","geometry":{"type":"Point","coordinates":[-74.413545,40.572065]}},{"properties":{"city":"SPANISH FORT","zip":"36527","geo_score":1.0,"id":"a6s4tih4b46s","geo_precision":"zip","state":"AL"},"type":"Feature","geometry":{"type":"Point","coordinates":[-87.900287,30.737792]}},{"properties":{"city":"SPARKS","zip":"89436","geo_score":1.0,"id":"a6s4tilg4cll","geo_precision":"zip","state":"NV"},"type":"Feature","geometry":{"type":"Point","coordinates":[-119.659053,39.651879]}},{"properties":{"city":"SPOKANE","zip":"99223","geo_score":1.0,"id":"a6s4tiv86sr5","geo_precision":"zip","state":"WA"},"type":"Feature","geometry":{"type":"Point","coordinates":[-117.34212,47.592452]}},{"properties":{"city":"SPRING","zip":"77389","geo_score":1.0,"id":"a6s4tiwgczde","geo_precision":"zip","state":"TX"},"type":"Feature","geometry":{"type":"Point","coordinates":[-95.434241,29.83399]}},{"properties":{"city":"SPRINGFIELD","zip":"5156","geo_score":0.962,"id":"a6s4tik912tu","geo_precision":"zip","state":"VT"},"type":"Feature","geometry":{"type":"Point","coordinates":[-72.521757,43.291186]}},{"properties":{"city":"SPRINGFIELD","zip":"62712","geo_score":0.818,"id":"a6s4tiljfugg","geo_precision":"city","state":"IL"},"type":"Feature","geometry":{"type":"Point","coordinates":[-90.045117,41.612532]}},{"properties":{"city":"SPRINGFIELD","zip":"5156","geo_score":0.962,"id":"a6s4tivftlz6","geo_precision":"zip","state":"VT"},"type":"Feature","geometry":{"type":"Point","coordinates":[-72.521757,43.291186]}},{"properties":{"city":"SPRINGFIELD","zip":"62704","geo_score":0.87,"id":"a6s4tiluro5c","geo_precision":"zip","state":"IL"},"type":"Feature","geometry":{"type":"Point","coordinates":[-89.679267,39.776995]}},{"properties":{"city":"SPRINGFIELD","zip":"5156","geo_score":0.962,"id":"a6s4titqg41x","geo_precision":"zip","state":"VT"},"type":"Feature","geometry":{"type":"Point","coordinates":[-72.521757,43.291186]}},{"properties":{"city":"SPRINGFIELD","zip":"5156","geo_score":0.962,"id":"a6s4tirpjwl4","geo_precision":"zip","state":"VT"},"type":"Feature","geometry":{"type":"Point","coordinates":[-72.521757,43.291186]}},{"properties":{"city":"SPRINGFIELD","zip":"62712","geo_score":0.818,"id":"a6s4tiv3p03t","geo_precision":"city","state":"IL"},"type":"Feature","geometry":{"type":"Point","coordinates":[-90.045117,41.612532]}},{"properties":{"city":"SPRINGVALE","zip":"4083","geo_score":1.0,"id":"a6s4tivamb1s","geo_precision":"zip","state":"ME"},"type":"Feature","geometry":{"type":"Point","coordinates":[-70.748295,43.465941]}},{"properties":{"city":"STAMFORD","zip":"6902","geo_score":1.0,"id":"a6s4tih0pthm","geo_precision":"zip","state":"CT"},"type":"Feature","geometry":{"type":"Point","coordinates":[-73.544477,41.060196]}},{"properties":{"city":"STATEN ISLAND","zip":"10305","geo_score":0.881,"id":"a6s4tioabp6i","geo_precision":"zip","state":"NY"},"type":"Feature","geometry":{"type":"Point","coordinates":[-74.072641,40.598438]}},{"properties":{"city":"STOCKBRIDGE","zip":"30281","geo_score":0.883,"id":"a6s4tihrv5y6","geo_precision":"zip","state":"GA"},"type":"Feature","geometry":{"type":"Point","coordinates":[-84.199364,33.585388]}},{"properties":{"city":"STOCKBRIDGE","zip":"30281","geo_score":0.883,"id":"a6s4tiq85ytq","geo_precision":"zip","state":"GA"},"type":"Feature","geometry":{"type":"Point","coordinates":[-84.199364,33.585388]}},{"properties":{"city":"STOCKBRIDGE","zip":"30281","geo_score":0.883,"id":"a6s4tiljc804","geo_precision":"zip","state":"GA"},"type":"Feature","geometry":{"type":"Point","coordinates":[-84.199364,33.585388]}},{"properties":{"city":"STOCKBRIDGE","zip":"30281","geo_score":0.883,"id":"a6s4tir796n6","geo_precision":"zip","state":"GA"},"type":"Feature","geometry":{"type":"Point","coordinates":[-84.199364,33.585388]}},{"properties":{"city":"STOCKTON","zip":"95209","geo_score":1.0,"id":"a6s4tis5hr62","geo_precision":"zip","state":"CA"},"type":"Feature","geometry":{"type":"Point","coordinates":[-121.337187,37.988691]}},{"properties":{"city":"STRATFORD","zip":"98853","geo_score":1.0,"id":"a6s4tir2groy","geo_precision":"zip","state":"WA"},"type":"Feature","geometry":{"type":"Point","coordinates":[-119.312977,47.404308]}},{"properties":{"city":"SULPHUR","zip":"70665","geo_score":1.0,"id":"a6s4tih7m05q","geo_precision":"zip","state":"LA"},"type":"Feature","geometry":{"type":"Point","coordinates":[-93.443701,30.200948]}},{"properties":{"city":"SUN PRAIRIE","zip":"53590","geo_score":0.881,"id":"a6s4tihpyx8f","geo_precision":"zip","state":"WI"},"type":"Feature","geometry":{"type":"Point","coordinates":[-89.212336,43.266658]}},{"properties":{"city":"SUSSEX","zip":"7461","geo_score":0.857,"id":"a6s4tioaydv6","geo_precision":"zip","state":"NJ"},"type":"Feature","geometry":{"type":"Point","coordinates":[-74.550716,41.244262]}},{"properties":{"city":"SYLVANIA","zip":"43560","geo_score":0.911,"id":"a6s4tirxr2du","geo_precision":"zip","state":"OH"},"type":"Feature","geometry":{"type":"Point","coordinates":[-83.742161,41.68144]}},{"properties":{"city":"SYLVANIA","zip":"43560","geo_score":0.911,"id":"a6s4titmst8z","geo_precision":"zip","state":"OH"},"type":"Feature","geometry":{"type":"Point","coordinates":[-83.742161,41.68144]}},{"properties":{"city":"TAMPA","zip":"33613","geo_score":1.0,"id":"a6s4tigbazkr","geo_precision":"zip","state":"FL"},"type":"Feature","geometry":{"type":"Point","coordinates":[-82.444209,28.077403]}},{"properties":{"city":"TAMPA","zip":"33647","geo_score":1.0,"id":"a6s4tikr9nol","geo_precision":"zip","state":"FL"},"type":"Feature","geometry":{"type":"Point","coordinates":[-82.350338,28.127834]}},{"properties":{"city":"TAMPA","zip":"33613","geo_score":1.0,"id":"a6s4timyiiqp","geo_precision":"zip","state":"FL"},"type":"Feature","geometry":{"type":"Point","coordinates":[-82.444209,28.077403]}},{"properties":{"city":"TAMPA","zip":"33613","geo_score":1.0,"id":"a6s4tiqtg1rr","geo_precision":"zip","state":"FL"},"type":"Feature","geometry":{"type":"Point","coordinates":[-82.444209,28.077403]}},{"properties":{"city":"TANEYTOWN","zip":"21787","geo_score":0.857,"id":"a6s4tipcvqlt","geo_precision":"zip","state":"MD"},"type":"Feature","geometry":{"type":"Point","coordinates":[-77.258595,39.633988]}},{"properties":{"city":"TEXLINE","zip":"79087","geo_score":0.898,"id":"a6s4tiqr64ap","geo_precision":"zip","state":"TX"},"type":"Feature","geometry":{"type":"Point","coordinates":[-102.864369,36.276419]}},{"properties":{"city":"THREE FORKS","zip":"59752","geo_score":0.886,"id":"a6s4tis7r7za","geo_precision":"zip","state":"MT"},"type":"Feature","geometry":{"type":"Point","coordinates":[-111.476634,45.947428]}},{"properties":{"city":"THREE FORKS","zip":"59752","geo_score":0.886,"id":"a6s4tipnndgv","geo_precision":"zip","state":"MT"},"type":"Feature","geometry":{"type":"Point","coordinates":[-111.476634,45.947428]}},{"properties":{"city":"THREE FORKS","zip":"59752","geo_score":0.886,"id":"a6s4tiij503o","geo_precision":"zip","state":"MT"},"type":"Feature","geometry":{"type":"Point","coordinates":[-111.476634,45.947428]}},{"properties":{"city":"THREE FORKS","zip":"59752","geo_score":0.886,"id":"a6s4tiososi2","geo_precision":"zip","state":"MT"},"type":"Feature","geometry":{"type":"Point","coordinates":[-111.476634,45.947428]}},{"properties":{"city":"TORRANCE","zip":"90505","geo_score":1.0,"id":"a6s4tip7ocb5","geo_precision":"zip","state":"CA"},"type":"Feature","geometry":{"type":"Point","coordinates":[-118.298662,33.786594]}},{"properties":{"city":"TRENTON","zip":"8690","geo_score":0.888,"id":"a6s4tiug5vgc","geo_precision":"zip","state":"NJ"},"type":"Feature","geometry":{"type":"Point","coordinates":[-74.653213,40.227332]}},{"properties":{"city":"TROY","zip":"36081","geo_score":0.871,"id":"a6s4tiv1n5nm","geo_precision":"zip","state":"AL"},"type":"Feature","geometry":{"type":"Point","coordinates":[-86.069399,31.845155]}},{"properties":{"city":"TULSA","zip":"74105","geo_score":1.0,"id":"a6s4tip11rn5","geo_precision":"zip","state":"OK"},"type":"Feature","geometry":{"type":"Point","coordinates":[-95.91987,36.097094]}},{"properties":{"city":"TUSCALOOSA","zip":"35405","geo_score":1.0,"id":"a6s4tit2uync","geo_precision":"zip","state":"AL"},"type":"Feature","geometry":{"type":"Point","coordinates":[-87.518144,33.10407]}},{"properties":{"city":"TUSCALOOSA","zip":"35405","geo_score":1.0,"id":"a6s4tisaq7sl","geo_precision":"zip","state":"AL"},"type":"Feature","geometry":{"type":"Point","coordinates":[-87.518144,33.10407]}},{"properties":{"city":"TYRONE","zip":"73951","geo_score":1.0,"id":"a6s4tihefelr","geo_precision":"zip","state":"OK"},"type":"Feature","geometry":{"type":"Point","coordinates":[-101.073973,36.971874]}},{"properties":{"city":"URBANDALE","zip":"50322","geo_score":0.873,"id":"a6s4tipn5igj","geo_precision":"zip","state":"IA"},"type":"Feature","geometry":{"type":"Point","coordinates":[-93.686609,41.645822]}},{"properties":{"city":"VAIL","zip":"85641","geo_score":1.0,"id":"a6s4tinw1f0h","geo_precision":"zip","state":"AZ"},"type":"Feature","geometry":{"type":"Point","coordinates":[-110.705269,32.002669]}},{"properties":{"city":"VALENCIA","zip":"91354","geo_score":1.0,"id":"a6s4tin64uil","geo_precision":"zip","state":"CA"},"type":"Feature","geometry":{"type":"Point","coordinates":[-118.298662,33.786594]}},{"properties":{"city":"VALLEY CENTER","zip":"92082","geo_score":1.0,"id":"a6s4tiql9lbq","geo_precision":"zip","state":"CA"},"type":"Feature","geometry":{"type":"Point","coordinates":[-116.846046,33.016928]}},{"properties":{"city":"VASSAR","zip":"48768","geo_score":0.881,"id":"a6s4tiie8g2r","geo_precision":"zip","state":"MI"},"type":"Feature","geometry":{"type":"Point","coordinates":[-83.523013,43.452244]}},{"properties":{"city":"VENETIA","zip":"15367","geo_score":0.878,"id":"a6s4tijzhme8","geo_precision":"zip","state":"PA"},"type":"Feature","geometry":{"type":"Point","coordinates":[-80.021719,40.247848]}},{"properties":{"city":"VENICE","zip":"34293","geo_score":0.935,"id":"a6s4tikbcsfc","geo_precision":"zip","state":"FL"},"type":"Feature","geometry":{"type":"Point","coordinates":[-82.424263,27.053113]}},{"properties":{"city":"VIBORG","zip":"57070","geo_score":0.878,"id":"a6s4tir117bd","geo_precision":"zip","state":"SD"},"type":"Feature","geometry":{"type":"Point","coordinates":[-97.318392,43.169436]}},{"properties":{"city":"VIBORG","zip":"57070","geo_score":0.878,"id":"a6s4tiveahm0","geo_precision":"zip","state":"SD"},"type":"Feature","geometry":{"type":"Point","coordinates":[-97.318392,43.169436]}},{"properties":{"city":"VIBORG","zip":"57070","geo_score":0.878,"id":"a6s4tikaom6h","geo_precision":"zip","state":"SD"},"type":"Feature","geometry":{"type":"Point","coordinates":[-97.318392,43.169436]}},{"properties":{"city":"VIBORG","zip":"57070","geo_score":0.878,"id":"a6s4tiud75qu","geo_precision":"zip","state":"SD"},"type":"Feature","geometry":{"type":"Point","coordinates":[-97.318392,43.169436]}},{"properties":{"city":"VIDALIA","zip":"71373","geo_score":0.878,"id":"a6s4tiugjaym","geo_precision":"zip","state":"LA"},"type":"Feature","geometry":{"type":"Point","coordinates":[-91.525675,31.526556]}},{"properties":{"city":"VIDALIA","zip":"71373","geo_score":0.878,"id":"a6s4tiv3cu0t","geo_precision":"zip","state":"LA"},"type":"Feature","geometry":{"type":"Point","coordinates":[-91.525675,31.526556]}},{"properties":{"city":"VIDALIA","zip":"71373","geo_score":0.878,"id":"a6s4tiqrdbu8","geo_precision":"zip","state":"LA"},"type":"Feature","geometry":{"type":"Point","coordinates":[-91.525675,31.526556]}},{"properties":{"city":"VIDALIA","zip":"71373","geo_score":0.878,"id":"a6s4tiqpinna","geo_precision":"zip","state":"LA"},"type":"Feature","geometry":{"type":"Point","coordinates":[-91.525675,31.526556]}},{"properties":{"city":"VIDALIA","zip":"71373","geo_score":0.878,"id":"a6s4tin6923j","geo_precision":"zip","state":"LA"},"type":"Feature","geometry":{"type":"Point","coordinates":[-91.525675,31.526556]}},{"properties":{"city":"VIDALIA","zip":"71373","geo_score":0.878,"id":"a6s4tihuwfiq","geo_precision":"zip","state":"LA"},"type":"Feature","geometry":{"type":"Point","coordinates":[-91.525675,31.526556]}},{"properties":{"city":"VIDALIA","zip":"71373","geo_score":0.878,"id":"a6s4tikpkau1","geo_precision":"zip","state":"LA"},"type":"Feature","geometry":{"type":"Point","coordinates":[-91.525675,31.526556]}},{"properties":{"city":"VIDALIA","zip":"71373","geo_score":0.878,"id":"a6s4tiphf7tr","geo_precision":"zip","state":"LA"},"type":"Feature","geometry":{"type":"Point","coordinates":[-91.525675,31.526556]}},{"properties":{"city":"VIDALIA","zip":"71373","geo_score":0.878,"id":"a6s4til6qnvv","geo_precision":"zip","state":"LA"},"type":"Feature","geometry":{"type":"Point","coordinates":[-91.525675,31.526556]}},{"properties":{"city":"VIDALIA","zip":"71373","geo_score":0.878,"id":"a6s4timjh7tu","geo_precision":"zip","state":"LA"},"type":"Feature","geometry":{"type":"Point","coordinates":[-91.525675,31.526556]}},{"properties":{"city":"VILLA RIDGE","zip":"63089","geo_score":1.0,"id":"a6s4tihxkquk","geo_precision":"zip","state":"MO"},"type":"Feature","geometry":{"type":"Point","coordinates":[-90.889121,38.453668]}},{"properties":{"city":"VISALIA","zip":"93292","geo_score":1.0,"id":"a6s4timj17lw","geo_precision":"zip","state":"CA"},"type":"Feature","geometry":{"type":"Point","coordinates":[-119.228324,36.19457]}},{"properties":{"city":"WALPOLE","zip":"2081","geo_score":0.948,"id":"a6s4tilb5k7a","geo_precision":"zip","state":"MA"},"type":"Feature","geometry":{"type":"Point","coordinates":[-71.287,42.137043]}},{"properties":{"city":"WASHOUGAL","zip":"98671","geo_score":1.0,"id":"a6s4tipiis58","geo_precision":"zip","state":"WA"},"type":"Feature","geometry":{"type":"Point","coordinates":[-122.315559,45.611697]}},{"properties":{"city":"WASHOUGAL","zip":"98671","geo_score":1.0,"id":"a6s4tiobwycm","geo_precision":"zip","state":"WA"},"type":"Feature","geometry":{"type":"Point","coordinates":[-122.315559,45.611697]}},{"properties":{"city":"WATERFORD","zip":"48329","geo_score":1.0,"id":"a6s4tisp4xdr","geo_precision":"zip","state":"MI"},"type":"Feature","geometry":{"type":"Point","coordinates":[-83.386338,42.68258]}},{"properties":{"city":"WATSONVILLE","zip":"95076","geo_score":0.87,"id":"a6s4tikaim4b","geo_precision":"zip","state":"CA"},"type":"Feature","geometry":{"type":"Point","coordinates":[-121.748561,36.90412]}},{"properties":{"city":"WATSONVILLE","zip":"95076","geo_score":0.87,"id":"a6s4tinsp96g","geo_precision":"zip","state":"CA"},"type":"Feature","geometry":{"type":"Point","coordinates":[-121.748561,36.90412]}},{"properties":{"city":"WATSONVILLE","zip":"95076","geo_score":0.87,"id":"a6s4tiqcyzzt","geo_precision":"zip","state":"CA"},"type":"Feature","geometry":{"type":"Point","coordinates":[-121.748561,36.90412]}},{"properties":{"city":"WATSONVILLE","zip":"95076","geo_score":0.87,"id":"a6s4tii6gix2","geo_precision":"zip","state":"CA"},"type":"Feature","geometry":{"type":"Point","coordinates":[-121.748561,36.90412]}},{"properties":{"city":"WAUNAKEE","zip":"53597","geo_score":1.0,"id":"a6s4tioc46an","geo_precision":"zip","state":"WI"},"type":"Feature","geometry":{"type":"Point","coordinates":[-89.322655,43.183972]}},{"properties":{"city":"WAUNAKEE","zip":"53597","geo_score":1.0,"id":"a6s4tiga9gb4","geo_precision":"zip","state":"WI"},"type":"Feature","geometry":{"type":"Point","coordinates":[-89.322655,43.183972]}},{"properties":{"city":"WAUNAKEE","zip":"53597","geo_score":1.0,"id":"a6s4tik9g39e","geo_precision":"zip","state":"WI"},"type":"Feature","geometry":{"type":"Point","coordinates":[-89.322655,43.183972]}},{"properties":{"city":"WAUNAKEE","zip":"53597","geo_score":1.0,"id":"a6s4tiwc6dbb","geo_precision":"zip","state":"WI"},"type":"Feature","geometry":{"type":"Point","coordinates":[-89.322655,43.183972]}},{"properties":{"city":"WAUNAKEE","zip":"53597","geo_score":1.0,"id":"a6s4tiw29frg","geo_precision":"zip","state":"WI"},"type":"Feature","geometry":{"type":"Point","coordinates":[-89.322655,43.183972]}},{"properties":{"city":"WAUNAKEE","zip":"53597","geo_score":1.0,"id":"a6s4tiutpgh6","geo_precision":"zip","state":"WI"},"type":"Feature","geometry":{"type":"Point","coordinates":[-89.322655,43.183972]}},{"properties":{"city":"WAUNAKEE","zip":"53597","geo_score":1.0,"id":"a6s4tivei3ts","geo_precision":"zip","state":"WI"},"type":"Feature","geometry":{"type":"Point","coordinates":[-89.322655,43.183972]}},{"properties":{"city":"WAUNAKEE","zip":"53597","geo_score":1.0,"id":"a6s4tiskbdru","geo_precision":"zip","state":"WI"},"type":"Feature","geometry":{"type":"Point","coordinates":[-89.322655,43.183972]}},{"properties":{"city":"WEATHERFORD","zip":"76087","geo_score":0.883,"id":"a6s4titmz1xr","geo_precision":"zip","state":"TX"},"type":"Feature","geometry":{"type":"Point","coordinates":[-97.650582,32.762629]}},{"properties":{"city":"WELLINGTON","zip":"80549","geo_score":0.857,"id":"a6s4tipludhx","geo_precision":"zip","state":"CO"},"type":"Feature","geometry":{"type":"Point","coordinates":[-105.094976,40.827205]}},{"properties":{"city":"WEST BRANCH","zip":"52358","geo_score":0.857,"id":"a6s4tio20e6u","geo_precision":"zip","state":"IA"},"type":"Feature","geometry":{"type":"Point","coordinates":[-91.259049,41.670577]}},{"properties":{"city":"WEST GROVE","zip":"19390","geo_score":0.889,"id":"a6s4tip4jhii","geo_precision":"zip","state":"PA"},"type":"Feature","geometry":{"type":"Point","coordinates":[-75.824662,39.79511]}},{"properties":{"city":"WESTBROOK","zip":"4092","geo_score":0.893,"id":"a6s4tip5q1uy","geo_precision":"zip","state":"ME"},"type":"Feature","geometry":{"type":"Point","coordinates":[-70.333661,43.713691]}},{"properties":{"city":"WESTLAKE","zip":"44145","geo_score":1.0,"id":"a6s4tig5ykjc","geo_precision":"zip","state":"OH"},"type":"Feature","geometry":{"type":"Point","coordinates":[-81.921811,41.445145]}},{"properties":{"city":"WHITE MARSH","zip":"21162","geo_score":0.886,"id":"a6s4tito087g","geo_precision":"zip","state":"MD"},"type":"Feature","geometry":{"type":"Point","coordinates":[-76.420517,39.412052]}},{"properties":{"city":"WHITEHOUSE","zip":"75791","geo_score":1.0,"id":"a6s4tiks3zpx","geo_precision":"zip","state":"TX"},"type":"Feature","geometry":{"type":"Point","coordinates":[-95.217652,32.219518]}},{"properties":{"city":"WHITEHOUSE","zip":"75791","geo_score":1.0,"id":"a6s4tinzagwt","geo_precision":"zip","state":"TX"},"type":"Feature","geometry":{"type":"Point","coordinates":[-95.217652,32.219518]}},{"properties":{"city":"WHITEHOUSE","zip":"75791","geo_score":1.0,"id":"a6s4titktjaj","geo_precision":"zip","state":"TX"},"type":"Feature","geometry":{"type":"Point","coordinates":[-95.217652,32.219518]}},{"properties":{"city":"WHITEHOUSE","zip":"75791","geo_score":1.0,"id":"a6s4tivhrp2p","geo_precision":"zip","state":"TX"},"type":"Feature","geometry":{"type":"Point","coordinates":[-95.217652,32.219518]}},{"properties":{"city":"WHITEHOUSE","zip":"75791","geo_score":1.0,"id":"a6s4tin5flat","geo_precision":"zip","state":"TX"},"type":"Feature","geometry":{"type":"Point","coordinates":[-95.217652,32.219518]}},{"properties":{"city":"WHITEWATER","zip":"53190","geo_score":0.9,"id":"a6s4tiinmgji","geo_precision":"zip","state":"WI"},"type":"Feature","geometry":{"type":"Point","coordinates":[-88.82733,42.789454]}},{"properties":{"city":"WICHITA","zip":"67212","geo_score":1.0,"id":"a6s4tiqxijrl","geo_precision":"zip","state":"KS"},"type":"Feature","geometry":{"type":"Point","coordinates":[-97.435443,37.701795]}},{"properties":{"city":"WICHITA","zip":"67212","geo_score":1.0,"id":"a6s4tivcpxx9","geo_precision":"zip","state":"KS"},"type":"Feature","geometry":{"type":"Point","coordinates":[-97.435443,37.701795]}},{"properties":{"city":"WICHITA","zip":"67212","geo_score":1.0,"id":"a6s4til2pf5b","geo_precision":"zip","state":"KS"},"type":"Feature","geometry":{"type":"Point","coordinates":[-97.435443,37.701795]}},{"properties":{"city":"WICHITA","zip":"67212","geo_score":1.0,"id":"a6s4tiulgtbp","geo_precision":"zip","state":"KS"},"type":"Feature","geometry":{"type":"Point","coordinates":[-97.435443,37.701795]}},{"properties":{"city":"WICHITA","zip":"67212","geo_score":1.0,"id":"a6s4tihkn9f5","geo_precision":"zip","state":"KS"},"type":"Feature","geometry":{"type":"Point","coordinates":[-97.435443,37.701795]}},{"properties":{"city":"WICHITA","zip":"67212","geo_score":1.0,"id":"a6s4tijggtvl","geo_precision":"zip","state":"KS"},"type":"Feature","geometry":{"type":"Point","coordinates":[-97.435443,37.701795]}},{"properties":{"city":"WICHITA","zip":"67212","geo_score":1.0,"id":"a6s4tiqwmphk","geo_precision":"zip","state":"KS"},"type":"Feature","geometry":{"type":"Point","coordinates":[-97.435443,37.701795]}},{"properties":{"city":"WILLOW SPRINGS","zip":"65793","geo_score":0.945,"id":"a6s4tiiw6v28","geo_precision":"zip","state":"MO"},"type":"Feature","geometry":{"type":"Point","coordinates":[-91.850427,37.108385]}},{"properties":{"city":"WILMINGTON","zip":"28412","geo_score":1.0,"id":"a6s4til8lojr","geo_precision":"zip","state":"NC"},"type":"Feature","geometry":{"type":"Point","coordinates":[-77.91859,34.127458]}},{"properties":{"city":"WINCHESTER","zip":"92596","geo_score":1.0,"id":"a6s4tiwdm8xg","geo_precision":"zip","state":"CA"},"type":"Feature","geometry":{"type":"Point","coordinates":[-116.055617,33.752886]}},{"properties":{"city":"WINNABOW","zip":"28479","geo_score":0.873,"id":"a6s4tihwy770","geo_precision":"zip","state":"NC"},"type":"Feature","geometry":{"type":"Point","coordinates":[-78.086382,34.098505]}},{"properties":{"city":"WINNABOW","zip":"28479","geo_score":0.873,"id":"a6s4tisp4kfb","geo_precision":"zip","state":"NC"},"type":"Feature","geometry":{"type":"Point","coordinates":[-78.086382,34.098505]}},{"properties":{"city":"WINNABOW","zip":"28479","geo_score":0.873,"id":"a6s4tior6zpr","geo_precision":"zip","state":"NC"},"type":"Feature","geometry":{"type":"Point","coordinates":[-78.086382,34.098505]}},{"properties":{"city":"WINNABOW","zip":"28479","geo_score":0.873,"id":"a6s4til0yfkm","geo_precision":"zip","state":"NC"},"type":"Feature","geometry":{"type":"Point","coordinates":[-78.086382,34.098505]}},{"properties":{"city":"WINTERVILLE","zip":"28590","geo_score":0.865,"id":"a6s4tiig867n","geo_precision":"zip","state":"NC"},"type":"Feature","geometry":{"type":"Point","coordinates":[-77.35413,35.491552]}},{"properties":{"city":"WOODCLIFF LAKE","zip":"7677","geo_score":0.879,"id":"a6s4tiv5rjvd","geo_precision":"zip","state":"NJ"},"type":"Feature","geometry":{"type":"Point","coordinates":[-74.042164,41.035073]}}],"is_temporal":false,"author":{"url":"","metadata":"","contact_name":"","contact_address":"","source":"","contact_phone":""},"source":"","pagination":{"sort":null,"start":0,"total":602,"limit":1000000},"state":"complete","tags":"","published":"2014-08-10T19:48:32-04:00","id":58442}