{"type":"FeatureCollection","data_type":"Dataset","url_type":null,"permissions":[{"permissions":{"download":true,"view":true},"group_id":"everyone"}],"classification":null,"title":"WR itunes Trends 7.10","count":429,"stream_id":58455,"contributor":{"url":"http://geocommons.com/users/14689","name":"riley"},"data_attributes":null,"calculation_params":null,"icon_link":null,"link":"http://geocommons.com/overlays/58455.json","extent":[-159.325,20.8581,-69.8192,55.2972],"geometry_types":["point"],"unique_name":null,"name":"WR itunes Trends 7.10","feature_count":429,"description":"","next_feature":null,"is_raster":false,"short_classification":"Y","stats":{"geo_score":{"max":1.0,"mean":0.922550116550116,"variance":0.00357142096377144,"stdev":0.0597613668164596,"min":0.755,"median":0.889}},"features":[{"properties":{"city":"AIKEN","zip":"29803","geo_score":0.873,"id":"a6h28jp8lm19","geo_precision":"zip","state":"SC"},"type":"Feature","geometry":{"type":"Point","coordinates":[-81.657051,33.644864]}},{"properties":{"city":"ALEDO","zip":"61231","geo_score":0.898,"id":"a6h28jop0ark","geo_precision":"zip","state":"IL"},"type":"Feature","geometry":{"type":"Point","coordinates":[-90.625414,41.219202]}},{"properties":{"city":"ALGONA","zip":"50511","geo_score":0.879,"id":"a6h28jovh5lm","geo_precision":"zip","state":"IA"},"type":"Feature","geometry":{"type":"Point","coordinates":[-94.064401,43.038022]}},{"properties":{"city":"ALLEN","zip":"75002","geo_score":0.905,"id":"a6h28jw3unel","geo_precision":"zip","state":"TX"},"type":"Feature","geometry":{"type":"Point","coordinates":[-96.621938,33.055398]}},{"properties":{"city":"ALPINE","zip":"83128","geo_score":0.918,"id":"a6h28jlgbj6w","geo_precision":"zip","state":"WY"},"type":"Feature","geometry":{"type":"Point","coordinates":[-111.018545,43.172422]}},{"properties":{"city":"AMES","zip":"50014","geo_score":1.0,"id":"a6h28jq4b012","geo_precision":"zip","state":"IA"},"type":"Feature","geometry":{"type":"Point","coordinates":[-93.647237,42.045748]}},{"properties":{"city":"ANDOVER","zip":"1810","geo_score":0.948,"id":"a6h28jts4zlm","geo_precision":"zip","state":"MA"},"type":"Feature","geometry":{"type":"Point","coordinates":[-71.158391,42.661203]}},{"properties":{"city":"ANKENY","zip":"50021","geo_score":0.875,"id":"a6h28jx9gt19","geo_precision":"zip","state":"IA"},"type":"Feature","geometry":{"type":"Point","coordinates":[-93.587995,41.699988]}},{"properties":{"city":"ANTIOCH","zip":"37013","geo_score":0.905,"id":"a6h28juzoak0","geo_precision":"zip","state":"TN"},"type":"Feature","geometry":{"type":"Point","coordinates":[-86.644192,36.022863]}},{"properties":{"city":"APPLETON","zip":"54913","geo_score":1.0,"id":"a6h28jln4vgn","geo_precision":"zip","state":"WI"},"type":"Feature","geometry":{"type":"Point","coordinates":[-88.434297,44.345553]}},{"properties":{"city":"ARLINGTON","zip":"22201","geo_score":1.0,"id":"a6h28jy69dh1","geo_precision":"zip","state":"VA"},"type":"Feature","geometry":{"type":"Point","coordinates":[-77.099113,38.885484]}},{"properties":{"city":"ASHBURN","zip":"20148","geo_score":0.886,"id":"a6h28jnkyd6b","geo_precision":"zip","state":"VA"},"type":"Feature","geometry":{"type":"Point","coordinates":[-77.538603,38.982054]}},{"properties":{"city":"ATHENS","zip":"30605","geo_score":1.0,"id":"a6h28jk0vwoa","geo_precision":"zip","state":"GA"},"type":"Feature","geometry":{"type":"Point","coordinates":[-83.364038,33.923088]}},{"properties":{"city":"AUSTIN","zip":"89310","geo_score":0.886,"id":"a6h28jyb41uh","geo_precision":"zip","state":"NV"},"type":"Feature","geometry":{"type":"Point","coordinates":[-117.470097,38.997706]}},{"properties":{"city":"BARRACKVILLE","zip":"26559","geo_score":1.0,"id":"a6h28jpts1dn","geo_precision":"zip","state":"WV"},"type":"Feature","geometry":{"type":"Point","coordinates":[-80.172524,39.505155]}},{"properties":{"city":"BATH","zip":"4530","geo_score":0.871,"id":"a6h28jpzwzr6","geo_precision":"zip","state":"ME"},"type":"Feature","geometry":{"type":"Point","coordinates":[-69.819213,43.872303]}},{"properties":{"city":"BATON ROUGE","zip":"70816","geo_score":1.0,"id":"a6h28jsttk45","geo_precision":"zip","state":"LA"},"type":"Feature","geometry":{"type":"Point","coordinates":[-91.023502,30.42949]}},{"properties":{"city":"BATON ROUGE","zip":"70816","geo_score":1.0,"id":"a6h28juy9q6y","geo_precision":"zip","state":"LA"},"type":"Feature","geometry":{"type":"Point","coordinates":[-91.023502,30.42949]}},{"properties":{"city":"BATON ROUGE","zip":"70808","geo_score":0.897,"id":"a6h28jm98ocq","geo_precision":"zip","state":"LA"},"type":"Feature","geometry":{"type":"Point","coordinates":[-91.067326,30.362137]}},{"properties":{"city":"BATON ROUGE","zip":"70816","geo_score":1.0,"id":"a6h28jk7f6qe","geo_precision":"zip","state":"LA"},"type":"Feature","geometry":{"type":"Point","coordinates":[-91.023502,30.42949]}},{"properties":{"city":"BATON ROUGE","zip":"70816","geo_score":1.0,"id":"a6h28juv54kj","geo_precision":"zip","state":"LA"},"type":"Feature","geometry":{"type":"Point","coordinates":[-91.023502,30.42949]}},{"properties":{"city":"BATON ROUGE","zip":"70816","geo_score":1.0,"id":"a6h28jzybwjk","geo_precision":"zip","state":"LA"},"type":"Feature","geometry":{"type":"Point","coordinates":[-91.023502,30.42949]}},{"properties":{"city":"BATON ROUGE","zip":"70816","geo_score":1.0,"id":"a6h28jz0oxh4","geo_precision":"zip","state":"LA"},"type":"Feature","geometry":{"type":"Point","coordinates":[-91.023502,30.42949]}},{"properties":{"city":"BATON ROUGE","zip":"70816","geo_score":1.0,"id":"a6h28jnni5ca","geo_precision":"zip","state":"LA"},"type":"Feature","geometry":{"type":"Point","coordinates":[-91.023502,30.42949]}},{"properties":{"city":"BAYVILLE","zip":"8721","geo_score":0.875,"id":"a6h28jl2qeqq","geo_precision":"zip","state":"NJ"},"type":"Feature","geometry":{"type":"Point","coordinates":[-74.172918,39.895674]}},{"properties":{"city":"BAYVILLE","zip":"8721","geo_score":0.875,"id":"a6h28jnc7oz6","geo_precision":"zip","state":"NJ"},"type":"Feature","geometry":{"type":"Point","coordinates":[-74.172918,39.895674]}},{"properties":{"city":"BAYVILLE","zip":"8721","geo_score":0.875,"id":"a6h28jruxafw","geo_precision":"zip","state":"NJ"},"type":"Feature","geometry":{"type":"Point","coordinates":[-74.172918,39.895674]}},{"properties":{"city":"BAYVILLE","zip":"8721","geo_score":0.875,"id":"a6h28jsk49nr","geo_precision":"zip","state":"NJ"},"type":"Feature","geometry":{"type":"Point","coordinates":[-74.172918,39.895674]}},{"properties":{"city":"BAYVILLE","zip":"8721","geo_score":0.875,"id":"a6h28jxt26i4","geo_precision":"zip","state":"NJ"},"type":"Feature","geometry":{"type":"Point","coordinates":[-74.172918,39.895674]}},{"properties":{"city":"BEL AIR","zip":"21014","geo_score":0.884,"id":"a6h28jqbqlun","geo_precision":"zip","state":"MD"},"type":"Feature","geometry":{"type":"Point","coordinates":[-76.339404,39.520941]}},{"properties":{"city":"BEL AIR","zip":"21014","geo_score":0.884,"id":"a6h28jnq8vr5","geo_precision":"zip","state":"MD"},"type":"Feature","geometry":{"type":"Point","coordinates":[-76.339404,39.520941]}},{"properties":{"city":"BEL AIR","zip":"21014","geo_score":0.884,"id":"a6h28jzqvdzm","geo_precision":"zip","state":"MD"},"type":"Feature","geometry":{"type":"Point","coordinates":[-76.339404,39.520941]}},{"properties":{"city":"BEL AIR","zip":"21014","geo_score":0.884,"id":"a6h28jwc4tct","geo_precision":"zip","state":"MD"},"type":"Feature","geometry":{"type":"Point","coordinates":[-76.339404,39.520941]}},{"properties":{"city":"BELGRADE","zip":"59714","geo_score":0.857,"id":"a6h28jld6kld","geo_precision":"zip","state":"MT"},"type":"Feature","geometry":{"type":"Point","coordinates":[-111.173008,46.107707]}},{"properties":{"city":"BELLEVUE","zip":"68123","geo_score":0.893,"id":"a6h28jv3avql","geo_precision":"zip","state":"NE"},"type":"Feature","geometry":{"type":"Point","coordinates":[-95.923622,41.074721]}},{"properties":{"city":"BESSEMER","zip":"49911","geo_score":0.875,"id":"a6h28jy3two9","geo_precision":"zip","state":"MI"},"type":"Feature","geometry":{"type":"Point","coordinates":[-90.063228,46.466614]}},{"properties":{"city":"BICKNELL","zip":"47512","geo_score":0.857,"id":"a6h28jnbhh44","geo_precision":"zip","state":"IN"},"type":"Feature","geometry":{"type":"Point","coordinates":[-87.32335,38.764491]}},{"properties":{"city":"BICKNELL","zip":"47512","geo_score":0.857,"id":"a6h28jkrax9y","geo_precision":"zip","state":"IN"},"type":"Feature","geometry":{"type":"Point","coordinates":[-87.32335,38.764491]}},{"properties":{"city":"BICKNELL","zip":"47512","geo_score":0.857,"id":"a6h28jmpnzy8","geo_precision":"zip","state":"IN"},"type":"Feature","geometry":{"type":"Point","coordinates":[-87.32335,38.764491]}},{"properties":{"city":"BICKNELL","zip":"47512","geo_score":0.857,"id":"a6h28jmt2bem","geo_precision":"zip","state":"IN"},"type":"Feature","geometry":{"type":"Point","coordinates":[-87.32335,38.764491]}},{"properties":{"city":"BICKNELL","zip":"47512","geo_score":0.857,"id":"a6h28jtewywm","geo_precision":"zip","state":"IN"},"type":"Feature","geometry":{"type":"Point","coordinates":[-87.32335,38.764491]}},{"properties":{"city":"BICKNELL","zip":"47512","geo_score":0.857,"id":"a6h28jshtc08","geo_precision":"zip","state":"IN"},"type":"Feature","geometry":{"type":"Point","coordinates":[-87.32335,38.764491]}},{"properties":{"city":"BICKNELL","zip":"47512","geo_score":0.857,"id":"a6h28ju983kq","geo_precision":"zip","state":"IN"},"type":"Feature","geometry":{"type":"Point","coordinates":[-87.32335,38.764491]}},{"properties":{"city":"BLAIR","zip":"68008","geo_score":0.857,"id":"a6h28jsr7t8v","geo_precision":"zip","state":"NE"},"type":"Feature","geometry":{"type":"Point","coordinates":[-96.270575,41.545828]}},{"properties":{"city":"BOCA RATON","zip":"33433","geo_score":1.0,"id":"a6h28jsy9b03","geo_precision":"zip","state":"FL"},"type":"Feature","geometry":{"type":"Point","coordinates":[-80.158367,26.350274]}},{"properties":{"city":"BOSTON","zip":"2118","geo_score":1.0,"id":"a6h28jnbvdiy","geo_precision":"zip","state":"MA"},"type":"Feature","geometry":{"type":"Point","coordinates":[-71.072854,42.336162]}},{"properties":{"city":"BOSTON","zip":"2118","geo_score":1.0,"id":"a6h28jxungmz","geo_precision":"zip","state":"MA"},"type":"Feature","geometry":{"type":"Point","coordinates":[-71.072854,42.336162]}},{"properties":{"city":"BOWDOINHAM","zip":"4008","geo_score":0.871,"id":"a6h28jyr0usw","geo_precision":"zip","state":"ME"},"type":"Feature","geometry":{"type":"Point","coordinates":[-69.929772,43.95869]}},{"properties":{"city":"BOWIE","zip":"20716","geo_score":0.879,"id":"a6h28jqpeqmt","geo_precision":"zip","state":"MD"},"type":"Feature","geometry":{"type":"Point","coordinates":[-76.742746,38.925112]}},{"properties":{"city":"BRANDON","zip":"39047","geo_score":1.0,"id":"a6h28jufjpqj","geo_precision":"zip","state":"MS"},"type":"Feature","geometry":{"type":"Point","coordinates":[-89.958406,32.388633]}},{"properties":{"city":"BRECKENRIDGE","zip":"76424","geo_score":1.0,"id":"a6h28jw6i19o","geo_precision":"zip","state":"TX"},"type":"Feature","geometry":{"type":"Point","coordinates":[-98.84154,32.769037]}},{"properties":{"city":"BRIDGEVIEW","zip":"60455","geo_score":1.0,"id":"a6h28jsujttt","geo_precision":"zip","state":"IL"},"type":"Feature","geometry":{"type":"Point","coordinates":[-87.68732,41.811929]}},{"properties":{"city":"BROCKTON","zip":"2301","geo_score":1.0,"id":"a6h28jvlbswi","geo_precision":"zip","state":"MA"},"type":"Feature","geometry":{"type":"Point","coordinates":[-71.03999,42.079399]}},{"properties":{"city":"BROKEN ARROW","zip":"74012","geo_score":0.883,"id":"a6h28jv7ojea","geo_precision":"zip","state":"OK"},"type":"Feature","geometry":{"type":"Point","coordinates":[-95.864712,36.073708]}},{"properties":{"city":"BROOMFIELD","zip":"80020","geo_score":0.886,"id":"a6h28jyd6xne","geo_precision":"zip","state":"CO"},"type":"Feature","geometry":{"type":"Point","coordinates":[-105.064706,39.856097]}},{"properties":{"city":"BROOMFIELD","zip":"80020","geo_score":0.886,"id":"a6h28jm3z9y8","geo_precision":"zip","state":"CO"},"type":"Feature","geometry":{"type":"Point","coordinates":[-105.064706,39.856097]}},{"properties":{"city":"BURLINGTON","zip":"1803","geo_score":1.0,"id":"a6h28jmzy8om","geo_precision":"zip","state":"MA"},"type":"Feature","geometry":{"type":"Point","coordinates":[-71.201539,42.504844]}},{"properties":{"city":"BUSKIRK","zip":"12028","geo_score":0.896,"id":"a6h28jjwdo7b","geo_precision":"zip","state":"NY"},"type":"Feature","geometry":{"type":"Point","coordinates":[-73.425113,42.899522]}},{"properties":{"city":"CALABASAS","zip":"91302","geo_score":0.857,"id":"a6h28jrbbf8z","geo_precision":"zip","state":"CA"},"type":"Feature","geometry":{"type":"Point","coordinates":[-118.687031,34.08084]}},{"properties":{"city":"CAMPTI","zip":"71411","geo_score":1.0,"id":"a6h28jkxxem8","geo_precision":"zip","state":"LA"},"type":"Feature","geometry":{"type":"Point","coordinates":[-93.148989,31.83009]}},{"properties":{"city":"CANADIAN","zip":"79014","geo_score":0.893,"id":"a6h28jxbuny2","geo_precision":"zip","state":"TX"},"type":"Feature","geometry":{"type":"Point","coordinates":[-100.263742,36.01143]}},{"properties":{"city":"CANBY","zip":"97013","geo_score":0.881,"id":"a6h28jz1xspd","geo_precision":"zip","state":"OR"},"type":"Feature","geometry":{"type":"Point","coordinates":[-122.661758,45.270677]}},{"properties":{"city":"CARLSBAD","zip":"92009","geo_score":1.0,"id":"a6h28jmalyjt","geo_precision":"zip","state":"CA"},"type":"Feature","geometry":{"type":"Point","coordinates":[-117.267169,33.082192]}},{"properties":{"city":"CARLSBAD","zip":"92009","geo_score":1.0,"id":"a6h28jscfchz","geo_precision":"zip","state":"CA"},"type":"Feature","geometry":{"type":"Point","coordinates":[-117.267169,33.082192]}},{"properties":{"city":"CARY","zip":"60013","geo_score":0.883,"id":"a6h28jon2p0b","geo_precision":"zip","state":"IL"},"type":"Feature","geometry":{"type":"Point","coordinates":[-88.253416,42.19808]}},{"properties":{"city":"CARY","zip":"27511","geo_score":1.0,"id":"a6h28jsb93ix","geo_precision":"zip","state":"NC"},"type":"Feature","geometry":{"type":"Point","coordinates":[-78.70732,35.751243]}},{"properties":{"city":"CARY","zip":"27519","geo_score":1.0,"id":"a6h28jpp0jgf","geo_precision":"zip","state":"NC"},"type":"Feature","geometry":{"type":"Point","coordinates":[-78.829548,35.76812]}},{"properties":{"city":"CASTRO VALLEY","zip":"94546","geo_score":1.0,"id":"a6h28jmitq70","geo_precision":"zip","state":"CA"},"type":"Feature","geometry":{"type":"Point","coordinates":[-122.066373,37.731229]}},{"properties":{"city":"CENTERPOINT","zip":"47840","geo_score":0.87,"id":"a6h28jrobl29","geo_precision":"zip","state":"IN"},"type":"Feature","geometry":{"type":"Point","coordinates":[-87.132237,39.365319]}},{"properties":{"city":"CHANDLER","zip":"85249","geo_score":1.0,"id":"a6h28jpwc5x2","geo_precision":"zip","state":"AZ"},"type":"Feature","geometry":{"type":"Point","coordinates":[-111.770161,33.247861]}},{"properties":{"city":"CHARLESTOWN","zip":"2129","geo_score":1.0,"id":"a6h28jjw327k","geo_precision":"zip","state":"MA"},"type":"Feature","geometry":{"type":"Point","coordinates":[-71.065287,42.382588]}},{"properties":{"city":"CHARLESTOWN","zip":"3603","geo_score":0.87,"id":"a6h28jli9tm1","geo_precision":"zip","state":"NH"},"type":"Feature","geometry":{"type":"Point","coordinates":[-72.260366,43.293964]}},{"properties":{"city":"CHARLOTTE","zip":"28211","geo_score":1.0,"id":"a6h28jnh7t4k","geo_precision":"zip","state":"NC"},"type":"Feature","geometry":{"type":"Point","coordinates":[-80.79076,35.169586]}},{"properties":{"city":"CHARLTON","zip":"1507","geo_score":0.945,"id":"a6h28jy8xq08","geo_precision":"zip","state":"MA"},"type":"Feature","geometry":{"type":"Point","coordinates":[-71.924517,42.098151]}},{"properties":{"city":"CHATOM","zip":"36518","geo_score":0.881,"id":"a6h28jyfomza","geo_precision":"zip","state":"AL"},"type":"Feature","geometry":{"type":"Point","coordinates":[-88.189453,31.43961]}},{"properties":{"city":"CHATOM","zip":"36518","geo_score":0.881,"id":"a6h28jwhv05e","geo_precision":"zip","state":"AL"},"type":"Feature","geometry":{"type":"Point","coordinates":[-88.189453,31.43961]}},{"properties":{"city":"CHATTANOOGA","zip":"37405","geo_score":0.857,"id":"a6h28jzercvn","geo_precision":"zip","state":"TN"},"type":"Feature","geometry":{"type":"Point","coordinates":[-85.333015,35.098962]}},{"properties":{"city":"CHELTENHAM","zip":"19012","geo_score":0.886,"id":"a6h28jw1lwo3","geo_precision":"zip","state":"PA"},"type":"Feature","geometry":{"type":"Point","coordinates":[-75.121286,40.0565]}},{"properties":{"city":"CHESTER","zip":"23831","geo_score":0.873,"id":"a6h28jzzbvh3","geo_precision":"zip","state":"VA"},"type":"Feature","geometry":{"type":"Point","coordinates":[-77.311923,37.318482]}},{"properties":{"city":"CHEYENNE","zip":"82007","geo_score":1.0,"id":"a6h28julvjeu","geo_precision":"zip","state":"WY"},"type":"Feature","geometry":{"type":"Point","coordinates":[-104.666476,41.209351]}},{"properties":{"city":"CHEYENNE","zip":"82007","geo_score":1.0,"id":"a6h28jtwfobo","geo_precision":"zip","state":"WY"},"type":"Feature","geometry":{"type":"Point","coordinates":[-104.666476,41.209351]}},{"properties":{"city":"CHICAGO","zip":"60657","geo_score":1.0,"id":"a6h28jn44j99","geo_precision":"zip","state":"IL"},"type":"Feature","geometry":{"type":"Point","coordinates":[-87.68732,41.811929]}},{"properties":{"city":"CHICAGO","zip":"60614","geo_score":1.0,"id":"a6h28jrjst7j","geo_precision":"zip","state":"IL"},"type":"Feature","geometry":{"type":"Point","coordinates":[-87.68732,41.811929]}},{"properties":{"city":"CHICO","zip":"95928","geo_score":1.0,"id":"a6h28jxg1j7a","geo_precision":"zip","state":"CA"},"type":"Feature","geometry":{"type":"Point","coordinates":[-121.799166,39.687626]}},{"properties":{"city":"CHICO","zip":"95928","geo_score":1.0,"id":"a6h28jw65kt9","geo_precision":"zip","state":"CA"},"type":"Feature","geometry":{"type":"Point","coordinates":[-121.799166,39.687626]}},{"properties":{"city":"CLAYTON","zip":"27527","geo_score":0.755,"id":"a6h28jsyubwb","geo_precision":"city","state":"NC"},"type":"Feature","geometry":{"type":"Point","coordinates":[-76.614114,36.320433]}},{"properties":{"city":"CLINTON TOWNSHIP","zip":"48036","geo_score":1.0,"id":"a6h28jo20g11","geo_precision":"zip","state":"MI"},"type":"Feature","geometry":{"type":"Point","coordinates":[-82.913321,42.593834]}},{"properties":{"city":"CLOVIS","zip":"93612","geo_score":0.905,"id":"a6h28jvbgb8y","geo_precision":"zip","state":"CA"},"type":"Feature","geometry":{"type":"Point","coordinates":[-119.700975,36.808561]}},{"properties":{"city":"CLOVIS","zip":"93612","geo_score":0.905,"id":"a6h28jtsmppl","geo_precision":"zip","state":"CA"},"type":"Feature","geometry":{"type":"Point","coordinates":[-119.700975,36.808561]}},{"properties":{"city":"COATESVILLE","zip":"19320","geo_score":0.883,"id":"a6h28jpye0vq","geo_precision":"zip","state":"PA"},"type":"Feature","geometry":{"type":"Point","coordinates":[-75.81939,39.950107]}},{"properties":{"city":"COLCHESTER","zip":"5446","geo_score":1.0,"id":"a6h28juior0x","geo_precision":"zip","state":"VT"},"type":"Feature","geometry":{"type":"Point","coordinates":[-73.103897,44.535557]}},{"properties":{"city":"COLLEYVILLE","zip":"76034","geo_score":0.857,"id":"a6h28jkfl3p5","geo_precision":"zip","state":"TX"},"type":"Feature","geometry":{"type":"Point","coordinates":[-97.168346,32.899849]}},{"properties":{"city":"CONCORD","zip":"94521","geo_score":1.0,"id":"a6h28jwrdntb","geo_precision":"zip","state":"CA"},"type":"Feature","geometry":{"type":"Point","coordinates":[-121.960045,37.951661]}},{"properties":{"city":"CONWAY","zip":"29527","geo_score":0.873,"id":"a6h28jnaiceo","geo_precision":"zip","state":"SC"},"type":"Feature","geometry":{"type":"Point","coordinates":[-79.10254,33.664892]}},{"properties":{"city":"CROFTON","zip":"21114","geo_score":1.0,"id":"a6h28jp6qz7n","geo_precision":"zip","state":"MD"},"type":"Feature","geometry":{"type":"Point","coordinates":[-76.622577,39.06436]}},{"properties":{"city":"CROFTON","zip":"21114","geo_score":1.0,"id":"a6h28jm2cjyh","geo_precision":"zip","state":"MD"},"type":"Feature","geometry":{"type":"Point","coordinates":[-76.622577,39.06436]}},{"properties":{"city":"CYPRESS","zip":"77429","geo_score":1.0,"id":"a6h28jmawqg7","geo_precision":"zip","state":"TX"},"type":"Feature","geometry":{"type":"Point","coordinates":[-95.434241,29.83399]}},{"properties":{"city":"DALLAS","zip":"75205","geo_score":0.867,"id":"a6h28jn191fc","geo_precision":"zip","state":"TX"},"type":"Feature","geometry":{"type":"Point","coordinates":[-96.800279,32.850127]}},{"properties":{"city":"DALLAS","zip":"97338","geo_score":0.857,"id":"a6h28juyv6md","geo_precision":"zip","state":"OR"},"type":"Feature","geometry":{"type":"Point","coordinates":[-123.264269,44.983451]}},{"properties":{"city":"DANVILLE","zip":"24541","geo_score":0.889,"id":"a6h28jqooyy2","geo_precision":"zip","state":"VA"},"type":"Feature","geometry":{"type":"Point","coordinates":[-79.472525,36.547083]}},{"properties":{"city":"DEEP RUN","zip":"28525","geo_score":0.875,"id":"a6h28juzj2tl","geo_precision":"zip","state":"NC"},"type":"Feature","geometry":{"type":"Point","coordinates":[-77.684973,35.103497]}},{"properties":{"city":"DENTON","zip":"76208","geo_score":1.0,"id":"a6h28jvhalra","geo_precision":"zip","state":"TX"},"type":"Feature","geometry":{"type":"Point","coordinates":[-97.095421,33.160393]}},{"properties":{"city":"DENVER","zip":"80218","geo_score":1.0,"id":"a6h28jxuixvt","geo_precision":"zip","state":"CO"},"type":"Feature","geometry":{"type":"Point","coordinates":[-104.968759,39.720236]}},{"properties":{"city":"DIBERVILLE","zip":"39540","geo_score":1.0,"id":"a6h28jpwatmy","geo_precision":"zip","state":"MS"},"type":"Feature","geometry":{"type":"Point","coordinates":[-88.898516,30.454524]}},{"properties":{"city":"DICKINSON","zip":"77539","geo_score":0.889,"id":"a6h28js0fpch","geo_precision":"zip","state":"TX"},"type":"Feature","geometry":{"type":"Point","coordinates":[-94.975204,29.464398]}},{"properties":{"city":"DICKINSON","zip":"77539","geo_score":0.889,"id":"a6h28jrz6cz3","geo_precision":"zip","state":"TX"},"type":"Feature","geometry":{"type":"Point","coordinates":[-94.975204,29.464398]}},{"properties":{"city":"DICKINSON","zip":"58601","geo_score":0.873,"id":"a6h28jmo3dpm","geo_precision":"zip","state":"ND"},"type":"Feature","geometry":{"type":"Point","coordinates":[-102.694624,46.867786]}},{"properties":{"city":"DIXON","zip":"61021","geo_score":0.905,"id":"a6h28jux62ww","geo_precision":"zip","state":"IL"},"type":"Feature","geometry":{"type":"Point","coordinates":[-89.438431,41.715034]}},{"properties":{"city":"DIXON","zip":"61021","geo_score":0.905,"id":"a6h28jvkxg7r","geo_precision":"zip","state":"IL"},"type":"Feature","geometry":{"type":"Point","coordinates":[-89.438431,41.715034]}},{"properties":{"city":"DIXON","zip":"61021","geo_score":0.905,"id":"a6h28jsbvutk","geo_precision":"zip","state":"IL"},"type":"Feature","geometry":{"type":"Point","coordinates":[-89.438431,41.715034]}},{"properties":{"city":"DIXON","zip":"61021","geo_score":0.905,"id":"a6h28jtmdgmg","geo_precision":"zip","state":"IL"},"type":"Feature","geometry":{"type":"Point","coordinates":[-89.438431,41.715034]}},{"properties":{"city":"DIXON","zip":"61021","geo_score":0.905,"id":"a6h28jkur9bl","geo_precision":"zip","state":"IL"},"type":"Feature","geometry":{"type":"Point","coordinates":[-89.438431,41.715034]}},{"properties":{"city":"DIXON","zip":"61021","geo_score":0.905,"id":"a6h28jzdqjv8","geo_precision":"zip","state":"IL"},"type":"Feature","geometry":{"type":"Point","coordinates":[-89.438431,41.715034]}},{"properties":{"city":"DIXON","zip":"61021","geo_score":0.905,"id":"a6h28jk7yk3k","geo_precision":"zip","state":"IL"},"type":"Feature","geometry":{"type":"Point","coordinates":[-89.438431,41.715034]}},{"properties":{"city":"DIXON","zip":"61021","geo_score":0.905,"id":"a6h28jo3tonn","geo_precision":"zip","state":"IL"},"type":"Feature","geometry":{"type":"Point","coordinates":[-89.438431,41.715034]}},{"properties":{"city":"DOVER","zip":"19901","geo_score":0.889,"id":"a6h28jo65cmx","geo_precision":"zip","state":"DE"},"type":"Feature","geometry":{"type":"Point","coordinates":[-75.541313,39.173723]}},{"properties":{"city":"DOYLESTOWN","zip":"18902","geo_score":0.814,"id":"a6h28jk4bsx3","geo_precision":"city","state":"PA"},"type":"Feature","geometry":{"type":"Point","coordinates":[-76.65353,39.912423]}},{"properties":{"city":"DURHAM","zip":"27707","geo_score":0.871,"id":"a6h28jt20wps","geo_precision":"zip","state":"NC"},"type":"Feature","geometry":{"type":"Point","coordinates":[-78.888897,35.90348]}},{"properties":{"city":"EAST LONGMEADOW","zip":"1028","geo_score":0.878,"id":"a6h28jkcgb5x","geo_precision":"zip","state":"MA"},"type":"Feature","geometry":{"type":"Point","coordinates":[-72.470363,42.047318]}},{"properties":{"city":"EAST LONGMEADOW","zip":"1028","geo_score":0.878,"id":"a6h28jt1qurz","geo_precision":"zip","state":"MA"},"type":"Feature","geometry":{"type":"Point","coordinates":[-72.470363,42.047318]}},{"properties":{"city":"EAST LONGMEADOW","zip":"1028","geo_score":0.878,"id":"a6h28jtr9o8w","geo_precision":"zip","state":"MA"},"type":"Feature","geometry":{"type":"Point","coordinates":[-72.470363,42.047318]}},{"properties":{"city":"EAST LONGMEADOW","zip":"1028","geo_score":0.878,"id":"a6h28jz1ap2r","geo_precision":"zip","state":"MA"},"type":"Feature","geometry":{"type":"Point","coordinates":[-72.470363,42.047318]}},{"properties":{"city":"EAST LONGMEADOW","zip":"1028","geo_score":0.878,"id":"a6h28jwzp593","geo_precision":"zip","state":"MA"},"type":"Feature","geometry":{"type":"Point","coordinates":[-72.470363,42.047318]}},{"properties":{"city":"EDEN PRAIRIE","zip":"55346","geo_score":1.0,"id":"a6h28jt643cw","geo_precision":"zip","state":"MN"},"type":"Feature","geometry":{"type":"Point","coordinates":[-93.47808,44.875463]}},{"properties":{"city":"EHRHARDT","zip":"29081","geo_score":1.0,"id":"a6h28jyqlp1m","geo_precision":"zip","state":"SC"},"type":"Feature","geometry":{"type":"Point","coordinates":[-81.014013,33.08885]}},{"properties":{"city":"EL CAJON","zip":"92021","geo_score":0.875,"id":"a6h28jo2sqde","geo_precision":"zip","state":"CA"},"type":"Feature","geometry":{"type":"Point","coordinates":[-116.905859,32.832273]}},{"properties":{"city":"EL CAJON","zip":"92021","geo_score":0.875,"id":"a6h28jyv3x5t","geo_precision":"zip","state":"CA"},"type":"Feature","geometry":{"type":"Point","coordinates":[-116.905859,32.832273]}},{"properties":{"city":"EL DORADO","zip":"67042","geo_score":0.952,"id":"a6h28joyjadx","geo_precision":"zip","state":"KS"},"type":"Feature","geometry":{"type":"Point","coordinates":[-96.835585,37.820851]}},{"properties":{"city":"EL DORADO","zip":"67042","geo_score":0.952,"id":"a6h28jynzozh","geo_precision":"zip","state":"KS"},"type":"Feature","geometry":{"type":"Point","coordinates":[-96.835585,37.820851]}},{"properties":{"city":"ELK GROVE","zip":"95758","geo_score":1.0,"id":"a6h28jx0j13s","geo_precision":"zip","state":"CA"},"type":"Feature","geometry":{"type":"Point","coordinates":[-121.428681,38.347205]}},{"properties":{"city":"EUCLID","zip":"44132","geo_score":0.881,"id":"a6h28jvvmdl8","geo_precision":"zip","state":"OH"},"type":"Feature","geometry":{"type":"Point","coordinates":[-81.513731,41.595049]}},{"properties":{"city":"FAIRVIEW HEIGHTS","zip":"62208","geo_score":0.886,"id":"a6h28jl8eq8l","geo_precision":"zip","state":"IL"},"type":"Feature","geometry":{"type":"Point","coordinates":[-90.050106,38.600328]}},{"properties":{"city":"FALLBROOK","zip":"92028","geo_score":0.871,"id":"a6h28joyrvch","geo_precision":"zip","state":"CA"},"type":"Feature","geometry":{"type":"Point","coordinates":[-117.222257,33.340865]}},{"properties":{"city":"FALLBROOK","zip":"92028","geo_score":0.871,"id":"a6h28jkul8ys","geo_precision":"zip","state":"CA"},"type":"Feature","geometry":{"type":"Point","coordinates":[-117.222257,33.340865]}},{"properties":{"city":"FALLBROOK","zip":"92028","geo_score":0.871,"id":"a6h28jql2ho9","geo_precision":"zip","state":"CA"},"type":"Feature","geometry":{"type":"Point","coordinates":[-117.222257,33.340865]}},{"properties":{"city":"FALLBROOK","zip":"92028","geo_score":0.871,"id":"a6h28jpv9sv2","geo_precision":"zip","state":"CA"},"type":"Feature","geometry":{"type":"Point","coordinates":[-117.222257,33.340865]}},{"properties":{"city":"FARMINGTON","zip":"48335","geo_score":1.0,"id":"a6h28jkrz7j9","geo_precision":"zip","state":"MI"},"type":"Feature","geometry":{"type":"Point","coordinates":[-83.405333,42.461669]}},{"properties":{"city":"FARMINGTON","zip":"55024","geo_score":0.871,"id":"a6h28jvi8eg0","geo_precision":"zip","state":"MN"},"type":"Feature","geometry":{"type":"Point","coordinates":[-93.014657,44.659134]}},{"properties":{"city":"FARMINGTON","zip":"55024","geo_score":0.871,"id":"a6h28jqz421z","geo_precision":"zip","state":"MN"},"type":"Feature","geometry":{"type":"Point","coordinates":[-93.014657,44.659134]}},{"properties":{"city":"FARMINGTON","zip":"55024","geo_score":0.871,"id":"a6h28jvxj6yy","geo_precision":"zip","state":"MN"},"type":"Feature","geometry":{"type":"Point","coordinates":[-93.014657,44.659134]}},{"properties":{"city":"FORESTHILL","zip":"95631","geo_score":0.871,"id":"a6h28jomrdtx","geo_precision":"zip","state":"CA"},"type":"Feature","geometry":{"type":"Point","coordinates":[-120.851602,38.997954]}},{"properties":{"city":"FORSYTH","zip":"31029","geo_score":0.857,"id":"a6h28jwgiam8","geo_precision":"zip","state":"GA"},"type":"Feature","geometry":{"type":"Point","coordinates":[-83.87935,33.15346]}},{"properties":{"city":"FREDERICK","zip":"21702","geo_score":1.0,"id":"a6h28jtf3ch3","geo_precision":"zip","state":"MD"},"type":"Feature","geometry":{"type":"Point","coordinates":[-77.461211,39.492596]}},{"properties":{"city":"FRESNO","zip":"93706","geo_score":0.878,"id":"a6h28jt84mbh","geo_precision":"zip","state":"CA"},"type":"Feature","geometry":{"type":"Point","coordinates":[-119.96182,36.735223]}},{"properties":{"city":"FRIENDSWOOD","zip":"77546","geo_score":1.0,"id":"a6h28juxx6oj","geo_precision":"zip","state":"TX"},"type":"Feature","geometry":{"type":"Point","coordinates":[-95.156545,29.482185]}},{"properties":{"city":"GAINESVILLE","zip":"30507","geo_score":1.0,"id":"a6h28jygocgr","geo_precision":"zip","state":"GA"},"type":"Feature","geometry":{"type":"Point","coordinates":[-83.824574,34.257212]}},{"properties":{"city":"GAYLORD","zip":"49735","geo_score":0.878,"id":"a6h28jxdmvo3","geo_precision":"zip","state":"MI"},"type":"Feature","geometry":{"type":"Point","coordinates":[-84.572525,45.041401]}},{"properties":{"city":"GERMANTOWN","zip":"53022","geo_score":0.871,"id":"a6h28jxpbyym","geo_precision":"zip","state":"WI"},"type":"Feature","geometry":{"type":"Point","coordinates":[-88.173148,43.221673]}},{"properties":{"city":"GIBBSBORO","zip":"8026","geo_score":1.0,"id":"a6h28jtxt3p3","geo_precision":"zip","state":"NJ"},"type":"Feature","geometry":{"type":"Point","coordinates":[-74.967496,39.833114]}},{"properties":{"city":"GILBERT","zip":"85234","geo_score":1.0,"id":"a6h28jn1y1n6","geo_precision":"zip","state":"AZ"},"type":"Feature","geometry":{"type":"Point","coordinates":[-111.780712,33.352925]}},{"properties":{"city":"GRANBY","zip":"64844","geo_score":0.878,"id":"a6h28jue51kq","geo_precision":"zip","state":"MO"},"type":"Feature","geometry":{"type":"Point","coordinates":[-94.184937,36.944231]}},{"properties":{"city":"GREENBUSH","zip":"56726","geo_score":1.0,"id":"a6h28jr52o6x","geo_precision":"zip","state":"MN"},"type":"Feature","geometry":{"type":"Point","coordinates":[-96.286287,48.834783]}},{"properties":{"city":"GREENCASTLE","zip":"17225","geo_score":0.87,"id":"a6h28jo7hslu","geo_precision":"zip","state":"PA"},"type":"Feature","geometry":{"type":"Point","coordinates":[-77.776662,39.744538]}},{"properties":{"city":"HAVERHILL","zip":"1830","geo_score":0.873,"id":"a6h28jwqyc3r","geo_precision":"zip","state":"MA"},"type":"Feature","geometry":{"type":"Point","coordinates":[-71.111169,42.803701]}},{"properties":{"city":"HEATH","zip":"43056","geo_score":1.0,"id":"a6h28jntybpu","geo_precision":"zip","state":"OH"},"type":"Feature","geometry":{"type":"Point","coordinates":[-82.467105,40.004407]}},{"properties":{"city":"HECTOR","zip":"55342","geo_score":1.0,"id":"a6h28jt3n3tg","geo_precision":"zip","state":"MN"},"type":"Feature","geometry":{"type":"Point","coordinates":[-94.756704,44.70976]}},{"properties":{"city":"HEMET","zip":"92544","geo_score":1.0,"id":"a6h28jofvgv4","geo_precision":"zip","state":"CA"},"type":"Feature","geometry":{"type":"Point","coordinates":[-116.786275,33.617074]}},{"properties":{"city":"HOMESTEAD","zip":"33031","geo_score":1.0,"id":"a6h28jon5oup","geo_precision":"zip","state":"FL"},"type":"Feature","geometry":{"type":"Point","coordinates":[-80.499812,25.526889]}},{"properties":{"city":"HOPEWELL","zip":"43746","geo_score":1.0,"id":"a6h28jqq6jgn","geo_precision":"zip","state":"OH"},"type":"Feature","geometry":{"type":"Point","coordinates":[-82.174647,39.970024]}},{"properties":{"city":"HOUSE SPRINGS","zip":"63051","geo_score":0.881,"id":"a6h28ju8svee","geo_precision":"zip","state":"MO"},"type":"Feature","geometry":{"type":"Point","coordinates":[-90.552624,38.433665]}},{"properties":{"city":"HOUSE SPRINGS","zip":"63051","geo_score":0.881,"id":"a6h28jvmpp3a","geo_precision":"zip","state":"MO"},"type":"Feature","geometry":{"type":"Point","coordinates":[-90.552624,38.433665]}},{"properties":{"city":"HOUSTON","zip":"77095","geo_score":1.0,"id":"a6h28jvq5mlh","geo_precision":"zip","state":"TX"},"type":"Feature","geometry":{"type":"Point","coordinates":[-95.434241,29.83399]}},{"properties":{"city":"HOUSTON","zip":"77069","geo_score":1.0,"id":"a6h28jo3pgk5","geo_precision":"zip","state":"TX"},"type":"Feature","geometry":{"type":"Point","coordinates":[-95.335551,29.781938]}},{"properties":{"city":"HOUSTON","zip":"77024","geo_score":0.857,"id":"a6h28jqh7y51","geo_precision":"zip","state":"TX"},"type":"Feature","geometry":{"type":"Point","coordinates":[-95.503553,29.789672]}},{"properties":{"city":"HOWELL","zip":"7731","geo_score":1.0,"id":"a6h28jsvghj5","geo_precision":"zip","state":"NJ"},"type":"Feature","geometry":{"type":"Point","coordinates":[-74.19678,40.258361]}},{"properties":{"city":"HUMBLE","zip":"77346","geo_score":0.857,"id":"a6h28jsfu3hc","geo_precision":"zip","state":"TX"},"type":"Feature","geometry":{"type":"Point","coordinates":[-95.176598,29.998831]}},{"properties":{"city":"HURLEY","zip":"24620","geo_score":0.881,"id":"a6h28joi4vmy","geo_precision":"zip","state":"VA"},"type":"Feature","geometry":{"type":"Point","coordinates":[-82.06874,37.440665]}},{"properties":{"city":"IMPERIAL","zip":"69033","geo_score":1.0,"id":"a6h28jnwe357","geo_precision":"zip","state":"NE"},"type":"Feature","geometry":{"type":"Point","coordinates":[-101.632038,40.515114]}},{"properties":{"city":"JACKSON","zip":"8527","geo_score":0.87,"id":"a6h28juwy67m","geo_precision":"zip","state":"NJ"},"type":"Feature","geometry":{"type":"Point","coordinates":[-74.271812,40.068171]}},{"properties":{"city":"JACKSON","zip":"8527","geo_score":0.87,"id":"a6h28jqsoi1y","geo_precision":"zip","state":"NJ"},"type":"Feature","geometry":{"type":"Point","coordinates":[-74.271812,40.068171]}},{"properties":{"city":"JACKSON","zip":"8527","geo_score":0.87,"id":"a6h28jjkfvge","geo_precision":"zip","state":"NJ"},"type":"Feature","geometry":{"type":"Point","coordinates":[-74.271812,40.068171]}},{"properties":{"city":"JACKSONVILLE","zip":"32207","geo_score":0.881,"id":"a6h28jlqsto1","geo_precision":"zip","state":"FL"},"type":"Feature","geometry":{"type":"Point","coordinates":[-81.609537,30.296351]}},{"properties":{"city":"JACKSONVILLE","zip":"32216","geo_score":0.875,"id":"a6h28jygi5k3","geo_precision":"zip","state":"FL"},"type":"Feature","geometry":{"type":"Point","coordinates":[-81.558146,30.298296]}},{"properties":{"city":"JEFFERSONVILLE","zip":"47130","geo_score":0.888,"id":"a6h28juunjxl","geo_precision":"zip","state":"IN"},"type":"Feature","geometry":{"type":"Point","coordinates":[-85.699963,38.348679]}},{"properties":{"city":"JUPITER","zip":"33478","geo_score":1.0,"id":"a6h28jmovu49","geo_precision":"zip","state":"FL"},"type":"Feature","geometry":{"type":"Point","coordinates":[-80.430269,26.645895]}},{"properties":{"city":"JUSTIN","zip":"76247","geo_score":0.873,"id":"a6h28jlmxb0f","geo_precision":"zip","state":"TX"},"type":"Feature","geometry":{"type":"Point","coordinates":[-97.265573,33.127343]}},{"properties":{"city":"JUSTIN","zip":"76247","geo_score":0.873,"id":"a6h28jywxynt","geo_precision":"zip","state":"TX"},"type":"Feature","geometry":{"type":"Point","coordinates":[-97.265573,33.127343]}},{"properties":{"city":"KAHULUI","zip":"96732","geo_score":1.0,"id":"a6h28juy80w7","geo_precision":"zip","state":"HI"},"type":"Feature","geometry":{"type":"Point","coordinates":[-156.259166,20.859244]}},{"properties":{"city":"KALAMAZOO","zip":"49009","geo_score":1.0,"id":"a6h28jxn1zed","geo_precision":"zip","state":"MI"},"type":"Feature","geometry":{"type":"Point","coordinates":[-85.592635,42.299211]}},{"properties":{"city":"KALISPELL","zip":"59901","geo_score":0.874,"id":"a6h28jnwdoqb","geo_precision":"zip","state":"MT"},"type":"Feature","geometry":{"type":"Point","coordinates":[-114.33291,48.218016]}},{"properties":{"city":"KAPAA","zip":"96746","geo_score":0.893,"id":"a6h28jmwisn9","geo_precision":"zip","state":"HI"},"type":"Feature","geometry":{"type":"Point","coordinates":[-159.324722,22.063889]}},{"properties":{"city":"KAPAA","zip":"96746","geo_score":0.893,"id":"a6h28jssb1ak","geo_precision":"zip","state":"HI"},"type":"Feature","geometry":{"type":"Point","coordinates":[-159.324722,22.063889]}},{"properties":{"city":"KEARNEY","zip":"64060","geo_score":0.871,"id":"a6h28jokljq5","geo_precision":"zip","state":"MO"},"type":"Feature","geometry":{"type":"Point","coordinates":[-94.262723,39.385004]}},{"properties":{"city":"KETCHIKAN","zip":"99901","geo_score":0.873,"id":"a6h28jw22veu","geo_precision":"zip","state":"AK"},"type":"Feature","geometry":{"type":"Point","coordinates":[-133.240556,55.297222]}},{"properties":{"city":"KINGSBURG","zip":"93631","geo_score":1.0,"id":"a6h28jlw1ejh","geo_precision":"zip","state":"CA"},"type":"Feature","geometry":{"type":"Point","coordinates":[-119.602863,36.5249]}},{"properties":{"city":"KNOXVILLE","zip":"37932","geo_score":1.0,"id":"a6h28jrtzzd6","geo_precision":"zip","state":"TN"},"type":"Feature","geometry":{"type":"Point","coordinates":[-84.148074,35.933487]}},{"properties":{"city":"LA HABRA","zip":"90631","geo_score":0.929,"id":"a6h28jx8p1aa","geo_precision":"zip","state":"CA"},"type":"Feature","geometry":{"type":"Point","coordinates":[-117.950619,33.960846]}},{"properties":{"city":"LA HABRA","zip":"90631","geo_score":0.929,"id":"a6h28josjx78","geo_precision":"zip","state":"CA"},"type":"Feature","geometry":{"type":"Point","coordinates":[-117.950619,33.960846]}},{"properties":{"city":"LA HABRA","zip":"90631","geo_score":0.929,"id":"a6h28jvqal1n","geo_precision":"zip","state":"CA"},"type":"Feature","geometry":{"type":"Point","coordinates":[-117.950619,33.960846]}},{"properties":{"city":"LA HABRA","zip":"90631","geo_score":0.929,"id":"a6h28jmihucb","geo_precision":"zip","state":"CA"},"type":"Feature","geometry":{"type":"Point","coordinates":[-117.950619,33.960846]}},{"properties":{"city":"LACEYS SPRING","zip":"35754","geo_score":0.869,"id":"a6h28jk0askn","geo_precision":"zip","state":"AL"},"type":"Feature","geometry":{"type":"Point","coordinates":[-86.569714,34.472037]}},{"properties":{"city":"LAKE CITY","zip":"51449","geo_score":1.0,"id":"a6h28jzarhkj","geo_precision":"zip","state":"IA"},"type":"Feature","geometry":{"type":"Point","coordinates":[-94.721051,42.29709]}},{"properties":{"city":"LAKE SAINT LOUIS","zip":"63367","geo_score":0.878,"id":"a6h28jyco2k0","geo_precision":"zip","state":"MO"},"type":"Feature","geometry":{"type":"Point","coordinates":[-91.232932,38.678659]}},{"properties":{"city":"LAKEWOOD","zip":"90712","geo_score":1.0,"id":"a6h28jywhrn6","geo_precision":"zip","state":"CA"},"type":"Feature","geometry":{"type":"Point","coordinates":[-118.14645,33.845624]}},{"properties":{"city":"LARAMIE","zip":"82070","geo_score":0.878,"id":"a6h28jomtrhr","geo_precision":"zip","state":"WY"},"type":"Feature","geometry":{"type":"Point","coordinates":[-105.636657,41.477475]}},{"properties":{"city":"LAROSE","zip":"70373","geo_score":1.0,"id":"a6h28jutq5li","geo_precision":"zip","state":"LA"},"type":"Feature","geometry":{"type":"Point","coordinates":[-90.347406,29.520061]}},{"properties":{"city":"LAROSE","zip":"70373","geo_score":1.0,"id":"a6h28jw0jqft","geo_precision":"zip","state":"LA"},"type":"Feature","geometry":{"type":"Point","coordinates":[-90.347406,29.520061]}},{"properties":{"city":"LAS VEGAS","zip":"89115","geo_score":1.0,"id":"a6h28jm2omz5","geo_precision":"zip","state":"NV"},"type":"Feature","geometry":{"type":"Point","coordinates":[-115.064105,36.220075]}},{"properties":{"city":"LAS VEGAS","zip":"89142","geo_score":1.0,"id":"a6h28jwpzd9u","geo_precision":"zip","state":"NV"},"type":"Feature","geometry":{"type":"Point","coordinates":[-115.040429,36.147978]}},{"properties":{"city":"LAURELVILLE","zip":"43135","geo_score":0.87,"id":"a6h28jx4x88f","geo_precision":"zip","state":"OH"},"type":"Feature","geometry":{"type":"Point","coordinates":[-82.670999,39.496731]}},{"properties":{"city":"LAYTON","zip":"84040","geo_score":0.943,"id":"a6h28jua7kpw","geo_precision":"zip","state":"UT"},"type":"Feature","geometry":{"type":"Point","coordinates":[-111.919941,41.081055]}},{"properties":{"city":"LEXINGTON","zip":"30648","geo_score":1.0,"id":"a6h28jur4duc","geo_precision":"zip","state":"GA"},"type":"Feature","geometry":{"type":"Point","coordinates":[-83.020293,33.85281]}},{"properties":{"city":"LINCOLN","zip":"95648","geo_score":1.0,"id":"a6h28jtgsabz","geo_precision":"zip","state":"CA"},"type":"Feature","geometry":{"type":"Point","coordinates":[-121.327143,38.929305]}},{"properties":{"city":"LITTLE ROCK","zip":"72204","geo_score":0.886,"id":"a6h28jkd0z1r","geo_precision":"zip","state":"AR"},"type":"Feature","geometry":{"type":"Point","coordinates":[-92.277373,34.632038]}},{"properties":{"city":"LITTLESTOWN","zip":"17340","geo_score":0.883,"id":"a6h28jocpelu","geo_precision":"zip","state":"PA"},"type":"Feature","geometry":{"type":"Point","coordinates":[-77.109427,39.790932]}},{"properties":{"city":"LITTLETON","zip":"80126","geo_score":0.888,"id":"a6h28jruv4u0","geo_precision":"zip","state":"CO"},"type":"Feature","geometry":{"type":"Point","coordinates":[-104.969426,39.553877]}},{"properties":{"city":"LITTLETON","zip":"80124","geo_score":0.889,"id":"a6h28jrb4wc9","geo_precision":"zip","state":"CO"},"type":"Feature","geometry":{"type":"Point","coordinates":[-104.861962,39.531381]}},{"properties":{"city":"LITTLETON","zip":"80124","geo_score":0.889,"id":"a6h28jjuwiqh","geo_precision":"zip","state":"CO"},"type":"Feature","geometry":{"type":"Point","coordinates":[-104.861962,39.531381]}},{"properties":{"city":"LITTLETON","zip":"80126","geo_score":0.888,"id":"a6h28jtgg0d8","geo_precision":"zip","state":"CO"},"type":"Feature","geometry":{"type":"Point","coordinates":[-104.969426,39.553877]}},{"properties":{"city":"LOCKPORT","zip":"70374","geo_score":0.875,"id":"a6h28jvwr9pc","geo_precision":"zip","state":"LA"},"type":"Feature","geometry":{"type":"Point","coordinates":[-90.491196,29.614103]}},{"properties":{"city":"LOOP","zip":"79342","geo_score":0.878,"id":"a6h28jww0nqa","geo_precision":"zip","state":"TX"},"type":"Feature","geometry":{"type":"Point","coordinates":[-102.278512,32.915372]}},{"properties":{"city":"LOUISBURG","zip":"66053","geo_score":1.0,"id":"a6h28jmyzx0f","geo_precision":"zip","state":"KS"},"type":"Feature","geometry":{"type":"Point","coordinates":[-94.689876,38.587195]}},{"properties":{"city":"LOUISVILLE","zip":"40241","geo_score":1.0,"id":"a6h28jrdhpnb","geo_precision":"zip","state":"KY"},"type":"Feature","geometry":{"type":"Point","coordinates":[-85.581536,38.304531]}},{"properties":{"city":"LOUISVILLE","zip":"40241","geo_score":1.0,"id":"a6h28juftkgb","geo_precision":"zip","state":"KY"},"type":"Feature","geometry":{"type":"Point","coordinates":[-85.581536,38.304531]}},{"properties":{"city":"LOUISVILLE","zip":"40242","geo_score":1.0,"id":"a6h28jubs5y7","geo_precision":"zip","state":"KY"},"type":"Feature","geometry":{"type":"Point","coordinates":[-85.59396,38.278469]}},{"properties":{"city":"LOUISVILLE","zip":"40203","geo_score":1.0,"id":"a6h28jkd08rz","geo_precision":"zip","state":"KY"},"type":"Feature","geometry":{"type":"Point","coordinates":[-85.769412,38.249273]}},{"properties":{"city":"LUBBOCK","zip":"79424","geo_score":1.0,"id":"a6h28jk2onco","geo_precision":"zip","state":"TX"},"type":"Feature","geometry":{"type":"Point","coordinates":[-101.983125,33.492483]}},{"properties":{"city":"LUNENBURG","zip":"1462","geo_score":1.0,"id":"a6h28joop7d8","geo_precision":"zip","state":"MA"},"type":"Feature","geometry":{"type":"Point","coordinates":[-71.752266,42.583322]}},{"properties":{"city":"LYNBROOK","zip":"11563","geo_score":0.945,"id":"a6h28jpgy9p8","geo_precision":"zip","state":"NY"},"type":"Feature","geometry":{"type":"Point","coordinates":[-73.664575,40.602326]}},{"properties":{"city":"MADISON","zip":"53714","geo_score":1.0,"id":"a6h28jzmj6d0","geo_precision":"zip","state":"WI"},"type":"Feature","geometry":{"type":"Point","coordinates":[-89.312644,43.118663]}},{"properties":{"city":"MANSFIELD CENTER","zip":"6250","geo_score":0.867,"id":"a6h28jpa11d7","geo_precision":"zip","state":"CT"},"type":"Feature","geometry":{"type":"Point","coordinates":[-72.178411,41.856764]}},{"properties":{"city":"MARION","zip":"42064","geo_score":0.898,"id":"a6h28jm4gfdn","geo_precision":"zip","state":"KY"},"type":"Feature","geometry":{"type":"Point","coordinates":[-87.991965,37.347827]}},{"properties":{"city":"MARTIN","zip":"43445","geo_score":0.857,"id":"a6h28jkxqhnt","geo_precision":"zip","state":"OH"},"type":"Feature","geometry":{"type":"Point","coordinates":[-83.269094,41.635603]}},{"properties":{"city":"MARYSVILLE","zip":"43040","geo_score":0.886,"id":"a6h28jqjky82","geo_precision":"zip","state":"OH"},"type":"Feature","geometry":{"type":"Point","coordinates":[-83.246861,40.212561]}},{"properties":{"city":"MARYSVILLE","zip":"43040","geo_score":0.886,"id":"a6h28jvt7xpp","geo_precision":"zip","state":"OH"},"type":"Feature","geometry":{"type":"Point","coordinates":[-83.246861,40.212561]}},{"properties":{"city":"MARYSVILLE","zip":"43040","geo_score":0.886,"id":"a6h28jmytf84","geo_precision":"zip","state":"OH"},"type":"Feature","geometry":{"type":"Point","coordinates":[-83.246861,40.212561]}},{"properties":{"city":"MARYSVILLE","zip":"43040","geo_score":0.886,"id":"a6h28jvrx668","geo_precision":"zip","state":"OH"},"type":"Feature","geometry":{"type":"Point","coordinates":[-83.246861,40.212561]}},{"properties":{"city":"MARYSVILLE","zip":"43040","geo_score":0.886,"id":"a6h28jos0pxi","geo_precision":"zip","state":"OH"},"type":"Feature","geometry":{"type":"Point","coordinates":[-83.246861,40.212561]}},{"properties":{"city":"MASON CITY","zip":"50401","geo_score":0.857,"id":"a6h28juc5pv5","geo_precision":"zip","state":"IA"},"type":"Feature","geometry":{"type":"Point","coordinates":[-93.123535,43.128576]}},{"properties":{"city":"MASSENA","zip":"13662","geo_score":0.879,"id":"a6h28jq70ka8","geo_precision":"zip","state":"NY"},"type":"Feature","geometry":{"type":"Point","coordinates":[-74.973263,44.948658]}},{"properties":{"city":"MECHANICSVILLE","zip":"23111","geo_score":0.875,"id":"a6h28jz586x1","geo_precision":"zip","state":"VA"},"type":"Feature","geometry":{"type":"Point","coordinates":[-77.386648,37.609312]}},{"properties":{"city":"MEMPHIS","zip":"38134","geo_score":0.857,"id":"a6h28jux8hmv","geo_precision":"zip","state":"TN"},"type":"Feature","geometry":{"type":"Point","coordinates":[-89.873975,35.204533]}},{"properties":{"city":"MEMPHIS","zip":"38134","geo_score":0.857,"id":"a6h28jyik4cx","geo_precision":"zip","state":"TN"},"type":"Feature","geometry":{"type":"Point","coordinates":[-89.873975,35.204533]}},{"properties":{"city":"MEMPHIS","zip":"38111","geo_score":0.857,"id":"a6h28jz6ytw0","geo_precision":"zip","state":"TN"},"type":"Feature","geometry":{"type":"Point","coordinates":[-89.971756,35.115924]}},{"properties":{"city":"MEMPHIS","zip":"38111","geo_score":0.857,"id":"a6h28jq01plm","geo_precision":"zip","state":"TN"},"type":"Feature","geometry":{"type":"Point","coordinates":[-89.971756,35.115924]}},{"properties":{"city":"MEMPHIS","zip":"38111","geo_score":0.857,"id":"a6h28jyzt74w","geo_precision":"zip","state":"TN"},"type":"Feature","geometry":{"type":"Point","coordinates":[-89.971756,35.115924]}},{"properties":{"city":"MEMPHIS","zip":"38134","geo_score":0.857,"id":"a6h28jvvpy8z","geo_precision":"zip","state":"TN"},"type":"Feature","geometry":{"type":"Point","coordinates":[-89.873975,35.204533]}},{"properties":{"city":"MEMPHIS","zip":"38134","geo_score":0.857,"id":"a6h28jolo9by","geo_precision":"zip","state":"TN"},"type":"Feature","geometry":{"type":"Point","coordinates":[-89.873975,35.204533]}},{"properties":{"city":"MEMPHIS","zip":"38134","geo_score":0.857,"id":"a6h28jyax30x","geo_precision":"zip","state":"TN"},"type":"Feature","geometry":{"type":"Point","coordinates":[-89.873975,35.204533]}},{"properties":{"city":"MEMPHIS","zip":"38134","geo_score":0.857,"id":"a6h28jmxe053","geo_precision":"zip","state":"TN"},"type":"Feature","geometry":{"type":"Point","coordinates":[-89.873975,35.204533]}},{"properties":{"city":"MENIFEE","zip":"92584","geo_score":1.0,"id":"a6h28jpct4io","geo_precision":"zip","state":"CA"},"type":"Feature","geometry":{"type":"Point","coordinates":[-116.055617,33.752886]}},{"properties":{"city":"MIDDLE ISLAND","zip":"11953","geo_score":1.0,"id":"a6h28jtyn5gc","geo_precision":"zip","state":"NY"},"type":"Feature","geometry":{"type":"Point","coordinates":[-72.637078,40.922326]}},{"properties":{"city":"MIDDLETOWN","zip":"2842","geo_score":1.0,"id":"a6h28jvu0zit","geo_precision":"zip","state":"RI"},"type":"Feature","geometry":{"type":"Point","coordinates":[-71.273101,41.519757]}},{"properties":{"city":"MILLSBORO","zip":"19966","geo_score":0.873,"id":"a6h28jn1aacx","geo_precision":"zip","state":"DE"},"type":"Feature","geometry":{"type":"Point","coordinates":[-75.191297,38.594002]}},{"properties":{"city":"MILPITAS","zip":"95035","geo_score":1.0,"id":"a6h28jp8orbv","geo_precision":"zip","state":"CA"},"type":"Feature","geometry":{"type":"Point","coordinates":[-121.861989,37.436454]}},{"properties":{"city":"MINERAL WELLS","zip":"76067","geo_score":0.869,"id":"a6h28jxsk5mu","geo_precision":"zip","state":"TX"},"type":"Feature","geometry":{"type":"Point","coordinates":[-98.06671,32.765407]}},{"properties":{"city":"MINNEAPOLIS","zip":"55403","geo_score":1.0,"id":"a6h28jjty13a","geo_precision":"zip","state":"MN"},"type":"Feature","geometry":{"type":"Point","coordinates":[-93.287275,44.972615]}},{"properties":{"city":"MINNEAPOLIS","zip":"55418","geo_score":0.881,"id":"a6h28jshn2qx","geo_precision":"zip","state":"MN"},"type":"Feature","geometry":{"type":"Point","coordinates":[-93.218002,45.020521]}},{"properties":{"city":"MISSOURI VALLEY","zip":"51555","geo_score":0.888,"id":"a6h28js8c7km","geo_precision":"zip","state":"IA"},"type":"Feature","geometry":{"type":"Point","coordinates":[-95.890011,41.497216]}},{"properties":{"city":"MITCHELL","zip":"57301","geo_score":0.873,"id":"a6h28jpt2mtg","geo_precision":"zip","state":"SD"},"type":"Feature","geometry":{"type":"Point","coordinates":[-97.948409,43.722761]}},{"properties":{"city":"MITCHELL","zip":"57301","geo_score":0.873,"id":"a6h28jkin9sg","geo_precision":"zip","state":"SD"},"type":"Feature","geometry":{"type":"Point","coordinates":[-97.948409,43.722761]}},{"properties":{"city":"MORGANTOWN","zip":"26508","geo_score":1.0,"id":"a6h28jregfw7","geo_precision":"zip","state":"WV"},"type":"Feature","geometry":{"type":"Point","coordinates":[-79.922871,39.595329]}},{"properties":{"city":"MOUNT HOLLY","zip":"28120","geo_score":0.871,"id":"a6h28jv8h2mo","geo_precision":"zip","state":"NC"},"type":"Feature","geometry":{"type":"Point","coordinates":[-81.010631,35.384859]}},{"properties":{"city":"NATCHEZ","zip":"39120","geo_score":0.857,"id":"a6h28jmf0bf9","geo_precision":"zip","state":"MS"},"type":"Feature","geometry":{"type":"Point","coordinates":[-91.240388,31.615999]}},{"properties":{"city":"NEW MILFORD","zip":"6776","geo_score":0.871,"id":"a6h28jk2w54y","geo_precision":"zip","state":"CT"},"type":"Feature","geometry":{"type":"Point","coordinates":[-73.393176,41.629262]}},{"properties":{"city":"NEW ORLEANS","zip":"70123","geo_score":1.0,"id":"a6h28juyc07j","geo_precision":"zip","state":"LA"},"type":"Feature","geometry":{"type":"Point","coordinates":[-89.930956,30.068812]}},{"properties":{"city":"NEW YORK","zip":"10010","geo_score":1.0,"id":"a6h28jsyxezq","geo_precision":"zip","state":"NY"},"type":"Feature","geometry":{"type":"Point","coordinates":[-73.983542,40.739024]}},{"properties":{"city":"NEW YORK","zip":"10010","geo_score":1.0,"id":"a6h28js82g1r","geo_precision":"zip","state":"NY"},"type":"Feature","geometry":{"type":"Point","coordinates":[-73.983542,40.739024]}},{"properties":{"city":"NEWARK","zip":"19711","geo_score":0.871,"id":"a6h28jxfuncd","geo_precision":"zip","state":"DE"},"type":"Feature","geometry":{"type":"Point","coordinates":[-75.716322,39.689001]}},{"properties":{"city":"NEWBURY PARK","zip":"91320","geo_score":1.0,"id":"a6h28jqcxv1o","geo_precision":"zip","state":"CA"},"type":"Feature","geometry":{"type":"Point","coordinates":[-118.905874,34.175921]}},{"properties":{"city":"NEWPORT","zip":"99156","geo_score":0.87,"id":"a6h28jrpwgcd","geo_precision":"zip","state":"WA"},"type":"Feature","geometry":{"type":"Point","coordinates":[-117.1991,48.121846]}},{"properties":{"city":"NEWTON","zip":"67114","geo_score":0.871,"id":"a6h28jujkpku","geo_precision":"zip","state":"KS"},"type":"Feature","geometry":{"type":"Point","coordinates":[-97.390037,38.102789]}},{"properties":{"city":"NORTH BEACH","zip":"20714","geo_score":1.0,"id":"a6h28jn55ds5","geo_precision":"zip","state":"MD"},"type":"Feature","geometry":{"type":"Point","coordinates":[-76.595901,38.610496]}},{"properties":{"city":"NORTH BEACH","zip":"20714","geo_score":1.0,"id":"a6h28jyfj4wm","geo_precision":"zip","state":"MD"},"type":"Feature","geometry":{"type":"Point","coordinates":[-76.595901,38.610496]}},{"properties":{"city":"NORTH BRUNSWICK","zip":"8902","geo_score":0.878,"id":"a6h28jvztbmk","geo_precision":"zip","state":"NJ"},"type":"Feature","geometry":{"type":"Point","coordinates":[-74.47043,40.443717]}},{"properties":{"city":"NORTH SIOUX CITY","zip":"57049","geo_score":1.0,"id":"a6h28jx25h4x","geo_precision":"zip","state":"SD"},"type":"Feature","geometry":{"type":"Point","coordinates":[-96.585026,42.587483]}},{"properties":{"city":"NUTLEY","zip":"7110","geo_score":0.893,"id":"a6h28jvss2q7","geo_precision":"zip","state":"NJ"},"type":"Feature","geometry":{"type":"Point","coordinates":[-74.150144,40.814822]}},{"properties":{"city":"OAK CITY","zip":"84649","geo_score":1.0,"id":"a6h28jrn1s6j","geo_precision":"zip","state":"UT"},"type":"Feature","geometry":{"type":"Point","coordinates":[-112.328797,39.372902]}},{"properties":{"city":"OAK HARBOR","zip":"43449","geo_score":0.873,"id":"a6h28jrwd6d4","geo_precision":"zip","state":"OH"},"type":"Feature","geometry":{"type":"Point","coordinates":[-83.095754,41.609771]}},{"properties":{"city":"OAK HARBOR","zip":"43449","geo_score":0.873,"id":"a6h28jpgy9fe","geo_precision":"zip","state":"OH"},"type":"Feature","geometry":{"type":"Point","coordinates":[-83.095754,41.609771]}},{"properties":{"city":"OCALA","zip":"34472","geo_score":0.857,"id":"a6h28joxyl1d","geo_precision":"zip","state":"FL"},"type":"Feature","geometry":{"type":"Point","coordinates":[-82.020643,29.104424]}},{"properties":{"city":"ODESSA","zip":"79762","geo_score":1.0,"id":"a6h28jpgasus","geo_precision":"zip","state":"TX"},"type":"Feature","geometry":{"type":"Point","coordinates":[-102.353839,31.893906]}},{"properties":{"city":"ODESSA","zip":"79762","geo_score":1.0,"id":"a6h28jyuvdxf","geo_precision":"zip","state":"TX"},"type":"Feature","geometry":{"type":"Point","coordinates":[-102.353839,31.893906]}},{"properties":{"city":"OGLESBY","zip":"61348","geo_score":0.886,"id":"a6h28js15ksk","geo_precision":"zip","state":"IL"},"type":"Feature","geometry":{"type":"Point","coordinates":[-89.071471,41.311424]}},{"properties":{"city":"OLD BRIDGE","zip":"8857","geo_score":0.949,"id":"a6h28jsy3mcx","geo_precision":"zip","state":"NJ"},"type":"Feature","geometry":{"type":"Point","coordinates":[-74.354315,40.408163]}},{"properties":{"city":"OLEAN","zip":"14760","geo_score":0.929,"id":"a6h28joanagr","geo_precision":"zip","state":"NY"},"type":"Feature","geometry":{"type":"Point","coordinates":[-78.440853,42.073954]}},{"properties":{"city":"OMAHA","zip":"68164","geo_score":0.881,"id":"a6h28jt8p6vx","geo_precision":"zip","state":"NE"},"type":"Feature","geometry":{"type":"Point","coordinates":[-96.128909,41.278887]}},{"properties":{"city":"OMAHA","zip":"68135","geo_score":1.0,"id":"a6h28jkda0fp","geo_precision":"zip","state":"NE"},"type":"Feature","geometry":{"type":"Point","coordinates":[-96.193498,41.205998]}},{"properties":{"city":"OSKALOOSA","zip":"52577","geo_score":0.857,"id":"a6h28jxhy2wy","geo_precision":"zip","state":"IA"},"type":"Feature","geometry":{"type":"Point","coordinates":[-92.526023,41.249177]}},{"properties":{"city":"PALM BEACH GARDENS","zip":"33418","geo_score":0.902,"id":"a6h28jwcmogw","geo_precision":"zip","state":"FL"},"type":"Feature","geometry":{"type":"Point","coordinates":[-80.430269,26.645895]}},{"properties":{"city":"PALM BEACH GARDENS","zip":"33410","geo_score":1.0,"id":"a6h28jjuyhcq","geo_precision":"zip","state":"FL"},"type":"Feature","geometry":{"type":"Point","coordinates":[-80.138655,26.823395]}},{"properties":{"city":"PALMERTON","zip":"18071","geo_score":1.0,"id":"a6h28jvk09gq","geo_precision":"zip","state":"PA"},"type":"Feature","geometry":{"type":"Point","coordinates":[-75.58918,40.855728]}},{"properties":{"city":"PARKSVILLE","zip":"12768","geo_score":1.0,"id":"a6h28jtqlxgm","geo_precision":"zip","state":"NY"},"type":"Feature","geometry":{"type":"Point","coordinates":[-74.857261,41.841414]}},{"properties":{"city":"PELLA","zip":"50219","geo_score":0.929,"id":"a6h28jmjz6rf","geo_precision":"zip","state":"IA"},"type":"Feature","geometry":{"type":"Point","coordinates":[-92.801306,41.461943]}},{"properties":{"city":"PIEDMONT","zip":"36272","geo_score":0.893,"id":"a6h28jnrmcho","geo_precision":"zip","state":"AL"},"type":"Feature","geometry":{"type":"Point","coordinates":[-85.558015,33.918157]}},{"properties":{"city":"PIKEVILLE","zip":"27863","geo_score":0.898,"id":"a6h28jq829gs","geo_precision":"zip","state":"NC"},"type":"Feature","geometry":{"type":"Point","coordinates":[-78.059434,35.490994]}},{"properties":{"city":"PINE GROVE","zip":"26419","geo_score":0.857,"id":"a6h28jonsxnk","geo_precision":"zip","state":"WV"},"type":"Feature","geometry":{"type":"Point","coordinates":[-80.705098,39.564803]}},{"properties":{"city":"PLAINFIELD","zip":"60585","geo_score":0.857,"id":"a6h28jm9dyju","geo_precision":"city","state":"IL"},"type":"Feature","geometry":{"type":"Point","coordinates":[-88.169698,41.632457]}},{"properties":{"city":"PLAINFIELD","zip":"46168","geo_score":0.871,"id":"a6h28jq89xm0","geo_precision":"zip","state":"IN"},"type":"Feature","geometry":{"type":"Point","coordinates":[-86.399717,39.762823]}},{"properties":{"city":"PLAINFIELD","zip":"60585","geo_score":0.857,"id":"a6h28jne79ul","geo_precision":"city","state":"IL"},"type":"Feature","geometry":{"type":"Point","coordinates":[-88.169698,41.632457]}},{"properties":{"city":"PLAINFIELD","zip":"60585","geo_score":0.857,"id":"a6h28jmkwbz0","geo_precision":"city","state":"IL"},"type":"Feature","geometry":{"type":"Point","coordinates":[-88.169698,41.632457]}},{"properties":{"city":"PLEASANT HILL","zip":"94523","geo_score":0.881,"id":"a6h28jr9nnu5","geo_precision":"zip","state":"CA"},"type":"Feature","geometry":{"type":"Point","coordinates":[-122.052741,37.941312]}},{"properties":{"city":"PLEASANT HILL","zip":"94523","geo_score":0.881,"id":"a6h28jt4h23o","geo_precision":"zip","state":"CA"},"type":"Feature","geometry":{"type":"Point","coordinates":[-122.052741,37.941312]}},{"properties":{"city":"PLEASANT HILL","zip":"94523","geo_score":0.881,"id":"a6h28jkwgvx7","geo_precision":"zip","state":"CA"},"type":"Feature","geometry":{"type":"Point","coordinates":[-122.052741,37.941312]}},{"properties":{"city":"RALEIGH","zip":"27613","geo_score":1.0,"id":"a6h28jjx1uqw","geo_precision":"zip","state":"NC"},"type":"Feature","geometry":{"type":"Point","coordinates":[-78.705465,35.86952]}},{"properties":{"city":"RAPID CITY","zip":"57702","geo_score":0.914,"id":"a6h28jntqa3b","geo_precision":"zip","state":"SD"},"type":"Feature","geometry":{"type":"Point","coordinates":[-103.563803,44.08443]}},{"properties":{"city":"REDDING","zip":"96002","geo_score":1.0,"id":"a6h28jplrwa0","geo_precision":"zip","state":"CA"},"type":"Feature","geometry":{"type":"Point","coordinates":[-122.3076,40.624448]}},{"properties":{"city":"REDLANDS","zip":"92373","geo_score":0.933,"id":"a6h28jkh870m","geo_precision":"zip","state":"CA"},"type":"Feature","geometry":{"type":"Point","coordinates":[-117.158648,34.033903]}},{"properties":{"city":"REVA","zip":"22735","geo_score":0.886,"id":"a6h28jtf9b3o","geo_precision":"zip","state":"VA"},"type":"Feature","geometry":{"type":"Point","coordinates":[-78.189445,38.483737]}},{"properties":{"city":"RIVERSIDE","zip":"92505","geo_score":0.873,"id":"a6h28jt4b3z4","geo_precision":"zip","state":"CA"},"type":"Feature","geometry":{"type":"Point","coordinates":[-117.496437,33.920848]}},{"properties":{"city":"ROANOKE","zip":"76262","geo_score":0.886,"id":"a6h28jtjrqms","geo_precision":"zip","state":"TX"},"type":"Feature","geometry":{"type":"Point","coordinates":[-97.183625,32.997901]}},{"properties":{"city":"ROANOKE","zip":"76262","geo_score":0.886,"id":"a6h28jnzcfkr","geo_precision":"zip","state":"TX"},"type":"Feature","geometry":{"type":"Point","coordinates":[-97.183625,32.997901]}},{"properties":{"city":"ROANOKE","zip":"76262","geo_score":0.886,"id":"a6h28jzvkucj","geo_precision":"zip","state":"TX"},"type":"Feature","geometry":{"type":"Point","coordinates":[-97.183625,32.997901]}},{"properties":{"city":"ROANOKE","zip":"76262","geo_score":0.886,"id":"a6h28jsn4mtr","geo_precision":"zip","state":"TX"},"type":"Feature","geometry":{"type":"Point","coordinates":[-97.183625,32.997901]}},{"properties":{"city":"ROCHESTER","zip":"14626","geo_score":0.896,"id":"a6h28jl0m1op","geo_precision":"zip","state":"NY"},"type":"Feature","geometry":{"type":"Point","coordinates":[-77.73195,43.190895]}},{"properties":{"city":"ROCHESTER","zip":"14626","geo_score":0.896,"id":"a6h28josby1a","geo_precision":"zip","state":"NY"},"type":"Feature","geometry":{"type":"Point","coordinates":[-77.73195,43.190895]}},{"properties":{"city":"ROCHESTER","zip":"14626","geo_score":0.896,"id":"a6h28jrbn8rv","geo_precision":"zip","state":"NY"},"type":"Feature","geometry":{"type":"Point","coordinates":[-77.73195,43.190895]}},{"properties":{"city":"ROCHESTER","zip":"14626","geo_score":0.896,"id":"a6h28jsozgrn","geo_precision":"zip","state":"NY"},"type":"Feature","geometry":{"type":"Point","coordinates":[-77.73195,43.190895]}},{"properties":{"city":"ROCHESTER","zip":"14626","geo_score":0.896,"id":"a6h28jzmddm9","geo_precision":"zip","state":"NY"},"type":"Feature","geometry":{"type":"Point","coordinates":[-77.73195,43.190895]}},{"properties":{"city":"ROCK HILL","zip":"29732","geo_score":0.857,"id":"a6h28jn9t8s5","geo_precision":"zip","state":"SC"},"type":"Feature","geometry":{"type":"Point","coordinates":[-81.100909,34.989864]}},{"properties":{"city":"RODEO","zip":"94572","geo_score":0.873,"id":"a6h28jw60y5o","geo_precision":"zip","state":"CA"},"type":"Feature","geometry":{"type":"Point","coordinates":[-122.261358,38.036866]}},{"properties":{"city":"ROLAND","zip":"72135","geo_score":0.875,"id":"a6h28jx9gjyy","geo_precision":"zip","state":"AR"},"type":"Feature","geometry":{"type":"Point","coordinates":[-92.496825,34.825646]}},{"properties":{"city":"ROME","zip":"30161","geo_score":0.871,"id":"a6h28jks1v02","geo_precision":"zip","state":"GA"},"type":"Feature","geometry":{"type":"Point","coordinates":[-85.323288,34.131486]}},{"properties":{"city":"ROME","zip":"30161","geo_score":0.871,"id":"a6h28jsnlr93","geo_precision":"zip","state":"GA"},"type":"Feature","geometry":{"type":"Point","coordinates":[-85.323288,34.131486]}},{"properties":{"city":"ROME","zip":"30161","geo_score":0.871,"id":"a6h28jsrrshf","geo_precision":"zip","state":"GA"},"type":"Feature","geometry":{"type":"Point","coordinates":[-85.323288,34.131486]}},{"properties":{"city":"ROME","zip":"30161","geo_score":0.871,"id":"a6h28juqlggl","geo_precision":"zip","state":"GA"},"type":"Feature","geometry":{"type":"Point","coordinates":[-85.323288,34.131486]}},{"properties":{"city":"ROSEVILLE","zip":"95678","geo_score":0.889,"id":"a6h28jrx8dy8","geo_precision":"zip","state":"CA"},"type":"Feature","geometry":{"type":"Point","coordinates":[-121.329951,38.708236]}},{"properties":{"city":"ROSWELL","zip":"30075","geo_score":0.869,"id":"a6h28jrn2ej4","geo_precision":"zip","state":"GA"},"type":"Feature","geometry":{"type":"Point","coordinates":[-84.411316,34.080932]}},{"properties":{"city":"SACHSE","zip":"75048","geo_score":1.0,"id":"a6h28jxpacxo","geo_precision":"zip","state":"TX"},"type":"Feature","geometry":{"type":"Point","coordinates":[-96.59527,32.976233]}},{"properties":{"city":"SACRAMENTO","zip":"95818","geo_score":1.0,"id":"a6h28jqp0tps","geo_precision":"zip","state":"CA"},"type":"Feature","geometry":{"type":"Point","coordinates":[-121.495915,38.557255]}},{"properties":{"city":"SAGINAW","zip":"48603","geo_score":0.878,"id":"a6h28jwgyy11","geo_precision":"zip","state":"MI"},"type":"Feature","geometry":{"type":"Point","coordinates":[-84.056366,43.415304]}},{"properties":{"city":"SAINT CHARLES","zip":"63303","geo_score":0.881,"id":"a6h28jr6wivm","geo_precision":"zip","state":"MO"},"type":"Feature","geometry":{"type":"Point","coordinates":[-90.580678,38.745885]}},{"properties":{"city":"SAINT GEORGE","zip":"84790","geo_score":1.0,"id":"a6h28jtd1ww1","geo_precision":"zip","state":"UT"},"type":"Feature","geometry":{"type":"Point","coordinates":[-113.558068,37.083098]}},{"properties":{"city":"SAINT GEORGE","zip":"84790","geo_score":1.0,"id":"a6h28jna0xxd","geo_precision":"zip","state":"UT"},"type":"Feature","geometry":{"type":"Point","coordinates":[-113.558068,37.083098]}},{"properties":{"city":"SAINT GEORGE","zip":"84790","geo_score":1.0,"id":"a6h28jjxko3z","geo_precision":"zip","state":"UT"},"type":"Feature","geometry":{"type":"Point","coordinates":[-113.558068,37.083098]}},{"properties":{"city":"SAINT LOUIS","zip":"63124","geo_score":0.886,"id":"a6h28jss2dfw","geo_precision":"zip","state":"MO"},"type":"Feature","geometry":{"type":"Point","coordinates":[-90.380673,38.649774]}},{"properties":{"city":"SAINT LOUIS","zip":"63124","geo_score":0.886,"id":"a6h28jjk406z","geo_precision":"zip","state":"MO"},"type":"Feature","geometry":{"type":"Point","coordinates":[-90.380673,38.649774]}},{"properties":{"city":"SAINT PAUL","zip":"55125","geo_score":0.857,"id":"a6h28jx2u92e","geo_precision":"zip","state":"MN"},"type":"Feature","geometry":{"type":"Point","coordinates":[-92.95938,44.923855]}},{"properties":{"city":"SAINT ROBERT","zip":"65584","geo_score":1.0,"id":"a6h28jkc8zp0","geo_precision":"zip","state":"MO"},"type":"Feature","geometry":{"type":"Point","coordinates":[-92.151463,37.823708]}},{"properties":{"city":"SALEM","zip":"97302","geo_score":0.878,"id":"a6h28jlcknl8","geo_precision":"zip","state":"OR"},"type":"Feature","geometry":{"type":"Point","coordinates":[-123.100375,44.902064]}},{"properties":{"city":"SALEM","zip":"97302","geo_score":0.878,"id":"a6h28jx2ogvp","geo_precision":"zip","state":"OR"},"type":"Feature","geometry":{"type":"Point","coordinates":[-123.100375,44.902064]}},{"properties":{"city":"SALEM","zip":"97302","geo_score":0.878,"id":"a6h28jltewkp","geo_precision":"zip","state":"OR"},"type":"Feature","geometry":{"type":"Point","coordinates":[-123.100375,44.902064]}},{"properties":{"city":"SAN ANTONIO","zip":"78250","geo_score":1.0,"id":"a6h28jp4f6o8","geo_precision":"zip","state":"TX"},"type":"Feature","geometry":{"type":"Point","coordinates":[-98.461582,29.437532]}},{"properties":{"city":"SANFORD","zip":"32771","geo_score":0.918,"id":"a6h28joqiddf","geo_precision":"zip","state":"FL"},"type":"Feature","geometry":{"type":"Point","coordinates":[-81.252287,28.789715]}},{"properties":{"city":"SAVANNAH","zip":"31410","geo_score":0.884,"id":"a6h28jtvo6ns","geo_precision":"zip","state":"GA"},"type":"Feature","geometry":{"type":"Point","coordinates":[-80.973723,32.003548]}},{"properties":{"city":"SCOTTDALE","zip":"15683","geo_score":0.883,"id":"a6h28jxwjoti","geo_precision":"zip","state":"PA"},"type":"Feature","geometry":{"type":"Point","coordinates":[-79.564205,40.117572]}},{"properties":{"city":"SCOTTDALE","zip":"15683","geo_score":0.883,"id":"a6h28jp4hds0","geo_precision":"zip","state":"PA"},"type":"Feature","geometry":{"type":"Point","coordinates":[-79.564205,40.117572]}},{"properties":{"city":"SCOTTDALE","zip":"15683","geo_score":0.883,"id":"a6h28jn0s917","geo_precision":"zip","state":"PA"},"type":"Feature","geometry":{"type":"Point","coordinates":[-79.564205,40.117572]}},{"properties":{"city":"SCOTTDALE","zip":"15683","geo_score":0.883,"id":"a6h28jwbm4o2","geo_precision":"zip","state":"PA"},"type":"Feature","geometry":{"type":"Point","coordinates":[-79.564205,40.117572]}},{"properties":{"city":"SCOTTSDALE","zip":"85258","geo_score":1.0,"id":"a6h28jkgmx8j","geo_precision":"zip","state":"AZ"},"type":"Feature","geometry":{"type":"Point","coordinates":[-111.879806,33.553346]}},{"properties":{"city":"SHALLOTTE","zip":"28459","geo_score":0.873,"id":"a6h28jlq9bxz","geo_precision":"zip","state":"NC"},"type":"Feature","geometry":{"type":"Point","coordinates":[-78.306389,33.967394]}},{"properties":{"city":"SHAWNEE","zip":"66216","geo_score":0.929,"id":"a6h28jzcyooa","geo_precision":"zip","state":"KS"},"type":"Feature","geometry":{"type":"Point","coordinates":[-94.741448,39.014655]}},{"properties":{"city":"SHAWNEE","zip":"66216","geo_score":0.929,"id":"a6h28jv3csx7","geo_precision":"zip","state":"KS"},"type":"Feature","geometry":{"type":"Point","coordinates":[-94.741448,39.014655]}},{"properties":{"city":"SHAWNEE","zip":"66216","geo_score":0.929,"id":"a6h28jqtj9qf","geo_precision":"zip","state":"KS"},"type":"Feature","geometry":{"type":"Point","coordinates":[-94.741448,39.014655]}},{"properties":{"city":"SHEBOYGAN FALLS","zip":"53085","geo_score":0.878,"id":"a6h28jssn3hu","geo_precision":"zip","state":"WI"},"type":"Feature","geometry":{"type":"Point","coordinates":[-87.8212,43.697218]}},{"properties":{"city":"SHINGLE SPRINGS","zip":"95682","geo_score":0.878,"id":"a6h28jqdbw4h","geo_precision":"zip","state":"CA"},"type":"Feature","geometry":{"type":"Point","coordinates":[-120.983831,38.559629]}},{"properties":{"city":"SHINGLE SPRINGS","zip":"95682","geo_score":0.878,"id":"a6h28jsbkpbb","geo_precision":"zip","state":"CA"},"type":"Feature","geometry":{"type":"Point","coordinates":[-120.983831,38.559629]}},{"properties":{"city":"SHINGLE SPRINGS","zip":"95682","geo_score":0.878,"id":"a6h28jp5dorn","geo_precision":"zip","state":"CA"},"type":"Feature","geometry":{"type":"Point","coordinates":[-120.983831,38.559629]}},{"properties":{"city":"SIGNAL MOUNTAIN","zip":"37377","geo_score":0.888,"id":"a6h28jzib7i4","geo_precision":"zip","state":"TN"},"type":"Feature","geometry":{"type":"Point","coordinates":[-85.301348,35.164793]}},{"properties":{"city":"SIOUX CITY","zip":"51102","geo_score":1.0,"id":"a6h28jlfpatk","geo_precision":"zip","state":"IA"},"type":"Feature","geometry":{"type":"Point","coordinates":[-96.317951,42.368406]}},{"properties":{"city":"SMITHFIELD","zip":"27577","geo_score":1.0,"id":"a6h28jn1i1np","geo_precision":"zip","state":"NC"},"type":"Feature","geometry":{"type":"Point","coordinates":[-78.336001,35.536543]}},{"properties":{"city":"SMITHVILLE","zip":"78957","geo_score":0.871,"id":"a6h28jk3rdfv","geo_precision":"zip","state":"TX"},"type":"Feature","geometry":{"type":"Point","coordinates":[-97.264157,30.011332]}},{"properties":{"city":"SMYRNA","zip":"19977","geo_score":0.879,"id":"a6h28jy6c575","geo_precision":"zip","state":"DE"},"type":"Feature","geometry":{"type":"Point","coordinates":[-75.474644,39.333446]}},{"properties":{"city":"SPANISH FORK","zip":"84660","geo_score":0.896,"id":"a6h28jwxxybx","geo_precision":"zip","state":"UT"},"type":"Feature","geometry":{"type":"Point","coordinates":[-111.698815,40.140232]}},{"properties":{"city":"SPARKS","zip":"89431","geo_score":0.857,"id":"a6h28jva5qpf","geo_precision":"zip","state":"NV"},"type":"Feature","geometry":{"type":"Point","coordinates":[-119.700742,39.526301]}},{"properties":{"city":"SPRING","zip":"77382","geo_score":1.0,"id":"a6h28jmcb50n","geo_precision":"zip","state":"TX"},"type":"Feature","geometry":{"type":"Point","coordinates":[-95.434241,29.83399]}},{"properties":{"city":"SPRING","zip":"77386","geo_score":0.857,"id":"a6h28jo0x5b4","geo_precision":"zip","state":"TX"},"type":"Feature","geometry":{"type":"Point","coordinates":[-95.365053,30.107545]}},{"properties":{"city":"SPRING","zip":"77382","geo_score":1.0,"id":"a6h28jxabinr","geo_precision":"zip","state":"TX"},"type":"Feature","geometry":{"type":"Point","coordinates":[-95.434241,29.83399]}},{"properties":{"city":"SPRING","zip":"77379","geo_score":0.857,"id":"a6h28jyey26l","geo_precision":"zip","state":"TX"},"type":"Feature","geometry":{"type":"Point","coordinates":[-95.427994,30.127439]}},{"properties":{"city":"SPRING","zip":"77382","geo_score":1.0,"id":"a6h28jxqyrbs","geo_precision":"zip","state":"TX"},"type":"Feature","geometry":{"type":"Point","coordinates":[-95.434241,29.83399]}},{"properties":{"city":"SPRING","zip":"77382","geo_score":1.0,"id":"a6h28jnbjv2e","geo_precision":"zip","state":"TX"},"type":"Feature","geometry":{"type":"Point","coordinates":[-95.434241,29.83399]}},{"properties":{"city":"SPRINGFIELD","zip":"62712","geo_score":0.818,"id":"a6h28jmltwzf","geo_precision":"city","state":"IL"},"type":"Feature","geometry":{"type":"Point","coordinates":[-90.045117,41.612532]}},{"properties":{"city":"SPRINGFIELD","zip":"62712","geo_score":0.818,"id":"a6h28jrllyb8","geo_precision":"city","state":"IL"},"type":"Feature","geometry":{"type":"Point","coordinates":[-90.045117,41.612532]}},{"properties":{"city":"SPRINGFIELD","zip":"62712","geo_score":0.818,"id":"a6h28jnumjw5","geo_precision":"city","state":"IL"},"type":"Feature","geometry":{"type":"Point","coordinates":[-90.045117,41.612532]}},{"properties":{"city":"SPRINGFIELD","zip":"62712","geo_score":0.818,"id":"a6h28jwncn3q","geo_precision":"city","state":"IL"},"type":"Feature","geometry":{"type":"Point","coordinates":[-90.045117,41.612532]}},{"properties":{"city":"STETSONVILLE","zip":"54480","geo_score":1.0,"id":"a6h28js4ijr6","geo_precision":"zip","state":"WI"},"type":"Feature","geometry":{"type":"Point","coordinates":[-90.302783,45.19405]}},{"properties":{"city":"STETSONVILLE","zip":"54480","geo_score":1.0,"id":"a6h28jxx7la7","geo_precision":"zip","state":"WI"},"type":"Feature","geometry":{"type":"Point","coordinates":[-90.302783,45.19405]}},{"properties":{"city":"STEWARTSVILLE","zip":"8886","geo_score":0.901,"id":"a6h28jorah4w","geo_precision":"zip","state":"NJ"},"type":"Feature","geometry":{"type":"Point","coordinates":[-75.134896,40.632878]}},{"properties":{"city":"SUMTER","zip":"29154","geo_score":1.0,"id":"a6h28jns3nz9","geo_precision":"zip","state":"SC"},"type":"Feature","geometry":{"type":"Point","coordinates":[-80.426703,33.866953]}},{"properties":{"city":"SUNNYVALE","zip":"94087","geo_score":1.0,"id":"a6h28jkkbp91","geo_precision":"zip","state":"CA"},"type":"Feature","geometry":{"type":"Point","coordinates":[-121.705327,37.189396]}},{"properties":{"city":"SUSSEX","zip":"7461","geo_score":0.857,"id":"a6h28jp40eej","geo_precision":"zip","state":"NJ"},"type":"Feature","geometry":{"type":"Point","coordinates":[-74.550716,41.244262]}},{"properties":{"city":"TEMPLE","zip":"76502","geo_score":1.0,"id":"a6h28jlb1oco","geo_precision":"zip","state":"TX"},"type":"Feature","geometry":{"type":"Point","coordinates":[-97.402704,31.104581]}},{"properties":{"city":"TEMPLE","zip":"76502","geo_score":1.0,"id":"a6h28jphzjj1","geo_precision":"zip","state":"TX"},"type":"Feature","geometry":{"type":"Point","coordinates":[-97.402704,31.104581]}},{"properties":{"city":"TEMPLE","zip":"76502","geo_score":1.0,"id":"a6h28jjrl7v9","geo_precision":"zip","state":"TX"},"type":"Feature","geometry":{"type":"Point","coordinates":[-97.402704,31.104581]}},{"properties":{"city":"TEMPLE","zip":"76502","geo_score":1.0,"id":"a6h28jz4086j","geo_precision":"zip","state":"TX"},"type":"Feature","geometry":{"type":"Point","coordinates":[-97.402704,31.104581]}},{"properties":{"city":"TERRY","zip":"39170","geo_score":0.911,"id":"a6h28jpzx9nk","geo_precision":"zip","state":"MS"},"type":"Feature","geometry":{"type":"Point","coordinates":[-90.259811,32.088208]}},{"properties":{"city":"TERRY","zip":"39170","geo_score":0.911,"id":"a6h28jspcamx","geo_precision":"zip","state":"MS"},"type":"Feature","geometry":{"type":"Point","coordinates":[-90.259811,32.088208]}},{"properties":{"city":"TERRY","zip":"39170","geo_score":0.911,"id":"a6h28jrjonau","geo_precision":"zip","state":"MS"},"type":"Feature","geometry":{"type":"Point","coordinates":[-90.259811,32.088208]}},{"properties":{"city":"TOMS RIVER","zip":"8753","geo_score":0.949,"id":"a6h28jyd1oj7","geo_precision":"zip","state":"NJ"},"type":"Feature","geometry":{"type":"Point","coordinates":[-74.204308,39.942063]}},{"properties":{"city":"TORRANCE","zip":"90501","geo_score":1.0,"id":"a6h28jqma045","geo_precision":"zip","state":"CA"},"type":"Feature","geometry":{"type":"Point","coordinates":[-118.303805,33.835665]}},{"properties":{"city":"TORRANCE","zip":"90501","geo_score":1.0,"id":"a6h28jut59qt","geo_precision":"zip","state":"CA"},"type":"Feature","geometry":{"type":"Point","coordinates":[-118.303805,33.835665]}},{"properties":{"city":"TREMONTON","zip":"84337","geo_score":0.873,"id":"a6h28jrqdg4l","geo_precision":"zip","state":"UT"},"type":"Feature","geometry":{"type":"Point","coordinates":[-112.294124,41.693817]}},{"properties":{"city":"TROY","zip":"62294","geo_score":1.0,"id":"a6h28jq0cqg2","geo_precision":"zip","state":"IL"},"type":"Feature","geometry":{"type":"Point","coordinates":[-89.895817,38.721612]}},{"properties":{"city":"TRUCKEE","zip":"96161","geo_score":0.87,"id":"a6h28jwjkm4p","geo_precision":"zip","state":"CA"},"type":"Feature","geometry":{"type":"Point","coordinates":[-120.183811,39.400462]}},{"properties":{"city":"TRUCKEE","zip":"96160","geo_score":1.0,"id":"a6h28jxpffha","geo_precision":"zip","state":"CA"},"type":"Feature","geometry":{"type":"Point","coordinates":[-120.186383,39.3781]}},{"properties":{"city":"TUSCALOOSA","zip":"35405","geo_score":1.0,"id":"a6h28jxnsm9e","geo_precision":"zip","state":"AL"},"type":"Feature","geometry":{"type":"Point","coordinates":[-87.518144,33.10407]}},{"properties":{"city":"TUSCALOOSA","zip":"35405","geo_score":1.0,"id":"a6h28jjlkt5v","geo_precision":"zip","state":"AL"},"type":"Feature","geometry":{"type":"Point","coordinates":[-87.518144,33.10407]}},{"properties":{"city":"TWINSBURG","zip":"44087","geo_score":1.0,"id":"a6h28jvnjtac","geo_precision":"zip","state":"OH"},"type":"Feature","geometry":{"type":"Point","coordinates":[-81.440435,41.313304]}},{"properties":{"city":"TWINSBURG","zip":"44087","geo_score":1.0,"id":"a6h28jmed2i7","geo_precision":"zip","state":"OH"},"type":"Feature","geometry":{"type":"Point","coordinates":[-81.440435,41.313304]}},{"properties":{"city":"TWINSBURG","zip":"44087","geo_score":1.0,"id":"a6h28jwgqq37","geo_precision":"zip","state":"OH"},"type":"Feature","geometry":{"type":"Point","coordinates":[-81.440435,41.313304]}},{"properties":{"city":"ULSTER","zip":"18850","geo_score":0.886,"id":"a6h28jrzhoop","geo_precision":"zip","state":"PA"},"type":"Feature","geometry":{"type":"Point","coordinates":[-76.490776,41.855353]}},{"properties":{"city":"UPTON","zip":"82730","geo_score":1.0,"id":"a6h28jycvn90","geo_precision":"zip","state":"WY"},"type":"Feature","geometry":{"type":"Point","coordinates":[-104.620856,43.937319]}},{"properties":{"city":"VALLEJO","zip":"94591","geo_score":1.0,"id":"a6h28jmhou1m","geo_precision":"zip","state":"CA"},"type":"Feature","geometry":{"type":"Point","coordinates":[-122.206292,38.114249]}},{"properties":{"city":"VALLES MINES","zip":"63087","geo_score":1.0,"id":"a6h28jxhyajd","geo_precision":"zip","state":"MO"},"type":"Feature","geometry":{"type":"Point","coordinates":[-90.499848,38.041997]}},{"properties":{"city":"VANCOUVER","zip":"98685","geo_score":0.857,"id":"a6h28jtl14ww","geo_precision":"zip","state":"WA"},"type":"Feature","geometry":{"type":"Point","coordinates":[-122.707321,45.70956]}},{"properties":{"city":"VANCOUVER","zip":"98685","geo_score":0.857,"id":"a6h28jxy7mmc","geo_precision":"zip","state":"WA"},"type":"Feature","geometry":{"type":"Point","coordinates":[-122.707321,45.70956]}},{"properties":{"city":"VEGA","zip":"79092","geo_score":1.0,"id":"a6h28jyzxzms","geo_precision":"zip","state":"TX"},"type":"Feature","geometry":{"type":"Point","coordinates":[-102.421407,35.224143]}},{"properties":{"city":"VISALIA","zip":"93292","geo_score":1.0,"id":"a6h28jztgifi","geo_precision":"zip","state":"CA"},"type":"Feature","geometry":{"type":"Point","coordinates":[-119.228324,36.19457]}},{"properties":{"city":"VISALIA","zip":"93291","geo_score":0.878,"id":"a6h28js4tt74","geo_precision":"zip","state":"CA"},"type":"Feature","geometry":{"type":"Point","coordinates":[-119.253446,36.417728]}},{"properties":{"city":"VISALIA","zip":"93291","geo_score":0.878,"id":"a6h28jvlo7oi","geo_precision":"zip","state":"CA"},"type":"Feature","geometry":{"type":"Point","coordinates":[-119.253446,36.417728]}},{"properties":{"city":"WACO","zip":"76711","geo_score":0.857,"id":"a6h28jq2p857","geo_precision":"zip","state":"TX"},"type":"Feature","geometry":{"type":"Point","coordinates":[-97.153892,31.521556]}},{"properties":{"city":"WACONIA","zip":"55387","geo_score":1.0,"id":"a6h28jro37c1","geo_precision":"zip","state":"MN"},"type":"Feature","geometry":{"type":"Point","coordinates":[-93.746148,44.844847]}},{"properties":{"city":"WAILUKU","zip":"96793","geo_score":0.939,"id":"a6h28jlx5kgi","geo_precision":"zip","state":"HI"},"type":"Feature","geometry":{"type":"Point","coordinates":[-156.506944,20.858056]}},{"properties":{"city":"WANDA","zip":"56294","geo_score":1.0,"id":"a6h28jmpro8d","geo_precision":"zip","state":"MN"},"type":"Feature","geometry":{"type":"Point","coordinates":[-95.211785,44.32978]}},{"properties":{"city":"WAUKESHA","zip":"53188","geo_score":1.0,"id":"a6h28jvxn9o4","geo_precision":"zip","state":"WI"},"type":"Feature","geometry":{"type":"Point","coordinates":[-88.241786,42.994564]}},{"properties":{"city":"WAXHAW","zip":"28173","geo_score":0.881,"id":"a6h28jsmgzs3","geo_precision":"zip","state":"NC"},"type":"Feature","geometry":{"type":"Point","coordinates":[-80.814794,34.991815]}},{"properties":{"city":"WAXHAW","zip":"28173","geo_score":0.881,"id":"a6h28jpbr0eu","geo_precision":"zip","state":"NC"},"type":"Feature","geometry":{"type":"Point","coordinates":[-80.814794,34.991815]}},{"properties":{"city":"WAXHAW","zip":"28173","geo_score":0.881,"id":"a6h28jry3kkn","geo_precision":"zip","state":"NC"},"type":"Feature","geometry":{"type":"Point","coordinates":[-80.814794,34.991815]}},{"properties":{"city":"WAXHAW","zip":"28173","geo_score":0.881,"id":"a6h28jubp3jl","geo_precision":"zip","state":"NC"},"type":"Feature","geometry":{"type":"Point","coordinates":[-80.814794,34.991815]}},{"properties":{"city":"WAXHAW","zip":"28173","geo_score":0.881,"id":"a6h28jrs7agx","geo_precision":"zip","state":"NC"},"type":"Feature","geometry":{"type":"Point","coordinates":[-80.814794,34.991815]}},{"properties":{"city":"WAXHAW","zip":"28173","geo_score":0.881,"id":"a6h28jlcjyjz","geo_precision":"zip","state":"NC"},"type":"Feature","geometry":{"type":"Point","coordinates":[-80.814794,34.991815]}},{"properties":{"city":"WAXHAW","zip":"28173","geo_score":0.881,"id":"a6h28js1zftl","geo_precision":"zip","state":"NC"},"type":"Feature","geometry":{"type":"Point","coordinates":[-80.814794,34.991815]}},{"properties":{"city":"WAXHAW","zip":"28173","geo_score":0.881,"id":"a6h28jsp87pi","geo_precision":"zip","state":"NC"},"type":"Feature","geometry":{"type":"Point","coordinates":[-80.814794,34.991815]}},{"properties":{"city":"WENTZVILLE","zip":"63385","geo_score":0.922,"id":"a6h28jm1n5rr","geo_precision":"zip","state":"MO"},"type":"Feature","geometry":{"type":"Point","coordinates":[-90.796518,38.842829]}},{"properties":{"city":"WESTVILLE","zip":"8093","geo_score":0.949,"id":"a6h28jkidi4x","geo_precision":"zip","state":"NJ"},"type":"Feature","geometry":{"type":"Point","coordinates":[-75.117675,39.856502]}},{"properties":{"city":"WHITEHOUSE STATION","zip":"8889","geo_score":1.0,"id":"a6h28jkpihka","geo_precision":"zip","state":"NJ"},"type":"Feature","geometry":{"type":"Point","coordinates":[-74.770441,40.61538]}},{"properties":{"city":"WICHITA","zip":"67216","geo_score":0.875,"id":"a6h28jtlcsg1","geo_precision":"zip","state":"KS"},"type":"Feature","geometry":{"type":"Point","coordinates":[-97.333934,37.520852]}},{"properties":{"city":"WILLIAMSBURG","zip":"23188","geo_score":1.0,"id":"a6h28jnw1iog","geo_precision":"zip","state":"VA"},"type":"Feature","geometry":{"type":"Point","coordinates":[-76.773832,37.34822]}},{"properties":{"city":"WILMINGTON","zip":"60481","geo_score":0.914,"id":"a6h28jnshjqh","geo_precision":"zip","state":"IL"},"type":"Feature","geometry":{"type":"Point","coordinates":[-88.052554,41.328643]}},{"properties":{"city":"WILMINGTON","zip":"60481","geo_score":0.914,"id":"a6h28jkj9wil","geo_precision":"zip","state":"IL"},"type":"Feature","geometry":{"type":"Point","coordinates":[-88.052554,41.328643]}},{"properties":{"city":"WILMINGTON","zip":"60481","geo_score":0.914,"id":"a6h28jvhc71q","geo_precision":"zip","state":"IL"},"type":"Feature","geometry":{"type":"Point","coordinates":[-88.052554,41.328643]}},{"properties":{"city":"WINFIELD","zip":"67156","geo_score":0.893,"id":"a6h28jx4ht1z","geo_precision":"zip","state":"KS"},"type":"Feature","geometry":{"type":"Point","coordinates":[-96.851978,37.24336]}},{"properties":{"city":"WINSTON SALEM","zip":"27106","geo_score":0.881,"id":"a6h28jv3t0u7","geo_precision":"zip","state":"NC"},"type":"Feature","geometry":{"type":"Point","coordinates":[-80.285329,36.125415]}},{"properties":{"city":"WINTER GARDEN","zip":"34787","geo_score":1.0,"id":"a6h28jp3bvvn","geo_precision":"zip","state":"FL"},"type":"Feature","geometry":{"type":"Point","coordinates":[-81.512343,28.468581]}},{"properties":{"city":"WINTERVILLE","zip":"28590","geo_score":0.865,"id":"a6h28jrzzsrp","geo_precision":"zip","state":"NC"},"type":"Feature","geometry":{"type":"Point","coordinates":[-77.35413,35.491552]}},{"properties":{"city":"WOODSTOCK","zip":"30188","geo_score":0.873,"id":"a6h28jxhqa9h","geo_precision":"zip","state":"GA"},"type":"Feature","geometry":{"type":"Point","coordinates":[-84.609377,34.137042]}},{"properties":{"city":"XENIA","zip":"45385","geo_score":0.893,"id":"a6h28jqe49zg","geo_precision":"zip","state":"OH"},"type":"Feature","geometry":{"type":"Point","coordinates":[-83.98521,39.705615]}},{"properties":{"city":"YELM","zip":"98597","geo_score":0.87,"id":"a6h28jq2r0cx","geo_precision":"zip","state":"WA"},"type":"Feature","geometry":{"type":"Point","coordinates":[-122.569012,46.919822]}},{"properties":{"city":"YUBA CITY","zip":"95993","geo_score":1.0,"id":"a6h28jsxv75n","geo_precision":"zip","state":"CA"},"type":"Feature","geometry":{"type":"Point","coordinates":[-121.737911,39.130338]}}],"is_temporal":false,"author":{"url":"","metadata":"","contact_name":"","contact_address":"","source":"","contact_phone":""},"source":"","pagination":{"sort":null,"start":0,"total":429,"limit":1000000},"state":"complete","tags":"","published":"2014-08-10T19:52:14-04:00","id":58455}