{"type":"FeatureCollection","data_type":"Dataset","url_type":null,"permissions":[{"permissions":{"download":true,"view":true},"group_id":"everyone"}],"classification":null,"title":"Greater Western Sydney on Facebook","count":58,"stream_id":58527,"contributor":{"url":"http://geocommons.com/users/12003","name":"LauraHale"},"data_attributes":null,"calculation_params":null,"icon_link":null,"link":"http://geocommons.com/overlays/58527.json","extent":[-77.0364,-42.8827,174.896,42.4514],"geometry_types":["point"],"unique_name":null,"name":"Greater Western Sydney on Facebook","feature_count":58,"description":"","next_feature":null,"is_raster":false,"short_classification":"Y","stats":{"latitude":{"max":42.4513548,"mean":-29.8886123741379,"variance":315.103688464539,"stdev":17.7511602005204,"min":-42.882743,"median":-33.878416},"postal codes":{"max":43300,"mean":4022.51851851852,"variance":33973543.1977638,"stdev":5828.68280126512,"min":2000,"median":2600},"longitude":{"max":174.895898,"mean":132.3246845,"variance":2793.58339300943,"stdev":52.8543602081175,"min":-77.0363658,"median":150.691029},"count":{"max":7,"mean":1.75862068965517,"variance":2.25650332728373,"stdev":1.50216621160367,"min":1,"median":1}},"features":[{"properties":{"city":"Acton","latitude":-35.282087,"country":"Australia","postal codes":2601,"longitude":149.108716,"count":2,"id":"a6226byc1ida","state":"Australian Capital Territory"},"type":"Feature","geometry":{"type":"Point","coordinates":[149.108716,-35.282087]}},{"properties":{"city":"Albury","latitude":-36.082137,"country":"Australia","postal codes":2640,"longitude":146.910174,"count":3,"id":"a6226bymu2wy","state":"New South Wales"},"type":"Feature","geometry":{"type":"Point","coordinates":[146.910174,-36.082137]}},{"properties":{"city":"Asquith","latitude":-33.687484,"country":"Australia","postal codes":2077,"longitude":151.108685,"count":2,"id":"a6226bsqq2o0","state":"New South Wales"},"type":"Feature","geometry":{"type":"Point","coordinates":[151.108685,-33.687484]}},{"properties":{"city":"Bangor","latitude":-34.018876,"country":"Australia","postal codes":2234,"longitude":151.030057,"count":1,"id":"a6226budcjml","state":"New South Wales"},"type":"Feature","geometry":{"type":"Point","coordinates":[151.030057,-34.018876]}},{"properties":{"city":"Blacktown","latitude":-33.770184,"country":"Australia","postal codes":2148,"longitude":150.908501,"count":2,"id":"a6226bwaaiwh","state":"New South Wales"},"type":"Feature","geometry":{"type":"Point","coordinates":[150.908501,-33.770184]}},{"properties":{"city":"Brighton","latitude":-35.020996,"country":"Australia","postal codes":5048,"longitude":138.523266,"count":1,"id":"a6226c0yuv70","state":"South Australia"},"type":"Feature","geometry":{"type":"Point","coordinates":[138.523266,-35.020996]}},{"properties":{"city":"Bunbury","latitude":-33.327112,"country":"Australia","postal codes":6230,"longitude":115.636993,"count":1,"id":"a6226c06u8z5","state":"Western Australia"},"type":"Feature","geometry":{"type":"Point","coordinates":[115.636993,-33.327112]}},{"properties":{"city":"Bundoora","latitude":-37.70132,"country":"Australia","postal codes":3083,"longitude":145.071967,"count":2,"id":"a6226bwgty9o","state":"Victoria"},"type":"Feature","geometry":{"type":"Point","coordinates":[145.071967,-37.70132]}},{"properties":{"city":"Cairns","latitude":-16.925397,"country":"Australia","postal codes":4870,"longitude":145.775178,"count":1,"id":"a6226c7sm8qv","state":"Queensland"},"type":"Feature","geometry":{"type":"Point","coordinates":[145.775178,-16.925397]}},{"properties":{"city":"Cambridge","latitude":42.3726399,"country":"United States","postal codes":null,"longitude":-71.1096528,"count":1,"id":"a6226bsq6vtz","state":"Massachusetts"},"type":"Feature","geometry":{"type":"Point","coordinates":[-71.1096528,42.3726399]}},{"properties":{"city":"Camden","latitude":-34.054599,"country":"Australia","postal codes":2570,"longitude":150.695678,"count":1,"id":"a6226c4nlib8","state":"New South Wales"},"type":"Feature","geometry":{"type":"Point","coordinates":[150.695678,-34.054599]}},{"properties":{"city":"Camperdown","latitude":-33.885977,"country":"Australia","postal codes":2050,"longitude":151.175276,"count":1,"id":"a6226c06jcbw","state":"New South Wales"},"type":"Feature","geometry":{"type":"Point","coordinates":[151.175276,-33.885977]}},{"properties":{"city":"Cape Town","latitude":-33.9237762,"country":"South Africa","postal codes":null,"longitude":18.4233455,"count":1,"id":"a6226byodbhe","state":"Western Cape"},"type":"Feature","geometry":{"type":"Point","coordinates":[18.4233455,-33.9237762]}},{"properties":{"city":"Carlingford","latitude":-33.782959,"country":"Australia","postal codes":2118,"longitude":151.047707,"count":1,"id":"a6226c737q8e","state":"New South Wales"},"type":"Feature","geometry":{"type":"Point","coordinates":[151.047707,-33.782959]}},{"properties":{"city":"Chatswood","latitude":-33.795617,"country":"Australia","postal codes":2067,"longitude":151.185329,"count":1,"id":"a6226buw4ikg","state":"New South Wales"},"type":"Feature","geometry":{"type":"Point","coordinates":[151.185329,-33.795617]}},{"properties":{"city":"Claremont","latitude":-31.981145,"country":"Australia","postal codes":6010,"longitude":115.781247,"count":1,"id":"a6226bxoz4vm","state":"Western Australia"},"type":"Feature","geometry":{"type":"Point","coordinates":[115.781247,-31.981145]}},{"properties":{"city":"Cobbitty","latitude":-34.015874,"country":"Australia","postal codes":2570,"longitude":150.691029,"count":1,"id":"a6226bx1tjkc","state":"New South Wales"},"type":"Feature","geometry":{"type":"Point","coordinates":[150.691029,-34.015874]}},{"properties":{"city":"Cornell","latitude":42.4513548,"country":"United States","postal codes":14853,"longitude":-76.4765519,"count":1,"id":"a6226c4r458d","state":"New York"},"type":"Feature","geometry":{"type":"Point","coordinates":[-76.4765519,42.4513548]}},{"properties":{"city":"Deakin","latitude":-35.315246,"country":"Australia","postal codes":2600,"longitude":149.108714,"count":1,"id":"a6226bumln0l","state":"Australian Capital Territory"},"type":"Feature","geometry":{"type":"Point","coordinates":[149.108714,-35.315246]}},{"properties":{"city":"Dickson","latitude":-35.25113,"country":"Australia","postal codes":2602,"longitude":149.140293,"count":1,"id":"a6226bwafslo","state":"Australian Capital Territory"},"type":"Feature","geometry":{"type":"Point","coordinates":[149.140293,-35.25113]}},{"properties":{"city":"Drysdale","latitude":-38.172318,"country":"Australia","postal codes":3222,"longitude":144.570987,"count":1,"id":"a6226c4x7n7u","state":"Victoria"},"type":"Feature","geometry":{"type":"Point","coordinates":[144.570987,-38.172318]}},{"properties":{"city":"Eden","latitude":-37.06319,"country":"Australia","postal codes":2551,"longitude":149.903702,"count":1,"id":"a6226bt1usz3","state":"New South Wales"},"type":"Feature","geometry":{"type":"Point","coordinates":[149.903702,-37.06319]}},{"properties":{"city":"Girraween","latitude":-33.799843,"country":"Australia","postal codes":2145,"longitude":150.947276,"count":1,"id":"a6226bsf6ex6","state":"New South Wales"},"type":"Feature","geometry":{"type":"Point","coordinates":[150.947276,-33.799843]}},{"properties":{"city":"Hawthorn","latitude":-37.821023,"country":"Australia","postal codes":3122,"longitude":145.022017,"count":1,"id":"a6226buzr6y8","state":"Victoria"},"type":"Feature","geometry":{"type":"Point","coordinates":[145.022017,-37.821023]}},{"properties":{"city":"Hobart","latitude":-42.882743,"country":"Australia","postal codes":7000,"longitude":147.330234,"count":1,"id":"a6226c0old5z","state":"Tasmania"},"type":"Feature","geometry":{"type":"Point","coordinates":[147.330234,-42.882743]}},{"properties":{"city":"Holsworthy","latitude":-33.950403,"country":"Australia","postal codes":2173,"longitude":150.949972,"count":1,"id":"a6226bs8s3th","state":"New South Wales"},"type":"Feature","geometry":{"type":"Point","coordinates":[150.949972,-33.950403]}},{"properties":{"city":"Hornsby","latitude":-33.704748,"country":"Australia","postal codes":2077,"longitude":151.098696,"count":4,"id":"a6226bv6k85p","state":"New South Wales"},"type":"Feature","geometry":{"type":"Point","coordinates":[151.098696,-33.704748]}},{"properties":{"city":"Kellyville","latitude":-33.712415,"country":"Australia","postal codes":2155,"longitude":150.958009,"count":6,"id":"a6226bv15nbr","state":"New South Wales"},"type":"Feature","geometry":{"type":"Point","coordinates":[150.958009,-33.712415]}},{"properties":{"city":"Macquarie Park","latitude":-33.779795,"country":"Australia","postal codes":2113,"longitude":151.134041,"count":5,"id":"a6226c6xb6wm","state":"New South Wales"},"type":"Feature","geometry":{"type":"Point","coordinates":[151.134041,-33.779795]}},{"properties":{"city":"Magill","latitude":-34.909296,"country":"Australia","postal codes":5072,"longitude":138.675784,"count":2,"id":"a6226c0jkbti","state":"South Australia"},"type":"Feature","geometry":{"type":"Point","coordinates":[138.675784,-34.909296]}},{"properties":{"city":"Manurewa","latitude":-37.021267,"country":"New Zealand","postal codes":null,"longitude":174.895898,"count":1,"id":"a6226c2y60aq","state":"Auckland"},"type":"Feature","geometry":{"type":"Point","coordinates":[174.895898,-37.021267]}},{"properties":{"city":"Melbourne","latitude":-37.8133386,"country":"Australia","postal codes":3000,"longitude":144.9722006,"count":2,"id":"a6226c18tegr","state":"Victoria"},"type":"Feature","geometry":{"type":"Point","coordinates":[144.9722006,-37.8133386]}},{"properties":{"city":"Milsons Point","latitude":-33.847526,"country":"Australia","postal codes":2061,"longitude":151.211568,"count":1,"id":"a6226bxewg5z","state":"New South Wales"},"type":"Feature","geometry":{"type":"Point","coordinates":[151.211568,-33.847526]}},{"properties":{"city":"Monash","latitude":-37.9104511,"country":"Australia","postal codes":3800,"longitude":145.1348243,"count":1,"id":"a6226bsxsebi","state":"Victoria"},"type":"Feature","geometry":{"type":"Point","coordinates":[145.1348243,-37.9104511]}},{"properties":{"city":"Mordialloc","latitude":-38.007154,"country":"Australia","postal codes":3195,"longitude":145.086849,"count":1,"id":"a6226btrbzut","state":"Victoria"},"type":"Feature","geometry":{"type":"Point","coordinates":[145.086849,-38.007154]}},{"properties":{"city":"Mount Barker","latitude":-35.064058,"country":"Australia","postal codes":5251,"longitude":138.858189,"count":2,"id":"a6226c793ffj","state":"South Australia"},"type":"Feature","geometry":{"type":"Point","coordinates":[138.858189,-35.064058]}},{"properties":{"city":"Mount Claremont","latitude":-31.96289,"country":"Australia","postal codes":6010,"longitude":115.778494,"count":1,"id":"a6226bw4je1q","state":"Western Australia"},"type":"Feature","geometry":{"type":"Point","coordinates":[115.778494,-31.96289]}},{"properties":{"city":"Narellan","latitude":-34.040524,"country":"Australia","postal codes":2567,"longitude":150.735615,"count":2,"id":"a6226bsmevpb","state":"New South Wales"},"type":"Feature","geometry":{"type":"Point","coordinates":[150.735615,-34.040524]}},{"properties":{"city":"North Parramatta","latitude":-33.798043,"country":"Australia","postal codes":2151,"longitude":151.010707,"count":1,"id":"a6226bt90srk","state":"New South Wales"},"type":"Feature","geometry":{"type":"Point","coordinates":[151.010707,-33.798043]}},{"properties":{"city":"Parkville","latitude":-37.793054,"country":"Australia","postal codes":3052,"longitude":144.955703,"count":2,"id":"a6226bv3d0iz","state":"Victoria"},"type":"Feature","geometry":{"type":"Point","coordinates":[144.955703,-37.793054]}},{"properties":{"city":"Parramatta","latitude":-33.816957,"country":"Australia","postal codes":2150,"longitude":151.003451,"count":7,"id":"a6226bwjpdea","state":"New South Wales"},"type":"Feature","geometry":{"type":"Point","coordinates":[151.003451,-33.816957]}},{"properties":{"city":"Pearce","latitude":-35.365002,"country":"Australia","postal codes":2607,"longitude":149.081687,"count":1,"id":"a6226c7z15fw","state":"Australian Capital Territory"},"type":"Feature","geometry":{"type":"Point","coordinates":[149.081687,-35.365002]}},{"properties":{"city":"Penrith","latitude":-33.752406,"country":"Australia","postal codes":2750,"longitude":150.692358,"count":1,"id":"a6226bwmhpf2","state":"New South Wales"},"type":"Feature","geometry":{"type":"Point","coordinates":[150.692358,-33.752406]}},{"properties":{"city":"Phillip","latitude":-35.351856,"country":"Australia","postal codes":2606,"longitude":149.091212,"count":1,"id":"a6226c4jurxp","state":"Australian Capital Territory"},"type":"Feature","geometry":{"type":"Point","coordinates":[149.091212,-35.351856]}},{"properties":{"city":"Revesby Heights","latitude":-33.968802,"country":"Australia","postal codes":2212,"longitude":151.015063,"count":2,"id":"a6226btj78qn","state":"New South Wales"},"type":"Feature","geometry":{"type":"Point","coordinates":[151.015063,-33.968802]}},{"properties":{"city":"Riverview","latitude":-33.825587,"country":"Australia","postal codes":2066,"longitude":151.159934,"count":4,"id":"a6226c4e5ep7","state":"New South Wales"},"type":"Feature","geometry":{"type":"Point","coordinates":[151.159934,-33.825587]}},{"properties":{"city":"Robina","latitude":-28.07034,"country":"Australia","postal codes":4226,"longitude":153.376837,"count":1,"id":"a6226bw5p0ot","state":"Queensland"},"type":"Feature","geometry":{"type":"Point","coordinates":[153.376837,-28.07034]}},{"properties":{"city":"Seven Hills","latitude":-33.775477,"country":"Australia","postal codes":2147,"longitude":150.934257,"count":1,"id":"a6226bs2u56j","state":"New South Wales"},"type":"Feature","geometry":{"type":"Point","coordinates":[150.934257,-33.775477]}},{"properties":{"city":"Strathfield","latitude":-33.873913,"country":"Australia","postal codes":2135,"longitude":151.093993,"count":1,"id":"a6226bs8r3dq","state":"New South Wales"},"type":"Feature","geometry":{"type":"Point","coordinates":[151.093993,-33.873913]}},{"properties":{"city":"Sydney","latitude":-33.867139,"country":"Australia","postal codes":2000,"longitude":151.207114,"count":7,"id":"a6226bwclw57","state":"New South Wales"},"type":"Feature","geometry":{"type":"Point","coordinates":[151.207114,-33.867139]}},{"properties":{"city":"Terrey Hills","latitude":-33.683644,"country":"Australia","postal codes":2084,"longitude":151.22847,"count":1,"id":"a6226c6tn1jf","state":"New South Wales"},"type":"Feature","geometry":{"type":"Point","coordinates":[151.22847,-33.683644]}},{"properties":{"city":"The Mines Resort City","latitude":3.0357479,"country":"Malaysia","postal codes":43300,"longitude":101.7153697,"count":1,"id":"a6226c606ksd","state":"Seri Kembangan"},"type":"Feature","geometry":{"type":"Point","coordinates":[101.7153697,3.0357479]}},{"properties":{"city":"Ultimo","latitude":-33.878416,"country":"Australia","postal codes":2007,"longitude":151.197272,"count":5,"id":"a6226c7stm8x","state":"New South Wales"},"type":"Feature","geometry":{"type":"Point","coordinates":[151.197272,-33.878416]}},{"properties":{"city":"Wahroonga","latitude":-33.716405,"country":"Australia","postal codes":2076,"longitude":151.118119,"count":1,"id":"a6226c1y0lmp","state":"New South Wales"},"type":"Feature","geometry":{"type":"Point","coordinates":[151.118119,-33.716405]}},{"properties":{"city":"Warwick","latitude":-31.844843,"country":"Australia","postal codes":6024,"longitude":115.808154,"count":1,"id":"a6226bvkq4t1","state":"Western Australia"},"type":"Feature","geometry":{"type":"Point","coordinates":[115.808154,-31.844843]}},{"properties":{"city":"Washington DC","latitude":38.8951118,"country":"United States","postal codes":null,"longitude":-77.0363658,"count":1,"id":"a6226c5fbao1","state":"Washington DC"},"type":"Feature","geometry":{"type":"Point","coordinates":[-77.0363658,38.8951118]}},{"properties":{"city":"Waurn Ponds","latitude":-38.2224857,"country":"Australia","postal codes":3216,"longitude":144.2921374,"count":1,"id":"a6226bvzccah","state":"New South Wales"},"type":"Feature","geometry":{"type":"Point","coordinates":[144.2921374,-38.2224857]}},{"properties":{"city":"Wollongong","latitude":-34.4051035,"country":"Australia","postal codes":2522,"longitude":150.885922,"count":2,"id":"a6226c1owlaf","state":"New South Wales"},"type":"Feature","geometry":{"type":"Point","coordinates":[150.885922,-34.4051035]}}],"is_temporal":false,"author":{"url":"","metadata":"","contact_name":"","contact_address":"","source":"","contact_phone":""},"source":"","pagination":{"sort":null,"start":0,"total":58,"limit":1000000},"state":"complete","tags":"greater-western-sydney,gws","published":"2014-08-10T19:57:38-04:00","id":58527}