{"type":"FeatureCollection","data_type":"Dataset","url_type":null,"permissions":[{"permissions":{"download":true,"view":true},"group_id":"everyone"}],"classification":null,"title":"Affordable Housing 2009, By U.S. City, Top 25","count":25,"stream_id":58616,"contributor":{"url":"http://geocommons.com/users/14486","name":"laural"},"data_attributes":null,"calculation_params":null,"icon_link":null,"link":"http://geocommons.com/overlays/58616.json","extent":[-115.586,26.2738,-74.0636,46.9254],"geometry_types":["point"],"unique_name":null,"name":"Affordable Housing 2009, By U.S. City, Top 25","feature_count":25,"description":"Top 25 cities with the most affordable housing using 2009 median sale prices.\n\nAccording to CNNMoney -&gt; &quot;Source: Onboard Informatics, actual sales collected from county and municipal assessors' offices. Only includes sales within city boundaries. Only cities where there were more than 100 home sales in 2009, and that were experiencing job and population growth, were considered. No more than 2 places within a state, and no more than 1 place within a county could qualify.&quot;","next_feature":null,"is_raster":false,"short_classification":"Y","stats":{"geo_score":{"max":0.857,"mean":0.84208,"variance":0.00107566,"stdev":0.03279725598278,"min":0.738,"median":0.857},"median home sale price 2009":{"max":204450,"mean":129173.68,"variance":1306206051.56,"stdev":36141.4727364561,"min":67000,"median":124483},"rank":{"max":25,"mean":13.0,"variance":54.1666666666667,"stdev":7.35980072193987,"min":1,"median":13}},"features":[{"properties":{"city":"Deerfield Beach","geo_score":0.857,"median home sale price 2009":67000,"rank":1,"id":"a62emncmmfhx","geo_precision":"city","concat":null,"state":"FL"},"type":"Feature","geometry":{"type":"Point","coordinates":[-80.140769,26.273761]}},{"properties":{"city":"Des Moines","geo_score":0.857,"median home sale price 2009":100000,"rank":10,"id":"a62emnj8h2o9","geo_precision":"city","concat":null,"state":"IA"},"type":"Feature","geometry":{"type":"Point","coordinates":[-93.609106,41.600545]}},{"properties":{"city":"Cedar Rapids","geo_score":0.857,"median home sale price 2009":120500,"rank":11,"id":"a62emn6zxiho","geo_precision":"city","concat":null,"state":"IA"},"type":"Feature","geometry":{"type":"Point","coordinates":[-91.644068,42.008333]}},{"properties":{"city":"Spring Valley","geo_score":0.798,"median home sale price 2009":135000,"rank":12,"id":"a62emngm95ve","geo_precision":"city","concat":null,"state":"NV"},"type":"Feature","geometry":{"type":"Point","coordinates":[-115.585895,40.726593]}},{"properties":{"city":"Warner Robins","geo_score":0.857,"median home sale price 2009":110000,"rank":13,"id":"a62emnlvr1xc","geo_precision":"city","concat":null,"state":"GA"},"type":"Feature","geometry":{"type":"Point","coordinates":[-83.644751,32.555039]}},{"properties":{"city":"Wichita","geo_score":0.857,"median home sale price 2009":115138,"rank":14,"id":"a62emncotvl3","geo_precision":"city","concat":null,"state":"KS"},"type":"Feature","geometry":{"type":"Point","coordinates":[-97.337545,37.692236]}},{"properties":{"city":"Dale City","geo_score":0.768,"median home sale price 2009":163000,"rank":15,"id":"a62emnjaq3ne","geo_precision":"city","concat":null,"state":"VA"},"type":"Feature","geometry":{"type":"Point","coordinates":[-77.538868,36.569873]}},{"properties":{"city":"Lincoln","geo_score":0.857,"median home sale price 2009":125000,"rank":16,"id":"a62emn7vlpfw","geo_precision":"city","concat":null,"state":"NE"},"type":"Feature","geometry":{"type":"Point","coordinates":[-96.66696,40.800001]}},{"properties":{"city":"Overland Park","geo_score":0.857,"median home sale price 2009":200000,"rank":17,"id":"a62emnn3aey0","geo_precision":"city","concat":null,"state":"KS"},"type":"Feature","geometry":{"type":"Point","coordinates":[-94.670792,38.982228]}},{"properties":{"city":"Joliet","geo_score":0.738,"median home sale price 2009":152000,"rank":18,"id":"a62emnatynsd","geo_precision":"city","concat":null,"state":"IL"},"type":"Feature","geometry":{"type":"Point","coordinates":[-90.667345,39.124215]}},{"properties":{"city":"Huntsville","geo_score":0.857,"median home sale price 2009":140000,"rank":19,"id":"a62emn8h4z1v","geo_precision":"city","concat":null,"state":"AL"},"type":"Feature","geometry":{"type":"Point","coordinates":[-86.556439,34.718428]}},{"properties":{"city":"Lafayette","geo_score":0.857,"median home sale price 2009":82210,"rank":2,"id":"a62emnlu9bna","geo_precision":"city","concat":null,"state":"IN"},"type":"Feature","geometry":{"type":"Point","coordinates":[-86.830286,40.39905]}},{"properties":{"city":"Murfreesboro","geo_score":0.857,"median home sale price 2009":141000,"rank":20,"id":"a62emnhd8mmo","geo_precision":"city","concat":null,"state":"TN"},"type":"Feature","geometry":{"type":"Point","coordinates":[-86.372158,35.762951]}},{"properties":{"city":"O'Fallon","geo_score":0.857,"median home sale price 2009":172250,"rank":21,"id":"a62emndcvpqw","geo_precision":"city","concat":null,"state":"MO"},"type":"Feature","geometry":{"type":"Point","coordinates":[-90.742745,38.823944]}},{"properties":{"city":"Rogers","geo_score":0.857,"median home sale price 2009":124483,"rank":22,"id":"a62emnmuwqfi","geo_precision":"city","concat":null,"state":"AR"},"type":"Feature","geometry":{"type":"Point","coordinates":[-94.181568,36.355417]}},{"properties":{"city":"Fargo","geo_score":0.857,"median home sale price 2009":144802,"rank":23,"id":"a62emnbsu60o","geo_precision":"city","concat":null,"state":"ND"},"type":"Feature","geometry":{"type":"Point","coordinates":[-96.990615,46.92536]}},{"properties":{"city":"Springdale","geo_score":0.814,"median home sale price 2009":115951,"rank":24,"id":"a62emnmvshfi","geo_precision":"city","concat":null,"state":"AR"},"type":"Feature","geometry":{"type":"Point","coordinates":[-93.648512,33.58762]}},{"properties":{"city":"Washington","geo_score":0.794,"median home sale price 2009":204450,"rank":25,"id":"a62emnbagomt","geo_precision":"city","concat":null,"state":"NJ"},"type":"Feature","geometry":{"type":"Point","coordinates":[-74.063582,40.988323]}},{"properties":{"city":"San Antonio","geo_score":0.857,"median home sale price 2009":78627,"rank":3,"id":"a62emnev9lky","geo_precision":"city","concat":null,"state":"TX"},"type":"Feature","geometry":{"type":"Point","coordinates":[-98.493628,29.424122]}},{"properties":{"city":"Deltona","geo_score":0.857,"median home sale price 2009":80473,"rank":4,"id":"a62emnh3013y","geo_precision":"city","concat":null,"state":"FL"},"type":"Feature","geometry":{"type":"Point","coordinates":[-81.245074,28.900274]}},{"properties":{"city":"Spring","geo_score":0.857,"median home sale price 2009":112062,"rank":5,"id":"a62emniynjww","geo_precision":"city","concat":null,"state":"TX"},"type":"Feature","geometry":{"type":"Point","coordinates":[-95.41716,30.079941]}},{"properties":{"city":"Glendale","geo_score":0.857,"median home sale price 2009":105000,"rank":6,"id":"a62emnerjz17","geo_precision":"city","concat":null,"state":"AZ"},"type":"Feature","geometry":{"type":"Point","coordinates":[-112.185987,33.538652]}},{"properties":{"city":"Avondale","geo_score":0.857,"median home sale price 2009":111100,"rank":7,"id":"a62emnjk1f2e","geo_precision":"city","concat":null,"state":"AZ"},"type":"Feature","geometry":{"type":"Point","coordinates":[-112.18717,33.276539]}},{"properties":{"city":"Bolingbrook","geo_score":0.857,"median home sale price 2009":155000,"rank":8,"id":"a62emncgig55","geo_precision":"city","concat":null,"state":"IL"},"type":"Feature","geometry":{"type":"Point","coordinates":[-88.068396,41.698642]}},{"properties":{"city":"Fishers","geo_score":0.857,"median home sale price 2009":174296,"rank":9,"id":"a62emncjhh27","geo_precision":"city","concat":null,"state":"IN"},"type":"Feature","geometry":{"type":"Point","coordinates":[-85.964894,39.967406]}}],"is_temporal":false,"author":{"url":"http://money.cnn.com/magazines/moneymag/bplive/2010/top25s/housing/","metadata":"","contact_name":"","contact_address":"","source":"CNNMoney.com","contact_phone":""},"source":"http://money.cnn.com/magazines/moneymag/bplive/2010/top25s/housing/","pagination":{"sort":null,"start":0,"total":25,"limit":1000000},"state":"complete","tags":"affordable,cnn,housing,money,us","published":"2014-08-10T20:00:10-04:00","id":58616}