{"type":"FeatureCollection","data_type":"Dataset","url_type":null,"permissions":[{"permissions":{"download":true,"view":true},"group_id":"everyone"}],"classification":null,"title":"Greater Western Sydney on Twitter","count":73,"stream_id":58651,"contributor":{"url":"http://geocommons.com/users/12003","name":"LauraHale"},"data_attributes":null,"calculation_params":null,"icon_link":null,"link":"http://geocommons.com/overlays/58651.json","extent":[-99.9018,-42.8827,153.612,52.3738],"geometry_types":["point"],"unique_name":null,"name":"Greater Western Sydney on Twitter","feature_count":73,"description":"","next_feature":null,"is_raster":false,"short_classification":"Y","stats":{"latitude":{"max":52.3738007,"mean":-30.4431560123288,"variance":368.243465497427,"stdev":19.1896708022161,"min":-42.882743,"median":-35.242534},"twitter":{"max":88,"mean":3.6027397260274,"variance":130.71499238965,"stdev":11.4330657476309,"min":1,"median":1},"postal codes":{"max":7310,"mean":4165.18181818182,"variance":2803515.52840909,"stdev":1674.37018858109,"min":2000,"median":3220},"longitude":{"max":153.612224,"mean":129.291847083562,"variance":2684.25587358084,"stdev":51.8098048016091,"min":-99.9018131,"median":145.003883}},"features":[{"properties":{"city":"Adelaide","latitude":-34.92577,"twitter":13,"country":"Australia","postal codes":null,"longitude":138.599732,"id":"a620xlof8oks","state":"South Australia"},"type":"Feature","geometry":{"type":"Point","coordinates":[138.599732,-34.92577]}},{"properties":{"city":"Albert Park","latitude":-37.840705,"twitter":1,"country":"Australia","postal codes":3206,"longitude":144.95571,"id":"a620xlpn01td","state":"Victoria"},"type":"Feature","geometry":{"type":"Point","coordinates":[144.95571,-37.840705]}},{"properties":{"city":"Alberton","latitude":-34.85922,"twitter":1,"country":"Australia","postal codes":5014,"longitude":138.51953,"id":"a620xlxc1uf3","state":"South Australia"},"type":"Feature","geometry":{"type":"Point","coordinates":[138.51953,-34.85922]}},{"properties":{"city":"Albury","latitude":-36.082137,"twitter":1,"country":"Australia","postal codes":2640,"longitude":146.910174,"id":"a620xlzateqc","state":"New South Wales"},"type":"Feature","geometry":{"type":"Point","coordinates":[146.910174,-36.082137]}},{"properties":{"city":"Amsterdam","latitude":52.3738007,"twitter":1,"country":"Netherlands","postal codes":null,"longitude":4.8909347,"id":"a620xlnld39u","state":null},"type":"Feature","geometry":{"type":"Point","coordinates":[4.8909347,52.3738007]}},{"properties":{"city":"Ascot","latitude":-31.940682,"twitter":1,"country":"Australia","postal codes":6104,"longitude":115.923003,"id":"a620xlv0fyx9","state":"Western Australia"},"type":"Feature","geometry":{"type":"Point","coordinates":[115.923003,-31.940682]}},{"properties":{"city":"Ascot Vale","latitude":-37.77583,"twitter":1,"country":"Australia","postal codes":3032,"longitude":144.923377,"id":"a620xlx97ibe","state":"Victoria"},"type":"Feature","geometry":{"type":"Point","coordinates":[144.923377,-37.77583]}},{"properties":{"city":"Bendigo","latitude":-36.755513,"twitter":1,"country":"Australia","postal codes":3552,"longitude":144.284263,"id":"a620xlq1rd8y","state":"Victoria"},"type":"Feature","geometry":{"type":"Point","coordinates":[144.284263,-36.755513]}},{"properties":{"city":"Bentleigh East","latitude":-37.920382,"twitter":1,"country":"Australia","postal codes":null,"longitude":145.053074,"id":"a620xlviyg5f","state":"Victoria"},"type":"Feature","geometry":{"type":"Point","coordinates":[145.053074,-37.920382]}},{"properties":{"city":"Blacktown","latitude":-33.770184,"twitter":1,"country":"Australia","postal codes":2148,"longitude":150.908501,"id":"a620xlyq0ldk","state":"New South Wales"},"type":"Feature","geometry":{"type":"Point","coordinates":[150.908501,-33.770184]}},{"properties":{"city":"Bondi","latitude":-33.893739,"twitter":1,"country":"Australia","postal codes":2026,"longitude":151.262502,"id":"a620xlq6oi3r","state":"New South Wales"},"type":"Feature","geometry":{"type":"Point","coordinates":[151.262502,-33.893739]}},{"properties":{"city":"Brisbane","latitude":-27.46758,"twitter":11,"country":"Australia","postal codes":4000,"longitude":153.027892,"id":"a620xlqyqr7k","state":"Queensland"},"type":"Feature","geometry":{"type":"Point","coordinates":[153.027892,-27.46758]}},{"properties":{"city":"Bruce","latitude":-35.242534,"twitter":1,"country":"Australia","postal codes":2617,"longitude":149.077275,"id":"a620xlyd1owy","state":"Australian Capital Territory"},"type":"Feature","geometry":{"type":"Point","coordinates":[149.077275,-35.242534]}},{"properties":{"city":"Bunbury","latitude":-33.327112,"twitter":1,"country":"Australia","postal codes":6230,"longitude":115.636993,"id":"a620xlux6p0w","state":"Western Australia"},"type":"Feature","geometry":{"type":"Point","coordinates":[115.636993,-33.327112]}},{"properties":{"city":"Busselton","latitude":-33.650546,"twitter":1,"country":"Australia","postal codes":6280,"longitude":115.347032,"id":"a620xlpytnsj","state":"Western Australia"},"type":"Feature","geometry":{"type":"Point","coordinates":[115.347032,-33.650546]}},{"properties":{"city":"Byron Bay","latitude":-28.643387,"twitter":1,"country":"Australia","postal codes":null,"longitude":153.612224,"id":"a620xlvnxkzz","state":"New South Wales"},"type":"Feature","geometry":{"type":"Point","coordinates":[153.612224,-28.643387]}},{"properties":{"city":"Camden","latitude":-34.054599,"twitter":1,"country":"Australia","postal codes":2570,"longitude":150.695678,"id":"a620xlrgnfnt","state":"New South Wales"},"type":"Feature","geometry":{"type":"Point","coordinates":[150.695678,-34.054599]}},{"properties":{"city":"Canberra","latitude":-35.28204,"twitter":16,"country":"Australia","postal codes":2600,"longitude":149.12858,"id":"a620xlprn6d7","state":"Australian Capital Territory"},"type":"Feature","geometry":{"type":"Point","coordinates":[149.12858,-35.28204]}},{"properties":{"city":"Caulfield","latitude":-37.880479,"twitter":1,"country":"Australia","postal codes":3162,"longitude":145.026806,"id":"a620xlolqwyd","state":"Victoria"},"type":"Feature","geometry":{"type":"Point","coordinates":[145.026806,-37.880479]}},{"properties":{"city":"Cheltenham","latitude":-33.76169,"twitter":1,"country":"Australia","postal codes":null,"longitude":151.079364,"id":"a620xlyqmi44","state":"New South Wales"},"type":"Feature","geometry":{"type":"Point","coordinates":[151.079364,-33.76169]}},{"properties":{"city":"Cremorne","latitude":-33.828131,"twitter":1,"country":"Australia","postal codes":null,"longitude":151.230233,"id":"a620xlpba1ob","state":"New South Wales"},"type":"Feature","geometry":{"type":"Point","coordinates":[151.230233,-33.828131]}},{"properties":{"city":"Devonport","latitude":-41.175455,"twitter":1,"country":"Australia","postal codes":7310,"longitude":146.351294,"id":"a620xlsjp3tt","state":"Tasmania"},"type":"Feature","geometry":{"type":"Point","coordinates":[146.351294,-41.175455]}},{"properties":{"city":"Dulwich Hill","latitude":-33.904241,"twitter":1,"country":"Australia","postal codes":null,"longitude":151.143319,"id":"a620xlrbk8dr","state":"New South Wales"},"type":"Feature","geometry":{"type":"Point","coordinates":[151.143319,-33.904241]}},{"properties":{"city":"Dunsborough","latitude":-33.615893,"twitter":1,"country":"Australia","postal codes":6281,"longitude":115.10657,"id":"a620xln4nkv1","state":"Western Australia"},"type":"Feature","geometry":{"type":"Point","coordinates":[115.10657,-33.615893]}},{"properties":{"city":"East Melbourne","latitude":-37.81664,"twitter":1,"country":"Australia","postal codes":null,"longitude":144.987811,"id":"a620xm0qm2d7","state":"Victoria"},"type":"Feature","geometry":{"type":"Point","coordinates":[144.987811,-37.81664]}},{"properties":{"city":"Edensor Park","latitude":-33.877057,"twitter":1,"country":"Australia","postal codes":null,"longitude":150.875292,"id":"a620xltod7x7","state":"New South Wales"},"type":"Feature","geometry":{"type":"Point","coordinates":[150.875292,-33.877057]}},{"properties":{"city":"Essendon","latitude":-37.754973,"twitter":1,"country":"Australia","postal codes":null,"longitude":144.917407,"id":"a620xlxe4e8h","state":"Victoria"},"type":"Feature","geometry":{"type":"Point","coordinates":[144.917407,-37.754973]}},{"properties":{"city":"Fremantle","latitude":-32.053128,"twitter":1,"country":"Australia","postal codes":6160,"longitude":115.745869,"id":"a620xluclica","state":"Western Australia"},"type":"Feature","geometry":{"type":"Point","coordinates":[115.745869,-32.053128]}},{"properties":{"city":"Geelong","latitude":-38.14729,"twitter":12,"country":"Australia","postal codes":3220,"longitude":144.360735,"id":"a620xls3v5kf","state":"Victoria"},"type":"Feature","geometry":{"type":"Point","coordinates":[144.360735,-38.14729]}},{"properties":{"city":"Gisborne","latitude":-37.488037,"twitter":1,"country":"Australia","postal codes":null,"longitude":144.59112,"id":"a620xlp5upg9","state":"Victoria"},"type":"Feature","geometry":{"type":"Point","coordinates":[144.59112,-37.488037]}},{"properties":{"city":"Gold Coast","latitude":-27.9852778,"twitter":2,"country":"Australia","postal codes":4217,"longitude":153.3919444,"id":"a620xm180n7a","state":"Queensland"},"type":"Feature","geometry":{"type":"Point","coordinates":[153.3919444,-27.9852778]}},{"properties":{"city":"Greensborough","latitude":-37.704622,"twitter":1,"country":"Australia","postal codes":null,"longitude":145.103024,"id":"a620xlq6n4mo","state":"Victoria"},"type":"Feature","geometry":{"type":"Point","coordinates":[145.103024,-37.704622]}},{"properties":{"city":"Hillside","latitude":-37.691437,"twitter":1,"country":"Australia","postal codes":null,"longitude":144.74002,"id":"a620xlvib5t8","state":"Victoria"},"type":"Feature","geometry":{"type":"Point","coordinates":[144.74002,-37.691437]}},{"properties":{"city":"Hobart","latitude":-42.882743,"twitter":1,"country":"Australia","postal codes":7000,"longitude":147.330234,"id":"a620xlrca69f","state":"Tasmania"},"type":"Feature","geometry":{"type":"Point","coordinates":[147.330234,-42.882743]}},{"properties":{"city":"Kew","latitude":-37.80556,"twitter":1,"country":"Australia","postal codes":null,"longitude":145.034222,"id":"a620xltvgbrx","state":"Victoria"},"type":"Feature","geometry":{"type":"Point","coordinates":[145.034222,-37.80556]}},{"properties":{"city":"Kooyong","latitude":-37.840702,"twitter":1,"country":"Australia","postal codes":null,"longitude":145.032101,"id":"a620xlvl8l8o","state":"Victoria"},"type":"Feature","geometry":{"type":"Point","coordinates":[145.032101,-37.840702]}},{"properties":{"city":"Liverpool","latitude":-33.92505,"twitter":1,"country":"Australia","postal codes":2170,"longitude":150.924429,"id":"a620xlxy3hrb","state":"New South Wales"},"type":"Feature","geometry":{"type":"Point","coordinates":[150.924429,-33.92505]}},{"properties":{"city":"Mandurah","latitude":-32.53301,"twitter":1,"country":"Australia","postal codes":6210,"longitude":115.732537,"id":"a620xlxposhp","state":"Western Australia"},"type":"Feature","geometry":{"type":"Point","coordinates":[115.732537,-32.53301]}},{"properties":{"city":"Maribyrnong","latitude":-37.772229,"twitter":1,"country":"Australia","postal codes":null,"longitude":144.886116,"id":"a620xly0vowo","state":"Victoria"},"type":"Feature","geometry":{"type":"Point","coordinates":[144.886116,-37.772229]}},{"properties":{"city":"Melbourne","latitude":-37.814251,"twitter":88,"country":"Australia","postal codes":3000,"longitude":144.963169,"id":"a620xlyns8tr","state":"Victoria"},"type":"Feature","geometry":{"type":"Point","coordinates":[144.963169,-37.814251]}},{"properties":{"city":"Mentone","latitude":-37.982859,"twitter":1,"country":"Australia","postal codes":null,"longitude":145.0649,"id":"a620xloc93ru","state":"Victoria"},"type":"Feature","geometry":{"type":"Point","coordinates":[145.0649,-37.982859]}},{"properties":{"city":"Millicent","latitude":-37.59517,"twitter":1,"country":"Australia","postal codes":5280,"longitude":140.354056,"id":"a620xm0mnxw4","state":"South Australia"},"type":"Feature","geometry":{"type":"Point","coordinates":[140.354056,-37.59517]}},{"properties":{"city":"Moorabbin","latitude":-37.933497,"twitter":1,"country":"Australia","postal codes":null,"longitude":145.038504,"id":"a620xlnecokg","state":"Victoria"},"type":"Feature","geometry":{"type":"Point","coordinates":[145.038504,-37.933497]}},{"properties":{"city":"New York City","latitude":40.7143528,"twitter":1,"country":"United States","postal codes":null,"longitude":-74.0059731,"id":"a620xlsg8k19","state":"New York"},"type":"Feature","geometry":{"type":"Point","coordinates":[-74.0059731,40.7143528]}},{"properties":{"city":"Newcastle","latitude":-32.926357,"twitter":1,"country":"Australia","postal codes":null,"longitude":151.78122,"id":"a620xm0a6ke2","state":"New South Wales"},"type":"Feature","geometry":{"type":"Point","coordinates":[151.78122,-32.926357]}},{"properties":{"city":"Noida","latitude":28.57,"twitter":1,"country":"India","postal codes":null,"longitude":77.32,"id":"a620xlvxy6mz","state":"UP"},"type":"Feature","geometry":{"type":"Point","coordinates":[77.32,28.57]}},{"properties":{"city":"North Melbourne","latitude":-37.802889,"twitter":1,"country":"Australia","postal codes":null,"longitude":144.94816,"id":"a620xlrdh3me","state":"Victoria"},"type":"Feature","geometry":{"type":"Point","coordinates":[144.94816,-37.802889]}},{"properties":{"city":"Paddington","latitude":-33.885032,"twitter":1,"country":"Australia","postal codes":null,"longitude":151.226475,"id":"a620xm10o6vj","state":"New South Wales"},"type":"Feature","geometry":{"type":"Point","coordinates":[151.226475,-33.885032]}},{"properties":{"city":"Penrith","latitude":-33.752406,"twitter":1,"country":"Australia","postal codes":null,"longitude":150.692358,"id":"a620xlwp8puh","state":"New South Wales"},"type":"Feature","geometry":{"type":"Point","coordinates":[150.692358,-33.752406]}},{"properties":{"city":"Perth","latitude":-31.9554,"twitter":13,"country":"Australia","postal codes":6000,"longitude":115.85859,"id":"a620xlxeqlbl","state":"Western Australia"},"type":"Feature","geometry":{"type":"Point","coordinates":[115.85859,-31.9554]}},{"properties":{"city":"Port Melbourne","latitude":-37.838582,"twitter":2,"country":"Australia","postal codes":null,"longitude":144.942355,"id":"a620xlwjfoyf","state":"Victoria"},"type":"Feature","geometry":{"type":"Point","coordinates":[144.942355,-37.838582]}},{"properties":{"city":"Preston","latitude":-37.738793,"twitter":1,"country":"Australia","postal codes":null,"longitude":145.003883,"id":"a620xlre8vg0","state":"Victoria"},"type":"Feature","geometry":{"type":"Point","coordinates":[145.003883,-37.738793]}},{"properties":{"city":"Preston","latitude":-37.738793,"twitter":1,"country":"Australia","postal codes":null,"longitude":145.003883,"id":"a620xm15vytd","state":"Victoria"},"type":"Feature","geometry":{"type":"Point","coordinates":[145.003883,-37.738793]}},{"properties":{"city":"Princes Park","latitude":-37.7847203,"twitter":1,"country":"Australia","postal codes":3054,"longitude":144.9618719,"id":"a620xlzbhqn2","state":"Victoria"},"type":"Feature","geometry":{"type":"Point","coordinates":[144.9618719,-37.7847203]}},{"properties":{"city":"Pyrmont","latitude":-33.869709,"twitter":1,"country":"Australia","postal codes":null,"longitude":151.19393,"id":"a620xlv6osjv","state":"New South Wales"},"type":"Feature","geometry":{"type":"Point","coordinates":[151.19393,-33.869709]}},{"properties":{"city":"Richmond","latitude":-37.818587,"twitter":1,"country":"Australia","postal codes":3121,"longitude":144.999181,"id":"a620xlwcf61j","state":"Victoria"},"type":"Feature","geometry":{"type":"Point","coordinates":[144.999181,-37.818587]}},{"properties":{"city":"Rockhampton","latitude":-23.378941,"twitter":1,"country":"Australia","postal codes":4700,"longitude":150.512323,"id":"a620xln8zcn5","state":"Queensland"},"type":"Feature","geometry":{"type":"Point","coordinates":[150.512323,-23.378941]}},{"properties":{"city":"Sandringham","latitude":-37.951732,"twitter":1,"country":"Australia","postal codes":3191,"longitude":145.004019,"id":"a620xm1cqiwi","state":"Victoria"},"type":"Feature","geometry":{"type":"Point","coordinates":[145.004019,-37.951732]}},{"properties":{"city":"Seaford","latitude":-38.102679,"twitter":1,"country":"Australia","postal codes":null,"longitude":145.126482,"id":"a620xlluml3t","state":"Victoria"},"type":"Feature","geometry":{"type":"Point","coordinates":[145.126482,-38.102679]}},{"properties":{"city":"South Melbourne","latitude":-37.830236,"twitter":1,"country":"Australia","postal codes":3205,"longitude":144.959304,"id":"a620xlzyt4jv","state":"Victoria"},"type":"Feature","geometry":{"type":"Point","coordinates":[144.959304,-37.830236]}},{"properties":{"city":"South Perth","latitude":-31.980787,"twitter":1,"country":"Australia","postal codes":6151,"longitude":115.862829,"id":"a620xlleevw1","state":"Western Australia"},"type":"Feature","geometry":{"type":"Point","coordinates":[115.862829,-31.980787]}},{"properties":{"city":"St Kilda","latitude":-37.867573,"twitter":1,"country":"Australia","postal codes":null,"longitude":144.978814,"id":"a620xlmjl3hy","state":"Victoria"},"type":"Feature","geometry":{"type":"Point","coordinates":[144.978814,-37.867573]}},{"properties":{"city":"St Leonards","latitude":-33.823248,"twitter":1,"country":"Australia","postal codes":null,"longitude":151.195504,"id":"a620xlwwsxq3","state":"New South Wales"},"type":"Feature","geometry":{"type":"Point","coordinates":[151.195504,-33.823248]}},{"properties":{"city":"St Louis","latitude":38.646991,"twitter":1,"country":"United States","postal codes":null,"longitude":-90.224967,"id":"a620xlnccs0y","state":"Missouri"},"type":"Feature","geometry":{"type":"Point","coordinates":[-90.224967,38.646991]}},{"properties":{"city":"Stellenbosch","latitude":-33.9367991,"twitter":1,"country":"South Africa","postal codes":null,"longitude":18.8596873,"id":"a620xlp6wzcx","state":null},"type":"Feature","geometry":{"type":"Point","coordinates":[18.8596873,-33.9367991]}},{"properties":{"city":"Sydney","latitude":-33.867139,"twitter":41,"country":"Australia","postal codes":null,"longitude":151.207114,"id":"a620xluw8lzi","state":"New South Wales"},"type":"Feature","geometry":{"type":"Point","coordinates":[151.207114,-33.867139]}},{"properties":{"city":"Toorak","latitude":-37.841217,"twitter":1,"country":"Australia","postal codes":null,"longitude":145.009983,"id":"a620xlwkaxfp","state":"Victoria"},"type":"Feature","geometry":{"type":"Point","coordinates":[145.009983,-37.841217]}},{"properties":{"city":"Traralgon","latitude":-38.193322,"twitter":1,"country":"Australia","postal codes":null,"longitude":146.538373,"id":"a620xlmsj091","state":"Victoria"},"type":"Feature","geometry":{"type":"Point","coordinates":[146.538373,-38.193322]}},{"properties":{"city":"Upper Gulf Coast","latitude":31.9685988,"twitter":1,"country":"United States","postal codes":null,"longitude":-99.9018131,"id":"a620xlxdmeb1","state":"Texas"},"type":"Feature","geometry":{"type":"Point","coordinates":[-99.9018131,31.9685988]}},{"properties":{"city":"Warrnambool","latitude":-38.383313,"twitter":1,"country":"Australia","postal codes":null,"longitude":142.482959,"id":"a620xlrb6g2k","state":"Victoria"},"type":"Feature","geometry":{"type":"Point","coordinates":[142.482959,-38.383313]}},{"properties":{"city":"Western Sydney","latitude":-33.871716,"twitter":1,"country":"Australia","postal codes":2000,"longitude":151.203225,"id":"a620xlsueah6","state":"New South Wales"},"type":"Feature","geometry":{"type":"Point","coordinates":[151.203225,-33.871716]}},{"properties":{"city":"Williamstown","latitude":-37.856902,"twitter":1,"country":"Australia","postal codes":null,"longitude":144.897698,"id":"a620xm1oxrky","state":"Victoria"},"type":"Feature","geometry":{"type":"Point","coordinates":[144.897698,-37.856902]}},{"properties":{"city":"Wollongong","latitude":-34.425878,"twitter":2,"country":"Australia","postal codes":null,"longitude":150.899818,"id":"a620xlt7h5v1","state":"New South Wales"},"type":"Feature","geometry":{"type":"Point","coordinates":[150.899818,-34.425878]}}],"is_temporal":false,"author":{"url":"","metadata":"","contact_name":"","contact_address":"","source":"","contact_phone":""},"source":"","pagination":{"sort":null,"start":0,"total":73,"limit":1000000},"state":"complete","tags":"greater-western-sydney,gws","published":"2014-08-10T20:04:58-04:00","id":58651}