{"type":"FeatureCollection","data_type":"Dataset","url_type":null,"permissions":[{"permissions":{"download":true,"view":true},"group_id":"everyone"}],"classification":null,"title":"ON085","count":477,"stream_id":5882,"contributor":{"url":"http://geocommons.com/users/143","name":"jennifer"},"data_attributes":null,"calculation_params":null,"icon_link":null,"link":"http://geocommons.com/overlays/5882.json","extent":[-117.58,0.0,0.0,34.0237],"geometry_types":["point"],"unique_name":null,"name":"ON085","feature_count":477,"description":"","next_feature":null,"is_raster":false,"short_classification":"Y","stats":{"zip":{"max":91761,"mean":91761.0,"variance":0.0,"stdev":0.0,"min":91761,"median":91761},"number":{"max":3977,"mean":3504.04821802935,"variance":201675.260275179,"stdev":449.082687570095,"min":2484,"median":3563},"lat":{"max":34.023725,"mean":32.4515472054507,"variance":51.0262450492949,"stdev":7.14326571319413,"min":0,"median":34.020612},"long":{"max":0,"mean":-112.146489993711,"variance":609.388282185958,"stdev":24.6857910990504,"min":-117.57993,"median":-117.566049}},"features":[{"properties":{"city":"ONTARIO","streetconcat":"2930 TUOLUMNE PL","st":"CA","zip":91761,"node":"ON085","number":2930,"unit":"","street":"TUOLUMNE PL","id":"a68gfnk0psv0","lat":34.019879,"long":-117.573108},"type":"Feature","geometry":{"type":"Point","coordinates":[-117.573108,34.019879]}},{"properties":{"city":"ONTARIO","streetconcat":"2930 TUOLUMNE PL","st":"CA","zip":91761,"node":"ON085","number":2930,"unit":"","street":"TUOLUMNE PL","id":"a68gfnq7o6wx","lat":34.019879,"long":-117.573108},"type":"Feature","geometry":{"type":"Point","coordinates":[-117.573108,34.019879]}},{"properties":{"city":"ONTARIO","streetconcat":"2906 HOLCOMB CREEK PL","st":"CA","zip":91761,"node":"ON085","number":2906,"unit":"","street":"HOLCOMB CREEK PL","id":"a68gfnlzit8b","lat":34.021248,"long":-117.56613},"type":"Feature","geometry":{"type":"Point","coordinates":[-117.56613,34.021248]}},{"properties":{"city":"ONTARIO","streetconcat":"3523 STRAWBERRY CREEK PL","st":"CA","zip":91761,"node":"ON085","number":3523,"unit":"","street":"STRAWBERRY CREEK PL","id":"a68gfnvolx0b","lat":34.020612,"long":-117.574994},"type":"Feature","geometry":{"type":"Point","coordinates":[-117.574994,34.020612]}},{"properties":{"city":"ONTARIO","streetconcat":"3517 STRAWBERRY CREEK PL","st":"CA","zip":91761,"node":"ON085","number":3517,"unit":"","street":"STRAWBERRY CREEK PL","id":"a68gfnvd2hdq","lat":34.020612,"long":-117.575113},"type":"Feature","geometry":{"type":"Point","coordinates":[-117.575113,34.020612]}},{"properties":{"city":"ONTARIO","streetconcat":"3523 STRAWBERRY CREEK PL","st":"CA","zip":91761,"node":"ON085","number":3523,"unit":"","street":"STRAWBERRY CREEK PL","id":"a68gfnrdtk4n","lat":34.020612,"long":-117.574994},"type":"Feature","geometry":{"type":"Point","coordinates":[-117.574994,34.020612]}},{"properties":{"city":"ONTARIO","streetconcat":"2930 TUOLUMNE PL","st":"CA","zip":91761,"node":"ON085","number":2930,"unit":"","street":"TUOLUMNE PL","id":"a68gfnh7laxe","lat":34.019879,"long":-117.573108},"type":"Feature","geometry":{"type":"Point","coordinates":[-117.573108,34.019879]}},{"properties":{"city":"ONTARIO","streetconcat":"3925 MERCED RIVER RD","st":"CA","zip":91761,"node":"ON085","number":3925,"unit":"","street":"MERCED RIVER RD","id":"a68gfnmaeu8l","lat":34.021142,"long":-117.564524},"type":"Feature","geometry":{"type":"Point","coordinates":[-117.564524,34.021142]}},{"properties":{"city":"ONTARIO","streetconcat":"3977 YUBA RIVER DR","st":"CA","zip":91761,"node":"ON085","number":3977,"unit":"","street":"YUBA RIVER DR","id":"a68gfnhclp3f","lat":34.023725,"long":-117.563296},"type":"Feature","geometry":{"type":"Point","coordinates":[-117.563296,34.023725]}},{"properties":{"city":"ONTARIO","streetconcat":"3925 YUBA RIVER DR","st":"CA","zip":91761,"node":"ON085","number":3925,"unit":"","street":"YUBA RIVER DR","id":"a68gfnrwg419","lat":34.022586,"long":-117.565461},"type":"Feature","geometry":{"type":"Point","coordinates":[-117.565461,34.022586]}},{"properties":{"city":"ONTARIO","streetconcat":"3926 MERCED RIVER RD","st":"CA","zip":91761,"node":"ON085","number":3926,"unit":"","street":"MERCED RIVER RD","id":"a68gfngu069m","lat":34.020818,"long":-117.564492},"type":"Feature","geometry":{"type":"Point","coordinates":[-117.564492,34.020818]}},{"properties":{"city":"ONTARIO","streetconcat":"3926 YUBA RIVER DR","st":"CA","zip":91761,"node":"ON085","number":3926,"unit":"","street":"YUBA RIVER DR","id":"a68gfnhhavj5","lat":34.02239,"long":-117.564279},"type":"Feature","geometry":{"type":"Point","coordinates":[-117.564279,34.02239]}},{"properties":{"city":"ONTARIO","streetconcat":"3977 YUBA RIVER DR","st":"CA","zip":91761,"node":"ON085","number":3977,"unit":"","street":"YUBA RIVER DR","id":"a68gfnwo43e0","lat":34.023725,"long":-117.563296},"type":"Feature","geometry":{"type":"Point","coordinates":[-117.563296,34.023725]}},{"properties":{"city":"ONTARIO","streetconcat":"3977 YUBA RIVER DR","st":"CA","zip":91761,"node":"ON085","number":3977,"unit":"","street":"YUBA RIVER DR","id":"a68gfnhde3dc","lat":34.023725,"long":-117.563296},"type":"Feature","geometry":{"type":"Point","coordinates":[-117.563296,34.023725]}},{"properties":{"city":"ONTARIO","streetconcat":"3974 SAN LORENZO RIVER RD","st":"CA","zip":91761,"node":"ON085","number":3974,"unit":"","street":"SAN LORENZO RIVER RD","id":"a68gfnmr7vje","lat":34.019468,"long":-117.564154},"type":"Feature","geometry":{"type":"Point","coordinates":[-117.564154,34.019468]}},{"properties":{"city":"ONTARIO","streetconcat":"3974 SAN LORENZO RIVER RD","st":"CA","zip":91761,"node":"ON085","number":3974,"unit":"","street":"SAN LORENZO RIVER RD","id":"a68gfnphdp82","lat":34.019468,"long":-117.564154},"type":"Feature","geometry":{"type":"Point","coordinates":[-117.564154,34.019468]}},{"properties":{"city":"ONTARIO","streetconcat":"3926 MERCED RIVER RD","st":"CA","zip":91761,"node":"ON085","number":3926,"unit":"","street":"MERCED RIVER RD","id":"a68gfnje1mgf","lat":34.020818,"long":-117.564492},"type":"Feature","geometry":{"type":"Point","coordinates":[-117.564492,34.020818]}},{"properties":{"city":"ONTARIO","streetconcat":"3926 YUBA RIVER DR","st":"CA","zip":91761,"node":"ON085","number":3926,"unit":"","street":"YUBA RIVER DR","id":"a68gfnp917aw","lat":34.02239,"long":-117.564279},"type":"Feature","geometry":{"type":"Point","coordinates":[-117.564279,34.02239]}},{"properties":{"city":"ONTARIO","streetconcat":"3926 MERCED RIVER RD","st":"CA","zip":91761,"node":"ON085","number":3926,"unit":"","street":"MERCED RIVER RD","id":"a68gfnisl2h4","lat":34.020818,"long":-117.564492},"type":"Feature","geometry":{"type":"Point","coordinates":[-117.564492,34.020818]}},{"properties":{"city":"ONTARIO","streetconcat":"3926 YUBA RIVER DR","st":"CA","zip":91761,"node":"ON085","number":3926,"unit":"","street":"YUBA RIVER DR","id":"a68gfnq8p0zw","lat":34.02239,"long":-117.564279},"type":"Feature","geometry":{"type":"Point","coordinates":[-117.564279,34.02239]}},{"properties":{"city":"ONTARIO","streetconcat":"3511 STRAWBERRY CREEK PL","st":"CA","zip":91761,"node":"ON085","number":3511,"unit":"","street":"STRAWBERRY CREEK PL","id":"a68gfnqn86gv","lat":34.020612,"long":-117.575232},"type":"Feature","geometry":{"type":"Point","coordinates":[-117.575232,34.020612]}},{"properties":{"city":"ONTARIO","streetconcat":"3511 STRAWBERRY CREEK PL","st":"CA","zip":91761,"node":"ON085","number":3511,"unit":"","street":"STRAWBERRY CREEK PL","id":"a68gfnrzqcz2","lat":34.020612,"long":-117.575232},"type":"Feature","geometry":{"type":"Point","coordinates":[-117.575232,34.020612]}},{"properties":{"city":"ONTARIO","streetconcat":"3511 STRAWBERRY CREEK PL","st":"CA","zip":91761,"node":"ON085","number":3511,"unit":"","street":"STRAWBERRY CREEK PL","id":"a68gfnpc7886","lat":34.020612,"long":-117.575232},"type":"Feature","geometry":{"type":"Point","coordinates":[-117.575232,34.020612]}},{"properties":{"city":"ONTARIO","streetconcat":"3510 STRAWBERRY CREEK PL","st":"CA","zip":91761,"node":"ON085","number":3510,"unit":"","street":"STRAWBERRY CREEK PL","id":"a68gfnqk5eoh","lat":34.020288,"long":-117.575232},"type":"Feature","geometry":{"type":"Point","coordinates":[-117.575232,34.020288]}},{"properties":{"city":"ONTARIO","streetconcat":"3510 STRAWBERRY CREEK PL","st":"CA","zip":91761,"node":"ON085","number":3510,"unit":"","street":"STRAWBERRY CREEK PL","id":"a68gfnwfo4da","lat":34.020288,"long":-117.575232},"type":"Feature","geometry":{"type":"Point","coordinates":[-117.575232,34.020288]}},{"properties":{"city":"ONTARIO","streetconcat":"3510 STRAWBERRY CREEK PL","st":"CA","zip":91761,"node":"ON085","number":3510,"unit":"","street":"STRAWBERRY CREEK PL","id":"a68gfnhnlenj","lat":34.020288,"long":-117.575232},"type":"Feature","geometry":{"type":"Point","coordinates":[-117.575232,34.020288]}},{"properties":{"city":"ONTARIO","streetconcat":"2484 HAVEN AVE","st":"CA","zip":91761,"node":"ON085","number":2484,"unit":"","street":"HAVEN AVE","id":"a68gfnntsv66","lat":33.98301,"long":-117.575729},"type":"Feature","geometry":{"type":"Point","coordinates":[-117.575729,33.98301]}},{"properties":{"city":"ONTARIO","streetconcat":"2484 HAVEN AVE","st":"CA","zip":91761,"node":"ON085","number":2484,"unit":"","street":"HAVEN AVE","id":"a68gfnw1n46r","lat":33.98301,"long":-117.575729},"type":"Feature","geometry":{"type":"Point","coordinates":[-117.575729,33.98301]}},{"properties":{"city":"ONTARIO","streetconcat":"3509 GINGERWOOD RD","st":"CA","zip":91761,"node":"ON085","number":3509,"unit":"","street":"GINGERWOOD RD","id":"a68gfni0xaz4","lat":34.01996,"long":-117.575383},"type":"Feature","geometry":{"type":"Point","coordinates":[-117.575383,34.01996]}},{"properties":{"city":"ONTARIO","streetconcat":"3509 GINGERWOOD RD","st":"CA","zip":91761,"node":"ON085","number":3509,"unit":"","street":"GINGERWOOD RD","id":"a68gfnr0mz3w","lat":34.01996,"long":-117.575383},"type":"Feature","geometry":{"type":"Point","coordinates":[-117.575383,34.01996]}},{"properties":{"city":"ONTARIO","streetconcat":"3509 GINGERWOOD RD","st":"CA","zip":91761,"node":"ON085","number":3509,"unit":"","street":"GINGERWOOD RD","id":"a68gfnlv4n2b","lat":34.01996,"long":-117.575383},"type":"Feature","geometry":{"type":"Point","coordinates":[-117.575383,34.01996]}},{"properties":{"city":"ONTARIO","streetconcat":"3509 GINGERWOOD RD","st":"CA","zip":91761,"node":"ON085","number":3509,"unit":"","street":"GINGERWOOD RD","id":"a68gfngtahic","lat":34.01996,"long":-117.575383},"type":"Feature","geometry":{"type":"Point","coordinates":[-117.575383,34.01996]}},{"properties":{"city":"ONTARIO","streetconcat":"3926 YUBA RIVER DR","st":"CA","zip":91761,"node":"ON085","number":3926,"unit":"","street":"YUBA RIVER DR","id":"a68gfnu50ffx","lat":34.02239,"long":-117.564279},"type":"Feature","geometry":{"type":"Point","coordinates":[-117.564279,34.02239]}},{"properties":{"city":"ONTARIO","streetconcat":"3926 YUBA RIVER DR","st":"CA","zip":91761,"node":"ON085","number":3926,"unit":"","street":"YUBA RIVER DR","id":"a68gfnwfm219","lat":34.02239,"long":-117.564279},"type":"Feature","geometry":{"type":"Point","coordinates":[-117.564279,34.02239]}},{"properties":{"city":"ONTARIO","streetconcat":"3926 MERCED RIVER RD","st":"CA","zip":91761,"node":"ON085","number":3926,"unit":"","street":"MERCED RIVER RD","id":"a68gfnm745a2","lat":34.020818,"long":-117.564492},"type":"Feature","geometry":{"type":"Point","coordinates":[-117.564492,34.020818]}},{"properties":{"city":"ONTARIO","streetconcat":"3926 MERCED RIVER RD","st":"CA","zip":91761,"node":"ON085","number":3926,"unit":"","street":"MERCED RIVER RD","id":"a68gfni0y6xt","lat":34.020818,"long":-117.564492},"type":"Feature","geometry":{"type":"Point","coordinates":[-117.564492,34.020818]}},{"properties":{"city":"ONTARIO","streetconcat":"2484 HAVEN AVE","st":"CA","zip":91761,"node":"ON085","number":2484,"unit":"","street":"HAVEN AVE","id":"a68gfnn8ng38","lat":33.98301,"long":-117.575729},"type":"Feature","geometry":{"type":"Point","coordinates":[-117.575729,33.98301]}},{"properties":{"city":"ONTARIO","streetconcat":"3926 YUBA RIVER DR","st":"CA","zip":91761,"node":"ON085","number":3926,"unit":"","street":"YUBA RIVER DR","id":"a68gfnvhc1y9","lat":34.02239,"long":-117.564279},"type":"Feature","geometry":{"type":"Point","coordinates":[-117.564279,34.02239]}},{"properties":{"city":"ONTARIO","streetconcat":"3509 GINGERWOOD RD","st":"CA","zip":91761,"node":"ON085","number":3509,"unit":"","street":"GINGERWOOD RD","id":"a68gfnw04m5w","lat":34.01996,"long":-117.575383},"type":"Feature","geometry":{"type":"Point","coordinates":[-117.575383,34.01996]}},{"properties":{"city":"ONTARIO","streetconcat":"3509 GINGERWOOD RD","st":"CA","zip":91761,"node":"ON085","number":3509,"unit":"","street":"GINGERWOOD RD","id":"a68gfnmn80m0","lat":34.01996,"long":-117.575383},"type":"Feature","geometry":{"type":"Point","coordinates":[-117.575383,34.01996]}},{"properties":{"city":"ONTARIO","streetconcat":"3509 GINGERWOOD RD","st":"CA","zip":91761,"node":"ON085","number":3509,"unit":"","street":"GINGERWOOD RD","id":"a68gfnqtmk5l","lat":34.01996,"long":-117.575383},"type":"Feature","geometry":{"type":"Point","coordinates":[-117.575383,34.01996]}},{"properties":{"city":"ONTARIO","streetconcat":"3927 COLORADO RIVER RD","st":"CA","zip":91761,"node":"ON085","number":3927,"unit":"","street":"COLORADO RIVER RD","id":"a68gfnkwtwmm","lat":34.021801,"long":-117.565325},"type":"Feature","geometry":{"type":"Point","coordinates":[-117.565325,34.021801]}},{"properties":{"city":"ONTARIO","streetconcat":"3509 GINGERWOOD RD","st":"CA","zip":91761,"node":"ON085","number":3509,"unit":"","street":"GINGERWOOD RD","id":"a68gfnkoh24k","lat":34.01996,"long":-117.575383},"type":"Feature","geometry":{"type":"Point","coordinates":[-117.575383,34.01996]}},{"properties":{"city":"ONTARIO","streetconcat":"3927 COLORADO RIVER RD","st":"CA","zip":91761,"node":"ON085","number":3927,"unit":"","street":"COLORADO RIVER RD","id":"a68gfnn4uozm","lat":34.021801,"long":-117.565325},"type":"Feature","geometry":{"type":"Point","coordinates":[-117.565325,34.021801]}},{"properties":{"city":"ONTARIO","streetconcat":"3509 GINGERWOOD RD","st":"CA","zip":91761,"node":"ON085","number":3509,"unit":"","street":"GINGERWOOD RD","id":"a68gfnqqlsz8","lat":34.01996,"long":-117.575383},"type":"Feature","geometry":{"type":"Point","coordinates":[-117.575383,34.01996]}},{"properties":{"city":"ONTARIO","streetconcat":"3927 COLORADO RIVER RD","st":"CA","zip":91761,"node":"ON085","number":3927,"unit":"","street":"COLORADO RIVER RD","id":"a68gfnklttwi","lat":34.021801,"long":-117.565325},"type":"Feature","geometry":{"type":"Point","coordinates":[-117.565325,34.021801]}},{"properties":{"city":"ONTARIO","streetconcat":"3927 COLORADO RIVER RD","st":"CA","zip":91761,"node":"ON085","number":3927,"unit":"","street":"COLORADO RIVER RD","id":"a68gfnwi3oxb","lat":34.021801,"long":-117.565325},"type":"Feature","geometry":{"type":"Point","coordinates":[-117.565325,34.021801]}},{"properties":{"city":"ONTARIO","streetconcat":"3527 GINGERWOOD RD","st":"CA","zip":91761,"node":"ON085","number":3527,"unit":"","street":"GINGERWOOD RD","id":"a68gfnvqil4u","lat":34.019954,"long":-117.574954},"type":"Feature","geometry":{"type":"Point","coordinates":[-117.574954,34.019954]}},{"properties":{"city":"ONTARIO","streetconcat":"2906 HOLCOMB CREEK PL","st":"CA","zip":91761,"node":"ON085","number":2906,"unit":"","street":"HOLCOMB CREEK PL","id":"a68gfnhgxf6w","lat":34.021248,"long":-117.56613},"type":"Feature","geometry":{"type":"Point","coordinates":[-117.56613,34.021248]}},{"properties":{"city":"ONTARIO","streetconcat":"2906 HOLCOMB CREEK PL","st":"CA","zip":91761,"node":"ON085","number":2906,"unit":"","street":"HOLCOMB CREEK PL","id":"a68gfnu8ay6j","lat":34.021248,"long":-117.56613},"type":"Feature","geometry":{"type":"Point","coordinates":[-117.56613,34.021248]}},{"properties":{"city":"ONTARIO","streetconcat":"3527 GINGERWOOD RD","st":"CA","zip":91761,"node":"ON085","number":3527,"unit":"","street":"GINGERWOOD RD","id":"a68gfnwvn26r","lat":34.019954,"long":-117.574954},"type":"Feature","geometry":{"type":"Point","coordinates":[-117.574954,34.019954]}},{"properties":{"city":"ONTARIO","streetconcat":"3527 GINGERWOOD RD","st":"CA","zip":91761,"node":"ON085","number":3527,"unit":"","street":"GINGERWOOD RD","id":"a68gfnlcvqfb","lat":34.019954,"long":-117.574954},"type":"Feature","geometry":{"type":"Point","coordinates":[-117.574954,34.019954]}},{"properties":{"city":"ONTARIO","streetconcat":"2860 LAURELTREE DR","st":"CA","zip":91761,"node":"ON085","number":2860,"unit":"","street":"LAURELTREE DR","id":"a68gfnryct7y","lat":34.021376,"long":-117.57993},"type":"Feature","geometry":{"type":"Point","coordinates":[-117.57993,34.021376]}},{"properties":{"city":"ONTARIO","streetconcat":"2860 LAURELTREE DR","st":"CA","zip":91761,"node":"ON085","number":2860,"unit":"","street":"LAURELTREE DR","id":"a68gfnk3esjq","lat":34.021376,"long":-117.57993},"type":"Feature","geometry":{"type":"Point","coordinates":[-117.57993,34.021376]}},{"properties":{"city":"ONTARIO","streetconcat":"2860 LAURELTREE DR","st":"CA","zip":91761,"node":"ON085","number":2860,"unit":"","street":"LAURELTREE DR","id":"a68gfnlyux8x","lat":34.021376,"long":-117.57993},"type":"Feature","geometry":{"type":"Point","coordinates":[-117.57993,34.021376]}},{"properties":{"city":"ONTARIO","streetconcat":"3410 GINGERWOOD RD","st":"CA","zip":91761,"node":"ON085","number":3410,"unit":"","street":"GINGERWOOD RD","id":"a68gfnjtpyq8","lat":34.020022,"long":-117.57669},"type":"Feature","geometry":{"type":"Point","coordinates":[-117.57669,34.020022]}},{"properties":{"city":"ONTARIO","streetconcat":"3505 STRAWBERRY CREEK PL","st":"CA","zip":91761,"node":"ON085","number":3505,"unit":"","street":"STRAWBERRY CREEK PL","id":"a68gfnil9n94","lat":34.020612,"long":-117.575352},"type":"Feature","geometry":{"type":"Point","coordinates":[-117.575352,34.020612]}},{"properties":{"city":"ONTARIO","streetconcat":"3505 STRAWBERRY CREEK PL","st":"CA","zip":91761,"node":"ON085","number":3505,"unit":"","street":"STRAWBERRY CREEK PL","id":"a68gfnww0xk0","lat":34.020612,"long":-117.575352},"type":"Feature","geometry":{"type":"Point","coordinates":[-117.575352,34.020612]}},{"properties":{"city":"ONTARIO","streetconcat":"3410 GINGERWOOD RD","st":"CA","zip":91761,"node":"ON085","number":3410,"unit":"","street":"GINGERWOOD RD","id":"a68gfnj6wb5b","lat":34.020022,"long":-117.57669},"type":"Feature","geometry":{"type":"Point","coordinates":[-117.57669,34.020022]}},{"properties":{"city":"ONTARIO","streetconcat":"3410 MORNINGWOOD CT","st":"CA","zip":91761,"node":"ON085","number":3410,"unit":"","street":"MORNINGWOOD CT","id":"a68gfnj0riak","lat":34.020734,"long":-117.576741},"type":"Feature","geometry":{"type":"Point","coordinates":[-117.576741,34.020734]}},{"properties":{"city":"ONTARIO","streetconcat":"3410 MORNINGWOOD CT","st":"CA","zip":91761,"node":"ON085","number":3410,"unit":"","street":"MORNINGWOOD CT","id":"a68gfnt0rvts","lat":34.020734,"long":-117.576741},"type":"Feature","geometry":{"type":"Point","coordinates":[-117.576741,34.020734]}},{"properties":{"city":"ONTARIO","streetconcat":"2907 HOLCOMB CREEK PL","st":"CA","zip":91761,"node":"ON085","number":2907,"unit":"","street":"HOLCOMB CREEK PL","id":"a68gfns0iqyf","lat":34.021288,"long":-117.566049},"type":"Feature","geometry":{"type":"Point","coordinates":[-117.566049,34.021288]}},{"properties":{"city":"ONTARIO","streetconcat":"2907 HOLCOMB CREEK PL","st":"CA","zip":91761,"node":"ON085","number":2907,"unit":"","street":"HOLCOMB CREEK PL","id":"a68gfnk26mby","lat":34.021288,"long":-117.566049},"type":"Feature","geometry":{"type":"Point","coordinates":[-117.566049,34.021288]}},{"properties":{"city":"ONTARIO","streetconcat":"3927 COLORADO RIVER RD","st":"CA","zip":91761,"node":"ON085","number":3927,"unit":"","street":"COLORADO RIVER RD","id":"a68gfnjhfc95","lat":34.021801,"long":-117.565325},"type":"Feature","geometry":{"type":"Point","coordinates":[-117.565325,34.021801]}},{"properties":{"city":"ONTARIO","streetconcat":"2904 SAINT TROPEZ DR","st":"CA","zip":91761,"node":"ON085","number":2904,"unit":"","street":"SAINT TROPEZ DR","id":"a68gfnu4s2q3","lat":34.020544,"long":-117.577034},"type":"Feature","geometry":{"type":"Point","coordinates":[-117.577034,34.020544]}},{"properties":{"city":"ONTARIO","streetconcat":"3410 MORNINGWOOD CT","st":"CA","zip":91761,"node":"ON085","number":3410,"unit":"","street":"MORNINGWOOD CT","id":"a68gfnie2e09","lat":34.020734,"long":-117.576741},"type":"Feature","geometry":{"type":"Point","coordinates":[-117.576741,34.020734]}},{"properties":{"city":"ONTARIO","streetconcat":"3411 CEDARGLEN RD","st":"CA","zip":91761,"node":"ON085","number":3411,"unit":"","street":"CEDARGLEN RD","id":"a68gfnlk3u2h","lat":34.021736,"long":-117.576661},"type":"Feature","geometry":{"type":"Point","coordinates":[-117.576661,34.021736]}},{"properties":{"city":"ONTARIO","streetconcat":"2904 SAINT TROPEZ DR","st":"CA","zip":91761,"node":"ON085","number":2904,"unit":"","street":"SAINT TROPEZ DR","id":"a68gfnhhjj92","lat":34.020544,"long":-117.577034},"type":"Feature","geometry":{"type":"Point","coordinates":[-117.577034,34.020544]}},{"properties":{"city":"ONTARIO","streetconcat":"2904 SAINT TROPEZ DR","st":"CA","zip":91761,"node":"ON085","number":2904,"unit":"","street":"SAINT TROPEZ DR","id":"a68gfnjffjy9","lat":34.020544,"long":-117.577034},"type":"Feature","geometry":{"type":"Point","coordinates":[-117.577034,34.020544]}},{"properties":{"city":"ONTARIO","streetconcat":"2903 SAINT TROPEZ DR","st":"CA","zip":91761,"node":"ON085","number":2903,"unit":"","street":"SAINT TROPEZ DR","id":"a68gfnnkse5w","lat":34.020612,"long":-117.576764},"type":"Feature","geometry":{"type":"Point","coordinates":[-117.576764,34.020612]}},{"properties":{"city":"ONTARIO","streetconcat":"3950 SAN LORENZO RIVER RD","st":"CA","zip":91761,"node":"ON085","number":3950,"unit":"","street":"SAN LORENZO RIVER RD","id":"a68gfnngrb2k","lat":34.019468,"long":-117.564644},"type":"Feature","geometry":{"type":"Point","coordinates":[-117.564644,34.019468]}},{"properties":{"city":"ONTARIO","streetconcat":"2907 HOLCOMB CREEK PL","st":"CA","zip":91761,"node":"ON085","number":2907,"unit":"","street":"HOLCOMB CREEK PL","id":"a68gfnu0bumv","lat":34.021288,"long":-117.566049},"type":"Feature","geometry":{"type":"Point","coordinates":[-117.566049,34.021288]}},{"properties":{"city":"ONTARIO","streetconcat":"2907 HOLCOMB CREEK PL","st":"CA","zip":91761,"node":"ON085","number":2907,"unit":"","street":"HOLCOMB CREEK PL","id":"a68gfnqnlt9h","lat":34.021288,"long":-117.566049},"type":"Feature","geometry":{"type":"Point","coordinates":[-117.566049,34.021288]}},{"properties":{"city":"ONTARIO","streetconcat":"2907 HOLCOMB CREEK PL","st":"CA","zip":91761,"node":"ON085","number":2907,"unit":"","street":"HOLCOMB CREEK PL","id":"a68gfnspmcpd","lat":34.021288,"long":-117.566049},"type":"Feature","geometry":{"type":"Point","coordinates":[-117.566049,34.021288]}},{"properties":{"city":"ONTARIO","streetconcat":"2903 SAINT TROPEZ DR","st":"CA","zip":91761,"node":"ON085","number":2903,"unit":"","street":"SAINT TROPEZ DR","id":"a68gfnorypk0","lat":34.020612,"long":-117.576764},"type":"Feature","geometry":{"type":"Point","coordinates":[-117.576764,34.020612]}},{"properties":{"city":"ONTARIO","streetconcat":"2903 SAINT TROPEZ DR","st":"CA","zip":91761,"node":"ON085","number":2903,"unit":"","street":"SAINT TROPEZ DR","id":"a68gfnh55jtd","lat":34.020612,"long":-117.576764},"type":"Feature","geometry":{"type":"Point","coordinates":[-117.576764,34.020612]}},{"properties":{"city":"ONTARIO","streetconcat":"3974 SAN LORENZO RIVER RD","st":"CA","zip":91761,"node":"ON085","number":3974,"unit":"","street":"SAN LORENZO RIVER RD","id":"a68gfnjvkwed","lat":34.019468,"long":-117.564154},"type":"Feature","geometry":{"type":"Point","coordinates":[-117.564154,34.019468]}},{"properties":{"city":"ONTARIO","streetconcat":"3974 SAN LORENZO RIVER RD","st":"CA","zip":91761,"node":"ON085","number":3974,"unit":"","street":"SAN LORENZO RIVER RD","id":"a68gfnvpvhf8","lat":34.019468,"long":-117.564154},"type":"Feature","geometry":{"type":"Point","coordinates":[-117.564154,34.019468]}},{"properties":{"city":"ONTARIO","streetconcat":"2902 KINGS RIVER LN","st":"CA","zip":91761,"node":"ON085","number":2902,"unit":"","street":"KINGS RIVER LN","id":"a68gfnqpb30e","lat":34.020977,"long":-117.566919},"type":"Feature","geometry":{"type":"Point","coordinates":[-117.566919,34.020977]}},{"properties":{"city":"ONTARIO","streetconcat":"2902 KINGS RIVER LN","st":"CA","zip":91761,"node":"ON085","number":2902,"unit":"","street":"KINGS RIVER LN","id":"a68gfnp2v1gr","lat":34.020977,"long":-117.566919},"type":"Feature","geometry":{"type":"Point","coordinates":[-117.566919,34.020977]}},{"properties":{"city":"ONTARIO","streetconcat":"3411 MORNINGWOOD CT","st":"CA","zip":91761,"node":"ON085","number":3411,"unit":"","street":"MORNINGWOOD CT","id":"a68gfnr11756","lat":34.020986,"long":-117.576741},"type":"Feature","geometry":{"type":"Point","coordinates":[-117.576741,34.020986]}},{"properties":{"city":"ONTARIO","streetconcat":"3938 MERCED RIVER RD","st":"CA","zip":91761,"node":"ON085","number":3938,"unit":"","street":"MERCED RIVER RD","id":"a68gfnnwlhrv","lat":34.020818,"long":-117.564305},"type":"Feature","geometry":{"type":"Point","coordinates":[-117.564305,34.020818]}},{"properties":{"city":"ONTARIO","streetconcat":"2902 KINGS RIVER LN","st":"CA","zip":91761,"node":"ON085","number":2902,"unit":"","street":"KINGS RIVER LN","id":"a68gfnkgcl7e","lat":34.020977,"long":-117.566919},"type":"Feature","geometry":{"type":"Point","coordinates":[-117.566919,34.020977]}},{"properties":{"city":"ONTARIO","streetconcat":"2902 KINGS RIVER LN","st":"CA","zip":91761,"node":"ON085","number":2902,"unit":"","street":"KINGS RIVER LN","id":"a68gfnwn95yl","lat":34.020977,"long":-117.566919},"type":"Feature","geometry":{"type":"Point","coordinates":[-117.566919,34.020977]}},{"properties":{"city":"ONTARIO","streetconcat":"2902 TRUCKEE RIVER RD","st":"CA","zip":91761,"node":"ON085","number":2902,"unit":"","street":"TRUCKEE RIVER RD","id":"a68gfnnr0xhj","lat":34.021094,"long":-117.565217},"type":"Feature","geometry":{"type":"Point","coordinates":[-117.565217,34.021094]}},{"properties":{"city":"ONTARIO","streetconcat":"3927 COLORADO RIVER RD","st":"CA","zip":91761,"node":"ON085","number":3927,"unit":"","street":"COLORADO RIVER RD","id":"a68gfnn1o8ma","lat":34.021801,"long":-117.565325},"type":"Feature","geometry":{"type":"Point","coordinates":[-117.565325,34.021801]}},{"properties":{"city":"ONTARIO","streetconcat":"3411 CEDARGLEN RD","st":"CA","zip":91761,"node":"ON085","number":3411,"unit":"","street":"CEDARGLEN RD","id":"a68gfns330g5","lat":34.021736,"long":-117.576661},"type":"Feature","geometry":{"type":"Point","coordinates":[-117.576661,34.021736]}},{"properties":{"city":"ONTARIO","streetconcat":"3937 SAN LORENZO RIVER RD","st":"CA","zip":91761,"node":"ON085","number":3937,"unit":"","street":"SAN LORENZO RIVER RD","id":"a68gfngk8eni","lat":34.019792,"long":-117.564929},"type":"Feature","geometry":{"type":"Point","coordinates":[-117.564929,34.019792]}},{"properties":{"city":"ONTARIO","streetconcat":"3938 COLORADO RIVER RD","st":"CA","zip":91761,"node":"ON085","number":3938,"unit":"","street":"COLORADO RIVER RD","id":"a68gfnhw86r8","lat":34.021528,"long":-117.564167},"type":"Feature","geometry":{"type":"Point","coordinates":[-117.564167,34.021528]}},{"properties":{"city":"ONTARIO","streetconcat":"3938 MERCED RIVER RD","st":"CA","zip":91761,"node":"ON085","number":3938,"unit":"","street":"MERCED RIVER RD","id":"a68gfnhdldnf","lat":34.020818,"long":-117.564305},"type":"Feature","geometry":{"type":"Point","coordinates":[-117.564305,34.020818]}},{"properties":{"city":"ONTARIO","streetconcat":"3938 COLORADO RIVER RD","st":"CA","zip":91761,"node":"ON085","number":3938,"unit":"","street":"COLORADO RIVER RD","id":"a68gfnklpuas","lat":34.021528,"long":-117.564167},"type":"Feature","geometry":{"type":"Point","coordinates":[-117.564167,34.021528]}},{"properties":{"city":"ONTARIO","streetconcat":"3411 CEDARGLEN RD","st":"CA","zip":91761,"node":"ON085","number":3411,"unit":"","street":"CEDARGLEN RD","id":"a68gfnogmh68","lat":34.021736,"long":-117.576661},"type":"Feature","geometry":{"type":"Point","coordinates":[-117.576661,34.021736]}},{"properties":{"city":"ONTARIO","streetconcat":"3411 MORNINGWOOD CT","st":"CA","zip":91761,"node":"ON085","number":3411,"unit":"","street":"MORNINGWOOD CT","id":"a68gfnkek817","lat":34.020986,"long":-117.576741},"type":"Feature","geometry":{"type":"Point","coordinates":[-117.576741,34.020986]}},{"properties":{"city":"ONTARIO","streetconcat":"2907 HOLCOMB CREEK PL","st":"CA","zip":91761,"node":"ON085","number":2907,"unit":"","street":"HOLCOMB CREEK PL","id":"a68gfnholyi4","lat":34.021288,"long":-117.566049},"type":"Feature","geometry":{"type":"Point","coordinates":[-117.566049,34.021288]}},{"properties":{"city":"ONTARIO","streetconcat":"2907 HOLCOMB CREEK PL","st":"CA","zip":91761,"node":"ON085","number":2907,"unit":"","street":"HOLCOMB CREEK PL","id":"a68gfnqojxyj","lat":0,"long":0},"type":"Feature","geometry":{"type":"Point","coordinates":[0.0,0.0]}},{"properties":{"city":"ONTARIO","streetconcat":"2907 HOLCOMB CREEK PL","st":"CA","zip":91761,"node":"ON085","number":2907,"unit":"","street":"HOLCOMB CREEK PL","id":"a68gfnw8whjr","lat":0,"long":0},"type":"Feature","geometry":{"type":"Point","coordinates":[0.0,0.0]}},{"properties":{"city":"ONTARIO","streetconcat":"2907 HOLCOMB CREEK PL","st":"CA","zip":91761,"node":"ON085","number":2907,"unit":"","street":"HOLCOMB CREEK PL","id":"a68gfnmuhfio","lat":0,"long":0},"type":"Feature","geometry":{"type":"Point","coordinates":[0.0,0.0]}},{"properties":{"city":"ONTARIO","streetconcat":"2902 TRUCKEE RIVER RD","st":"CA","zip":91761,"node":"ON085","number":2902,"unit":"","street":"TRUCKEE RIVER RD","id":"a68gfnqb71in","lat":0,"long":0},"type":"Feature","geometry":{"type":"Point","coordinates":[0.0,0.0]}},{"properties":{"city":"ONTARIO","streetconcat":"3974 SAN LORENZO RIVER RD","st":"CA","zip":91761,"node":"ON085","number":3974,"unit":"","street":"SAN LORENZO RIVER RD","id":"a68gfnn2tfm7","lat":0,"long":0},"type":"Feature","geometry":{"type":"Point","coordinates":[0.0,0.0]}},{"properties":{"city":"ONTARIO","streetconcat":"3927 COLORADO RIVER RD","st":"CA","zip":91761,"node":"ON085","number":3927,"unit":"","street":"COLORADO RIVER RD","id":"a68gfnla6b85","lat":0,"long":0},"type":"Feature","geometry":{"type":"Point","coordinates":[0.0,0.0]}},{"properties":{"city":"ONTARIO","streetconcat":"3974 SAN LORENZO RIVER RD","st":"CA","zip":91761,"node":"ON085","number":3974,"unit":"","street":"SAN LORENZO RIVER RD","id":"a68gfnk3rjho","lat":0,"long":0},"type":"Feature","geometry":{"type":"Point","coordinates":[0.0,0.0]}},{"properties":{"city":"ONTARIO","streetconcat":"3972 YUBA RIVER DR","st":"CA","zip":91761,"node":"ON085","number":3972,"unit":"","street":"YUBA RIVER DR","id":"a68gfnpwj9lz","lat":0,"long":0},"type":"Feature","geometry":{"type":"Point","coordinates":[0.0,0.0]}},{"properties":{"city":"ONTARIO","streetconcat":"3972 YUBA RIVER DR","st":"CA","zip":91761,"node":"ON085","number":3972,"unit":"","street":"YUBA RIVER DR","id":"a68gfnhiaxxd","lat":0,"long":0},"type":"Feature","geometry":{"type":"Point","coordinates":[0.0,0.0]}},{"properties":{"city":"ONTARIO","streetconcat":"3972 YUBA RIVER DR","st":"CA","zip":91761,"node":"ON085","number":3972,"unit":"","street":"YUBA RIVER DR","id":"a68gfnj7te9m","lat":0,"long":0},"type":"Feature","geometry":{"type":"Point","coordinates":[0.0,0.0]}},{"properties":{"city":"ONTARIO","streetconcat":"3969 YUBA RIVER DR","st":"CA","zip":91761,"node":"ON085","number":3969,"unit":"","street":"YUBA RIVER DR","id":"a68gfntzvupt","lat":0,"long":0},"type":"Feature","geometry":{"type":"Point","coordinates":[0.0,0.0]}},{"properties":{"city":"ONTARIO","streetconcat":"2902 TRUCKEE RIVER RD","st":"CA","zip":91761,"node":"ON085","number":2902,"unit":"","street":"TRUCKEE RIVER RD","id":"a68gfnokeasi","lat":0,"long":0},"type":"Feature","geometry":{"type":"Point","coordinates":[0.0,0.0]}},{"properties":{"city":"ONTARIO","streetconcat":"3969 YUBA RIVER DR","st":"CA","zip":91761,"node":"ON085","number":3969,"unit":"","street":"YUBA RIVER DR","id":"a68gfnpm5wgt","lat":0,"long":0},"type":"Feature","geometry":{"type":"Point","coordinates":[0.0,0.0]}},{"properties":{"city":"ONTARIO","streetconcat":"3938 COLORADO RIVER RD","st":"CA","zip":91761,"node":"ON085","number":3938,"unit":"","street":"COLORADO RIVER RD","id":"a68gfnpe0iqd","lat":0,"long":0},"type":"Feature","geometry":{"type":"Point","coordinates":[0.0,0.0]}},{"properties":{"city":"ONTARIO","streetconcat":"3969 YUBA RIVER DR","st":"CA","zip":91761,"node":"ON085","number":3969,"unit":"","street":"YUBA RIVER DR","id":"a68gfnhlukoe","lat":0,"long":0},"type":"Feature","geometry":{"type":"Point","coordinates":[0.0,0.0]}},{"properties":{"city":"ONTARIO","streetconcat":"3927 COLORADO RIVER RD","st":"CA","zip":91761,"node":"ON085","number":3927,"unit":"","street":"COLORADO RIVER RD","id":"a68gfnwkxm33","lat":0,"long":0},"type":"Feature","geometry":{"type":"Point","coordinates":[0.0,0.0]}},{"properties":{"city":"ONTARIO","streetconcat":"3505 STRAWBERRY CREEK PL","st":"CA","zip":91761,"node":"ON085","number":3505,"unit":"","street":"STRAWBERRY CREEK PL","id":"a68gfnh7i64w","lat":0,"long":0},"type":"Feature","geometry":{"type":"Point","coordinates":[0.0,0.0]}},{"properties":{"city":"ONTARIO","streetconcat":"3927 COLORADO RIVER RD","st":"CA","zip":91761,"node":"ON085","number":3927,"unit":"","street":"COLORADO RIVER RD","id":"a68gfnqq6awo","lat":0,"long":0},"type":"Feature","geometry":{"type":"Point","coordinates":[0.0,0.0]}},{"properties":{"city":"ONTARIO","streetconcat":"3967 SAN LORENZO RIVER RD","st":"CA","zip":91761,"node":"ON085","number":3967,"unit":"","street":"SAN LORENZO RIVER RD","id":"a68gfntt9eu9","lat":0,"long":0},"type":"Feature","geometry":{"type":"Point","coordinates":[0.0,0.0]}},{"properties":{"city":"ONTARIO","streetconcat":"2930 TUOLUMNE PL","st":"CA","zip":91761,"node":"ON085","number":2930,"unit":"","street":"TUOLUMNE PL","id":"a68gfntrzrx9","lat":0,"long":0},"type":"Feature","geometry":{"type":"Point","coordinates":[0.0,0.0]}},{"properties":{"city":"ONTARIO","streetconcat":"3967 SAN LORENZO RIVER RD","st":"CA","zip":91761,"node":"ON085","number":3967,"unit":"","street":"SAN LORENZO RIVER RD","id":"a68gfnodprqb","lat":0,"long":0},"type":"Feature","geometry":{"type":"Point","coordinates":[0.0,0.0]}},{"properties":{"city":"ONTARIO","streetconcat":"3928 YUBA RIVER DR","st":"CA","zip":91761,"node":"ON085","number":3928,"unit":"","street":"YUBA RIVER DR","id":"a68gfnpqviu2","lat":0,"long":0},"type":"Feature","geometry":{"type":"Point","coordinates":[0.0,0.0]}},{"properties":{"city":"ONTARIO","streetconcat":"3967 SAN LORENZO RIVER RD","st":"CA","zip":91761,"node":"ON085","number":3967,"unit":"","street":"SAN LORENZO RIVER RD","id":"a68gfntyf4wt","lat":34.019792,"long":-117.564317},"type":"Feature","geometry":{"type":"Point","coordinates":[-117.564317,34.019792]}},{"properties":{"city":"ONTARIO","streetconcat":"3966 COLORADO RIVER RD","st":"CA","zip":91761,"node":"ON085","number":3966,"unit":"","street":"COLORADO RIVER RD","id":"a68gfnmcn6ug","lat":34.021521,"long":-117.563548},"type":"Feature","geometry":{"type":"Point","coordinates":[-117.563548,34.021521]}},{"properties":{"city":"ONTARIO","streetconcat":"3966 COLORADO RIVER RD","st":"CA","zip":91761,"node":"ON085","number":3966,"unit":"","street":"COLORADO RIVER RD","id":"a68gfnku93e5","lat":34.021521,"long":-117.563548},"type":"Feature","geometry":{"type":"Point","coordinates":[-117.563548,34.021521]}},{"properties":{"city":"ONTARIO","streetconcat":"3966 COLORADO RIVER RD","st":"CA","zip":91761,"node":"ON085","number":3966,"unit":"","street":"COLORADO RIVER RD","id":"a68gfnks2fuv","lat":34.021521,"long":-117.563548},"type":"Feature","geometry":{"type":"Point","coordinates":[-117.563548,34.021521]}},{"properties":{"city":"ONTARIO","streetconcat":"3966 COLORADO RIVER RD","st":"CA","zip":91761,"node":"ON085","number":3966,"unit":"","street":"COLORADO RIVER RD","id":"a68gfnmcdl15","lat":34.021521,"long":-117.563548},"type":"Feature","geometry":{"type":"Point","coordinates":[-117.563548,34.021521]}},{"properties":{"city":"ONTARIO","streetconcat":"3966 COLORADO RIVER RD","st":"CA","zip":91761,"node":"ON085","number":3966,"unit":"","street":"COLORADO RIVER RD","id":"a68gfnt0bwz6","lat":34.021521,"long":-117.563548},"type":"Feature","geometry":{"type":"Point","coordinates":[-117.563548,34.021521]}},{"properties":{"city":"ONTARIO","streetconcat":"3966 COLORADO RIVER RD","st":"CA","zip":91761,"node":"ON085","number":3966,"unit":"","street":"COLORADO RIVER RD","id":"a68gfnsiu54o","lat":34.021521,"long":-117.563548},"type":"Feature","geometry":{"type":"Point","coordinates":[-117.563548,34.021521]}},{"properties":{"city":"ONTARIO","streetconcat":"2902 KINGS RIVER LN","st":"CA","zip":91761,"node":"ON085","number":2902,"unit":"","street":"KINGS RIVER LN","id":"a68gfnuzhiul","lat":34.020977,"long":-117.566919},"type":"Feature","geometry":{"type":"Point","coordinates":[-117.566919,34.020977]}},{"properties":{"city":"ONTARIO","streetconcat":"2902 HOLCOMB CREEK PL","st":"CA","zip":91761,"node":"ON085","number":2902,"unit":"","street":"HOLCOMB CREEK PL","id":"a68gfnnyi032","lat":34.021261,"long":-117.566128},"type":"Feature","geometry":{"type":"Point","coordinates":[-117.566128,34.021261]}},{"properties":{"city":"ONTARIO","streetconcat":"2902 HOLCOMB CREEK PL","st":"CA","zip":91761,"node":"ON085","number":2902,"unit":"","street":"HOLCOMB CREEK PL","id":"a68gfno0757k","lat":34.021261,"long":-117.566128},"type":"Feature","geometry":{"type":"Point","coordinates":[-117.566128,34.021261]}},{"properties":{"city":"ONTARIO","streetconcat":"2902 HOLCOMB CREEK PL","st":"CA","zip":91761,"node":"ON085","number":2902,"unit":"","street":"HOLCOMB CREEK PL","id":"a68gfnqocy7t","lat":34.021261,"long":-117.566128},"type":"Feature","geometry":{"type":"Point","coordinates":[-117.566128,34.021261]}},{"properties":{"city":"ONTARIO","streetconcat":"2901 SAINT TROPEZ DR","st":"CA","zip":91761,"node":"ON085","number":2901,"unit":"","street":"SAINT TROPEZ DR","id":"a68gfnimn33d","lat":34.020729,"long":-117.576794},"type":"Feature","geometry":{"type":"Point","coordinates":[-117.576794,34.020729]}},{"properties":{"city":"ONTARIO","streetconcat":"2901 SAINT TROPEZ DR","st":"CA","zip":91761,"node":"ON085","number":2901,"unit":"","street":"SAINT TROPEZ DR","id":"a68gfngseka4","lat":34.020729,"long":-117.576794},"type":"Feature","geometry":{"type":"Point","coordinates":[-117.576794,34.020729]}},{"properties":{"city":"ONTARIO","streetconcat":"2901 SAINT TROPEZ DR","st":"CA","zip":91761,"node":"ON085","number":2901,"unit":"","street":"SAINT TROPEZ DR","id":"a68gfnm5ppuj","lat":34.020729,"long":-117.576794},"type":"Feature","geometry":{"type":"Point","coordinates":[-117.576794,34.020729]}},{"properties":{"city":"ONTARIO","streetconcat":"3962 SAN LORENZO RIVER RD","st":"CA","zip":91761,"node":"ON085","number":3962,"unit":"","street":"SAN LORENZO RIVER RD","id":"a68gfnkjhd47","lat":34.019468,"long":-117.564399},"type":"Feature","geometry":{"type":"Point","coordinates":[-117.564399,34.019468]}},{"properties":{"city":"ONTARIO","streetconcat":"3950 MERCED RIVER RD","st":"CA","zip":91761,"node":"ON085","number":3950,"unit":"","street":"MERCED RIVER RD","id":"a68gfnnrfghe","lat":34.020818,"long":-117.564118},"type":"Feature","geometry":{"type":"Point","coordinates":[-117.564118,34.020818]}},{"properties":{"city":"ONTARIO","streetconcat":"3962 AMERICAN RIVER RD","st":"CA","zip":91761,"node":"ON085","number":3962,"unit":"","street":"AMERICAN RIVER RD","id":"a68gfnnr4uqc","lat":34.02018,"long":-117.564152},"type":"Feature","geometry":{"type":"Point","coordinates":[-117.564152,34.02018]}},{"properties":{"city":"ONTARIO","streetconcat":"3928 YUBA RIVER DR","st":"CA","zip":91761,"node":"ON085","number":3928,"unit":"","street":"YUBA RIVER DR","id":"a68gfnklxedi","lat":34.022425,"long":-117.56421},"type":"Feature","geometry":{"type":"Point","coordinates":[-117.56421,34.022425]}},{"properties":{"city":"ONTARIO","streetconcat":"3928 YUBA RIVER DR","st":"CA","zip":91761,"node":"ON085","number":3928,"unit":"","street":"YUBA RIVER DR","id":"a68gfnqbjjxw","lat":34.022425,"long":-117.56421},"type":"Feature","geometry":{"type":"Point","coordinates":[-117.56421,34.022425]}},{"properties":{"city":"ONTARIO","streetconcat":"3928 YUBA RIVER DR","st":"CA","zip":91761,"node":"ON085","number":3928,"unit":"","street":"YUBA RIVER DR","id":"a68gfnijnfw6","lat":34.022425,"long":-117.56421},"type":"Feature","geometry":{"type":"Point","coordinates":[-117.56421,34.022425]}},{"properties":{"city":"ONTARIO","streetconcat":"3928 YUBA RIVER DR","st":"CA","zip":91761,"node":"ON085","number":3928,"unit":"","street":"YUBA RIVER DR","id":"a68gfnq9xifa","lat":34.022425,"long":-117.56421},"type":"Feature","geometry":{"type":"Point","coordinates":[-117.56421,34.022425]}},{"properties":{"city":"ONTARIO","streetconcat":"3928 YUBA RIVER DR","st":"CA","zip":91761,"node":"ON085","number":3928,"unit":"","street":"YUBA RIVER DR","id":"a68gfnvozazj","lat":34.022425,"long":-117.56421},"type":"Feature","geometry":{"type":"Point","coordinates":[-117.56421,34.022425]}},{"properties":{"city":"ONTARIO","streetconcat":"3931 SAN LORENZO RIVER RD","st":"CA","zip":91761,"node":"ON085","number":3931,"unit":"","street":"SAN LORENZO RIVER RD","id":"a68gfnuwts7e","lat":34.019792,"long":-117.565052},"type":"Feature","geometry":{"type":"Point","coordinates":[-117.565052,34.019792]}},{"properties":{"city":"ONTARIO","streetconcat":"3931 SAN LORENZO RIVER RD","st":"CA","zip":91761,"node":"ON085","number":3931,"unit":"","street":"SAN LORENZO RIVER RD","id":"a68gfnp70t09","lat":34.019792,"long":-117.565052},"type":"Feature","geometry":{"type":"Point","coordinates":[-117.565052,34.019792]}},{"properties":{"city":"ONTARIO","streetconcat":"3962 AMERICAN RIVER RD","st":"CA","zip":91761,"node":"ON085","number":3962,"unit":"","street":"AMERICAN RIVER RD","id":"a68gfnwufwe3","lat":34.02018,"long":-117.564152},"type":"Feature","geometry":{"type":"Point","coordinates":[-117.564152,34.02018]}},{"properties":{"city":"ONTARIO","streetconcat":"3962 COLORADO RIVER RD","st":"CA","zip":91761,"node":"ON085","number":3962,"unit":"","street":"COLORADO RIVER RD","id":"a68gfnjkyie3","lat":34.021521,"long":-117.563599},"type":"Feature","geometry":{"type":"Point","coordinates":[-117.563599,34.021521]}},{"properties":{"city":"ONTARIO","streetconcat":"3931 COLORADO RIVER RD","st":"CA","zip":91761,"node":"ON085","number":3931,"unit":"","street":"COLORADO RIVER RD","id":"a68gfnngt2cx","lat":34.021803,"long":-117.564881},"type":"Feature","geometry":{"type":"Point","coordinates":[-117.564881,34.021803]}},{"properties":{"city":"ONTARIO","streetconcat":"3931 SAN LORENZO RIVER RD","st":"CA","zip":91761,"node":"ON085","number":3931,"unit":"","street":"SAN LORENZO RIVER RD","id":"a68gfnsxo2rv","lat":34.019792,"long":-117.565052},"type":"Feature","geometry":{"type":"Point","coordinates":[-117.565052,34.019792]}},{"properties":{"city":"ONTARIO","streetconcat":"3931 SAN LORENZO RIVER RD","st":"CA","zip":91761,"node":"ON085","number":3931,"unit":"","street":"SAN LORENZO RIVER RD","id":"a68gfnqea7uv","lat":34.019792,"long":-117.565052},"type":"Feature","geometry":{"type":"Point","coordinates":[-117.565052,34.019792]}},{"properties":{"city":"ONTARIO","streetconcat":"3962 COLORADO RIVER RD","st":"CA","zip":91761,"node":"ON085","number":3962,"unit":"","street":"COLORADO RIVER RD","id":"a68gfnhce9tv","lat":34.021521,"long":-117.563599},"type":"Feature","geometry":{"type":"Point","coordinates":[-117.563599,34.021521]}},{"properties":{"city":"ONTARIO","streetconcat":"3950 MERCED RIVER RD","st":"CA","zip":91761,"node":"ON085","number":3950,"unit":"","street":"MERCED RIVER RD","id":"a68gfnpksfml","lat":34.020818,"long":-117.564118},"type":"Feature","geometry":{"type":"Point","coordinates":[-117.564118,34.020818]}},{"properties":{"city":"ONTARIO","streetconcat":"3938 MERCED RIVER RD","st":"CA","zip":91761,"node":"ON085","number":3938,"unit":"","street":"MERCED RIVER RD","id":"a68gfnmnbuvd","lat":34.020818,"long":-117.564305},"type":"Feature","geometry":{"type":"Point","coordinates":[-117.564305,34.020818]}},{"properties":{"city":"ONTARIO","streetconcat":"3931 COLORADO RIVER RD","st":"CA","zip":91761,"node":"ON085","number":3931,"unit":"","street":"COLORADO RIVER RD","id":"a68gfnw7t44u","lat":34.021803,"long":-117.564881},"type":"Feature","geometry":{"type":"Point","coordinates":[-117.564881,34.021803]}},{"properties":{"city":"ONTARIO","streetconcat":"3931 SAN LORENZO RIVER RD","st":"CA","zip":91761,"node":"ON085","number":3931,"unit":"","street":"SAN LORENZO RIVER RD","id":"a68gfnl1i9kg","lat":34.019792,"long":-117.565052},"type":"Feature","geometry":{"type":"Point","coordinates":[-117.565052,34.019792]}},{"properties":{"city":"ONTARIO","streetconcat":"3950 MERCED RIVER RD","st":"CA","zip":91761,"node":"ON085","number":3950,"unit":"","street":"MERCED RIVER RD","id":"a68gfnjihwc4","lat":34.020818,"long":-117.564118},"type":"Feature","geometry":{"type":"Point","coordinates":[-117.564118,34.020818]}},{"properties":{"city":"ONTARIO","streetconcat":"3950 SAN LORENZO RIVER RD","st":"CA","zip":91761,"node":"ON085","number":3950,"unit":"","street":"SAN LORENZO RIVER RD","id":"a68gfnhycr6b","lat":34.019468,"long":-117.564644},"type":"Feature","geometry":{"type":"Point","coordinates":[-117.564644,34.019468]}},{"properties":{"city":"ONTARIO","streetconcat":"3931 COLORADO RIVER RD","st":"CA","zip":91761,"node":"ON085","number":3931,"unit":"","street":"COLORADO RIVER RD","id":"a68gfnrnbfe6","lat":34.021803,"long":-117.564881},"type":"Feature","geometry":{"type":"Point","coordinates":[-117.564881,34.021803]}},{"properties":{"city":"ONTARIO","streetconcat":"3950 SAN LORENZO RIVER RD","st":"CA","zip":91761,"node":"ON085","number":3950,"unit":"","street":"SAN LORENZO RIVER RD","id":"a68gfnrqe9k1","lat":34.019468,"long":-117.564644},"type":"Feature","geometry":{"type":"Point","coordinates":[-117.564644,34.019468]}},{"properties":{"city":"ONTARIO","streetconcat":"3931 COLORADO RIVER RD","st":"CA","zip":91761,"node":"ON085","number":3931,"unit":"","street":"COLORADO RIVER RD","id":"a68gfnqz2vok","lat":34.021803,"long":-117.564881},"type":"Feature","geometry":{"type":"Point","coordinates":[-117.564881,34.021803]}},{"properties":{"city":"ONTARIO","streetconcat":"3931 COLORADO RIVER RD","st":"CA","zip":91761,"node":"ON085","number":3931,"unit":"","street":"COLORADO RIVER RD","id":"a68gfnpvxvvx","lat":34.021803,"long":-117.564881},"type":"Feature","geometry":{"type":"Point","coordinates":[-117.564881,34.021803]}},{"properties":{"city":"ONTARIO","streetconcat":"3931 COLORADO RIVER RD","st":"CA","zip":91761,"node":"ON085","number":3931,"unit":"","street":"COLORADO RIVER RD","id":"a68gfnuldy06","lat":34.021803,"long":-117.564881},"type":"Feature","geometry":{"type":"Point","coordinates":[-117.564881,34.021803]}},{"properties":{"city":"ONTARIO","streetconcat":"3931 SAN LORENZO RIVER RD","st":"CA","zip":91761,"node":"ON085","number":3931,"unit":"","street":"SAN LORENZO RIVER RD","id":"a68gfnu81juf","lat":34.019792,"long":-117.565052},"type":"Feature","geometry":{"type":"Point","coordinates":[-117.565052,34.019792]}},{"properties":{"city":"ONTARIO","streetconcat":"2859 RUSSIAN RIVER DR","st":"CA","zip":91761,"node":"ON085","number":2859,"unit":"","street":"RUSSIAN RIVER DR","id":"a68gfnukuh69","lat":34.02261,"long":-117.564549},"type":"Feature","geometry":{"type":"Point","coordinates":[-117.564549,34.02261]}},{"properties":{"city":"ONTARIO","streetconcat":"2859 RUSSIAN RIVER DR","st":"CA","zip":91761,"node":"ON085","number":2859,"unit":"","street":"RUSSIAN RIVER DR","id":"a68gfnj4xcqm","lat":34.02261,"long":-117.564549},"type":"Feature","geometry":{"type":"Point","coordinates":[-117.564549,34.02261]}},{"properties":{"city":"ONTARIO","streetconcat":"3925 YUBA RIVER DR","st":"CA","zip":91761,"node":"ON085","number":3925,"unit":"","street":"YUBA RIVER DR","id":"a68gfnntoo6a","lat":34.022586,"long":-117.565461},"type":"Feature","geometry":{"type":"Point","coordinates":[-117.565461,34.022586]}},{"properties":{"city":"ONTARIO","streetconcat":"2859 BOISE CREEK PL","st":"CA","zip":91761,"node":"ON085","number":2859,"unit":"","street":"BOISE CREEK PL","id":"a68gfngssykj","lat":34.02306,"long":-117.563879},"type":"Feature","geometry":{"type":"Point","coordinates":[-117.563879,34.02306]}},{"properties":{"city":"ONTARIO","streetconcat":"3925 MERCED RIVER RD","st":"CA","zip":91761,"node":"ON085","number":3925,"unit":"","street":"MERCED RIVER RD","id":"a68gfnvm5i9h","lat":34.021142,"long":-117.564524},"type":"Feature","geometry":{"type":"Point","coordinates":[-117.564524,34.021142]}},{"properties":{"city":"ONTARIO","streetconcat":"3925 MERCED RIVER RD","st":"CA","zip":91761,"node":"ON085","number":3925,"unit":"","street":"MERCED RIVER RD","id":"a68gfnk1rbi7","lat":34.021142,"long":-117.564524},"type":"Feature","geometry":{"type":"Point","coordinates":[-117.564524,34.021142]}},{"properties":{"city":"ONTARIO","streetconcat":"2859 BOISE CREEK PL","st":"CA","zip":91761,"node":"ON085","number":2859,"unit":"","street":"BOISE CREEK PL","id":"a68gfns4of0a","lat":34.02306,"long":-117.563879},"type":"Feature","geometry":{"type":"Point","coordinates":[-117.563879,34.02306]}},{"properties":{"city":"ONTARIO","streetconcat":"2859 BOISE CREEK PL","st":"CA","zip":91761,"node":"ON085","number":2859,"unit":"","street":"BOISE CREEK PL","id":"a68gfnma47lw","lat":34.02306,"long":-117.563879},"type":"Feature","geometry":{"type":"Point","coordinates":[-117.563879,34.02306]}},{"properties":{"city":"ONTARIO","streetconcat":"2859 RUSSIAN RIVER DR","st":"CA","zip":91761,"node":"ON085","number":2859,"unit":"","street":"RUSSIAN RIVER DR","id":"a68gfnwqql9f","lat":34.02261,"long":-117.564549},"type":"Feature","geometry":{"type":"Point","coordinates":[-117.564549,34.02261]}},{"properties":{"city":"ONTARIO","streetconcat":"3962 COLORADO RIVER RD","st":"CA","zip":91761,"node":"ON085","number":3962,"unit":"","street":"COLORADO RIVER RD","id":"a68gfnilz7bh","lat":34.021521,"long":-117.563599},"type":"Feature","geometry":{"type":"Point","coordinates":[-117.563599,34.021521]}},{"properties":{"city":"ONTARIO","streetconcat":"3962 COLORADO RIVER RD","st":"CA","zip":91761,"node":"ON085","number":3962,"unit":"","street":"COLORADO RIVER RD","id":"a68gfnj4818y","lat":34.021521,"long":-117.563599},"type":"Feature","geometry":{"type":"Point","coordinates":[-117.563599,34.021521]}},{"properties":{"city":"ONTARIO","streetconcat":"3962 COLORADO RIVER RD","st":"CA","zip":91761,"node":"ON085","number":3962,"unit":"","street":"COLORADO RIVER RD","id":"a68gfnll1ab2","lat":34.021521,"long":-117.563599},"type":"Feature","geometry":{"type":"Point","coordinates":[-117.563599,34.021521]}},{"properties":{"city":"ONTARIO","streetconcat":"2858 SAINT TROPEZ DR","st":"CA","zip":91761,"node":"ON085","number":2858,"unit":"","street":"SAINT TROPEZ DR","id":"a68gfnvthlr9","lat":34.021146,"long":-117.577056},"type":"Feature","geometry":{"type":"Point","coordinates":[-117.577056,34.021146]}},{"properties":{"city":"ONTARIO","streetconcat":"2858 SAINT TROPEZ DR","st":"CA","zip":91761,"node":"ON085","number":2858,"unit":"","street":"SAINT TROPEZ DR","id":"a68gfnt9ahrx","lat":34.021146,"long":-117.577056},"type":"Feature","geometry":{"type":"Point","coordinates":[-117.577056,34.021146]}},{"properties":{"city":"ONTARIO","streetconcat":"2858 SAINT TROPEZ DR","st":"CA","zip":91761,"node":"ON085","number":2858,"unit":"","street":"SAINT TROPEZ DR","id":"a68gfnlnu5e6","lat":34.021146,"long":-117.577056},"type":"Feature","geometry":{"type":"Point","coordinates":[-117.577056,34.021146]}},{"properties":{"city":"ONTARIO","streetconcat":"2856 RUSSIAN RIVER DR","st":"CA","zip":91761,"node":"ON085","number":2856,"unit":"","street":"RUSSIAN RIVER DR","id":"a68gfnjetffx","lat":34.022483,"long":-117.56481},"type":"Feature","geometry":{"type":"Point","coordinates":[-117.56481,34.022483]}},{"properties":{"city":"ONTARIO","streetconcat":"2862 RUSSIAN RIVER DR","st":"CA","zip":91761,"node":"ON085","number":2862,"unit":"","street":"RUSSIAN RIVER DR","id":"a68gfnuiez5b","lat":34.022475,"long":-117.564784},"type":"Feature","geometry":{"type":"Point","coordinates":[-117.564784,34.022475]}},{"properties":{"city":"ONTARIO","streetconcat":"2862 RUSSIAN RIVER DR","st":"CA","zip":91761,"node":"ON085","number":2862,"unit":"","street":"RUSSIAN RIVER DR","id":"a68gfnvx3fl6","lat":34.022475,"long":-117.564784},"type":"Feature","geometry":{"type":"Point","coordinates":[-117.564784,34.022475]}},{"properties":{"city":"ONTARIO","streetconcat":"2856 KINGS RIVER LN","st":"CA","zip":91761,"node":"ON085","number":2856,"unit":"","street":"KINGS RIVER LN","id":"a68gfnk4kldi","lat":34.021106,"long":-117.567134},"type":"Feature","geometry":{"type":"Point","coordinates":[-117.567134,34.021106]}},{"properties":{"city":"ONTARIO","streetconcat":"2856 KINGS RIVER LN","st":"CA","zip":91761,"node":"ON085","number":2856,"unit":"","street":"KINGS RIVER LN","id":"a68gfnig6zqw","lat":34.021106,"long":-117.567134},"type":"Feature","geometry":{"type":"Point","coordinates":[-117.567134,34.021106]}},{"properties":{"city":"ONTARIO","streetconcat":"2862 RUSSIAN RIVER DR","st":"CA","zip":91761,"node":"ON085","number":2862,"unit":"","street":"RUSSIAN RIVER DR","id":"a68gfnmadsb2","lat":34.022475,"long":-117.564784},"type":"Feature","geometry":{"type":"Point","coordinates":[-117.564784,34.022475]}},{"properties":{"city":"ONTARIO","streetconcat":"2862 KINGS RIVER LN","st":"CA","zip":91761,"node":"ON085","number":2862,"unit":"","street":"KINGS RIVER LN","id":"a68gfnkw90jy","lat":34.021084,"long":-117.567117},"type":"Feature","geometry":{"type":"Point","coordinates":[-117.567117,34.021084]}},{"properties":{"city":"ONTARIO","streetconcat":"3949 SAN LORENZO RIVER RD","st":"CA","zip":91761,"node":"ON085","number":3949,"unit":"","street":"SAN LORENZO RIVER RD","id":"a68gfnqlu0ix","lat":34.019792,"long":-117.564684},"type":"Feature","geometry":{"type":"Point","coordinates":[-117.564684,34.019792]}},{"properties":{"city":"ONTARIO","streetconcat":"2862 KINGS RIVER LN","st":"CA","zip":91761,"node":"ON085","number":2862,"unit":"","street":"KINGS RIVER LN","id":"a68gfni5r4rp","lat":34.021084,"long":-117.567117},"type":"Feature","geometry":{"type":"Point","coordinates":[-117.567117,34.021084]}},{"properties":{"city":"ONTARIO","streetconcat":"2862 KINGS RIVER LN","st":"CA","zip":91761,"node":"ON085","number":2862,"unit":"","street":"KINGS RIVER LN","id":"a68gfnkwr5yg","lat":34.021084,"long":-117.567117},"type":"Feature","geometry":{"type":"Point","coordinates":[-117.567117,34.021084]}},{"properties":{"city":"ONTARIO","streetconcat":"2856 RUSSIAN RIVER DR","st":"CA","zip":91761,"node":"ON085","number":2856,"unit":"","street":"RUSSIAN RIVER DR","id":"a68gfnvn8swv","lat":34.022483,"long":-117.56481},"type":"Feature","geometry":{"type":"Point","coordinates":[-117.56481,34.022483]}},{"properties":{"city":"ONTARIO","streetconcat":"2856 BOISE CREEK PL","st":"CA","zip":91761,"node":"ON085","number":2856,"unit":"","street":"BOISE CREEK PL","id":"a68gfnna4r9r","lat":34.022924,"long":-117.564159},"type":"Feature","geometry":{"type":"Point","coordinates":[-117.564159,34.022924]}},{"properties":{"city":"ONTARIO","streetconcat":"2856 KINGS RIVER LN","st":"CA","zip":91761,"node":"ON085","number":2856,"unit":"","street":"KINGS RIVER LN","id":"a68gfnvmtem5","lat":34.021106,"long":-117.567134},"type":"Feature","geometry":{"type":"Point","coordinates":[-117.567134,34.021106]}},{"properties":{"city":"ONTARIO","streetconcat":"2856 BOISE CREEK PL","st":"CA","zip":91761,"node":"ON085","number":2856,"unit":"","street":"BOISE CREEK PL","id":"a68gfnk8uzua","lat":34.022924,"long":-117.564159},"type":"Feature","geometry":{"type":"Point","coordinates":[-117.564159,34.022924]}},{"properties":{"city":"ONTARIO","streetconcat":"2887 BUTTE CREEK PL","st":"CA","zip":91761,"node":"ON085","number":2887,"unit":"","street":"BUTTE CREEK PL","id":"a68gfnk0j6c2","lat":34.021754,"long":-117.563813},"type":"Feature","geometry":{"type":"Point","coordinates":[-117.563813,34.021754]}},{"properties":{"city":"ONTARIO","streetconcat":"2887 BUTTE CREEK PL","st":"CA","zip":91761,"node":"ON085","number":2887,"unit":"","street":"BUTTE CREEK PL","id":"a68gfnqeuai6","lat":34.021754,"long":-117.563813},"type":"Feature","geometry":{"type":"Point","coordinates":[-117.563813,34.021754]}},{"properties":{"city":"ONTARIO","streetconcat":"2887 BUTTE CREEK PL","st":"CA","zip":91761,"node":"ON085","number":2887,"unit":"","street":"BUTTE CREEK PL","id":"a68gfnrlyq60","lat":34.021754,"long":-117.563813},"type":"Feature","geometry":{"type":"Point","coordinates":[-117.563813,34.021754]}},{"properties":{"city":"ONTARIO","streetconcat":"2856 BOISE CREEK PL","st":"CA","zip":91761,"node":"ON085","number":2856,"unit":"","street":"BOISE CREEK PL","id":"a68gfns0dvks","lat":34.022924,"long":-117.564159},"type":"Feature","geometry":{"type":"Point","coordinates":[-117.564159,34.022924]}},{"properties":{"city":"ONTARIO","streetconcat":"2856 RUSSIAN RIVER DR","st":"CA","zip":91761,"node":"ON085","number":2856,"unit":"","street":"RUSSIAN RIVER DR","id":"a68gfnrv749x","lat":34.022483,"long":-117.56481},"type":"Feature","geometry":{"type":"Point","coordinates":[-117.56481,34.022483]}},{"properties":{"city":"ONTARIO","streetconcat":"3949 SAN LORENZO RIVER RD","st":"CA","zip":91761,"node":"ON085","number":3949,"unit":"","street":"SAN LORENZO RIVER RD","id":"a68gfnm14nqc","lat":34.019792,"long":-117.564684},"type":"Feature","geometry":{"type":"Point","coordinates":[-117.564684,34.019792]}},{"properties":{"city":"ONTARIO","streetconcat":"3936 YUBA RIVER DR","st":"CA","zip":91761,"node":"ON085","number":3936,"unit":"","street":"YUBA RIVER DR","id":"a68gfnmqa09x","lat":34.022567,"long":-117.563935},"type":"Feature","geometry":{"type":"Point","coordinates":[-117.563935,34.022567]}},{"properties":{"city":"ONTARIO","streetconcat":"2886 BUTTE CREEK PL","st":"CA","zip":91761,"node":"ON085","number":2886,"unit":"","street":"BUTTE CREEK PL","id":"a68gfnham18o","lat":34.02175,"long":-117.563991},"type":"Feature","geometry":{"type":"Point","coordinates":[-117.563991,34.02175]}},{"properties":{"city":"ONTARIO","streetconcat":"2886 BUTTE CREEK PL","st":"CA","zip":91761,"node":"ON085","number":2886,"unit":"","street":"BUTTE CREEK PL","id":"a68gfntp02rd","lat":34.02175,"long":-117.563991},"type":"Feature","geometry":{"type":"Point","coordinates":[-117.563991,34.02175]}},{"properties":{"city":"ONTARIO","streetconcat":"3936 YUBA RIVER DR","st":"CA","zip":91761,"node":"ON085","number":3936,"unit":"","street":"YUBA RIVER DR","id":"a68gfnof6v3a","lat":34.022567,"long":-117.563935},"type":"Feature","geometry":{"type":"Point","coordinates":[-117.563935,34.022567]}},{"properties":{"city":"ONTARIO","streetconcat":"3949 SAN LORENZO RIVER RD","st":"CA","zip":91761,"node":"ON085","number":3949,"unit":"","street":"SAN LORENZO RIVER RD","id":"a68gfnvey7mp","lat":34.019792,"long":-117.564684},"type":"Feature","geometry":{"type":"Point","coordinates":[-117.564684,34.019792]}},{"properties":{"city":"ONTARIO","streetconcat":"3937 SAN LORENZO RIVER RD","st":"CA","zip":91761,"node":"ON085","number":3937,"unit":"","street":"SAN LORENZO RIVER RD","id":"a68gfnv6bqkm","lat":34.019792,"long":-117.564929},"type":"Feature","geometry":{"type":"Point","coordinates":[-117.564929,34.019792]}},{"properties":{"city":"ONTARIO","streetconcat":"3948 YUBA RIVER DR","st":"CA","zip":91761,"node":"ON085","number":3948,"unit":"","street":"YUBA RIVER DR","id":"a68gfnj94krf","lat":34.022822,"long":-117.563449},"type":"Feature","geometry":{"type":"Point","coordinates":[-117.563449,34.022822]}},{"properties":{"city":"ONTARIO","streetconcat":"3948 YUBA RIVER DR","st":"CA","zip":91761,"node":"ON085","number":3948,"unit":"","street":"YUBA RIVER DR","id":"a68gfnjprao4","lat":34.022822,"long":-117.563449},"type":"Feature","geometry":{"type":"Point","coordinates":[-117.563449,34.022822]}},{"properties":{"city":"ONTARIO","streetconcat":"3948 YUBA RIVER DR","st":"CA","zip":91761,"node":"ON085","number":3948,"unit":"","street":"YUBA RIVER DR","id":"a68gfnrv34r8","lat":34.022822,"long":-117.563449},"type":"Feature","geometry":{"type":"Point","coordinates":[-117.563449,34.022822]}},{"properties":{"city":"ONTARIO","streetconcat":"3944 AMERICAN RIVER RD","st":"CA","zip":91761,"node":"ON085","number":3944,"unit":"","street":"AMERICAN RIVER RD","id":"a68gfnpg385q","lat":34.020186,"long":-117.564509},"type":"Feature","geometry":{"type":"Point","coordinates":[-117.564509,34.020186]}},{"properties":{"city":"ONTARIO","streetconcat":"3944 AMERICAN RIVER RD","st":"CA","zip":91761,"node":"ON085","number":3944,"unit":"","street":"AMERICAN RIVER RD","id":"a68gfnrev8ov","lat":34.020186,"long":-117.564509},"type":"Feature","geometry":{"type":"Point","coordinates":[-117.564509,34.020186]}},{"properties":{"city":"ONTARIO","streetconcat":"3944 AMERICAN RIVER RD","st":"CA","zip":91761,"node":"ON085","number":3944,"unit":"","street":"AMERICAN RIVER RD","id":"a68gfnpgpg7c","lat":34.020186,"long":-117.564509},"type":"Feature","geometry":{"type":"Point","coordinates":[-117.564509,34.020186]}},{"properties":{"city":"ONTARIO","streetconcat":"3944 SAN LORENZO RIVER RD","st":"CA","zip":91761,"node":"ON085","number":3944,"unit":"","street":"SAN LORENZO RIVER RD","id":"a68gfnsf1yhp","lat":34.019468,"long":-117.564766},"type":"Feature","geometry":{"type":"Point","coordinates":[-117.564766,34.019468]}},{"properties":{"city":"ONTARIO","streetconcat":"3944 SAN LORENZO RIVER RD","st":"CA","zip":91761,"node":"ON085","number":3944,"unit":"","street":"SAN LORENZO RIVER RD","id":"a68gfnw2l51v","lat":34.019468,"long":-117.564766},"type":"Feature","geometry":{"type":"Point","coordinates":[-117.564766,34.019468]}},{"properties":{"city":"ONTARIO","streetconcat":"3936 YUBA RIVER DR","st":"CA","zip":91761,"node":"ON085","number":3936,"unit":"","street":"YUBA RIVER DR","id":"a68gfnmx3ppk","lat":34.022567,"long":-117.563935},"type":"Feature","geometry":{"type":"Point","coordinates":[-117.563935,34.022567]}},{"properties":{"city":"ONTARIO","streetconcat":"3850 YUBA RIVER DR","st":"CA","zip":91761,"node":"ON085","number":3850,"unit":"","street":"YUBA RIVER DR","id":"a68gfniqmizq","lat":34.021627,"long":-117.566766},"type":"Feature","geometry":{"type":"Point","coordinates":[-117.566766,34.021627]}},{"properties":{"city":"ONTARIO","streetconcat":"3411 MORNINGWOOD CT","st":"CA","zip":91761,"node":"ON085","number":3411,"unit":"","street":"MORNINGWOOD CT","id":"a68gfnj07oli","lat":34.020986,"long":-117.576741},"type":"Feature","geometry":{"type":"Point","coordinates":[-117.576741,34.020986]}},{"properties":{"city":"ONTARIO","streetconcat":"3411 CEDARGLEN RD","st":"CA","zip":91761,"node":"ON085","number":3411,"unit":"","street":"CEDARGLEN RD","id":"a68gfnqgsu03","lat":34.021736,"long":-117.576661},"type":"Feature","geometry":{"type":"Point","coordinates":[-117.576661,34.021736]}},{"properties":{"city":"ONTARIO","streetconcat":"3411 CEDARGLEN RD","st":"CA","zip":91761,"node":"ON085","number":3411,"unit":"","street":"CEDARGLEN RD","id":"a68gfnme5kln","lat":34.021736,"long":-117.576661},"type":"Feature","geometry":{"type":"Point","coordinates":[-117.576661,34.021736]}},{"properties":{"city":"ONTARIO","streetconcat":"2886 BUTTE CREEK PL","st":"CA","zip":91761,"node":"ON085","number":2886,"unit":"","street":"BUTTE CREEK PL","id":"a68gfnpcas31","lat":34.02175,"long":-117.563991},"type":"Feature","geometry":{"type":"Point","coordinates":[-117.563991,34.02175]}},{"properties":{"city":"ONTARIO","streetconcat":"3411 CEDARGLEN RD","st":"CA","zip":91761,"node":"ON085","number":3411,"unit":"","street":"CEDARGLEN RD","id":"a68gfnpt4xk9","lat":34.021736,"long":-117.576661},"type":"Feature","geometry":{"type":"Point","coordinates":[-117.576661,34.021736]}},{"properties":{"city":"ONTARIO","streetconcat":"3411 CEDARGLEN RD","st":"CA","zip":91761,"node":"ON085","number":3411,"unit":"","street":"CEDARGLEN RD","id":"a68gfno6ajsf","lat":34.021736,"long":-117.576661},"type":"Feature","geometry":{"type":"Point","coordinates":[-117.576661,34.021736]}},{"properties":{"city":"ONTARIO","streetconcat":"3411 CEDARGLEN RD","st":"CA","zip":91761,"node":"ON085","number":3411,"unit":"","street":"CEDARGLEN RD","id":"a68gfns7q60c","lat":34.021736,"long":-117.576661},"type":"Feature","geometry":{"type":"Point","coordinates":[-117.576661,34.021736]}},{"properties":{"city":"ONTARIO","streetconcat":"3411 CEDARGLEN RD","st":"CA","zip":91761,"node":"ON085","number":3411,"unit":"","street":"CEDARGLEN RD","id":"a68gfnv087n4","lat":34.021736,"long":-117.576661},"type":"Feature","geometry":{"type":"Point","coordinates":[-117.576661,34.021736]}},{"properties":{"city":"ONTARIO","streetconcat":"2935 ALDER CREEK DR","st":"CA","zip":91761,"node":"ON085","number":2935,"unit":"","street":"ALDER CREEK DR","id":"a68gfnwgq5ns","lat":34.019681,"long":-117.574362},"type":"Feature","geometry":{"type":"Point","coordinates":[-117.574362,34.019681]}},{"properties":{"city":"ONTARIO","streetconcat":"2935 ALDER CREEK DR","st":"CA","zip":91761,"node":"ON085","number":2935,"unit":"","street":"ALDER CREEK DR","id":"a68gfnkdao9q","lat":34.019681,"long":-117.574362},"type":"Feature","geometry":{"type":"Point","coordinates":[-117.574362,34.019681]}},{"properties":{"city":"ONTARIO","streetconcat":"2935 ALDER CREEK DR","st":"CA","zip":91761,"node":"ON085","number":2935,"unit":"","street":"ALDER CREEK DR","id":"a68gfnmxrlxz","lat":34.019681,"long":-117.574362},"type":"Feature","geometry":{"type":"Point","coordinates":[-117.574362,34.019681]}},{"properties":{"city":"ONTARIO","streetconcat":"2910 TRUCKEE RIVER RD","st":"CA","zip":91761,"node":"ON085","number":2910,"unit":"","street":"TRUCKEE RIVER RD","id":"a68gfnreazgz","lat":34.021055,"long":-117.565179},"type":"Feature","geometry":{"type":"Point","coordinates":[-117.565179,34.021055]}},{"properties":{"city":"ONTARIO","streetconcat":"3962 COLORADO RIVER RD","st":"CA","zip":91761,"node":"ON085","number":3962,"unit":"","street":"COLORADO RIVER RD","id":"a68gfnndjgll","lat":34.021521,"long":-117.563599},"type":"Feature","geometry":{"type":"Point","coordinates":[-117.563599,34.021521]}},{"properties":{"city":"ONTARIO","streetconcat":"2930 TUOLUMNE PL","st":"CA","zip":91761,"node":"ON085","number":2930,"unit":"","street":"TUOLUMNE PL","id":"a68gfnt9qlbc","lat":34.019879,"long":-117.573108},"type":"Feature","geometry":{"type":"Point","coordinates":[-117.573108,34.019879]}},{"properties":{"city":"ONTARIO","streetconcat":"2930 TUOLUMNE PL","st":"CA","zip":91761,"node":"ON085","number":2930,"unit":"","street":"TUOLUMNE PL","id":"a68gfnsiwpya","lat":34.019879,"long":-117.573108},"type":"Feature","geometry":{"type":"Point","coordinates":[-117.573108,34.019879]}},{"properties":{"city":"ONTARIO","streetconcat":"2930 TUOLUMNE PL","st":"CA","zip":91761,"node":"ON085","number":2930,"unit":"","street":"TUOLUMNE PL","id":"a68gfnorugrd","lat":34.019879,"long":-117.573108},"type":"Feature","geometry":{"type":"Point","coordinates":[-117.573108,34.019879]}},{"properties":{"city":"ONTARIO","streetconcat":"3517 STRAWBERRY CREEK PL","st":"CA","zip":91761,"node":"ON085","number":3517,"unit":"","street":"STRAWBERRY CREEK PL","id":"a68gfnjyw8f4","lat":34.020612,"long":-117.575113},"type":"Feature","geometry":{"type":"Point","coordinates":[-117.575113,34.020612]}},{"properties":{"city":"ONTARIO","streetconcat":"3517 STRAWBERRY CREEK PL","st":"CA","zip":91761,"node":"ON085","number":3517,"unit":"","street":"STRAWBERRY CREEK PL","id":"a68gfnkkgy4z","lat":34.020612,"long":-117.575113},"type":"Feature","geometry":{"type":"Point","coordinates":[-117.575113,34.020612]}},{"properties":{"city":"ONTARIO","streetconcat":"3962 AMERICAN RIVER RD","st":"CA","zip":91761,"node":"ON085","number":3962,"unit":"","street":"AMERICAN RIVER RD","id":"a68gfnuqj35a","lat":34.02018,"long":-117.564152},"type":"Feature","geometry":{"type":"Point","coordinates":[-117.564152,34.02018]}},{"properties":{"city":"ONTARIO","streetconcat":"3962 AMERICAN RIVER RD","st":"CA","zip":91761,"node":"ON085","number":3962,"unit":"","street":"AMERICAN RIVER RD","id":"a68gfnj6naah","lat":34.02018,"long":-117.564152},"type":"Feature","geometry":{"type":"Point","coordinates":[-117.564152,34.02018]}},{"properties":{"city":"ONTARIO","streetconcat":"3962 AMERICAN RIVER RD","st":"CA","zip":91761,"node":"ON085","number":3962,"unit":"","street":"AMERICAN RIVER RD","id":"a68gfnt3kp6d","lat":34.02018,"long":-117.564152},"type":"Feature","geometry":{"type":"Point","coordinates":[-117.564152,34.02018]}},{"properties":{"city":"ONTARIO","streetconcat":"3962 AMERICAN RIVER RD","st":"CA","zip":91761,"node":"ON085","number":3962,"unit":"","street":"AMERICAN RIVER RD","id":"a68gfnpse35w","lat":34.02018,"long":-117.564152},"type":"Feature","geometry":{"type":"Point","coordinates":[-117.564152,34.02018]}},{"properties":{"city":"ONTARIO","streetconcat":"3523 STRAWBERRY CREEK PL","st":"CA","zip":91761,"node":"ON085","number":3523,"unit":"","street":"STRAWBERRY CREEK PL","id":"a68gfnjhb6g3","lat":34.020612,"long":-117.574994},"type":"Feature","geometry":{"type":"Point","coordinates":[-117.574994,34.020612]}},{"properties":{"city":"ONTARIO","streetconcat":"3962 AMERICAN RIVER RD","st":"CA","zip":91761,"node":"ON085","number":3962,"unit":"","street":"AMERICAN RIVER RD","id":"a68gfnq4qf74","lat":34.02018,"long":-117.564152},"type":"Feature","geometry":{"type":"Point","coordinates":[-117.564152,34.02018]}},{"properties":{"city":"ONTARIO","streetconcat":"3962 AMERICAN RIVER RD","st":"CA","zip":91761,"node":"ON085","number":3962,"unit":"","street":"AMERICAN RIVER RD","id":"a68gfnw14szq","lat":34.02018,"long":-117.564152},"type":"Feature","geometry":{"type":"Point","coordinates":[-117.564152,34.02018]}},{"properties":{"city":"ONTARIO","streetconcat":"2930 TUOLUMNE PL","st":"CA","zip":91761,"node":"ON085","number":2930,"unit":"","street":"TUOLUMNE PL","id":"a68gfnq5s8va","lat":34.019879,"long":-117.573108},"type":"Feature","geometry":{"type":"Point","coordinates":[-117.573108,34.019879]}},{"properties":{"city":"ONTARIO","streetconcat":"2902 KINGS RIVER LN","st":"CA","zip":91761,"node":"ON085","number":2902,"unit":"","street":"KINGS RIVER LN","id":"a68gfnlvzv1v","lat":34.020977,"long":-117.566919},"type":"Feature","geometry":{"type":"Point","coordinates":[-117.566919,34.020977]}},{"properties":{"city":"ONTARIO","streetconcat":"2910 TRUCKEE RIVER RD","st":"CA","zip":91761,"node":"ON085","number":2910,"unit":"","street":"TRUCKEE RIVER RD","id":"a68gfnws0lnf","lat":34.021055,"long":-117.565179},"type":"Feature","geometry":{"type":"Point","coordinates":[-117.565179,34.021055]}},{"properties":{"city":"ONTARIO","streetconcat":"2910 TRUCKEE RIVER RD","st":"CA","zip":91761,"node":"ON085","number":2910,"unit":"","street":"TRUCKEE RIVER RD","id":"a68gfnvikba7","lat":34.021055,"long":-117.565179},"type":"Feature","geometry":{"type":"Point","coordinates":[-117.565179,34.021055]}},{"properties":{"city":"ONTARIO","streetconcat":"3940 YUBA RIVER DR","st":"CA","zip":91761,"node":"ON085","number":3940,"unit":"","street":"YUBA RIVER DR","id":"a68gfnkmo085","lat":34.022757,"long":-117.563705},"type":"Feature","geometry":{"type":"Point","coordinates":[-117.563705,34.022757]}},{"properties":{"city":"ONTARIO","streetconcat":"2930 TUOLUMNE PL","st":"CA","zip":91761,"node":"ON085","number":2930,"unit":"","street":"TUOLUMNE PL","id":"a68gfnkrr1fv","lat":34.019879,"long":-117.573108},"type":"Feature","geometry":{"type":"Point","coordinates":[-117.573108,34.019879]}},{"properties":{"city":"ONTARIO","streetconcat":"3962 AMERICAN RIVER RD","st":"CA","zip":91761,"node":"ON085","number":3962,"unit":"","street":"AMERICAN RIVER RD","id":"a68gfnrb1h98","lat":34.02018,"long":-117.564152},"type":"Feature","geometry":{"type":"Point","coordinates":[-117.564152,34.02018]}},{"properties":{"city":"ONTARIO","streetconcat":"3962 SAN LORENZO RIVER RD","st":"CA","zip":91761,"node":"ON085","number":3962,"unit":"","street":"SAN LORENZO RIVER RD","id":"a68gfnqc31qs","lat":34.019468,"long":-117.564399},"type":"Feature","geometry":{"type":"Point","coordinates":[-117.564399,34.019468]}},{"properties":{"city":"ONTARIO","streetconcat":"3962 SAN LORENZO RIVER RD","st":"CA","zip":91761,"node":"ON085","number":3962,"unit":"","street":"SAN LORENZO RIVER RD","id":"a68gfngl9tcw","lat":34.019468,"long":-117.564399},"type":"Feature","geometry":{"type":"Point","coordinates":[-117.564399,34.019468]}},{"properties":{"city":"ONTARIO","streetconcat":"3937 SAN LORENZO RIVER RD","st":"CA","zip":91761,"node":"ON085","number":3937,"unit":"","street":"SAN LORENZO RIVER RD","id":"a68gfnq4g8qn","lat":34.019792,"long":-117.564929},"type":"Feature","geometry":{"type":"Point","coordinates":[-117.564929,34.019792]}},{"properties":{"city":"ONTARIO","streetconcat":"3412 GINGERWOOD RD","st":"CA","zip":91761,"node":"ON085","number":3412,"unit":"","street":"GINGERWOOD RD","id":"a68gfnguwj2v","lat":34.020017,"long":-117.576672},"type":"Feature","geometry":{"type":"Point","coordinates":[-117.576672,34.020017]}},{"properties":{"city":"ONTARIO","streetconcat":"3412 GINGERWOOD RD","st":"CA","zip":91761,"node":"ON085","number":3412,"unit":"","street":"GINGERWOOD RD","id":"a68gfnwjiz1n","lat":34.020017,"long":-117.576672},"type":"Feature","geometry":{"type":"Point","coordinates":[-117.576672,34.020017]}},{"properties":{"city":"ONTARIO","streetconcat":"3412 GINGERWOOD RD","st":"CA","zip":91761,"node":"ON085","number":3412,"unit":"","street":"GINGERWOOD RD","id":"a68gfns7tdnf","lat":34.020017,"long":-117.576672},"type":"Feature","geometry":{"type":"Point","coordinates":[-117.576672,34.020017]}},{"properties":{"city":"ONTARIO","streetconcat":"3413 CEDARGLEN RD","st":"CA","zip":91761,"node":"ON085","number":3413,"unit":"","street":"CEDARGLEN RD","id":"a68gfnqijya4","lat":34.021738,"long":-117.576641},"type":"Feature","geometry":{"type":"Point","coordinates":[-117.576641,34.021738]}},{"properties":{"city":"ONTARIO","streetconcat":"3413 CEDARGLEN RD","st":"CA","zip":91761,"node":"ON085","number":3413,"unit":"","street":"CEDARGLEN RD","id":"a68gfngw318n","lat":34.021738,"long":-117.576641},"type":"Feature","geometry":{"type":"Point","coordinates":[-117.576641,34.021738]}},{"properties":{"city":"ONTARIO","streetconcat":"3961 MERCED RIVER RD","st":"CA","zip":91761,"node":"ON085","number":3961,"unit":"","street":"MERCED RIVER RD","id":"a68gfnlzqpvo","lat":34.021142,"long":-117.563962},"type":"Feature","geometry":{"type":"Point","coordinates":[-117.563962,34.021142]}},{"properties":{"city":"ONTARIO","streetconcat":"3961 MERCED RIVER RD","st":"CA","zip":91761,"node":"ON085","number":3961,"unit":"","street":"MERCED RIVER RD","id":"a68gfnqek7j7","lat":34.021142,"long":-117.563962},"type":"Feature","geometry":{"type":"Point","coordinates":[-117.563962,34.021142]}},{"properties":{"city":"ONTARIO","streetconcat":"2879 BUTTE CREEK PL","st":"CA","zip":91761,"node":"ON085","number":2879,"unit":"","street":"BUTTE CREEK PL","id":"a68gfnrkbvuo","lat":34.021784,"long":-117.563786},"type":"Feature","geometry":{"type":"Point","coordinates":[-117.563786,34.021784]}},{"properties":{"city":"ONTARIO","streetconcat":"3831 YUBA RIVER DR","st":"CA","zip":91761,"node":"ON085","number":3831,"unit":"","street":"YUBA RIVER DR","id":"a68gfnu90ylc","lat":34.021782,"long":-117.567082},"type":"Feature","geometry":{"type":"Point","coordinates":[-117.567082,34.021782]}},{"properties":{"city":"ONTARIO","streetconcat":"3831 YUBA RIVER DR","st":"CA","zip":91761,"node":"ON085","number":3831,"unit":"","street":"YUBA RIVER DR","id":"a68gfnk8yv1p","lat":34.021782,"long":-117.567082},"type":"Feature","geometry":{"type":"Point","coordinates":[-117.567082,34.021782]}},{"properties":{"city":"ONTARIO","streetconcat":"3831 YUBA RIVER DR","st":"CA","zip":91761,"node":"ON085","number":3831,"unit":"","street":"YUBA RIVER DR","id":"a68gfnwsd6h0","lat":34.021782,"long":-117.567082},"type":"Feature","geometry":{"type":"Point","coordinates":[-117.567082,34.021782]}},{"properties":{"city":"ONTARIO","streetconcat":"3413 CEDARGLEN RD","st":"CA","zip":91761,"node":"ON085","number":3413,"unit":"","street":"CEDARGLEN RD","id":"a68gfnucb88k","lat":34.021738,"long":-117.576641},"type":"Feature","geometry":{"type":"Point","coordinates":[-117.576641,34.021738]}},{"properties":{"city":"ONTARIO","streetconcat":"2879 BUTTE CREEK PL","st":"CA","zip":91761,"node":"ON085","number":2879,"unit":"","street":"BUTTE CREEK PL","id":"a68gfnl9f1ns","lat":34.021784,"long":-117.563786},"type":"Feature","geometry":{"type":"Point","coordinates":[-117.563786,34.021784]}},{"properties":{"city":"ONTARIO","streetconcat":"3415 MORNINGWOOD CT","st":"CA","zip":91761,"node":"ON085","number":3415,"unit":"","street":"MORNINGWOOD CT","id":"a68gfnhlmsrr","lat":34.021008,"long":-117.576714},"type":"Feature","geometry":{"type":"Point","coordinates":[-117.576714,34.021008]}},{"properties":{"city":"ONTARIO","streetconcat":"3415 MORNINGWOOD CT","st":"CA","zip":91761,"node":"ON085","number":3415,"unit":"","street":"MORNINGWOOD CT","id":"a68gfnjyxahe","lat":34.021008,"long":-117.576714},"type":"Feature","geometry":{"type":"Point","coordinates":[-117.576714,34.021008]}},{"properties":{"city":"ONTARIO","streetconcat":"3944 SAN LORENZO RIVER RD","st":"CA","zip":91761,"node":"ON085","number":3944,"unit":"","street":"SAN LORENZO RIVER RD","id":"a68gfntw7iiq","lat":34.019468,"long":-117.564766},"type":"Feature","geometry":{"type":"Point","coordinates":[-117.564766,34.019468]}},{"properties":{"city":"ONTARIO","streetconcat":"3944 AMERICAN RIVER RD","st":"CA","zip":91761,"node":"ON085","number":3944,"unit":"","street":"AMERICAN RIVER RD","id":"a68gfnm0534g","lat":34.020186,"long":-117.564509},"type":"Feature","geometry":{"type":"Point","coordinates":[-117.564509,34.020186]}},{"properties":{"city":"ONTARIO","streetconcat":"3415 GINGERWOOD RD","st":"CA","zip":91761,"node":"ON085","number":3415,"unit":"","street":"GINGERWOOD RD","id":"a68gfntkxdcw","lat":34.020286,"long":-117.576694},"type":"Feature","geometry":{"type":"Point","coordinates":[-117.576694,34.020286]}},{"properties":{"city":"ONTARIO","streetconcat":"3415 GINGERWOOD RD","st":"CA","zip":91761,"node":"ON085","number":3415,"unit":"","street":"GINGERWOOD RD","id":"a68gfnomao5q","lat":34.020286,"long":-117.576694},"type":"Feature","geometry":{"type":"Point","coordinates":[-117.576694,34.020286]}},{"properties":{"city":"ONTARIO","streetconcat":"3415 MORNINGWOOD CT","st":"CA","zip":91761,"node":"ON085","number":3415,"unit":"","street":"MORNINGWOOD CT","id":"a68gfngkf4fx","lat":34.021008,"long":-117.576714},"type":"Feature","geometry":{"type":"Point","coordinates":[-117.576714,34.021008]}},{"properties":{"city":"ONTARIO","streetconcat":"2879 BUTTE CREEK PL","st":"CA","zip":91761,"node":"ON085","number":2879,"unit":"","street":"BUTTE CREEK PL","id":"a68gfnwhvhnd","lat":34.021784,"long":-117.563786},"type":"Feature","geometry":{"type":"Point","coordinates":[-117.563786,34.021784]}},{"properties":{"city":"ONTARIO","streetconcat":"3961 MERCED RIVER RD","st":"CA","zip":91761,"node":"ON085","number":3961,"unit":"","street":"MERCED RIVER RD","id":"a68gfnn2r7an","lat":34.021142,"long":-117.563962},"type":"Feature","geometry":{"type":"Point","coordinates":[-117.563962,34.021142]}},{"properties":{"city":"ONTARIO","streetconcat":"2912 SAINT TROPEZ DR","st":"CA","zip":91761,"node":"ON085","number":2912,"unit":"","street":"SAINT TROPEZ DR","id":"a68gfnksfv1w","lat":34.020042,"long":-117.576972},"type":"Feature","geometry":{"type":"Point","coordinates":[-117.576972,34.020042]}},{"properties":{"city":"ONTARIO","streetconcat":"2938 TUOLUMNE PL","st":"CA","zip":91761,"node":"ON085","number":2938,"unit":"","street":"TUOLUMNE PL","id":"a68gfnjru57z","lat":34.019743,"long":-117.573134},"type":"Feature","geometry":{"type":"Point","coordinates":[-117.573134,34.019743]}},{"properties":{"city":"ONTARIO","streetconcat":"2938 TUOLUMNE PL","st":"CA","zip":91761,"node":"ON085","number":2938,"unit":"","street":"TUOLUMNE PL","id":"a68gfnq1w3y6","lat":34.019743,"long":-117.573134},"type":"Feature","geometry":{"type":"Point","coordinates":[-117.573134,34.019743]}},{"properties":{"city":"ONTARIO","streetconcat":"3961 AMERICAN RIVER RD","st":"CA","zip":91761,"node":"ON085","number":3961,"unit":"","street":"AMERICAN RIVER RD","id":"a68gfnvjjhzh","lat":34.02045,"long":-117.564186},"type":"Feature","geometry":{"type":"Point","coordinates":[-117.564186,34.02045]}},{"properties":{"city":"ONTARIO","streetconcat":"2938 TUOLUMNE PL","st":"CA","zip":91761,"node":"ON085","number":2938,"unit":"","street":"TUOLUMNE PL","id":"a68gfnjw0of1","lat":34.019743,"long":-117.573134},"type":"Feature","geometry":{"type":"Point","coordinates":[-117.573134,34.019743]}},{"properties":{"city":"ONTARIO","streetconcat":"2912 SAINT TROPEZ DR","st":"CA","zip":91761,"node":"ON085","number":2912,"unit":"","street":"SAINT TROPEZ DR","id":"a68gfnp8po9z","lat":34.020042,"long":-117.576972},"type":"Feature","geometry":{"type":"Point","coordinates":[-117.576972,34.020042]}},{"properties":{"city":"ONTARIO","streetconcat":"2912 SAINT TROPEZ DR","st":"CA","zip":91761,"node":"ON085","number":2912,"unit":"","street":"SAINT TROPEZ DR","id":"a68gfnghp167","lat":34.020042,"long":-117.576972},"type":"Feature","geometry":{"type":"Point","coordinates":[-117.576972,34.020042]}},{"properties":{"city":"ONTARIO","streetconcat":"2850 KINGS RIVER LN","st":"CA","zip":91761,"node":"ON085","number":2850,"unit":"","street":"KINGS RIVER LN","id":"a68gfnvp1xr6","lat":34.021129,"long":-117.56715},"type":"Feature","geometry":{"type":"Point","coordinates":[-117.56715,34.021129]}},{"properties":{"city":"ONTARIO","streetconcat":"3901 YUBA RIVER DR","st":"CA","zip":91761,"node":"ON085","number":3901,"unit":"","street":"YUBA RIVER DR","id":"a68gfns8i082","lat":34.022179,"long":-117.566291},"type":"Feature","geometry":{"type":"Point","coordinates":[-117.566291,34.022179]}},{"properties":{"city":"ONTARIO","streetconcat":"3901 YUBA RIVER DR","st":"CA","zip":91761,"node":"ON085","number":3901,"unit":"","street":"YUBA RIVER DR","id":"a68gfngj6hqs","lat":34.022179,"long":-117.566291},"type":"Feature","geometry":{"type":"Point","coordinates":[-117.566291,34.022179]}},{"properties":{"city":"ONTARIO","streetconcat":"3901 YUBA RIVER DR","st":"CA","zip":91761,"node":"ON085","number":3901,"unit":"","street":"YUBA RIVER DR","id":"a68gfnpxxtph","lat":34.022179,"long":-117.566291},"type":"Feature","geometry":{"type":"Point","coordinates":[-117.566291,34.022179]}},{"properties":{"city":"ONTARIO","streetconcat":"2864 SAINT TROPEZ DR","st":"CA","zip":91761,"node":"ON085","number":2864,"unit":"","street":"SAINT TROPEZ DR","id":"a68gfnw6ao80","lat":34.021115,"long":-117.577057},"type":"Feature","geometry":{"type":"Point","coordinates":[-117.577057,34.021115]}},{"properties":{"city":"ONTARIO","streetconcat":"2864 SAINT TROPEZ DR","st":"CA","zip":91761,"node":"ON085","number":2864,"unit":"","street":"SAINT TROPEZ DR","id":"a68gfnnwil8h","lat":34.021115,"long":-117.577057},"type":"Feature","geometry":{"type":"Point","coordinates":[-117.577057,34.021115]}},{"properties":{"city":"ONTARIO","streetconcat":"2850 KINGS RIVER LN","st":"CA","zip":91761,"node":"ON085","number":2850,"unit":"","street":"KINGS RIVER LN","id":"a68gfnpzp1qn","lat":34.021129,"long":-117.56715},"type":"Feature","geometry":{"type":"Point","coordinates":[-117.56715,34.021129]}},{"properties":{"city":"ONTARIO","streetconcat":"3835 AMERICAN RIVER RD","st":"CA","zip":91761,"node":"ON085","number":3835,"unit":"","street":"AMERICAN RIVER RD","id":"a68gfnq1q3qq","lat":34.020168,"long":-117.566737},"type":"Feature","geometry":{"type":"Point","coordinates":[-117.566737,34.020168]}},{"properties":{"city":"ONTARIO","streetconcat":"3835 AMERICAN RIVER RD","st":"CA","zip":91761,"node":"ON085","number":3835,"unit":"","street":"AMERICAN RIVER RD","id":"a68gfnimxe38","lat":34.020168,"long":-117.566737},"type":"Feature","geometry":{"type":"Point","coordinates":[-117.566737,34.020168]}},{"properties":{"city":"ONTARIO","streetconcat":"3961 AMERICAN RIVER RD","st":"CA","zip":91761,"node":"ON085","number":3961,"unit":"","street":"AMERICAN RIVER RD","id":"a68gfnkvawj2","lat":34.02045,"long":-117.564186},"type":"Feature","geometry":{"type":"Point","coordinates":[-117.564186,34.02045]}},{"properties":{"city":"ONTARIO","streetconcat":"3907 SAN LORENZO RIVER RD","st":"CA","zip":91761,"node":"ON085","number":3907,"unit":"","street":"SAN LORENZO RIVER RD","id":"a68gfnv39dl7","lat":34.019792,"long":-117.565541},"type":"Feature","geometry":{"type":"Point","coordinates":[-117.565541,34.019792]}},{"properties":{"city":"ONTARIO","streetconcat":"3907 SAN LORENZO RIVER RD","st":"CA","zip":91761,"node":"ON085","number":3907,"unit":"","street":"SAN LORENZO RIVER RD","id":"a68gfni3kmkz","lat":34.019792,"long":-117.565541},"type":"Feature","geometry":{"type":"Point","coordinates":[-117.565541,34.019792]}},{"properties":{"city":"ONTARIO","streetconcat":"3961 AMERICAN RIVER RD","st":"CA","zip":91761,"node":"ON085","number":3961,"unit":"","street":"AMERICAN RIVER RD","id":"a68gfnpasdrk","lat":34.02045,"long":-117.564186},"type":"Feature","geometry":{"type":"Point","coordinates":[-117.564186,34.02045]}},{"properties":{"city":"ONTARIO","streetconcat":"3961 AMERICAN RIVER RD","st":"CA","zip":91761,"node":"ON085","number":3961,"unit":"","street":"AMERICAN RIVER RD","id":"a68gfnhzuwkn","lat":34.02045,"long":-117.564186},"type":"Feature","geometry":{"type":"Point","coordinates":[-117.564186,34.02045]}},{"properties":{"city":"ONTARIO","streetconcat":"3835 YUBA RIVER DR","st":"CA","zip":91761,"node":"ON085","number":3835,"unit":"","street":"YUBA RIVER DR","id":"a68gfnqanxx5","lat":34.021797,"long":-117.567053},"type":"Feature","geometry":{"type":"Point","coordinates":[-117.567053,34.021797]}},{"properties":{"city":"ONTARIO","streetconcat":"3907 SAN LORENZO RIVER RD","st":"CA","zip":91761,"node":"ON085","number":3907,"unit":"","street":"SAN LORENZO RIVER RD","id":"a68gfnl75coq","lat":34.019792,"long":-117.565541},"type":"Feature","geometry":{"type":"Point","coordinates":[-117.565541,34.019792]}},{"properties":{"city":"ONTARIO","streetconcat":"3908 SAN LORENZO RIVER RD","st":"CA","zip":91761,"node":"ON085","number":3908,"unit":"","street":"SAN LORENZO RIVER RD","id":"a68gfnmy6s3l","lat":34.019468,"long":-117.5655},"type":"Feature","geometry":{"type":"Point","coordinates":[-117.5655,34.019468]}},{"properties":{"city":"ONTARIO","streetconcat":"3835 YUBA RIVER DR","st":"CA","zip":91761,"node":"ON085","number":3835,"unit":"","street":"YUBA RIVER DR","id":"a68gfnmbn9ct","lat":34.021797,"long":-117.567053},"type":"Feature","geometry":{"type":"Point","coordinates":[-117.567053,34.021797]}},{"properties":{"city":"ONTARIO","streetconcat":"3835 YUBA RIVER DR","st":"CA","zip":91761,"node":"ON085","number":3835,"unit":"","street":"YUBA RIVER DR","id":"a68gfnut0v6u","lat":34.021797,"long":-117.567053},"type":"Feature","geometry":{"type":"Point","coordinates":[-117.567053,34.021797]}},{"properties":{"city":"ONTARIO","streetconcat":"3908 SAN LORENZO RIVER RD","st":"CA","zip":91761,"node":"ON085","number":3908,"unit":"","street":"SAN LORENZO RIVER RD","id":"a68gfnpqea34","lat":34.019468,"long":-117.5655},"type":"Feature","geometry":{"type":"Point","coordinates":[-117.5655,34.019468]}},{"properties":{"city":"ONTARIO","streetconcat":"3961 AMERICAN RIVER RD","st":"CA","zip":91761,"node":"ON085","number":3961,"unit":"","street":"AMERICAN RIVER RD","id":"a68gfnk9jd3s","lat":34.02045,"long":-117.564186},"type":"Feature","geometry":{"type":"Point","coordinates":[-117.564186,34.02045]}},{"properties":{"city":"ONTARIO","streetconcat":"3961 AMERICAN RIVER RD","st":"CA","zip":91761,"node":"ON085","number":3961,"unit":"","street":"AMERICAN RIVER RD","id":"a68gfnsha8hb","lat":34.02045,"long":-117.564186},"type":"Feature","geometry":{"type":"Point","coordinates":[-117.564186,34.02045]}},{"properties":{"city":"ONTARIO","streetconcat":"3908 SAN LORENZO RIVER RD","st":"CA","zip":91761,"node":"ON085","number":3908,"unit":"","street":"SAN LORENZO RIVER RD","id":"a68gfnuqzv89","lat":34.019468,"long":-117.5655},"type":"Feature","geometry":{"type":"Point","coordinates":[-117.5655,34.019468]}},{"properties":{"city":"ONTARIO","streetconcat":"3835 AMERICAN RIVER RD","st":"CA","zip":91761,"node":"ON085","number":3835,"unit":"","street":"AMERICAN RIVER RD","id":"a68gfnwbx17v","lat":34.020168,"long":-117.566737},"type":"Feature","geometry":{"type":"Point","coordinates":[-117.566737,34.020168]}},{"properties":{"city":"ONTARIO","streetconcat":"3415 GINGERWOOD RD","st":"CA","zip":91761,"node":"ON085","number":3415,"unit":"","street":"GINGERWOOD RD","id":"a68gfnrdk9n1","lat":34.020286,"long":-117.576694},"type":"Feature","geometry":{"type":"Point","coordinates":[-117.576694,34.020286]}},{"properties":{"city":"ONTARIO","streetconcat":"2864 SAINT TROPEZ DR","st":"CA","zip":91761,"node":"ON085","number":2864,"unit":"","street":"SAINT TROPEZ DR","id":"a68gfnq1janb","lat":34.021115,"long":-117.577057},"type":"Feature","geometry":{"type":"Point","coordinates":[-117.577057,34.021115]}},{"properties":{"city":"ONTARIO","streetconcat":"3415 CEDARGLEN RD","st":"CA","zip":91761,"node":"ON085","number":3415,"unit":"","street":"CEDARGLEN RD","id":"a68gfnumhbwo","lat":34.02174,"long":-117.576621},"type":"Feature","geometry":{"type":"Point","coordinates":[-117.576621,34.02174]}},{"properties":{"city":"ONTARIO","streetconcat":"2855 KINGS RIVER LN","st":"CA","zip":91761,"node":"ON085","number":2855,"unit":"","street":"KINGS RIVER LN","id":"a68gfnml6sbk","lat":34.021245,"long":-117.566856},"type":"Feature","geometry":{"type":"Point","coordinates":[-117.566856,34.021245]}},{"properties":{"city":"ONTARIO","streetconcat":"2855 KINGS RIVER LN","st":"CA","zip":91761,"node":"ON085","number":2855,"unit":"","street":"KINGS RIVER LN","id":"a68gfnq77474","lat":34.021245,"long":-117.566856},"type":"Feature","geometry":{"type":"Point","coordinates":[-117.566856,34.021245]}},{"properties":{"city":"ONTARIO","streetconcat":"2914 TUOLUMNE PL","st":"CA","zip":91761,"node":"ON085","number":2914,"unit":"","street":"TUOLUMNE PL","id":"a68gfnp0yk04","lat":34.020127,"long":-117.573028},"type":"Feature","geometry":{"type":"Point","coordinates":[-117.573028,34.020127]}},{"properties":{"city":"ONTARIO","streetconcat":"2914 TUOLUMNE PL","st":"CA","zip":91761,"node":"ON085","number":2914,"unit":"","street":"TUOLUMNE PL","id":"a68gfnwo4q4f","lat":34.020127,"long":-117.573028},"type":"Feature","geometry":{"type":"Point","coordinates":[-117.573028,34.020127]}},{"properties":{"city":"ONTARIO","streetconcat":"3843 YUBA RIVER DR","st":"CA","zip":91761,"node":"ON085","number":3843,"unit":"","street":"YUBA RIVER DR","id":"a68gfniz3cta","lat":34.021826,"long":-117.566994},"type":"Feature","geometry":{"type":"Point","coordinates":[-117.566994,34.021826]}},{"properties":{"city":"ONTARIO","streetconcat":"3843 YUBA RIVER DR","st":"CA","zip":91761,"node":"ON085","number":3843,"unit":"","street":"YUBA RIVER DR","id":"a68gfnmvxf3m","lat":34.021826,"long":-117.566994},"type":"Feature","geometry":{"type":"Point","coordinates":[-117.566994,34.021826]}},{"properties":{"city":"ONTARIO","streetconcat":"3955 AMERICAN RIVER RD","st":"CA","zip":91761,"node":"ON085","number":3955,"unit":"","street":"AMERICAN RIVER RD","id":"a68gfns75ctw","lat":34.020452,"long":-117.564304},"type":"Feature","geometry":{"type":"Point","coordinates":[-117.564304,34.020452]}},{"properties":{"city":"ONTARIO","streetconcat":"2914 TUOLUMNE PL","st":"CA","zip":91761,"node":"ON085","number":2914,"unit":"","street":"TUOLUMNE PL","id":"a68gfnuic5s2","lat":34.020127,"long":-117.573028},"type":"Feature","geometry":{"type":"Point","coordinates":[-117.573028,34.020127]}},{"properties":{"city":"ONTARIO","streetconcat":"2914 SAINT TROPEZ DR","st":"CA","zip":91761,"node":"ON085","number":2914,"unit":"","street":"SAINT TROPEZ DR","id":"a68gfnk08yz9","lat":34.020028,"long":-117.576984},"type":"Feature","geometry":{"type":"Point","coordinates":[-117.576984,34.020028]}},{"properties":{"city":"ONTARIO","streetconcat":"3955 AMERICAN RIVER RD","st":"CA","zip":91761,"node":"ON085","number":3955,"unit":"","street":"AMERICAN RIVER RD","id":"a68gfnwvif2y","lat":34.020452,"long":-117.564304},"type":"Feature","geometry":{"type":"Point","coordinates":[-117.564304,34.020452]}},{"properties":{"city":"ONTARIO","streetconcat":"3955 AMERICAN RIVER RD","st":"CA","zip":91761,"node":"ON085","number":3955,"unit":"","street":"AMERICAN RIVER RD","id":"a68gfnm3f0cy","lat":34.020452,"long":-117.564304},"type":"Feature","geometry":{"type":"Point","coordinates":[-117.564304,34.020452]}},{"properties":{"city":"ONTARIO","streetconcat":"3955 AMERICAN RIVER RD","st":"CA","zip":91761,"node":"ON085","number":3955,"unit":"","street":"AMERICAN RIVER RD","id":"a68gfnq9thuj","lat":34.020452,"long":-117.564304},"type":"Feature","geometry":{"type":"Point","coordinates":[-117.564304,34.020452]}},{"properties":{"city":"ONTARIO","streetconcat":"3955 AMERICAN RIVER RD","st":"CA","zip":91761,"node":"ON085","number":3955,"unit":"","street":"AMERICAN RIVER RD","id":"a68gfntioz2p","lat":34.020452,"long":-117.564304},"type":"Feature","geometry":{"type":"Point","coordinates":[-117.564304,34.020452]}},{"properties":{"city":"ONTARIO","streetconcat":"2850 KINGS RIVER LN","st":"CA","zip":91761,"node":"ON085","number":2850,"unit":"","street":"KINGS RIVER LN","id":"a68gfngwqcz3","lat":34.021129,"long":-117.56715},"type":"Feature","geometry":{"type":"Point","coordinates":[-117.56715,34.021129]}},{"properties":{"city":"ONTARIO","streetconcat":"3955 AMERICAN RIVER RD","st":"CA","zip":91761,"node":"ON085","number":3955,"unit":"","street":"AMERICAN RIVER RD","id":"a68gfnn41ybq","lat":34.020452,"long":-117.564304},"type":"Feature","geometry":{"type":"Point","coordinates":[-117.564304,34.020452]}},{"properties":{"city":"ONTARIO","streetconcat":"3591 SAN LORENZO RIVER RD","st":"CA","zip":91761,"node":"ON085","number":3591,"unit":"","street":"SAN LORENZO RIVER RD","id":"a68gfnmtoif9","lat":34.019502,"long":-117.573342},"type":"Feature","geometry":{"type":"Point","coordinates":[-117.573342,34.019502]}},{"properties":{"city":"ONTARIO","streetconcat":"3591 SAN LORENZO RIVER RD","st":"CA","zip":91761,"node":"ON085","number":3591,"unit":"","street":"SAN LORENZO RIVER RD","id":"a68gfnq56osc","lat":34.019502,"long":-117.573342},"type":"Feature","geometry":{"type":"Point","coordinates":[-117.573342,34.019502]}},{"properties":{"city":"ONTARIO","streetconcat":"3591 SAN LORENZO RIVER RD","st":"CA","zip":91761,"node":"ON085","number":3591,"unit":"","street":"SAN LORENZO RIVER RD","id":"a68gfnngn3u5","lat":34.019502,"long":-117.573342},"type":"Feature","geometry":{"type":"Point","coordinates":[-117.573342,34.019502]}},{"properties":{"city":"ONTARIO","streetconcat":"3583 SAN LORENZO RIVER RD","st":"CA","zip":91761,"node":"ON085","number":3583,"unit":"","street":"SAN LORENZO RIVER RD","id":"a68gfnq8ao51","lat":34.019505,"long":-117.573379},"type":"Feature","geometry":{"type":"Point","coordinates":[-117.573379,34.019505]}},{"properties":{"city":"ONTARIO","streetconcat":"3583 SAN LORENZO RIVER RD","st":"CA","zip":91761,"node":"ON085","number":3583,"unit":"","street":"SAN LORENZO RIVER RD","id":"a68gfngpmlut","lat":34.019505,"long":-117.573379},"type":"Feature","geometry":{"type":"Point","coordinates":[-117.573379,34.019505]}},{"properties":{"city":"ONTARIO","streetconcat":"3583 SAN LORENZO RIVER RD","st":"CA","zip":91761,"node":"ON085","number":3583,"unit":"","street":"SAN LORENZO RIVER RD","id":"a68gfnld7dzf","lat":34.019505,"long":-117.573379},"type":"Feature","geometry":{"type":"Point","coordinates":[-117.573379,34.019505]}},{"properties":{"city":"ONTARIO","streetconcat":"3583 SAN LORENZO RIVER RD","st":"CA","zip":91761,"node":"ON085","number":3583,"unit":"","street":"SAN LORENZO RIVER RD","id":"a68gfnvvn8d4","lat":34.019505,"long":-117.573379},"type":"Feature","geometry":{"type":"Point","coordinates":[-117.573379,34.019505]}},{"properties":{"city":"ONTARIO","streetconcat":"3583 SAN LORENZO RIVER RD","st":"CA","zip":91761,"node":"ON085","number":3583,"unit":"","street":"SAN LORENZO RIVER RD","id":"a68gfnvk4u9x","lat":34.019505,"long":-117.573379},"type":"Feature","geometry":{"type":"Point","coordinates":[-117.573379,34.019505]}},{"properties":{"city":"ONTARIO","streetconcat":"3583 SAN LORENZO RIVER RD","st":"CA","zip":91761,"node":"ON085","number":3583,"unit":"","street":"SAN LORENZO RIVER RD","id":"a68gfnh8jkhp","lat":34.019505,"long":-117.573379},"type":"Feature","geometry":{"type":"Point","coordinates":[-117.573379,34.019505]}},{"properties":{"city":"ONTARIO","streetconcat":"3577 STRAWBERRY CREEK PL","st":"CA","zip":91761,"node":"ON085","number":3577,"unit":"","street":"STRAWBERRY CREEK PL","id":"a68gfnodnzv9","lat":34.020612,"long":-117.573922},"type":"Feature","geometry":{"type":"Point","coordinates":[-117.573922,34.020612]}},{"properties":{"city":"ONTARIO","streetconcat":"3577 STRAWBERRY CREEK PL","st":"CA","zip":91761,"node":"ON085","number":3577,"unit":"","street":"STRAWBERRY CREEK PL","id":"a68gfnkzr1a8","lat":34.020612,"long":-117.573922},"type":"Feature","geometry":{"type":"Point","coordinates":[-117.573922,34.020612]}},{"properties":{"city":"ONTARIO","streetconcat":"3577 STRAWBERRY CREEK PL","st":"CA","zip":91761,"node":"ON085","number":3577,"unit":"","street":"STRAWBERRY CREEK PL","id":"a68gfnqmodq4","lat":34.020612,"long":-117.573922},"type":"Feature","geometry":{"type":"Point","coordinates":[-117.573922,34.020612]}},{"properties":{"city":"ONTARIO","streetconcat":"3944 AMERICAN RIVER RD","st":"CA","zip":91761,"node":"ON085","number":3944,"unit":"","street":"AMERICAN RIVER RD","id":"a68gfnudz8l8","lat":34.020186,"long":-117.564509},"type":"Feature","geometry":{"type":"Point","coordinates":[-117.564509,34.020186]}},{"properties":{"city":"ONTARIO","streetconcat":"3567 SAN LORENZO RIVER RD","st":"CA","zip":91761,"node":"ON085","number":3567,"unit":"","street":"SAN LORENZO RIVER RD","id":"a68gfnvront2","lat":34.019507,"long":-117.573534},"type":"Feature","geometry":{"type":"Point","coordinates":[-117.573534,34.019507]}},{"properties":{"city":"ONTARIO","streetconcat":"3567 SAN LORENZO RIVER RD","st":"CA","zip":91761,"node":"ON085","number":3567,"unit":"","street":"SAN LORENZO RIVER RD","id":"a68gfnpeo37h","lat":34.019507,"long":-117.573534},"type":"Feature","geometry":{"type":"Point","coordinates":[-117.573534,34.019507]}},{"properties":{"city":"ONTARIO","streetconcat":"3567 SAN LORENZO RIVER RD","st":"CA","zip":91761,"node":"ON085","number":3567,"unit":"","street":"SAN LORENZO RIVER RD","id":"a68gfnigsewo","lat":34.019507,"long":-117.573534},"type":"Feature","geometry":{"type":"Point","coordinates":[-117.573534,34.019507]}},{"properties":{"city":"ONTARIO","streetconcat":"3565 STRAWBERRY CREEK PL","st":"CA","zip":91761,"node":"ON085","number":3565,"unit":"","street":"STRAWBERRY CREEK PL","id":"a68gfnn6e26w","lat":34.020612,"long":-117.57416},"type":"Feature","geometry":{"type":"Point","coordinates":[-117.57416,34.020612]}},{"properties":{"city":"ONTARIO","streetconcat":"3954 COLORADO RIVER RD","st":"CA","zip":91761,"node":"ON085","number":3954,"unit":"","street":"COLORADO RIVER RD","id":"a68gfntvq33t","lat":34.021524,"long":-117.563701},"type":"Feature","geometry":{"type":"Point","coordinates":[-117.563701,34.021524]}},{"properties":{"city":"ONTARIO","streetconcat":"3565 STRAWBERRY CREEK PL","st":"CA","zip":91761,"node":"ON085","number":3565,"unit":"","street":"STRAWBERRY CREEK PL","id":"a68gfnlsbnya","lat":34.020612,"long":-117.57416},"type":"Feature","geometry":{"type":"Point","coordinates":[-117.57416,34.020612]}},{"properties":{"city":"ONTARIO","streetconcat":"3565 STRAWBERRY CREEK PL","st":"CA","zip":91761,"node":"ON085","number":3565,"unit":"","street":"STRAWBERRY CREEK PL","id":"a68gfnvgje1j","lat":34.020612,"long":-117.57416},"type":"Feature","geometry":{"type":"Point","coordinates":[-117.57416,34.020612]}},{"properties":{"city":"ONTARIO","streetconcat":"3564 STRAWBERRY CREEK PL","st":"CA","zip":91761,"node":"ON085","number":3564,"unit":"","street":"STRAWBERRY CREEK PL","id":"a68gfntk2084","lat":34.020288,"long":-117.57416},"type":"Feature","geometry":{"type":"Point","coordinates":[-117.57416,34.020288]}},{"properties":{"city":"ONTARIO","streetconcat":"3564 STRAWBERRY CREEK PL","st":"CA","zip":91761,"node":"ON085","number":3564,"unit":"","street":"STRAWBERRY CREEK PL","id":"a68gfnkre77n","lat":34.020288,"long":-117.57416},"type":"Feature","geometry":{"type":"Point","coordinates":[-117.57416,34.020288]}},{"properties":{"city":"ONTARIO","streetconcat":"3564 STRAWBERRY CREEK PL","st":"CA","zip":91761,"node":"ON085","number":3564,"unit":"","street":"STRAWBERRY CREEK PL","id":"a68gfnmpw0zs","lat":34.020288,"long":-117.57416},"type":"Feature","geometry":{"type":"Point","coordinates":[-117.57416,34.020288]}},{"properties":{"city":"ONTARIO","streetconcat":"3410 GINGERWOOD RD","st":"CA","zip":91761,"node":"ON085","number":3410,"unit":"","street":"GINGERWOOD RD","id":"a68gfnk78til","lat":34.020022,"long":-117.57669},"type":"Feature","geometry":{"type":"Point","coordinates":[-117.57669,34.020022]}},{"properties":{"city":"ONTARIO","streetconcat":"3563 GINGERWOOD RD","st":"CA","zip":91761,"node":"ON085","number":3563,"unit":"","street":"GINGERWOOD RD","id":"a68gfnv67i2o","lat":34.019941,"long":-117.573925},"type":"Feature","geometry":{"type":"Point","coordinates":[-117.573925,34.019941]}},{"properties":{"city":"ONTARIO","streetconcat":"3563 GINGERWOOD RD","st":"CA","zip":91761,"node":"ON085","number":3563,"unit":"","street":"GINGERWOOD RD","id":"a68gfngomzxy","lat":34.019941,"long":-117.573925},"type":"Feature","geometry":{"type":"Point","coordinates":[-117.573925,34.019941]}},{"properties":{"city":"ONTARIO","streetconcat":"3563 GINGERWOOD RD","st":"CA","zip":91761,"node":"ON085","number":3563,"unit":"","street":"GINGERWOOD RD","id":"a68gfnmk66vb","lat":34.019941,"long":-117.573925},"type":"Feature","geometry":{"type":"Point","coordinates":[-117.573925,34.019941]}},{"properties":{"city":"ONTARIO","streetconcat":"3559 STRAWBERRY CREEK PL","st":"CA","zip":91761,"node":"ON085","number":3559,"unit":"","street":"STRAWBERRY CREEK PL","id":"a68gfnvvqia0","lat":34.020612,"long":-117.574279},"type":"Feature","geometry":{"type":"Point","coordinates":[-117.574279,34.020612]}},{"properties":{"city":"ONTARIO","streetconcat":"3944 AMERICAN RIVER RD","st":"CA","zip":91761,"node":"ON085","number":3944,"unit":"","street":"AMERICAN RIVER RD","id":"a68gfnqa65x0","lat":34.020186,"long":-117.564509},"type":"Feature","geometry":{"type":"Point","coordinates":[-117.564509,34.020186]}},{"properties":{"city":"ONTARIO","streetconcat":"3559 STRAWBERRY CREEK PL","st":"CA","zip":91761,"node":"ON085","number":3559,"unit":"","street":"STRAWBERRY CREEK PL","id":"a68gfnko00ag","lat":34.020612,"long":-117.574279},"type":"Feature","geometry":{"type":"Point","coordinates":[-117.574279,34.020612]}},{"properties":{"city":"ONTARIO","streetconcat":"3954 COLORADO RIVER RD","st":"CA","zip":91761,"node":"ON085","number":3954,"unit":"","street":"COLORADO RIVER RD","id":"a68gfnpaytzg","lat":34.021524,"long":-117.563701},"type":"Feature","geometry":{"type":"Point","coordinates":[-117.563701,34.021524]}},{"properties":{"city":"ONTARIO","streetconcat":"3944 AMERICAN RIVER RD","st":"CA","zip":91761,"node":"ON085","number":3944,"unit":"","street":"AMERICAN RIVER RD","id":"a68gfnistlys","lat":34.020186,"long":-117.564509},"type":"Feature","geometry":{"type":"Point","coordinates":[-117.564509,34.020186]}},{"properties":{"city":"ONTARIO","streetconcat":"3559 STRAWBERRY CREEK PL","st":"CA","zip":91761,"node":"ON085","number":3559,"unit":"","street":"STRAWBERRY CREEK PL","id":"a68gfnl42bbs","lat":34.020612,"long":-117.574279},"type":"Feature","geometry":{"type":"Point","coordinates":[-117.574279,34.020612]}},{"properties":{"city":"ONTARIO","streetconcat":"3558 STRAWBERRY CREEK PL","st":"CA","zip":91761,"node":"ON085","number":3558,"unit":"","street":"STRAWBERRY CREEK PL","id":"a68gfnllxyot","lat":34.020288,"long":-117.574279},"type":"Feature","geometry":{"type":"Point","coordinates":[-117.574279,34.020288]}},{"properties":{"city":"ONTARIO","streetconcat":"3558 STRAWBERRY CREEK PL","st":"CA","zip":91761,"node":"ON085","number":3558,"unit":"","street":"STRAWBERRY CREEK PL","id":"a68gfnjbezlu","lat":34.020288,"long":-117.574279},"type":"Feature","geometry":{"type":"Point","coordinates":[-117.574279,34.020288]}},{"properties":{"city":"ONTARIO","streetconcat":"3954 COLORADO RIVER RD","st":"CA","zip":91761,"node":"ON085","number":3954,"unit":"","street":"COLORADO RIVER RD","id":"a68gfntzk908","lat":34.021524,"long":-117.563701},"type":"Feature","geometry":{"type":"Point","coordinates":[-117.563701,34.021524]}},{"properties":{"city":"ONTARIO","streetconcat":"3913 AMERICAN RIVER RD","st":"CA","zip":91761,"node":"ON085","number":3913,"unit":"","street":"AMERICAN RIVER RD","id":"a68gfnkn91au","lat":34.020492,"long":-117.565559},"type":"Feature","geometry":{"type":"Point","coordinates":[-117.565559,34.020492]}},{"properties":{"city":"ONTARIO","streetconcat":"3944 AMERICAN RIVER RD","st":"CA","zip":91761,"node":"ON085","number":3944,"unit":"","street":"AMERICAN RIVER RD","id":"a68gfnjajtp3","lat":34.020186,"long":-117.564509},"type":"Feature","geometry":{"type":"Point","coordinates":[-117.564509,34.020186]}},{"properties":{"city":"ONTARIO","streetconcat":"3558 STRAWBERRY CREEK PL","st":"CA","zip":91761,"node":"ON085","number":3558,"unit":"","street":"STRAWBERRY CREEK PL","id":"a68gfnnnz2ce","lat":34.020288,"long":-117.574279},"type":"Feature","geometry":{"type":"Point","coordinates":[-117.574279,34.020288]}},{"properties":{"city":"ONTARIO","streetconcat":"3557 GINGERWOOD RD","st":"CA","zip":91761,"node":"ON085","number":3557,"unit":"","street":"GINGERWOOD RD","id":"a68gfnwa0rf6","lat":34.019942,"long":-117.574028},"type":"Feature","geometry":{"type":"Point","coordinates":[-117.574028,34.019942]}},{"properties":{"city":"ONTARIO","streetconcat":"3557 GINGERWOOD RD","st":"CA","zip":91761,"node":"ON085","number":3557,"unit":"","street":"GINGERWOOD RD","id":"a68gfntoik0u","lat":34.019942,"long":-117.574028},"type":"Feature","geometry":{"type":"Point","coordinates":[-117.574028,34.019942]}},{"properties":{"city":"ONTARIO","streetconcat":"3557 GINGERWOOD RD","st":"CA","zip":91761,"node":"ON085","number":3557,"unit":"","street":"GINGERWOOD RD","id":"a68gfnvp3tb6","lat":34.019942,"long":-117.574028},"type":"Feature","geometry":{"type":"Point","coordinates":[-117.574028,34.019942]}},{"properties":{"city":"ONTARIO","streetconcat":"3913 AMERICAN RIVER RD","st":"CA","zip":91761,"node":"ON085","number":3913,"unit":"","street":"AMERICAN RIVER RD","id":"a68gfnn4jlpk","lat":34.020492,"long":-117.565559},"type":"Feature","geometry":{"type":"Point","coordinates":[-117.565559,34.020492]}},{"properties":{"city":"ONTARIO","streetconcat":"2914 SAINT TROPEZ DR","st":"CA","zip":91761,"node":"ON085","number":2914,"unit":"","street":"SAINT TROPEZ DR","id":"a68gfnsukt9f","lat":34.020028,"long":-117.576984},"type":"Feature","geometry":{"type":"Point","coordinates":[-117.576984,34.020028]}},{"properties":{"city":"ONTARIO","streetconcat":"3415 CEDARGLEN RD","st":"CA","zip":91761,"node":"ON085","number":3415,"unit":"","street":"CEDARGLEN RD","id":"a68gfnn39wrr","lat":34.02174,"long":-117.576621},"type":"Feature","geometry":{"type":"Point","coordinates":[-117.576621,34.02174]}},{"properties":{"city":"ONTARIO","streetconcat":"2942 TUOLUMNE PL","st":"CA","zip":91761,"node":"ON085","number":2942,"unit":"","street":"TUOLUMNE PL","id":"a68gfnvf6akq","lat":34.019729,"long":-117.573122},"type":"Feature","geometry":{"type":"Point","coordinates":[-117.573122,34.019729]}},{"properties":{"city":"ONTARIO","streetconcat":"3913 AMERICAN RIVER RD","st":"CA","zip":91761,"node":"ON085","number":3913,"unit":"","street":"AMERICAN RIVER RD","id":"a68gfnnnbb9h","lat":34.020492,"long":-117.565559},"type":"Feature","geometry":{"type":"Point","coordinates":[-117.565559,34.020492]}},{"properties":{"city":"ONTARIO","streetconcat":"3914 YUBA RIVER DR","st":"CA","zip":91761,"node":"ON085","number":3914,"unit":"","street":"YUBA RIVER DR","id":"a68gfnuzctms","lat":34.022312,"long":-117.565382},"type":"Feature","geometry":{"type":"Point","coordinates":[-117.565382,34.022312]}},{"properties":{"city":"ONTARIO","streetconcat":"3914 SAN LORENZO RIVER RD","st":"CA","zip":91761,"node":"ON085","number":3914,"unit":"","street":"SAN LORENZO RIVER RD","id":"a68gfnhd1nh2","lat":34.019468,"long":-117.565378},"type":"Feature","geometry":{"type":"Point","coordinates":[-117.565378,34.019468]}},{"properties":{"city":"ONTARIO","streetconcat":"3914 SAN LORENZO RIVER RD","st":"CA","zip":91761,"node":"ON085","number":3914,"unit":"","street":"SAN LORENZO RIVER RD","id":"a68gfnltwua8","lat":34.019468,"long":-117.565378},"type":"Feature","geometry":{"type":"Point","coordinates":[-117.565378,34.019468]}},{"properties":{"city":"ONTARIO","streetconcat":"3551 SAN LORENZO RIVER RD","st":"CA","zip":91761,"node":"ON085","number":3551,"unit":"","street":"SAN LORENZO RIVER RD","id":"a68gfnkepfpe","lat":34.019509,"long":-117.57369},"type":"Feature","geometry":{"type":"Point","coordinates":[-117.57369,34.019509]}},{"properties":{"city":"ONTARIO","streetconcat":"3551 SAN LORENZO RIVER RD","st":"CA","zip":91761,"node":"ON085","number":3551,"unit":"","street":"SAN LORENZO RIVER RD","id":"a68gfnr1wxru","lat":34.019509,"long":-117.57369},"type":"Feature","geometry":{"type":"Point","coordinates":[-117.57369,34.019509]}},{"properties":{"city":"ONTARIO","streetconcat":"3551 SAN LORENZO RIVER RD","st":"CA","zip":91761,"node":"ON085","number":3551,"unit":"","street":"SAN LORENZO RIVER RD","id":"a68gfnvz5rbp","lat":34.019509,"long":-117.57369},"type":"Feature","geometry":{"type":"Point","coordinates":[-117.57369,34.019509]}},{"properties":{"city":"ONTARIO","streetconcat":"3551 SAN LORENZO RIVER RD","st":"CA","zip":91761,"node":"ON085","number":3551,"unit":"","street":"SAN LORENZO RIVER RD","id":"a68gfni1cnn7","lat":34.019509,"long":-117.57369},"type":"Feature","geometry":{"type":"Point","coordinates":[-117.57369,34.019509]}},{"properties":{"city":"ONTARIO","streetconcat":"3551 SAN LORENZO RIVER RD","st":"CA","zip":91761,"node":"ON085","number":3551,"unit":"","street":"SAN LORENZO RIVER RD","id":"a68gfni4hty8","lat":34.019509,"long":-117.57369},"type":"Feature","geometry":{"type":"Point","coordinates":[-117.57369,34.019509]}},{"properties":{"city":"ONTARIO","streetconcat":"3914 AMERICAN RIVER RD","st":"CA","zip":91761,"node":"ON085","number":3914,"unit":"","street":"AMERICAN RIVER RD","id":"a68gfnqshc3s","lat":34.020168,"long":-117.565494},"type":"Feature","geometry":{"type":"Point","coordinates":[-117.565494,34.020168]}},{"properties":{"city":"ONTARIO","streetconcat":"3940 YUBA RIVER DR","st":"CA","zip":91761,"node":"ON085","number":3940,"unit":"","street":"YUBA RIVER DR","id":"a68gfnnz9y3b","lat":34.022757,"long":-117.563705},"type":"Feature","geometry":{"type":"Point","coordinates":[-117.563705,34.022757]}},{"properties":{"city":"ONTARIO","streetconcat":"3914 SAN LORENZO RIVER RD","st":"CA","zip":91761,"node":"ON085","number":3914,"unit":"","street":"SAN LORENZO RIVER RD","id":"a68gfnkjdyf6","lat":34.019468,"long":-117.565378},"type":"Feature","geometry":{"type":"Point","coordinates":[-117.565378,34.019468]}},{"properties":{"city":"ONTARIO","streetconcat":"3914 YUBA RIVER DR","st":"CA","zip":91761,"node":"ON085","number":3914,"unit":"","street":"YUBA RIVER DR","id":"a68gfnhbjgy1","lat":34.022312,"long":-117.565382},"type":"Feature","geometry":{"type":"Point","coordinates":[-117.565382,34.022312]}},{"properties":{"city":"ONTARIO","streetconcat":"3551 SAN LORENZO RIVER RD","st":"CA","zip":91761,"node":"ON085","number":3551,"unit":"","street":"SAN LORENZO RIVER RD","id":"a68gfntc7o4a","lat":34.019509,"long":-117.57369},"type":"Feature","geometry":{"type":"Point","coordinates":[-117.57369,34.019509]}},{"properties":{"city":"ONTARIO","streetconcat":"3551 SAN LORENZO RIVER RD","st":"CA","zip":91761,"node":"ON085","number":3551,"unit":"","street":"SAN LORENZO RIVER RD","id":"a68gfnralcsj","lat":34.019509,"long":-117.57369},"type":"Feature","geometry":{"type":"Point","coordinates":[-117.57369,34.019509]}},{"properties":{"city":"ONTARIO","streetconcat":"3940 YUBA RIVER DR","st":"CA","zip":91761,"node":"ON085","number":3940,"unit":"","street":"YUBA RIVER DR","id":"a68gfnqs4j6r","lat":34.022757,"long":-117.563705},"type":"Feature","geometry":{"type":"Point","coordinates":[-117.563705,34.022757]}},{"properties":{"city":"ONTARIO","streetconcat":"3410 GINGERWOOD RD","st":"CA","zip":91761,"node":"ON085","number":3410,"unit":"","street":"GINGERWOOD RD","id":"a68gfnred7dn","lat":34.020022,"long":-117.57669},"type":"Feature","geometry":{"type":"Point","coordinates":[-117.57669,34.020022]}},{"properties":{"city":"ONTARIO","streetconcat":"3551 SAN LORENZO RIVER RD","st":"CA","zip":91761,"node":"ON085","number":3551,"unit":"","street":"SAN LORENZO RIVER RD","id":"a68gfnul3rd0","lat":34.019509,"long":-117.57369},"type":"Feature","geometry":{"type":"Point","coordinates":[-117.57369,34.019509]}},{"properties":{"city":"ONTARIO","streetconcat":"3551 SAN LORENZO RIVER RD","st":"CA","zip":91761,"node":"ON085","number":3551,"unit":"","street":"SAN LORENZO RIVER RD","id":"a68gfnp15cye","lat":34.019509,"long":-117.57369},"type":"Feature","geometry":{"type":"Point","coordinates":[-117.57369,34.019509]}},{"properties":{"city":"ONTARIO","streetconcat":"3410 GINGERWOOD RD","st":"CA","zip":91761,"node":"ON085","number":3410,"unit":"","street":"GINGERWOOD RD","id":"a68gfnlk6d7s","lat":34.020022,"long":-117.57669},"type":"Feature","geometry":{"type":"Point","coordinates":[-117.57669,34.020022]}},{"properties":{"city":"ONTARIO","streetconcat":"3410 GINGERWOOD RD","st":"CA","zip":91761,"node":"ON085","number":3410,"unit":"","street":"GINGERWOOD RD","id":"a68gfntphhen","lat":34.020022,"long":-117.57669},"type":"Feature","geometry":{"type":"Point","coordinates":[-117.57669,34.020022]}},{"properties":{"city":"ONTARIO","streetconcat":"3914 AMERICAN RIVER RD","st":"CA","zip":91761,"node":"ON085","number":3914,"unit":"","street":"AMERICAN RIVER RD","id":"a68gfnprjku9","lat":34.020168,"long":-117.565494},"type":"Feature","geometry":{"type":"Point","coordinates":[-117.565494,34.020168]}},{"properties":{"city":"ONTARIO","streetconcat":"3415 CEDARGLEN RD","st":"CA","zip":91761,"node":"ON085","number":3415,"unit":"","street":"CEDARGLEN RD","id":"a68gfnma1wi1","lat":34.02174,"long":-117.576621},"type":"Feature","geometry":{"type":"Point","coordinates":[-117.576621,34.02174]}},{"properties":{"city":"ONTARIO","streetconcat":"2942 TUOLUMNE PL","st":"CA","zip":91761,"node":"ON085","number":2942,"unit":"","street":"TUOLUMNE PL","id":"a68gfns1pvjz","lat":34.019729,"long":-117.573122},"type":"Feature","geometry":{"type":"Point","coordinates":[-117.573122,34.019729]}},{"properties":{"city":"ONTARIO","streetconcat":"2942 TUOLUMNE PL","st":"CA","zip":91761,"node":"ON085","number":2942,"unit":"","street":"TUOLUMNE PL","id":"a68gfntiskha","lat":34.019729,"long":-117.573122},"type":"Feature","geometry":{"type":"Point","coordinates":[-117.573122,34.019729]}},{"properties":{"city":"ONTARIO","streetconcat":"3914 AMERICAN RIVER RD","st":"CA","zip":91761,"node":"ON085","number":3914,"unit":"","street":"AMERICAN RIVER RD","id":"a68gfntz14df","lat":34.020168,"long":-117.565494},"type":"Feature","geometry":{"type":"Point","coordinates":[-117.565494,34.020168]}},{"properties":{"city":"ONTARIO","streetconcat":"3925 YUBA RIVER DR","st":"CA","zip":91761,"node":"ON085","number":3925,"unit":"","street":"YUBA RIVER DR","id":"a68gfnip82st","lat":34.022586,"long":-117.565461},"type":"Feature","geometry":{"type":"Point","coordinates":[-117.565461,34.022586]}},{"properties":{"city":"ONTARIO","streetconcat":"3409 CEDARGLEN RD","st":"CA","zip":91761,"node":"ON085","number":3409,"unit":"","street":"CEDARGLEN RD","id":"a68gfnlpyzjn","lat":34.021733,"long":-117.576682},"type":"Feature","geometry":{"type":"Point","coordinates":[-117.576682,34.021733]}},{"properties":{"city":"ONTARIO","streetconcat":"3944 AMERICAN RIVER RD","st":"CA","zip":91761,"node":"ON085","number":3944,"unit":"","street":"AMERICAN RIVER RD","id":"a68gfnu20cq1","lat":34.020186,"long":-117.564509},"type":"Feature","geometry":{"type":"Point","coordinates":[-117.564509,34.020186]}},{"properties":{"city":"ONTARIO","streetconcat":"3924 YUBA RIVER DR","st":"CA","zip":91761,"node":"ON085","number":3924,"unit":"","street":"YUBA RIVER DR","id":"a68gfntp664r","lat":34.0224,"long":-117.564382},"type":"Feature","geometry":{"type":"Point","coordinates":[-117.564382,34.0224]}},{"properties":{"city":"ONTARIO","streetconcat":"3944 AMERICAN RIVER RD","st":"CA","zip":91761,"node":"ON085","number":3944,"unit":"","street":"AMERICAN RIVER RD","id":"a68gfnhodayf","lat":34.020186,"long":-117.564509},"type":"Feature","geometry":{"type":"Point","coordinates":[-117.564509,34.020186]}},{"properties":{"city":"ONTARIO","streetconcat":"3914 AMERICAN RIVER RD","st":"CA","zip":91761,"node":"ON085","number":3914,"unit":"","street":"AMERICAN RIVER RD","id":"a68gfnt9jpy4","lat":34.020168,"long":-117.565494},"type":"Feature","geometry":{"type":"Point","coordinates":[-117.565494,34.020168]}},{"properties":{"city":"ONTARIO","streetconcat":"2855 KINGS RIVER LN","st":"CA","zip":91761,"node":"ON085","number":2855,"unit":"","street":"KINGS RIVER LN","id":"a68gfnim0fuj","lat":34.021245,"long":-117.566856},"type":"Feature","geometry":{"type":"Point","coordinates":[-117.566856,34.021245]}},{"properties":{"city":"ONTARIO","streetconcat":"3924 YUBA RIVER DR","st":"CA","zip":91761,"node":"ON085","number":3924,"unit":"","street":"YUBA RIVER DR","id":"a68gfnn27c6c","lat":34.0224,"long":-117.564382},"type":"Feature","geometry":{"type":"Point","coordinates":[-117.564382,34.0224]}},{"properties":{"city":"ONTARIO","streetconcat":"3914 AMERICAN RIVER RD","st":"CA","zip":91761,"node":"ON085","number":3914,"unit":"","street":"AMERICAN RIVER RD","id":"a68gfns8dxzx","lat":34.020168,"long":-117.565494},"type":"Feature","geometry":{"type":"Point","coordinates":[-117.565494,34.020168]}},{"properties":{"city":"ONTARIO","streetconcat":"3416 CEDARGLEN RD","st":"CA","zip":91761,"node":"ON085","number":3416,"unit":"","street":"CEDARGLEN RD","id":"a68gfnq7ulxh","lat":34.021476,"long":-117.576557},"type":"Feature","geometry":{"type":"Point","coordinates":[-117.576557,34.021476]}},{"properties":{"city":"ONTARIO","streetconcat":"3843 YUBA RIVER DR","st":"CA","zip":91761,"node":"ON085","number":3843,"unit":"","street":"YUBA RIVER DR","id":"a68gfnvcqah5","lat":34.021826,"long":-117.566994},"type":"Feature","geometry":{"type":"Point","coordinates":[-117.566994,34.021826]}},{"properties":{"city":"ONTARIO","streetconcat":"3845 COLORADO RIVER RD","st":"CA","zip":91761,"node":"ON085","number":3845,"unit":"","street":"COLORADO RIVER RD","id":"a68gfnsknno3","lat":34.02123,"long":-117.566587},"type":"Feature","geometry":{"type":"Point","coordinates":[-117.566587,34.02123]}},{"properties":{"city":"ONTARIO","streetconcat":"3845 COLORADO RIVER RD","st":"CA","zip":91761,"node":"ON085","number":3845,"unit":"","street":"COLORADO RIVER RD","id":"a68gfnqgwit0","lat":34.02123,"long":-117.566587},"type":"Feature","geometry":{"type":"Point","coordinates":[-117.566587,34.02123]}},{"properties":{"city":"ONTARIO","streetconcat":"3845 COLORADO RIVER RD","st":"CA","zip":91761,"node":"ON085","number":3845,"unit":"","street":"COLORADO RIVER RD","id":"a68gfnhrbg63","lat":34.02123,"long":-117.566587},"type":"Feature","geometry":{"type":"Point","coordinates":[-117.566587,34.02123]}},{"properties":{"city":"ONTARIO","streetconcat":"3846 YUBA RIVER DR","st":"CA","zip":91761,"node":"ON085","number":3846,"unit":"","street":"YUBA RIVER DR","id":"a68gfnsd437b","lat":34.021612,"long":-117.566795},"type":"Feature","geometry":{"type":"Point","coordinates":[-117.566795,34.021612]}},{"properties":{"city":"ONTARIO","streetconcat":"3914 AMERICAN RIVER RD","st":"CA","zip":91761,"node":"ON085","number":3914,"unit":"","street":"AMERICAN RIVER RD","id":"a68gfnwe94cl","lat":34.020168,"long":-117.565494},"type":"Feature","geometry":{"type":"Point","coordinates":[-117.565494,34.020168]}},{"properties":{"city":"ONTARIO","streetconcat":"3914 YUBA RIVER DR","st":"CA","zip":91761,"node":"ON085","number":3914,"unit":"","street":"YUBA RIVER DR","id":"a68gfnlxy8ot","lat":34.022312,"long":-117.565382},"type":"Feature","geometry":{"type":"Point","coordinates":[-117.565382,34.022312]}},{"properties":{"city":"ONTARIO","streetconcat":"3846 YUBA RIVER DR","st":"CA","zip":91761,"node":"ON085","number":3846,"unit":"","street":"YUBA RIVER DR","id":"a68gfnjz0wf8","lat":34.021612,"long":-117.566795},"type":"Feature","geometry":{"type":"Point","coordinates":[-117.566795,34.021612]}},{"properties":{"city":"ONTARIO","streetconcat":"2855 KINGS RIVER LN","st":"CA","zip":91761,"node":"ON085","number":2855,"unit":"","street":"KINGS RIVER LN","id":"a68gfnucoyma","lat":34.021245,"long":-117.566856},"type":"Feature","geometry":{"type":"Point","coordinates":[-117.566856,34.021245]}},{"properties":{"city":"ONTARIO","streetconcat":"3547 STRAWBERRY CREEK PL","st":"CA","zip":91761,"node":"ON085","number":3547,"unit":"","street":"STRAWBERRY CREEK PL","id":"a68gfnnd3ln1","lat":34.020612,"long":-117.574518},"type":"Feature","geometry":{"type":"Point","coordinates":[-117.574518,34.020612]}},{"properties":{"city":"ONTARIO","streetconcat":"2914 SAINT TROPEZ DR","st":"CA","zip":91761,"node":"ON085","number":2914,"unit":"","street":"SAINT TROPEZ DR","id":"a68gfnpdepk8","lat":34.020028,"long":-117.576984},"type":"Feature","geometry":{"type":"Point","coordinates":[-117.576984,34.020028]}},{"properties":{"city":"ONTARIO","streetconcat":"2855 KINGS RIVER LN","st":"CA","zip":91761,"node":"ON085","number":2855,"unit":"","street":"KINGS RIVER LN","id":"a68gfnkr13rh","lat":34.021245,"long":-117.566856},"type":"Feature","geometry":{"type":"Point","coordinates":[-117.566856,34.021245]}},{"properties":{"city":"ONTARIO","streetconcat":"2855 RUSSIAN RIVER DR","st":"CA","zip":91761,"node":"ON085","number":2855,"unit":"","street":"RUSSIAN RIVER DR","id":"a68gfnln7587","lat":34.022624,"long":-117.564547},"type":"Feature","geometry":{"type":"Point","coordinates":[-117.564547,34.022624]}},{"properties":{"city":"ONTARIO","streetconcat":"2922 TUOLUMNE PL","st":"CA","zip":91761,"node":"ON085","number":2922,"unit":"","street":"TUOLUMNE PL","id":"a68gfnhy1yu0","lat":34.020004,"long":-117.573024},"type":"Feature","geometry":{"type":"Point","coordinates":[-117.573024,34.020004]}},{"properties":{"city":"ONTARIO","streetconcat":"2915 HOLCOMB CREEK PL","st":"CA","zip":91761,"node":"ON085","number":2915,"unit":"","street":"HOLCOMB CREEK PL","id":"a68gfnpui5x6","lat":34.021278,"long":-117.56602},"type":"Feature","geometry":{"type":"Point","coordinates":[-117.56602,34.021278]}},{"properties":{"city":"ONTARIO","streetconcat":"3409 CEDARGLEN RD","st":"CA","zip":91761,"node":"ON085","number":3409,"unit":"","street":"CEDARGLEN RD","id":"a68gfnkrnkd3","lat":34.021733,"long":-117.576682},"type":"Feature","geometry":{"type":"Point","coordinates":[-117.576682,34.021733]}},{"properties":{"city":"ONTARIO","streetconcat":"3841 AMERICAN RIVER RD","st":"CA","zip":91761,"node":"ON085","number":3841,"unit":"","street":"AMERICAN RIVER RD","id":"a68gfnwjg4yw","lat":34.020166,"long":-117.566573},"type":"Feature","geometry":{"type":"Point","coordinates":[-117.566573,34.020166]}},{"properties":{"city":"ONTARIO","streetconcat":"3841 AMERICAN RIVER RD","st":"CA","zip":91761,"node":"ON085","number":3841,"unit":"","street":"AMERICAN RIVER RD","id":"a68gfnust4q4","lat":34.020166,"long":-117.566573},"type":"Feature","geometry":{"type":"Point","coordinates":[-117.566573,34.020166]}},{"properties":{"city":"ONTARIO","streetconcat":"3409 CEDARGLEN RD","st":"CA","zip":91761,"node":"ON085","number":3409,"unit":"","street":"CEDARGLEN RD","id":"a68gfnpsli3b","lat":34.021733,"long":-117.576682},"type":"Feature","geometry":{"type":"Point","coordinates":[-117.576682,34.021733]}},{"properties":{"city":"ONTARIO","streetconcat":"2867 KINGS RIVER LN","st":"CA","zip":91761,"node":"ON085","number":2867,"unit":"","street":"KINGS RIVER LN","id":"a68gfnmfp7zq","lat":34.021198,"long":-117.566821},"type":"Feature","geometry":{"type":"Point","coordinates":[-117.566821,34.021198]}},{"properties":{"city":"ONTARIO","streetconcat":"3841 YUBA RIVER DR","st":"CA","zip":91761,"node":"ON085","number":3841,"unit":"","street":"YUBA RIVER DR","id":"a68gfnn8uode","lat":34.021819,"long":-117.567008},"type":"Feature","geometry":{"type":"Point","coordinates":[-117.567008,34.021819]}},{"properties":{"city":"ONTARIO","streetconcat":"3841 YUBA RIVER DR","st":"CA","zip":91761,"node":"ON085","number":3841,"unit":"","street":"YUBA RIVER DR","id":"a68gfnt0vooe","lat":34.021819,"long":-117.567008},"type":"Feature","geometry":{"type":"Point","coordinates":[-117.567008,34.021819]}},{"properties":{"city":"ONTARIO","streetconcat":"2867 KINGS RIVER LN","st":"CA","zip":91761,"node":"ON085","number":2867,"unit":"","street":"KINGS RIVER LN","id":"a68gfnp812ij","lat":34.021198,"long":-117.566821},"type":"Feature","geometry":{"type":"Point","coordinates":[-117.566821,34.021198]}},{"properties":{"city":"ONTARIO","streetconcat":"2926 TUOLUMNE PL","st":"CA","zip":91761,"node":"ON085","number":2926,"unit":"","street":"TUOLUMNE PL","id":"a68gfni1yq07","lat":34.019942,"long":-117.57305},"type":"Feature","geometry":{"type":"Point","coordinates":[-117.57305,34.019942]}},{"properties":{"city":"ONTARIO","streetconcat":"2926 TUOLUMNE PL","st":"CA","zip":91761,"node":"ON085","number":2926,"unit":"","street":"TUOLUMNE PL","id":"a68gfnnvaovs","lat":34.019942,"long":-117.57305},"type":"Feature","geometry":{"type":"Point","coordinates":[-117.57305,34.019942]}},{"properties":{"city":"ONTARIO","streetconcat":"3841 YUBA RIVER DR","st":"CA","zip":91761,"node":"ON085","number":3841,"unit":"","street":"YUBA RIVER DR","id":"a68gfnhp1mb7","lat":34.021819,"long":-117.567008},"type":"Feature","geometry":{"type":"Point","coordinates":[-117.567008,34.021819]}},{"properties":{"city":"ONTARIO","streetconcat":"2943 ALDER CREEK DR","st":"CA","zip":91761,"node":"ON085","number":2943,"unit":"","street":"ALDER CREEK DR","id":"a68gfnh4xumk","lat":34.019659,"long":-117.57438},"type":"Feature","geometry":{"type":"Point","coordinates":[-117.57438,34.019659]}},{"properties":{"city":"ONTARIO","streetconcat":"2943 ALDER CREEK DR","st":"CA","zip":91761,"node":"ON085","number":2943,"unit":"","street":"ALDER CREEK DR","id":"a68gfnmrbzwm","lat":34.019659,"long":-117.57438},"type":"Feature","geometry":{"type":"Point","coordinates":[-117.57438,34.019659]}},{"properties":{"city":"ONTARIO","streetconcat":"2926 TUOLUMNE PL","st":"CA","zip":91761,"node":"ON085","number":2926,"unit":"","street":"TUOLUMNE PL","id":"a68gfnln2037","lat":34.019942,"long":-117.57305},"type":"Feature","geometry":{"type":"Point","coordinates":[-117.57305,34.019942]}},{"properties":{"city":"ONTARIO","streetconcat":"3846 YUBA RIVER DR","st":"CA","zip":91761,"node":"ON085","number":3846,"unit":"","street":"YUBA RIVER DR","id":"a68gfno5q77d","lat":34.021612,"long":-117.566795},"type":"Feature","geometry":{"type":"Point","coordinates":[-117.566795,34.021612]}},{"properties":{"city":"ONTARIO","streetconcat":"3847 AMERICAN RIVER RD","st":"CA","zip":91761,"node":"ON085","number":3847,"unit":"","street":"AMERICAN RIVER RD","id":"a68gfnp9rxwv","lat":34.020206,"long":-117.566534},"type":"Feature","geometry":{"type":"Point","coordinates":[-117.566534,34.020206]}},{"properties":{"city":"ONTARIO","streetconcat":"3847 AMERICAN RIVER RD","st":"CA","zip":91761,"node":"ON085","number":3847,"unit":"","street":"AMERICAN RIVER RD","id":"a68gfnpvo2dh","lat":34.020206,"long":-117.566534},"type":"Feature","geometry":{"type":"Point","coordinates":[-117.566534,34.020206]}},{"properties":{"city":"ONTARIO","streetconcat":"3847 AMERICAN RIVER RD","st":"CA","zip":91761,"node":"ON085","number":3847,"unit":"","street":"AMERICAN RIVER RD","id":"a68gfnpn5pk0","lat":34.020206,"long":-117.566534},"type":"Feature","geometry":{"type":"Point","coordinates":[-117.566534,34.020206]}},{"properties":{"city":"ONTARIO","streetconcat":"2867 KINGS RIVER LN","st":"CA","zip":91761,"node":"ON085","number":2867,"unit":"","street":"KINGS RIVER LN","id":"a68gfnp2v5wv","lat":34.021198,"long":-117.566821},"type":"Feature","geometry":{"type":"Point","coordinates":[-117.566821,34.021198]}},{"properties":{"city":"ONTARIO","streetconcat":"3917 YUBA RIVER DR","st":"CA","zip":91761,"node":"ON085","number":3917,"unit":"","street":"YUBA RIVER DR","id":"a68gfnt1on2z","lat":34.02245,"long":-117.565738},"type":"Feature","geometry":{"type":"Point","coordinates":[-117.565738,34.02245]}},{"properties":{"city":"ONTARIO","streetconcat":"3917 YUBA RIVER DR","st":"CA","zip":91761,"node":"ON085","number":3917,"unit":"","street":"YUBA RIVER DR","id":"a68gfnqskqj6","lat":34.02245,"long":-117.565738},"type":"Feature","geometry":{"type":"Point","coordinates":[-117.565738,34.02245]}},{"properties":{"city":"ONTARIO","streetconcat":"3917 YUBA RIVER DR","st":"CA","zip":91761,"node":"ON085","number":3917,"unit":"","street":"YUBA RIVER DR","id":"a68gfnte4glm","lat":34.02245,"long":-117.565738},"type":"Feature","geometry":{"type":"Point","coordinates":[-117.565738,34.02245]}},{"properties":{"city":"ONTARIO","streetconcat":"3917 YUBA RIVER DR","st":"CA","zip":91761,"node":"ON085","number":3917,"unit":"","street":"YUBA RIVER DR","id":"a68gfnj49w8k","lat":34.02245,"long":-117.565738},"type":"Feature","geometry":{"type":"Point","coordinates":[-117.565738,34.02245]}},{"properties":{"city":"ONTARIO","streetconcat":"3917 YUBA RIVER DR","st":"CA","zip":91761,"node":"ON085","number":3917,"unit":"","street":"YUBA RIVER DR","id":"a68gfnpykcma","lat":34.02245,"long":-117.565738},"type":"Feature","geometry":{"type":"Point","coordinates":[-117.565738,34.02245]}},{"properties":{"city":"ONTARIO","streetconcat":"3917 YUBA RIVER DR","st":"CA","zip":91761,"node":"ON085","number":3917,"unit":"","street":"YUBA RIVER DR","id":"a68gfntj37r9","lat":34.02245,"long":-117.565738},"type":"Feature","geometry":{"type":"Point","coordinates":[-117.565738,34.02245]}},{"properties":{"city":"ONTARIO","streetconcat":"3919 SAN LORENZO RIVER RD","st":"CA","zip":91761,"node":"ON085","number":3919,"unit":"","street":"SAN LORENZO RIVER RD","id":"a68gfnhkjx5x","lat":34.019792,"long":-117.565296},"type":"Feature","geometry":{"type":"Point","coordinates":[-117.565296,34.019792]}},{"properties":{"city":"ONTARIO","streetconcat":"2855 RUSSIAN RIVER DR","st":"CA","zip":91761,"node":"ON085","number":2855,"unit":"","street":"RUSSIAN RIVER DR","id":"a68gfnv9pjz2","lat":34.022624,"long":-117.564547},"type":"Feature","geometry":{"type":"Point","coordinates":[-117.564547,34.022624]}},{"properties":{"city":"ONTARIO","streetconcat":"3919 SAN LORENZO RIVER RD","st":"CA","zip":91761,"node":"ON085","number":3919,"unit":"","street":"SAN LORENZO RIVER RD","id":"a68gfnqtx8ri","lat":34.019792,"long":-117.565296},"type":"Feature","geometry":{"type":"Point","coordinates":[-117.565296,34.019792]}},{"properties":{"city":"ONTARIO","streetconcat":"3919 SAN LORENZO RIVER RD","st":"CA","zip":91761,"node":"ON085","number":3919,"unit":"","street":"SAN LORENZO RIVER RD","id":"a68gfnkietma","lat":34.019792,"long":-117.565296},"type":"Feature","geometry":{"type":"Point","coordinates":[-117.565296,34.019792]}},{"properties":{"city":"ONTARIO","streetconcat":"3920 SAN LORENZO RIVER RD","st":"CA","zip":91761,"node":"ON085","number":3920,"unit":"","street":"SAN LORENZO RIVER RD","id":"a68gfnt7954g","lat":34.019468,"long":-117.565256},"type":"Feature","geometry":{"type":"Point","coordinates":[-117.565256,34.019468]}},{"properties":{"city":"ONTARIO","streetconcat":"2855 RUSSIAN RIVER DR","st":"CA","zip":91761,"node":"ON085","number":2855,"unit":"","street":"RUSSIAN RIVER DR","id":"a68gfnlu6lz6","lat":34.022624,"long":-117.564547},"type":"Feature","geometry":{"type":"Point","coordinates":[-117.564547,34.022624]}},{"properties":{"city":"ONTARIO","streetconcat":"2855 KINGS RIVER LN","st":"CA","zip":91761,"node":"ON085","number":2855,"unit":"","street":"KINGS RIVER LN","id":"a68gfnsz9ra9","lat":34.021245,"long":-117.566856},"type":"Feature","geometry":{"type":"Point","coordinates":[-117.566856,34.021245]}},{"properties":{"city":"ONTARIO","streetconcat":"3920 SAN LORENZO RIVER RD","st":"CA","zip":91761,"node":"ON085","number":3920,"unit":"","street":"SAN LORENZO RIVER RD","id":"a68gfnmjpgun","lat":34.019468,"long":-117.565256},"type":"Feature","geometry":{"type":"Point","coordinates":[-117.565256,34.019468]}},{"properties":{"city":"ONTARIO","streetconcat":"2915 HOLCOMB CREEK PL","st":"CA","zip":91761,"node":"ON085","number":2915,"unit":"","street":"HOLCOMB CREEK PL","id":"a68gfnk5ivla","lat":34.021278,"long":-117.56602},"type":"Feature","geometry":{"type":"Point","coordinates":[-117.56602,34.021278]}},{"properties":{"city":"ONTARIO","streetconcat":"3920 SAN LORENZO RIVER RD","st":"CA","zip":91761,"node":"ON085","number":3920,"unit":"","street":"SAN LORENZO RIVER RD","id":"a68gfnj9vuwm","lat":34.019468,"long":-117.565256},"type":"Feature","geometry":{"type":"Point","coordinates":[-117.565256,34.019468]}},{"properties":{"city":"ONTARIO","streetconcat":"3944 AMERICAN RIVER RD","st":"CA","zip":91761,"node":"ON085","number":3944,"unit":"","street":"AMERICAN RIVER RD","id":"a68gfnuak6ua","lat":34.020186,"long":-117.564509},"type":"Feature","geometry":{"type":"Point","coordinates":[-117.564509,34.020186]}},{"properties":{"city":"ONTARIO","streetconcat":"2915 HOLCOMB CREEK PL","st":"CA","zip":91761,"node":"ON085","number":2915,"unit":"","street":"HOLCOMB CREEK PL","id":"a68gfnvfczxv","lat":34.021278,"long":-117.56602},"type":"Feature","geometry":{"type":"Point","coordinates":[-117.56602,34.021278]}},{"properties":{"city":"ONTARIO","streetconcat":"3408 GINGERWOOD RD","st":"CA","zip":91761,"node":"ON085","number":3408,"unit":"","street":"GINGERWOOD RD","id":"a68gfnoq4cc9","lat":34.020031,"long":-117.576707},"type":"Feature","geometry":{"type":"Point","coordinates":[-117.576707,34.020031]}},{"properties":{"city":"ONTARIO","streetconcat":"2922 TUOLUMNE PL","st":"CA","zip":91761,"node":"ON085","number":2922,"unit":"","street":"TUOLUMNE PL","id":"a68gfnj9in2m","lat":34.020004,"long":-117.573024},"type":"Feature","geometry":{"type":"Point","coordinates":[-117.573024,34.020004]}},{"properties":{"city":"ONTARIO","streetconcat":"3841 AMERICAN RIVER RD","st":"CA","zip":91761,"node":"ON085","number":3841,"unit":"","street":"AMERICAN RIVER RD","id":"a68gfnrdm888","lat":34.020166,"long":-117.566573},"type":"Feature","geometry":{"type":"Point","coordinates":[-117.566573,34.020166]}},{"properties":{"city":"ONTARIO","streetconcat":"2922 TUOLUMNE PL","st":"CA","zip":91761,"node":"ON085","number":2922,"unit":"","street":"TUOLUMNE PL","id":"a68gfntd5upx","lat":34.020004,"long":-117.573024},"type":"Feature","geometry":{"type":"Point","coordinates":[-117.573024,34.020004]}},{"properties":{"city":"ONTARIO","streetconcat":"2916 KINGS RIVER LN","st":"CA","zip":91761,"node":"ON085","number":2916,"unit":"","street":"KINGS RIVER LN","id":"a68gfnjek7c0","lat":34.020728,"long":-117.566881},"type":"Feature","geometry":{"type":"Point","coordinates":[-117.566881,34.020728]}},{"properties":{"city":"ONTARIO","streetconcat":"2943 ALDER CREEK DR","st":"CA","zip":91761,"node":"ON085","number":2943,"unit":"","street":"ALDER CREEK DR","id":"a68gfnqhn7pb","lat":34.019659,"long":-117.57438},"type":"Feature","geometry":{"type":"Point","coordinates":[-117.57438,34.019659]}},{"properties":{"city":"ONTARIO","streetconcat":"2918 SAINT TROPEZ DR","st":"CA","zip":91761,"node":"ON085","number":2918,"unit":"","street":"SAINT TROPEZ DR","id":"a68gfnrjma50","lat":34.019999,"long":-117.577008},"type":"Feature","geometry":{"type":"Point","coordinates":[-117.577008,34.019999]}},{"properties":{"city":"ONTARIO","streetconcat":"2918 SAINT TROPEZ DR","st":"CA","zip":91761,"node":"ON085","number":2918,"unit":"","street":"SAINT TROPEZ DR","id":"a68gfnhu7wj4","lat":34.019999,"long":-117.577008},"type":"Feature","geometry":{"type":"Point","coordinates":[-117.577008,34.019999]}},{"properties":{"city":"ONTARIO","streetconcat":"2872 RUSSIAN RIVER DR","st":"CA","zip":91761,"node":"ON085","number":2872,"unit":"","street":"RUSSIAN RIVER DR","id":"a68gfnwcfi6j","lat":34.022463,"long":-117.564743},"type":"Feature","geometry":{"type":"Point","coordinates":[-117.564743,34.022463]}},{"properties":{"city":"ONTARIO","streetconcat":"3944 AMERICAN RIVER RD","st":"CA","zip":91761,"node":"ON085","number":3944,"unit":"","street":"AMERICAN RIVER RD","id":"a68gfnhkapsc","lat":34.020186,"long":-117.564509},"type":"Feature","geometry":{"type":"Point","coordinates":[-117.564509,34.020186]}},{"properties":{"city":"ONTARIO","streetconcat":"2872 RUSSIAN RIVER DR","st":"CA","zip":91761,"node":"ON085","number":2872,"unit":"","street":"RUSSIAN RIVER DR","id":"a68gfnjuzf9c","lat":34.022463,"long":-117.564743},"type":"Feature","geometry":{"type":"Point","coordinates":[-117.564743,34.022463]}},{"properties":{"city":"ONTARIO","streetconcat":"3942 COLORADO RIVER RD","st":"CA","zip":91761,"node":"ON085","number":3942,"unit":"","street":"COLORADO RIVER RD","id":"a68gfnq5sy2j","lat":34.02154,"long":-117.564083},"type":"Feature","geometry":{"type":"Point","coordinates":[-117.564083,34.02154]}},{"properties":{"city":"ONTARIO","streetconcat":"3942 COLORADO RIVER RD","st":"CA","zip":91761,"node":"ON085","number":3942,"unit":"","street":"COLORADO RIVER RD","id":"a68gfnlwwega","lat":34.02154,"long":-117.564083},"type":"Feature","geometry":{"type":"Point","coordinates":[-117.564083,34.02154]}},{"properties":{"city":"ONTARIO","streetconcat":"2918 SAINT TROPEZ DR","st":"CA","zip":91761,"node":"ON085","number":2918,"unit":"","street":"SAINT TROPEZ DR","id":"a68gfnr0qaih","lat":34.019999,"long":-117.577008},"type":"Feature","geometry":{"type":"Point","coordinates":[-117.577008,34.019999]}},{"properties":{"city":"ONTARIO","streetconcat":"2872 RUSSIAN RIVER DR","st":"CA","zip":91761,"node":"ON085","number":2872,"unit":"","street":"RUSSIAN RIVER DR","id":"a68gfnu5ple4","lat":34.022463,"long":-117.564743},"type":"Feature","geometry":{"type":"Point","coordinates":[-117.564743,34.022463]}},{"properties":{"city":"ONTARIO","streetconcat":"3416 CEDARGLEN RD","st":"CA","zip":91761,"node":"ON085","number":3416,"unit":"","street":"CEDARGLEN RD","id":"a68gfnpnnrdn","lat":34.021476,"long":-117.576557},"type":"Feature","geometry":{"type":"Point","coordinates":[-117.576557,34.021476]}},{"properties":{"city":"ONTARIO","streetconcat":"2916 KINGS RIVER LN","st":"CA","zip":91761,"node":"ON085","number":2916,"unit":"","street":"KINGS RIVER LN","id":"a68gfnjc3ahy","lat":34.020728,"long":-117.566881},"type":"Feature","geometry":{"type":"Point","coordinates":[-117.566881,34.020728]}},{"properties":{"city":"ONTARIO","streetconcat":"3408 GINGERWOOD RD","st":"CA","zip":91761,"node":"ON085","number":3408,"unit":"","street":"GINGERWOOD RD","id":"a68gfnvq89ol","lat":34.020031,"long":-117.576707},"type":"Feature","geometry":{"type":"Point","coordinates":[-117.576707,34.020031]}},{"properties":{"city":"ONTARIO","streetconcat":"2916 KINGS RIVER LN","st":"CA","zip":91761,"node":"ON085","number":2916,"unit":"","street":"KINGS RIVER LN","id":"a68gfnni67gc","lat":34.020728,"long":-117.566881},"type":"Feature","geometry":{"type":"Point","coordinates":[-117.566881,34.020728]}},{"properties":{"city":"ONTARIO","streetconcat":"3547 STRAWBERRY CREEK PL","st":"CA","zip":91761,"node":"ON085","number":3547,"unit":"","street":"STRAWBERRY CREEK PL","id":"a68gfnpdgsac","lat":34.020612,"long":-117.574518},"type":"Feature","geometry":{"type":"Point","coordinates":[-117.574518,34.020612]}},{"properties":{"city":"ONTARIO","streetconcat":"3547 STRAWBERRY CREEK PL","st":"CA","zip":91761,"node":"ON085","number":3547,"unit":"","street":"STRAWBERRY CREEK PL","id":"a68gfnlrtwfd","lat":34.020612,"long":-117.574518},"type":"Feature","geometry":{"type":"Point","coordinates":[-117.574518,34.020612]}},{"properties":{"city":"ONTARIO","streetconcat":"3850 YUBA RIVER DR","st":"CA","zip":91761,"node":"ON085","number":3850,"unit":"","street":"YUBA RIVER DR","id":"a68gfnl7ises","lat":34.021627,"long":-117.566766},"type":"Feature","geometry":{"type":"Point","coordinates":[-117.566766,34.021627]}},{"properties":{"city":"ONTARIO","streetconcat":"2852 BOISE CREEK PL","st":"CA","zip":91761,"node":"ON085","number":2852,"unit":"","street":"BOISE CREEK PL","id":"a68gfnwznmf0","lat":34.022941,"long":-117.564172},"type":"Feature","geometry":{"type":"Point","coordinates":[-117.564172,34.022941]}},{"properties":{"city":"ONTARIO","streetconcat":"2852 BOISE CREEK PL","st":"CA","zip":91761,"node":"ON085","number":2852,"unit":"","street":"BOISE CREEK PL","id":"a68gfnuu77ht","lat":34.022941,"long":-117.564172},"type":"Feature","geometry":{"type":"Point","coordinates":[-117.564172,34.022941]}},{"properties":{"city":"ONTARIO","streetconcat":"2852 BOISE CREEK PL","st":"CA","zip":91761,"node":"ON085","number":2852,"unit":"","street":"BOISE CREEK PL","id":"a68gfnwhd65p","lat":34.022941,"long":-117.564172},"type":"Feature","geometry":{"type":"Point","coordinates":[-117.564172,34.022941]}},{"properties":{"city":"ONTARIO","streetconcat":"2918 TRUCKEE RIVER RD","st":"CA","zip":91761,"node":"ON085","number":2918,"unit":"","street":"TRUCKEE RIVER RD","id":"a68gfnlokvnz","lat":34.020874,"long":-117.565194},"type":"Feature","geometry":{"type":"Point","coordinates":[-117.565194,34.020874]}},{"properties":{"city":"ONTARIO","streetconcat":"2918 TRUCKEE RIVER RD","st":"CA","zip":91761,"node":"ON085","number":2918,"unit":"","street":"TRUCKEE RIVER RD","id":"a68gfnq2wou6","lat":34.020874,"long":-117.565194},"type":"Feature","geometry":{"type":"Point","coordinates":[-117.565194,34.020874]}},{"properties":{"city":"ONTARIO","streetconcat":"3924 YUBA RIVER DR","st":"CA","zip":91761,"node":"ON085","number":3924,"unit":"","street":"YUBA RIVER DR","id":"a68gfns3r6tk","lat":34.0224,"long":-117.564382},"type":"Feature","geometry":{"type":"Point","coordinates":[-117.564382,34.0224]}}],"is_temporal":false,"author":{"url":"","metadata":"","contact_name":"","contact_address":"","source":"","contact_phone":""},"source":"","pagination":{"sort":null,"start":0,"total":477,"limit":1000000},"state":"complete","tags":"","published":"2014-08-11T06:31:17-04:00","id":5882}