{"type":"FeatureCollection","data_type":"Dataset","url_type":null,"permissions":[{"permissions":{"download":true,"view":true},"group_id":"everyone"}],"classification":null,"title":"AFL Twitter - Carlton Blues","count":13,"stream_id":59054,"contributor":{"url":"http://geocommons.com/users/12003","name":"LauraHale"},"data_attributes":null,"calculation_params":null,"icon_link":null,"link":"http://geocommons.com/overlays/59054.json","extent":[-73.8085,-41.4403,153.028,51.4553],"geometry_types":["point"],"unique_name":null,"name":"AFL Twitter - Carlton Blues","feature_count":13,"description":"","next_feature":null,"is_raster":false,"short_classification":"Y","stats":{"latitude":{"max":51.4553129,"mean":-22.6861537307692,"variance":1010.5613356009,"stdev":31.7893273851602,"min":-41.440282,"median":-34.92577},"carlton blues":{"max":8,"mean":2.07692307692308,"variance":5.91025641025641,"stdev":2.43110189219959,"min":1,"median":1},"longitude":{"max":153.027892,"mean":115.759889723077,"variance":4965.8473016516,"stdev":70.4687682711398,"min":-73.8084583,"median":144.943778}},"features":[{"properties":{"city":"Adelaide","latitude":-34.92577,"carlton blues":1,"country":"Australia","postal code":null,"longitude":138.599732,"id":"a65juu2pakm1","state":"South Australia"},"type":"Feature","geometry":{"type":"Point","coordinates":[138.599732,-34.92577]}},{"properties":{"city":"Albert Park","latitude":-37.840705,"carlton blues":1,"country":"Australia","postal code":null,"longitude":144.95571,"id":"a65juuauxp09","state":"Victoria"},"type":"Feature","geometry":{"type":"Point","coordinates":[144.95571,-37.840705]}},{"properties":{"city":"Brisbane","latitude":-27.46758,"carlton blues":7,"country":"Australia","postal code":null,"longitude":153.027892,"id":"a65jutzkh7ub","state":"Queensland"},"type":"Feature","geometry":{"type":"Point","coordinates":[153.027892,-27.46758]}},{"properties":{"city":"Bristol","latitude":51.4553129,"carlton blues":1,"country":"United Kingdom","postal code":null,"longitude":-2.5919023,"id":"a65juubf0wd7","state":"England"},"type":"Feature","geometry":{"type":"Point","coordinates":[-2.5919023,51.4553129]}},{"properties":{"city":"Brunswick West","latitude":-37.764829,"carlton blues":1,"country":"Australia","postal code":"3055","longitude":144.943778,"id":"a65juu09lao3","state":"Victoria"},"type":"Feature","geometry":{"type":"Point","coordinates":[144.943778,-37.764829]}},{"properties":{"city":"Darley","latitude":-37.660314,"carlton blues":1,"country":"Australia","postal code":"3340","longitude":144.441634,"id":"a65juu9g2rkz","state":"Victoria"},"type":"Feature","geometry":{"type":"Point","coordinates":[144.441634,-37.660314]}},{"properties":{"city":"Geelong","latitude":-38.14729,"carlton blues":1,"country":"Australia","postal code":"3220","longitude":144.360735,"id":"a65juu2j59xr","state":"Victoria"},"type":"Feature","geometry":{"type":"Point","coordinates":[144.360735,-38.14729]}},{"properties":{"city":"Launceston","latitude":-41.440282,"carlton blues":1,"country":"Australia","postal code":"7250","longitude":147.139353,"id":"a65juu0ze9p4","state":"Tasmania"},"type":"Feature","geometry":{"type":"Point","coordinates":[147.139353,-41.440282]}},{"properties":{"city":"Melbourne","latitude":-37.814251,"carlton blues":8,"country":"Australia","postal code":null,"longitude":144.963169,"id":"a65juu2lyfv4","state":"Victoria"},"type":"Feature","geometry":{"type":"Point","coordinates":[144.963169,-37.814251]}},{"properties":{"city":"Newcastle","latitude":-32.926357,"carlton blues":1,"country":"Australia","postal code":null,"longitude":151.78122,"id":"a65juu6xycnv","state":"New South Wales"},"type":"Feature","geometry":{"type":"Point","coordinates":[151.78122,-32.926357]}},{"properties":{"city":"Perth","latitude":-31.9554,"carlton blues":1,"country":"Australia","postal code":null,"longitude":115.85859,"id":"a65juu0z1swy","state":"Western Australia"},"type":"Feature","geometry":{"type":"Point","coordinates":[115.85859,-31.9554]}},{"properties":{"city":"Pointe-Claire","latitude":45.4346056,"carlton blues":1,"country":"Canada","postal code":null,"longitude":-73.8084583,"id":"a65juu6gv42y","state":"Quebec"},"type":"Feature","geometry":{"type":"Point","coordinates":[-73.8084583,45.4346056]}},{"properties":{"city":"Sydney","latitude":-33.867139,"carlton blues":2,"country":"Australia","postal code":null,"longitude":151.207114,"id":"a65jutxw4f57","state":"New South Wales"},"type":"Feature","geometry":{"type":"Point","coordinates":[151.207114,-33.867139]}}],"is_temporal":false,"author":{"url":"","metadata":"","contact_name":"","contact_address":"","source":"","contact_phone":""},"source":"","pagination":{"sort":null,"start":0,"total":13,"limit":1000000},"state":"complete","tags":"","published":"2014-08-10T20:35:47-04:00","id":59054}