{"type":"FeatureCollection","data_type":"Dataset","url_type":null,"permissions":[{"permissions":{"download":true,"view":true},"group_id":"everyone"}],"classification":null,"title":"Australia Elections - Labor","count":33,"stream_id":59127,"contributor":{"url":"http://geocommons.com/users/12003","name":"LauraHale"},"data_attributes":null,"calculation_params":null,"icon_link":null,"link":"http://geocommons.com/overlays/59127.json","extent":[-122.419,-42.8827,153.392,51.5002],"geometry_types":["point"],"unique_name":null,"name":"Australia Elections - Labor","feature_count":33,"description":"","next_feature":null,"is_raster":false,"short_classification":"Y","stats":{"latitude":{"max":51.5001524,"mean":-17.8472478909091,"variance":888.254239394318,"stdev":29.8035944039359,"min":-42.882743,"median":-33.4236246},"labor":{"max":93,"mean":14.6363636363636,"variance":768.176136363636,"stdev":27.7159906256954,"min":1,"median":1},"longitude":{"max":153.3919444,"mean":108.083562572727,"variance":7643.30620978424,"stdev":87.4260041966018,"min":-122.4194155,"median":145.775178}},"features":[{"properties":{"city":"Adelaide","latitude":-34.92577,"country":"Australia","labor":28,"longitude":138.599732,"id":"a69hhxkvopv1","state":"South Australia"},"type":"Feature","geometry":{"type":"Point","coordinates":[138.599732,-34.92577]}},{"properties":{"city":"Alice Springs","latitude":-23.700358,"country":"Australia","labor":1,"longitude":133.880889,"id":"a69hhxenu2wz","state":"Northern Territory"},"type":"Feature","geometry":{"type":"Point","coordinates":[133.880889,-23.700358]}},{"properties":{"city":"Belrose","latitude":-33.739288,"country":"Australia","labor":1,"longitude":151.211439,"id":"a69hhx9l3pyb","state":"New South Wales"},"type":"Feature","geometry":{"type":"Point","coordinates":[151.211439,-33.739288]}},{"properties":{"city":"Berkeley","latitude":37.8715926,"country":"United States","labor":1,"longitude":-122.272747,"id":"a69hhxcppprc","state":"California"},"type":"Feature","geometry":{"type":"Point","coordinates":[-122.272747,37.8715926]}},{"properties":{"city":"Brisbane","latitude":-27.46758,"country":"Australia","labor":8,"longitude":153.027892,"id":"a69hhxbrgrkp","state":"Queensland"},"type":"Feature","geometry":{"type":"Point","coordinates":[153.027892,-27.46758]}},{"properties":{"city":"Cairns","latitude":-16.925397,"country":"Australia","labor":1,"longitude":145.775178,"id":"a69hhxfdvl64","state":"Queensland"},"type":"Feature","geometry":{"type":"Point","coordinates":[145.775178,-16.925397]}},{"properties":{"city":"Canberra","latitude":-35.28204,"country":"Australia","labor":2,"longitude":149.12858,"id":"a69hhxe4ugni","state":"Australian Capital Territory"},"type":"Feature","geometry":{"type":"Point","coordinates":[149.12858,-35.28204]}},{"properties":{"city":"Castle Hill","latitude":-33.732307,"country":"Australia","labor":1,"longitude":151.005616,"id":"a69hhxd1w5ib","state":"New South Wales"},"type":"Feature","geometry":{"type":"Point","coordinates":[151.005616,-33.732307]}},{"properties":{"city":"Central Coast","latitude":-33.4236246,"country":"Australia","labor":1,"longitude":151.3968598,"id":"a69hhxmoj1nt","state":"New South Wales"},"type":"Feature","geometry":{"type":"Point","coordinates":[151.3968598,-33.4236246]}},{"properties":{"city":"Chicago","latitude":41.850033,"country":"United States","labor":1,"longitude":-87.6500523,"id":"a69hhx93zx9m","state":"Illinois"},"type":"Feature","geometry":{"type":"Point","coordinates":[-87.6500523,41.850033]}},{"properties":{"city":"Doha","latitude":25.280282,"country":"Qatar","labor":3,"longitude":51.522476,"id":"a69hhxaxay7k","state":null},"type":"Feature","geometry":{"type":"Point","coordinates":[51.522476,25.280282]}},{"properties":{"city":"Duffy","latitude":-35.337331,"country":"Australia","labor":1,"longitude":149.031759,"id":"a69hhxaqjftp","state":"Australian Capital Territory"},"type":"Feature","geometry":{"type":"Point","coordinates":[149.031759,-35.337331]}},{"properties":{"city":"Gold Coast","latitude":-27.9852778,"country":"Australia","labor":77,"longitude":153.3919444,"id":"a69hhx9fgi29","state":"Queensland"},"type":"Feature","geometry":{"type":"Point","coordinates":[153.3919444,-27.9852778]}},{"properties":{"city":"Hastings","latitude":-38.30771,"country":"Australia","labor":5,"longitude":145.190507,"id":"a69hhx80om3r","state":"Victoria"},"type":"Feature","geometry":{"type":"Point","coordinates":[145.190507,-38.30771]}},{"properties":{"city":"Hobart","latitude":-42.882743,"country":"Australia","labor":1,"longitude":147.330234,"id":"a69hhxlqv3u7","state":"Tasmania"},"type":"Feature","geometry":{"type":"Point","coordinates":[147.330234,-42.882743]}},{"properties":{"city":"Koenji","latitude":35.6894875,"country":"Japan","labor":1,"longitude":139.6917064,"id":"a69hhx7jw716","state":"Tokyo"},"type":"Feature","geometry":{"type":"Point","coordinates":[139.6917064,35.6894875]}},{"properties":{"city":"Ku-ring-gai","latitude":-33.6509706,"country":"Australia","labor":37,"longitude":151.1985879,"id":"a69hhxd7yyja","state":"New South Wales"},"type":"Feature","geometry":{"type":"Point","coordinates":[151.1985879,-33.6509706]}},{"properties":{"city":"Kuranda","latitude":-16.821476,"country":"Australia","labor":1,"longitude":145.634177,"id":"a69hhxmpurw5","state":"Queensland"},"type":"Feature","geometry":{"type":"Point","coordinates":[145.634177,-16.821476]}},{"properties":{"city":"London","latitude":51.5001524,"country":"United Kingdom","labor":1,"longitude":-0.1262362,"id":"a69hhxj1k13b","state":"England"},"type":"Feature","geometry":{"type":"Point","coordinates":[-0.1262362,51.5001524]}},{"properties":{"city":"Melbourne","latitude":-37.814251,"country":"Australia","labor":39,"longitude":144.963169,"id":"a69hhxj5d219","state":"Victoria"},"type":"Feature","geometry":{"type":"Point","coordinates":[144.963169,-37.814251]}},{"properties":{"city":"Midland","latitude":31.9973456,"country":"United States","labor":1,"longitude":-102.0779146,"id":"a69hhxj2pknd","state":"Texas"},"type":"Feature","geometry":{"type":"Point","coordinates":[-102.0779146,31.9973456]}},{"properties":{"city":"Mount Barker","latitude":-35.064058,"country":"Australia","labor":69,"longitude":138.858189,"id":"a69hhxlgu7k3","state":"South Australia"},"type":"Feature","geometry":{"type":"Point","coordinates":[138.858189,-35.064058]}},{"properties":{"city":"Orange","latitude":-33.283626,"country":"Australia","labor":1,"longitude":149.099984,"id":"a69hhxiocp09","state":"New South Wales"},"type":"Feature","geometry":{"type":"Point","coordinates":[149.099984,-33.283626]}},{"properties":{"city":"Paterson","latitude":-32.599153,"country":"Australia","labor":4,"longitude":151.618293,"id":"a69hhxecw9yx","state":"New South Wales"},"type":"Feature","geometry":{"type":"Point","coordinates":[151.618293,-32.599153]}},{"properties":{"city":"Perth","latitude":-31.9554,"country":"Australia","labor":93,"longitude":115.85859,"id":"a69hhxd3spts","state":"Western Australia"},"type":"Feature","geometry":{"type":"Point","coordinates":[115.85859,-31.9554]}},{"properties":{"city":"Ringwood","latitude":-37.81402,"country":"Australia","labor":1,"longitude":145.227362,"id":"a69hhx8uics7","state":"Victoria"},"type":"Feature","geometry":{"type":"Point","coordinates":[145.227362,-37.81402]}},{"properties":{"city":"Rozelle","latitude":-33.863063,"country":"Australia","labor":1,"longitude":151.170573,"id":"a69hhxjhn1bs","state":"New South Wales"},"type":"Feature","geometry":{"type":"Point","coordinates":[151.170573,-33.863063]}},{"properties":{"city":"San Francisco","latitude":37.7749295,"country":"United States","labor":6,"longitude":-122.4194155,"id":"a69hhxa551oq","state":"California"},"type":"Feature","geometry":{"type":"Point","coordinates":[-122.4194155,37.7749295]}},{"properties":{"city":"South Coast","latitude":-33.344819,"country":"Australia","labor":1,"longitude":151.493219,"id":"a69hhxn0lfjp","state":"New South Wales"},"type":"Feature","geometry":{"type":"Point","coordinates":[151.493219,-33.344819]}},{"properties":{"city":"St Kilda","latitude":-37.867573,"country":"Australia","labor":1,"longitude":144.978814,"id":"a69hhxaw3bog","state":"Victoria"},"type":"Feature","geometry":{"type":"Point","coordinates":[144.978814,-37.867573]}},{"properties":{"city":"Sydney","latitude":-33.867139,"country":"Australia","labor":92,"longitude":151.207114,"id":"a69hhxabfrrm","state":"New South Wales"},"type":"Feature","geometry":{"type":"Point","coordinates":[151.207114,-33.867139]}},{"properties":{"city":"Wollongong","latitude":-34.425878,"country":"Australia","labor":1,"longitude":150.899818,"id":"a69hhxazcaqc","state":"New South Wales"},"type":"Feature","geometry":{"type":"Point","coordinates":[150.899818,-34.425878]}},{"properties":{"city":"Yass","latitude":-34.84215,"country":"Australia","labor":1,"longitude":148.911228,"id":"a69hhxfk0i7d","state":"New South Wales"},"type":"Feature","geometry":{"type":"Point","coordinates":[148.911228,-34.84215]}}],"is_temporal":false,"author":{"url":"","metadata":"","contact_name":"","contact_address":"","source":"","contact_phone":""},"source":"","pagination":{"sort":null,"start":0,"total":33,"limit":1000000},"state":"complete","tags":"","published":"2014-08-10T20:41:36-04:00","id":59127}