{"type":"FeatureCollection","data_type":"Dataset","url_type":null,"permissions":[{"permissions":{"download":true,"view":true},"group_id":"everyone"}],"classification":null,"title":"Australia Elections - Education","count":13,"stream_id":59166,"contributor":{"url":"http://geocommons.com/users/12003","name":"LauraHale"},"data_attributes":null,"calculation_params":null,"icon_link":null,"link":"http://geocommons.com/overlays/59166.json","extent":[77.5944,-38.3077,153.392,12.9716],"geometry_types":["point"],"unique_name":null,"name":"Australia Elections - Education","feature_count":13,"description":"","next_feature":null,"is_raster":false,"short_classification":"Y","stats":{"latitude":{"max":12.971606,"mean":-30.5454004923077,"variance":177.601158267606,"stdev":13.3267084558643,"min":-38.30771,"median":-33.867139},"longitude":{"max":153.3919444,"mean":139.935962484615,"variance":451.0972983556,"stdev":21.2390512583684,"min":77.594376,"median":149.12858},"education":{"max":39,"mean":5.46153846153846,"variance":110.935897435897,"stdev":10.5326111404484,"min":1,"median":1}},"features":[{"properties":{"city":"Adelaide","latitude":-34.92577,"country":"Australia","education":3,"longitude":138.599732,"id":"a69hhvr60wdl","state":"South Australia"},"type":"Feature","geometry":{"type":"Point","coordinates":[138.599732,-34.92577]}},{"properties":{"city":"Bangalore","latitude":12.971606,"country":"India","education":1,"longitude":77.594376,"id":"a69hhve4dq65","state":"Karnataka"},"type":"Feature","geometry":{"type":"Point","coordinates":[77.594376,12.971606]}},{"properties":{"city":"Bella Vista","latitude":-33.737345,"country":"Australia","education":1,"longitude":150.95501,"id":"a69hhvt2l9is","state":"New South Wales"},"type":"Feature","geometry":{"type":"Point","coordinates":[150.95501,-33.737345]}},{"properties":{"city":"Canberra","latitude":-35.28204,"country":"Australia","education":1,"longitude":149.12858,"id":"a69hhvnsaagu","state":"Australian Capital Territory"},"type":"Feature","geometry":{"type":"Point","coordinates":[149.12858,-35.28204]}},{"properties":{"city":"Gold Coast","latitude":-27.9852778,"country":"Australia","education":5,"longitude":153.3919444,"id":"a69hhvhnzf9n","state":"Queensland"},"type":"Feature","geometry":{"type":"Point","coordinates":[153.3919444,-27.9852778]}},{"properties":{"city":"Hastings","latitude":-38.30771,"country":"Australia","education":2,"longitude":145.190507,"id":"a69hhvefjwel","state":"Victoria"},"type":"Feature","geometry":{"type":"Point","coordinates":[145.190507,-38.30771]}},{"properties":{"city":"Ku-ring-gai","latitude":-33.6509706,"country":"Australia","education":3,"longitude":151.1985879,"id":"a69hhvmklofx","state":"New South Wales"},"type":"Feature","geometry":{"type":"Point","coordinates":[151.1985879,-33.6509706]}},{"properties":{"city":"Melbourne","latitude":-37.814251,"country":"Australia","education":1,"longitude":144.963169,"id":"a69hhvgta1hy","state":"Victoria"},"type":"Feature","geometry":{"type":"Point","coordinates":[144.963169,-37.814251]}},{"properties":{"city":"Mount Barker","latitude":-35.064058,"country":"Australia","education":1,"longitude":138.858189,"id":"a69hhvnj8wkk","state":"South Australia"},"type":"Feature","geometry":{"type":"Point","coordinates":[138.858189,-35.064058]}},{"properties":{"city":"Nowra","latitude":-34.872698,"country":"Australia","education":1,"longitude":150.60342,"id":"a69hhvkeievs","state":"New South Wales"},"type":"Feature","geometry":{"type":"Point","coordinates":[150.60342,-34.872698]}},{"properties":{"city":"Paterson","latitude":-32.599153,"country":"Australia","education":1,"longitude":151.618293,"id":"a69hhvo2r5q7","state":"New South Wales"},"type":"Feature","geometry":{"type":"Point","coordinates":[151.618293,-32.599153]}},{"properties":{"city":"Perth","latitude":-31.9554,"country":"Australia","education":12,"longitude":115.85859,"id":"a69hhvicckqr","state":"Western Australia"},"type":"Feature","geometry":{"type":"Point","coordinates":[115.85859,-31.9554]}},{"properties":{"city":"Sydney","latitude":-33.867139,"country":"Australia","education":39,"longitude":151.207114,"id":"a69hhvrbx88d","state":"New South Wales"},"type":"Feature","geometry":{"type":"Point","coordinates":[151.207114,-33.867139]}}],"is_temporal":false,"author":{"url":"","metadata":"","contact_name":"","contact_address":"","source":"","contact_phone":""},"source":"","pagination":{"sort":null,"start":0,"total":13,"limit":1000000},"state":"complete","tags":"","published":"2014-08-10T20:43:44-04:00","id":59166}