{"type":"FeatureCollection","data_type":"Dataset","url_type":null,"permissions":[{"permissions":{"download":true,"view":true},"group_id":"everyone"}],"classification":null,"title":"Brookhaven ED 54","count":39,"stream_id":59257,"contributor":{"url":"http://geocommons.com/users/14847","name":"bemeryccc"},"data_attributes":null,"calculation_params":null,"icon_link":null,"link":"http://geocommons.com/overlays/59257.json","extent":[-73.0392,40.8316,-73.0283,40.8478],"geometry_types":["point"],"unique_name":null,"name":"Brookhaven ED 54","feature_count":39,"description":"","next_feature":null,"is_raster":false,"short_classification":"Y","stats":{"geo_score":{"max":0.805,"mean":0.796794871794872,"variance":0.000604588394062079,"stdev":0.0245883792483783,"min":0.725,"median":0.805},"ed":{"max":54,"mean":54.0,"variance":0.0,"stdev":0.0,"min":54,"median":54}},"features":[{"properties":{"zip":"11738","geo_score":0.805,"street":"1 TOWER HILL AVE","rtown":"FARMINGVILLE","id":"a6qldt3jrwjw","geo_precision":"range","ed":54},"type":"Feature","geometry":{"type":"Point","coordinates":[-73.028444,40.845279]}},{"properties":{"zip":"11738","geo_score":0.805,"street":"1 TOWER HILL AVE","rtown":"FARMINGVILLE","id":"a6qldt9zuqfe","geo_precision":"range","ed":54},"type":"Feature","geometry":{"type":"Point","coordinates":[-73.028444,40.845279]}},{"properties":{"zip":"11738","geo_score":0.805,"street":"5 OLIVE CT","rtown":"FARMINGVILLE","id":"a6qldtcr91ci","geo_precision":"range","ed":54},"type":"Feature","geometry":{"type":"Point","coordinates":[-73.032361,40.836441]}},{"properties":{"zip":"11738","geo_score":0.805,"street":"6 OLIVE CT","rtown":"FARMINGVILLE","id":"a6qldtd0ovu6","geo_precision":"range","ed":54},"type":"Feature","geometry":{"type":"Point","coordinates":[-73.03243,40.83605]}},{"properties":{"zip":"11738","geo_score":0.805,"street":"6 OLIVE CT","rtown":"FARMINGVILLE","id":"a6qldt5hac90","geo_precision":"range","ed":54},"type":"Feature","geometry":{"type":"Point","coordinates":[-73.03243,40.83605]}},{"properties":{"zip":"11738","geo_score":0.805,"street":"8 GREENTREE AVE","rtown":"FARMINGVILLE","id":"a6qldt4shx7f","geo_precision":"range","ed":54},"type":"Feature","geometry":{"type":"Point","coordinates":[-73.035875,40.839715]}},{"properties":{"zip":"11738","geo_score":0.805,"street":"8 GREENTREE AVE","rtown":"FARMINGVILLE","id":"a6qldt1qkm7x","geo_precision":"range","ed":54},"type":"Feature","geometry":{"type":"Point","coordinates":[-73.035875,40.839715]}},{"properties":{"zip":"11738","geo_score":0.805,"street":"9 DOGWOOD AVE","rtown":"FARMINGVILLE","id":"a6qldt60df86","geo_precision":"range","ed":54},"type":"Feature","geometry":{"type":"Point","coordinates":[-73.035232,40.836682]}},{"properties":{"zip":"11738","geo_score":0.805,"street":"11 OAKCREST AVE","rtown":"FARMINGVILLE","id":"a6qldtc16spy","geo_precision":"range","ed":54},"type":"Feature","geometry":{"type":"Point","coordinates":[-73.030172,40.836079]}},{"properties":{"zip":"11738","geo_score":0.805,"street":"15 KNOLLCREST AVE","rtown":"FARMINGVILLE","id":"a6qldt7e8fhu","geo_precision":"range","ed":54},"type":"Feature","geometry":{"type":"Point","coordinates":[-73.0295,40.840529]}},{"properties":{"zip":"11738","geo_score":0.805,"street":"16 ROSEMONT AVE","rtown":"FARMINGVILLE","id":"a6qldt5pcibi","geo_precision":"range","ed":54},"type":"Feature","geometry":{"type":"Point","coordinates":[-73.028933,40.835349]}},{"properties":{"zip":"11738","geo_score":0.805,"street":"16 ROSEMONT AVE","rtown":"FARMINGVILLE","id":"a6qldt8tb3cf","geo_precision":"range","ed":54},"type":"Feature","geometry":{"type":"Point","coordinates":[-73.028933,40.835349]}},{"properties":{"zip":"11738","geo_score":0.805,"street":"16 WOODMONT PL","rtown":"FARMINGVILLE","id":"a6qldtbqw4i9","geo_precision":"range","ed":54},"type":"Feature","geometry":{"type":"Point","coordinates":[-73.029764,40.831583]}},{"properties":{"zip":"11738","geo_score":0.805,"street":"17 PINEOAKS PL","rtown":"FARMINGVILLE","id":"a6qldt5xbzc5","geo_precision":"range","ed":54},"type":"Feature","geometry":{"type":"Point","coordinates":[-73.030071,40.841714]}},{"properties":{"zip":"11738","geo_score":0.805,"street":"17 PINEOAKS PL","rtown":"FARMINGVILLE","id":"a6qldtd27wpx","geo_precision":"range","ed":54},"type":"Feature","geometry":{"type":"Point","coordinates":[-73.030071,40.841714]}},{"properties":{"zip":"11738","geo_score":0.805,"street":"21 GLENWOOD PL","rtown":"FARMINGVILLE","id":"a6qldtbvq8ex","geo_precision":"range","ed":54},"type":"Feature","geometry":{"type":"Point","coordinates":[-73.029665,40.838857]}},{"properties":{"zip":"11738","geo_score":0.805,"street":"21 GLENWOOD PL","rtown":"FARMINGVILLE","id":"a6qldt3jo2y6","geo_precision":"range","ed":54},"type":"Feature","geometry":{"type":"Point","coordinates":[-73.029665,40.838857]}},{"properties":{"zip":"11738","geo_score":0.805,"street":"22 TOWER HILL AVE","rtown":"FARMINGVILLE","id":"a6qldtbv6yj4","geo_precision":"range","ed":54},"type":"Feature","geometry":{"type":"Point","coordinates":[-73.029877,40.845125]}},{"properties":{"zip":"11738","geo_score":0.805,"street":"22 WILLOW AVE","rtown":"FARMINGVILLE","id":"a6qldtapou01","geo_precision":"range","ed":54},"type":"Feature","geometry":{"type":"Point","coordinates":[-73.037008,40.843614]}},{"properties":{"zip":"11738","geo_score":0.805,"street":"24 ROSEMONT AVE","rtown":"FARMINGVILLE","id":"a6qldt9j3sd6","geo_precision":"range","ed":54},"type":"Feature","geometry":{"type":"Point","coordinates":[-73.028266,40.835417]}},{"properties":{"zip":"11738","geo_score":0.805,"street":"24 ROSEMONT AVE","rtown":"FARMINGVILLE","id":"a6qldtc2f4zu","geo_precision":"range","ed":54},"type":"Feature","geometry":{"type":"Point","coordinates":[-73.028266,40.835417]}},{"properties":{"zip":"11738","geo_score":0.805,"street":"25 CHESTNUT AVE","rtown":"FARMINGVILLE","id":"a6qldt1y5yq1","geo_precision":"range","ed":54},"type":"Feature","geometry":{"type":"Point","coordinates":[-73.035995,40.835591]}},{"properties":{"zip":"11738","geo_score":0.805,"street":"25 CHESTNUT AVE","rtown":"FARMINGVILLE","id":"a6qldszlb8xz","geo_precision":"range","ed":54},"type":"Feature","geometry":{"type":"Point","coordinates":[-73.035995,40.835591]}},{"properties":{"zip":"11738","geo_score":0.805,"street":"28 PINEOAKS PL","rtown":"FARMINGVILLE","id":"a6qldt5kdjg5","geo_precision":"range","ed":54},"type":"Feature","geometry":{"type":"Point","coordinates":[-73.029982,40.840828]}},{"properties":{"zip":"11738","geo_score":0.805,"street":"30 KNOLLCREST AVE","rtown":"FARMINGVILLE","id":"a6qldt8igoxj","geo_precision":"range","ed":54},"type":"Feature","geometry":{"type":"Point","coordinates":[-73.030491,40.840442]}},{"properties":{"zip":"11738","geo_score":0.805,"street":"30 OLIVE CT","rtown":"FARMINGVILLE","id":"a6qldt7r94vm","geo_precision":"range","ed":54},"type":"Feature","geometry":{"type":"Point","coordinates":[-73.03258,40.838497]}},{"properties":{"zip":"11738","geo_score":0.805,"street":"31 MIDVALE AVE","rtown":"FARMINGVILLE","id":"a6qldt0lm7t6","geo_precision":"range","ed":54},"type":"Feature","geometry":{"type":"Point","coordinates":[-73.02885,40.843008]}},{"properties":{"zip":"11738","geo_score":0.805,"street":"31 TULIP AVE","rtown":"FARMINGVILLE","id":"a6qldt43h28x","geo_precision":"range","ed":54},"type":"Feature","geometry":{"type":"Point","coordinates":[-73.037615,40.845473]}},{"properties":{"zip":"11738","geo_score":0.805,"street":"46 BRENTWOOD AVE","rtown":"FARMINGVILLE","id":"a6qldtbkgeu4","geo_precision":"range","ed":54},"type":"Feature","geometry":{"type":"Point","coordinates":[-73.031069,40.838027]}},{"properties":{"zip":"11738","geo_score":0.805,"street":"46 BRENTWOOD AVE","rtown":"FARMINGVILLE","id":"a6qldszu5d9x","geo_precision":"range","ed":54},"type":"Feature","geometry":{"type":"Point","coordinates":[-73.031069,40.838027]}},{"properties":{"zip":"11738","geo_score":0.805,"street":"46 WOODYCREST DR","rtown":"FARMINGVILLE","id":"a6qldtdb2dtd","geo_precision":"range","ed":54},"type":"Feature","geometry":{"type":"Point","coordinates":[-73.028698,40.833457]}},{"properties":{"zip":"11738","geo_score":0.805,"street":"51 OCEANVIEW AVE","rtown":"FARMINGVILLE","id":"a6qldt60wwaa","geo_precision":"range","ed":54},"type":"Feature","geometry":{"type":"Point","coordinates":[-73.031274,40.83723]}},{"properties":{"zip":"11784","geo_score":0.805,"street":"60 HIGHVIEW AVE","rtown":"SELDEN","id":"a6qldt4yyyq7","geo_precision":"range","ed":54},"type":"Feature","geometry":{"type":"Point","coordinates":[-73.034221,40.846198]}},{"properties":{"zip":"11738","geo_score":0.805,"street":"153 RIDGEWOOD AVE","rtown":"FARMINGVILLE","id":"a6qldt36muq7","geo_precision":"range","ed":54},"type":"Feature","geometry":{"type":"Point","coordinates":[-73.037694,40.847796]}},{"properties":{"zip":"11738","geo_score":0.805,"street":"237 LIDGE DR","rtown":"FARMINGVILLE","id":"a6qldtcqko8k","geo_precision":"range","ed":54},"type":"Feature","geometry":{"type":"Point","coordinates":[-73.039248,40.836421]}},{"properties":{"zip":"11738","geo_score":0.725,"street":"311 BLUE POINT RD","rtown":"FARMINGVILLE","id":"a6qldt94no22","geo_precision":"range","ed":54},"type":"Feature","geometry":{"type":"Point","coordinates":[-73.035648,40.84375]}},{"properties":{"zip":"11738","geo_score":0.725,"street":"311 BLUE POINT RD","rtown":"FARMINGVILLE","id":"a6qldszxusva","geo_precision":"range","ed":54},"type":"Feature","geometry":{"type":"Point","coordinates":[-73.035648,40.84375]}},{"properties":{"zip":"11738","geo_score":0.725,"street":"408 BLUE POINT RD","rtown":"FARMINGVILLE","id":"a6qldtd1smsq","geo_precision":"range","ed":54},"type":"Feature","geometry":{"type":"Point","coordinates":[-73.034692,40.836734]}},{"properties":{"zip":"11738","geo_score":0.725,"street":"433 BLUE POINT RD","rtown":"FARMINGVILLE","id":"a6qldt9mcimf","geo_precision":"range","ed":54},"type":"Feature","geometry":{"type":"Point","coordinates":[-73.034433,40.834723]}}],"is_temporal":false,"author":{"url":"","metadata":"","contact_name":"","contact_address":"","source":"","contact_phone":""},"source":"","pagination":{"sort":null,"start":0,"total":39,"limit":1000000},"state":"complete","tags":"","published":"2014-08-10T20:47:14-04:00","id":59257}