{"type":"FeatureCollection","data_type":"Dataset","url_type":null,"permissions":[{"permissions":{"download":true,"view":true},"group_id":"everyone"}],"classification":null,"title":"Brookhaven ED 132","count":36,"stream_id":59256,"contributor":{"url":"http://geocommons.com/users/14847","name":"bemeryccc"},"data_attributes":null,"calculation_params":null,"icon_link":null,"link":"http://geocommons.com/overlays/59256.json","extent":[-73.0507,40.8382,-73.0414,40.8513],"geometry_types":["point"],"unique_name":null,"name":"Brookhaven ED 132","feature_count":36,"description":"","next_feature":null,"is_raster":false,"short_classification":"Y","stats":{"geo_score":{"max":0.805,"mean":0.805,"variance":5.07124867642079e-32,"stdev":2.25194331110283e-16,"min":0.805,"median":0.805},"ed":{"max":132,"mean":132.0,"variance":0.0,"stdev":0.0,"min":132,"median":132}},"features":[{"properties":{"zip":"11738","geo_score":0.805,"street":"3 MELVIN CT","rtown":"FARMINGVILLE","id":"a64f3c1ycp38","geo_precision":"range","ed":132},"type":"Feature","geometry":{"type":"Point","coordinates":[-73.04365,40.849213]}},{"properties":{"zip":"11738","geo_score":0.805,"street":"3 MELVIN CT","rtown":"FARMINGVILLE","id":"a64f3bv8n1kt","geo_precision":"range","ed":132},"type":"Feature","geometry":{"type":"Point","coordinates":[-73.04365,40.849213]}},{"properties":{"zip":"11738","geo_score":0.805,"street":"4 DREXEL ST","rtown":"FARMINGVILLE","id":"a64f3bpm793f","geo_precision":"range","ed":132},"type":"Feature","geometry":{"type":"Point","coordinates":[-73.047575,40.842767]}},{"properties":{"zip":"11738","geo_score":0.805,"street":"4 SYDNEY AVE","rtown":"FARMINGVILLE","id":"a64f3bxgkwb1","geo_precision":"range","ed":132},"type":"Feature","geometry":{"type":"Point","coordinates":[-73.044489,40.845297]}},{"properties":{"zip":"11738","geo_score":0.805,"street":"8 MARK LN","rtown":"FARMINGVILLE","id":"a64f3bzdyzod","geo_precision":"range","ed":132},"type":"Feature","geometry":{"type":"Point","coordinates":[-73.044421,40.844818]}},{"properties":{"zip":"11738","geo_score":0.805,"street":"9 SYDNEY AVE","rtown":"FARMINGVILLE","id":"a64f3bv9ao5o","geo_precision":"range","ed":132},"type":"Feature","geometry":{"type":"Point","coordinates":[-73.044912,40.845961]}},{"properties":{"zip":"11738","geo_score":0.805,"street":"11 CAMPUS DR","rtown":"FARMINGVILLE","id":"a64f3bywpkui","geo_precision":"range","ed":132},"type":"Feature","geometry":{"type":"Point","coordinates":[-73.046873,40.838233]}},{"properties":{"zip":"11738","geo_score":0.805,"street":"15 HOFSTRA DR","rtown":"FARMINGVILLE","id":"a64f3c0oxqs9","geo_precision":"range","ed":132},"type":"Feature","geometry":{"type":"Point","coordinates":[-73.04815,40.839391]}},{"properties":{"zip":"11738","geo_score":0.805,"street":"15 HOFSTRA DR","rtown":"FARMINGVILLE","id":"a64f3c0162i9","geo_precision":"range","ed":132},"type":"Feature","geometry":{"type":"Point","coordinates":[-73.04815,40.839391]}},{"properties":{"zip":"11738","geo_score":0.805,"street":"15 HOFSTRA DR","rtown":"FARMINGVILLE","id":"a64f3brp06jb","geo_precision":"range","ed":132},"type":"Feature","geometry":{"type":"Point","coordinates":[-73.04815,40.839391]}},{"properties":{"zip":"11738","geo_score":0.805,"street":"15 SANDY CT","rtown":"FARMINGVILLE","id":"a64f3buhx4jk","geo_precision":"range","ed":132},"type":"Feature","geometry":{"type":"Point","coordinates":[-73.046529,40.850077]}},{"properties":{"zip":"11738","geo_score":0.805,"street":"18 MELVIN AVE","rtown":"FARMINGVILLE","id":"a64f3bv0othn","geo_precision":"range","ed":132},"type":"Feature","geometry":{"type":"Point","coordinates":[-73.044093,40.847014]}},{"properties":{"zip":"11738","geo_score":0.805,"street":"19 ARLENE ST","rtown":"FARMINGVILLE","id":"a64f3c1eh7uk","geo_precision":"range","ed":132},"type":"Feature","geometry":{"type":"Point","coordinates":[-73.045519,40.844023]}},{"properties":{"zip":"11738","geo_score":0.805,"street":"19 ARLENE ST","rtown":"FARMINGVILLE","id":"a64f3c052b5q","geo_precision":"range","ed":132},"type":"Feature","geometry":{"type":"Point","coordinates":[-73.045519,40.844023]}},{"properties":{"zip":"11738","geo_score":0.805,"street":"21 LEHIGH LN","rtown":"FARMINGVILLE","id":"a64f3c1i3atx","geo_precision":"range","ed":132},"type":"Feature","geometry":{"type":"Point","coordinates":[-73.048911,40.844333]}},{"properties":{"zip":"11738","geo_score":0.805,"street":"21 LEHIGH LN","rtown":"FARMINGVILLE","id":"a64f3brroxpt","geo_precision":"range","ed":132},"type":"Feature","geometry":{"type":"Point","coordinates":[-73.048911,40.844333]}},{"properties":{"zip":"11738","geo_score":0.805,"street":"22 COLLEGE HILLS DR","rtown":"FARMINGVILLE","id":"a64f3bvjziyu","geo_precision":"range","ed":132},"type":"Feature","geometry":{"type":"Point","coordinates":[-73.047991,40.84515]}},{"properties":{"zip":"11738","geo_score":0.805,"street":"24 HOFSTRA DR","rtown":"FARMINGVILLE","id":"a64f3bqregj1","geo_precision":"range","ed":132},"type":"Feature","geometry":{"type":"Point","coordinates":[-73.048319,40.840152]}},{"properties":{"zip":"11738","geo_score":0.805,"street":"25 ARLENE ST","rtown":"FARMINGVILLE","id":"a64f3c3aomka","geo_precision":"range","ed":132},"type":"Feature","geometry":{"type":"Point","coordinates":[-73.046916,40.844748]}},{"properties":{"zip":"11738","geo_score":0.805,"street":"25 LEHIGH LN","rtown":"FARMINGVILLE","id":"a64f3c2s2ky5","geo_precision":"range","ed":132},"type":"Feature","geometry":{"type":"Point","coordinates":[-73.049289,40.844639]}},{"properties":{"zip":"11738","geo_score":0.805,"street":"25 LEHIGH LN","rtown":"FARMINGVILLE","id":"a64f3c2tmpml","geo_precision":"range","ed":132},"type":"Feature","geometry":{"type":"Point","coordinates":[-73.049289,40.844639]}},{"properties":{"zip":"11738","geo_score":0.805,"street":"26 HILLSIDE RD","rtown":"FARMINGVILLE","id":"a64f3bxl8pf0","geo_precision":"range","ed":132},"type":"Feature","geometry":{"type":"Point","coordinates":[-73.042184,40.850185]}},{"properties":{"zip":"11738","geo_score":0.805,"street":"29 ROBERTA AVE","rtown":"FARMINGVILLE","id":"a64f3c13c2ic","geo_precision":"range","ed":132},"type":"Feature","geometry":{"type":"Point","coordinates":[-73.043149,40.847816]}},{"properties":{"zip":"11738","geo_score":0.805,"street":"36 ROBERTA AVE","rtown":"FARMINGVILLE","id":"a64f3btqd30z","geo_precision":"range","ed":132},"type":"Feature","geometry":{"type":"Point","coordinates":[-73.042956,40.846741]}},{"properties":{"zip":"11738","geo_score":0.805,"street":"36 ROBERTA AVE","rtown":"FARMINGVILLE","id":"a64f3c0y16iu","geo_precision":"range","ed":132},"type":"Feature","geometry":{"type":"Point","coordinates":[-73.042956,40.846741]}},{"properties":{"zip":"11738","geo_score":0.805,"street":"37 ROBERTA AVE","rtown":"FARMINGVILLE","id":"a64f3bnozkgq","geo_precision":"range","ed":132},"type":"Feature","geometry":{"type":"Point","coordinates":[-73.042949,40.846684]}},{"properties":{"zip":"11738","geo_score":0.805,"street":"39 ROBERTA AVE","rtown":"FARMINGVILLE","id":"a64f3bvxcqnk","geo_precision":"range","ed":132},"type":"Feature","geometry":{"type":"Point","coordinates":[-73.042914,40.846401]}},{"properties":{"zip":"11738","geo_score":0.805,"street":"40 ROBERTA AVE","rtown":"FARMINGVILLE","id":"a64f3bth2l76","geo_precision":"range","ed":132},"type":"Feature","geometry":{"type":"Point","coordinates":[-73.042841,40.846118]}},{"properties":{"zip":"11738","geo_score":0.805,"street":"45 COLLEGE HILLS DR","rtown":"FARMINGVILLE","id":"a64f3byh574h","geo_precision":"range","ed":132},"type":"Feature","geometry":{"type":"Point","coordinates":[-73.048354,40.846927]}},{"properties":{"zip":"11738","geo_score":0.805,"street":"46 HILLSIDE RD","rtown":"FARMINGVILLE","id":"a64f3bp02h1r","geo_precision":"range","ed":132},"type":"Feature","geometry":{"type":"Point","coordinates":[-73.04198,40.848746]}},{"properties":{"zip":"11738","geo_score":0.805,"street":"47 COLLEGE HILLS DR","rtown":"FARMINGVILLE","id":"a64f3c3w0zjx","geo_precision":"range","ed":132},"type":"Feature","geometry":{"type":"Point","coordinates":[-73.048423,40.847246]}},{"properties":{"zip":"11738","geo_score":0.805,"street":"47 COLLEGE HILLS DR","rtown":"FARMINGVILLE","id":"a64f3brdjy22","geo_precision":"range","ed":132},"type":"Feature","geometry":{"type":"Point","coordinates":[-73.048423,40.847246]}},{"properties":{"zip":"11738","geo_score":0.805,"street":"114 HILLSIDE RD","rtown":"FARMINGVILLE","id":"a64f3bzabi04","geo_precision":"range","ed":132},"type":"Feature","geometry":{"type":"Point","coordinates":[-73.041384,40.844969]}},{"properties":{"zip":"11738","geo_score":0.805,"street":"392 MOONEY POND RD","rtown":"FARMINGVILLE","id":"a64f3brszymp","geo_precision":"range","ed":132},"type":"Feature","geometry":{"type":"Point","coordinates":[-73.044714,40.851282]}},{"properties":{"zip":"11738","geo_score":0.805,"street":"1333 WAVERLY AVE","rtown":"FARMINGVILLE","id":"a64f3bxxdgk3","geo_precision":"range","ed":132},"type":"Feature","geometry":{"type":"Point","coordinates":[-73.050659,40.846154]}},{"properties":{"zip":"11738","geo_score":0.805,"street":"1337 WAVERLY AVE","rtown":"FARMINGVILLE","id":"a64f3bqqr5cd","geo_precision":"range","ed":132},"type":"Feature","geometry":{"type":"Point","coordinates":[-73.050746,40.846729]}}],"is_temporal":false,"author":{"url":"","metadata":"","contact_name":"","contact_address":"","source":"","contact_phone":""},"source":"","pagination":{"sort":null,"start":0,"total":36,"limit":1000000},"state":"complete","tags":"","published":"2014-08-10T20:47:13-04:00","id":59256}