{"type":"FeatureCollection","data_type":"Dataset","url_type":null,"permissions":[{"permissions":{"download":true,"view":true},"group_id":"everyone"}],"classification":null,"title":"POET","count":35,"stream_id":59510,"contributor":{"url":"http://geocommons.com/users/14766","name":"dpkennedy"},"data_attributes":null,"calculation_params":null,"icon_link":null,"link":"http://geocommons.com/overlays/59510.json","extent":[-103.087,38.2895,-83.1593,48.4269],"geometry_types":["point"],"unique_name":null,"name":"POET","feature_count":35,"description":"POET's Plants","next_feature":null,"is_raster":false,"short_classification":"Y","stats":{"millions of gallons":{"max":100.0,"mean":51.6428571428571,"variance":357.317226890756,"stdev":18.902836477385,"min":9.0,"median":50.0},"geo_score":{"max":0.902,"mean":0.710657142857143,"variance":0.0240877025210084,"stdev":0.155202134395789,"min":0.339,"median":0.805}},"features":[{"properties":{"city":"Grafton","company":"Alchem Ltd. LLP","zip":"58237","st":"ND","marketing company":"POET","millions of gallons":10.5,"geo_score":0.805,"serving railroad":"BNSF","id":"a6hdl6t78ime","geo_precision":"range","web":"http://www.alchemethanol.com/","address":"35 E Division St."},"type":"Feature","geometry":{"type":"Point","coordinates":[-97.411538,48.426885]}},{"properties":{"city":"Bridgeport","company":"Bridgeport Ethanal","zip":"69336","st":"NE","marketing company":"POET","millions of gallons":50.0,"geo_score":0.527,"serving railroad":"BNSF","id":"a6hdl72lhxj4","geo_precision":"zip","web":"http://www.bridgeportethanol.com","address":"9216 ROAD 90"},"type":"Feature","geometry":{"type":"Point","coordinates":[-103.087431,41.682195]}},{"properties":{"city":"Scotland","company":"Broin Enterprises, Inc.","zip":"57059","st":"SD","marketing company":"POET","millions of gallons":9.0,"geo_score":0.827,"serving railroad":"BNSF","id":"a6hdl6teghil","geo_precision":"range","web":"http://www.broin.com/","address":"851 WASHINGTON ST"},"type":"Feature","geometry":{"type":"Point","coordinates":[-97.723688,43.147545]}},{"properties":{"city":"Albert Lea","company":"EXOL Agra Resources Coop.","zip":"56007","st":"MN","marketing company":"POET","millions of gallons":40.0,"geo_score":0.816,"serving railroad":"UP","id":"a6hdl6q0vi3c","geo_precision":"range","web":"http://www.exolmn.com/","address":"78242 150th Street"},"type":"Feature","geometry":{"type":"Point","coordinates":[-93.303434,43.571397]}},{"properties":{"city":"Bingham Lake","company":"Ethanol2000, LLP","zip":"56118","st":"MN","marketing company":"POET","millions of gallons":30.0,"geo_score":0.902,"serving railroad":"UP","id":"a6hdl6wf7qb0","geo_precision":"range","web":"http://www.ethanol2000.com/","address":"40212 510th Ave"},"type":"Feature","geometry":{"type":"Point","coordinates":[-95.058956,43.902851]}},{"properties":{"city":"Gowrie","company":"Frontier Ethanol","zip":"50543","st":"IA","marketing company":"POET","millions of gallons":60.0,"geo_score":0.615,"serving railroad":"UP","id":"a6hdl72dcp6a","geo_precision":"street","web":"http://www.frontierethanol.com/","address":"1562 320th ST."},"type":"Feature","geometry":{"type":"Point","coordinates":[-94.280875,42.325282]}},{"properties":{"city":"Chancellor","company":"Great Plains Ethanol, LLC","zip":"57015","st":"SD","marketing company":"POET","millions of gallons":100.0,"geo_score":0.902,"serving railroad":"BNSF","id":"a6hdl70qclk1","geo_precision":"range","web":"http://www.greatplainsethanol.com/","address":"27716 462nd Ave"},"type":"Feature","geometry":{"type":"Point","coordinates":[-96.964314,43.371396]}},{"properties":{"city":"Jewell","company":"Horizon Ethanol","zip":"50130","st":"IA","marketing company":"POET","millions of gallons":60.0,"geo_score":0.847,"serving railroad":"UP","id":"a6hdl735hjz3","geo_precision":"range","web":"http://www.horizonethanol.com/","address":"2601 320TH ST."},"type":"Feature","geometry":{"type":"Point","coordinates":[-93.659623,42.325057]}},{"properties":{"city":"Hanlontown","company":"Iowa Ethanol, LLC","zip":"50440","st":"IA","marketing company":"POET","millions of gallons":50.0,"geo_score":0.471,"serving railroad":"UP","id":"a6hdl75j13d6","geo_precision":"street","web":"http://www.iowaethanol.com/","address":"Hwy 9 West"},"type":"Feature","geometry":{"type":"Point","coordinates":[-93.088709,43.284251]}},{"properties":{"city":"Groton","company":"James Valley Ethanol, LLC","zip":"57445","st":"SD","marketing company":"POET","millions of gallons":50.0,"geo_score":0.805,"serving railroad":"BNSF","id":"a6hdl73qjdbh","geo_precision":"range","web":"http://www.jamesvalleyethanol.com/","address":"40425 133RD STREET"},"type":"Feature","geometry":{"type":"Point","coordinates":[-98.139759,45.457744]}},{"properties":{"city":"Lyons","company":"Kansas Ethanol, LLC","zip":"67579","st":"KS","marketing company":"POET","millions of gallons":55.0,"geo_score":0.393,"serving railroad":"KO BNSF/UP","id":"a6hdl6rbedhc","geo_precision":"street","web":null,"address":"1630 AVE. Q"},"type":"Feature","geometry":{"type":"Point","coordinates":[-98.179975,38.289536]}},{"properties":{"city":"Saint Joseph","company":"Lifeline Foods","zip":"64503","st":"MO","marketing company":"POET","millions of gallons":40.0,"geo_score":0.757,"serving railroad":"UP/BNSF","id":"a6hdl6wm2sqb","geo_precision":"range","web":"http://www.lifeline-foods.com","address":"2811 S 11TH ST"},"type":"Feature","geometry":{"type":"Point","coordinates":[-94.846589,39.73822]}},{"properties":{"city":"Caro","company":"Michigan Ethanol, LLC","zip":"48723","st":"MI","marketing company":"POET","millions of gallons":50.0,"geo_score":0.499,"serving railroad":"CSXT","id":"a6hdl74a3pfx","geo_precision":"zip","web":"http://www.michiganethanol.com/","address":"1551 Empire Dr"},"type":"Feature","geometry":{"type":"Point","coordinates":[-83.439676,43.455577]}},{"properties":{"city":"Laddonia","company":"Missouri Ethanol, LLC","zip":"63352","st":"MO","marketing company":"POET","millions of gallons":50.0,"geo_score":0.545,"serving railroad":"KCS","id":"a6hdl6v4bm05","geo_precision":"street","web":null,"address":"6158 Highway 54"},"type":"Feature","geometry":{"type":"Point","coordinates":[-91.645339,39.248052]}},{"properties":{"city":"Scandia","company":"Nesika Energy","zip":"66966","st":"KS","marketing company":"POET","millions of gallons":10.0,"geo_score":0.339,"serving railroad":"KYLE","id":"a6hdl6rtj2oe","geo_precision":"street","web":null,"address":"PO BOX 169"},"type":"Feature","geometry":{"type":"Point","coordinates":[-97.626927,39.828283]}},{"properties":{"city":"Macon/TENMILE","company":"Northeast Missouri Grain, LLC","zip":"63552","st":"MO","marketing company":"POET","millions of gallons":40.0,"geo_score":0.862,"serving railroad":"BNSF","id":"a6hdl6rj9qbb","geo_precision":"range","web":"http://www.nemog.com/","address":"30211 Major Ave"},"type":"Feature","geometry":{"type":"Point","coordinates":[-92.383343,39.750068]}},{"properties":{"city":"Big Stone City","company":"Northern Lights Ethanol, LLC","zip":"57216","st":"SD","marketing company":"POET","millions of gallons":75.0,"geo_score":0.708,"serving railroad":"BNSF","id":"a6hdl6ww44ga","geo_precision":"street","web":"http://www.northernlightsethanol.com/","address":"48416 144th St"},"type":"Feature","geometry":{"type":"Point","coordinates":[-96.555449,45.297773]}},{"properties":{"city":"Lake Crystal","company":"Northstar Ethanol, LLC","zip":"56055","st":"MN","marketing company":"POET","millions of gallons":52.0,"geo_score":0.529,"serving railroad":"UP","id":"a6hdl75swuin","geo_precision":"street","web":"http://www.northstarethanol.com/","address":"Hwy 60 West County Road 109"},"type":"Feature","geometry":{"type":"Point","coordinates":[-94.268974,44.079653]}},{"properties":{"city":"Ashton","company":"Otter Creek Ethanol, LLC","zip":"51232","st":"IA","marketing company":"POET","millions of gallons":55.0,"geo_score":0.902,"serving railroad":"UP","id":"a6hdl6q86qdu","geo_precision":"range","web":"http://www.ottercreekethanol.com/","address":"4970 260TH ST"},"type":"Feature","geometry":{"type":"Point","coordinates":[-95.809876,43.272302]}},{"properties":{"city":"Alexandria","company":"POET Biorefining - Alexandria","zip":"46001","st":"IN","marketing company":"POET","millions of gallons":65.0,"geo_score":0.805,"serving railroad":"NS","id":"a6hdl6zj704p","geo_precision":"range","web":null,"address":"13179 N 100 E"},"type":"Feature","geometry":{"type":"Point","coordinates":[-85.65292,40.304352]}},{"properties":{"city":"Cloverdale","company":"POET Biorefining - Cloverdale","zip":"46120","st":"IN","marketing company":"POET","millions of gallons":88.0,"geo_score":0.718,"serving railroad":"CSXT","id":"a6hdl73fxvrs","geo_precision":"range","web":null,"address":"2765 E COUNTY 800 S"},"type":"Feature","geometry":{"type":"Point","coordinates":[-86.801691,39.544132]}},{"properties":{"city":"Fostoria","company":"POET Biorefining - Fostoria","zip":"44830","st":"OH","marketing company":"POET","millions of gallons":65.0,"geo_score":0.623,"serving railroad":"NS/CSXT","id":"a6hdl6yh0kx7","geo_precision":"street","web":null,"address":"2111 SANDUSKY STREET"},"type":"Feature","geometry":{"type":"Point","coordinates":[-83.391859,41.170083]}},{"properties":{"city":"Marion","company":"POET Biorefining - Marion","zip":"43301","st":"OH","marketing company":"POET","millions of gallons":65.0,"geo_score":0.805,"serving railroad":"CSXT","id":"a6hdl6ubsy2w","geo_precision":"range","web":null,"address":"1660 Hillman Ford Rd"},"type":"Feature","geometry":{"type":"Point","coordinates":[-83.159269,40.618627]}},{"properties":{"city":"North Manchester","company":"POET Biorefining - North Manchester","zip":"46962","st":"IN","marketing company":"POET","millions of gallons":65.0,"geo_score":0.818,"serving railroad":"NS","id":"a6hdl6vkxftn","geo_precision":"range","web":null,"address":"868 E 800 N"},"type":"Feature","geometry":{"type":"Point","coordinates":[-85.780768,40.942277]}},{"properties":{"city":"Corning","company":"Pinnacle Ethanol","zip":"50841","st":"IA","marketing company":"POET","millions of gallons":60.0,"geo_score":0.833,"serving railroad":"BNSF","id":"a6hdl70vdyee","geo_precision":"range","web":null,"address":"1680 BROOKS ROAD"},"type":"Feature","geometry":{"type":"Point","coordinates":[-94.796297,40.967282]}},{"properties":{"city":"Loomis","company":"Prairie Ethanol","zip":"57301","st":"SD","marketing company":"POET","millions of gallons":60.0,"geo_score":0.816,"serving railroad":"BNSF","id":"a6hdl6s8i5v2","geo_precision":"range","web":null,"address":"40509 247TH ST."},"type":"Feature","geometry":{"type":"Point","coordinates":[-98.105377,43.803435]}},{"properties":{"city":"Phillipsburg","company":"Prairie Horizon Agri-Energy","zip":"67661","st":"KS","marketing company":"POET","millions of gallons":40.0,"geo_score":0.618,"serving railroad":"KYLE","id":"a6hdl6qsep7t","geo_precision":"street","web":"http://www.prairiehorizon.com/","address":"1664 East 100 Rd"},"type":"Feature","geometry":{"type":"Point","coordinates":[-99.309333,39.678331]}},{"properties":{"city":"Portland","company":"Premier Ethanol","zip":"47371","st":"IN","marketing company":"POET","millions of gallons":60.0,"geo_score":0.643,"serving railroad":"NS/RJCW","id":"a6hdl71g2e9x","geo_precision":"street","web":null,"address":"1542 S 200 W"},"type":"Feature","geometry":{"type":"Point","coordinates":[-85.019342,40.415594]}},{"properties":{"city":"Preston","company":"Pro-Corn, LLC","zip":"55965","st":"MN","marketing company":"POET","millions of gallons":42.0,"geo_score":0.588,"serving railroad":"Truck","id":"a6hdl6xhwsg4","geo_precision":"street","web":"http://www.pro-corn.com/","address":"701 N Industrial Dr"},"type":"Feature","geometry":{"type":"Point","coordinates":[-92.40136,43.69956]}},{"properties":{"city":"Hudson","company":"Sioux River Ethanol, LLC","zip":"57034","st":"SD","marketing company":"POET","millions of gallons":45.0,"geo_score":0.813,"serving railroad":"BNSF/UP/CN/DAIR","id":"a6hdl6q3moht","geo_precision":"range","web":"http://www.siouxriverethanol.com/","address":"29619 SPUR AVENUE"},"type":"Feature","geometry":{"type":"Point","coordinates":[-96.480028,43.095513]}},{"properties":{"city":"Leipsic","company":"Summit Ethanol","zip":"45815","st":"OH","marketing company":"POET","millions of gallons":60.0,"geo_score":0.805,"serving railroad":"CSXT","id":"a6hdl75v627g","geo_precision":"range","web":null,"address":"3875 STATE ROUTE 65"},"type":"Feature","geometry":{"type":"Point","coordinates":[-83.968643,41.123692]}},{"properties":{"city":"Coon Rapids","company":"Tall Corn Ethanol, LLC","zip":"50058","st":"IA","marketing company":"POET","millions of gallons":49.0,"geo_score":0.902,"serving railroad":"BNSF","id":"a6hdl72fpcsn","geo_precision":"range","web":"http://www.tallcornethanol.com/","address":"1015 Grant Ave"},"type":"Feature","geometry":{"type":"Point","coordinates":[-94.62871,41.860894]}},{"properties":{"city":"Trenton","company":"Trenton Agri Products","zip":"69044","st":"NE","marketing company":"POET","millions of gallons":67.0,"geo_score":0.61,"serving railroad":"BNSF","id":"a6hdl702jre8","geo_precision":"street","web":"http://www.trentonagriproducts.com/","address":"36638 US Highway 34"},"type":"Feature","geometry":{"type":"Point","coordinates":[-100.601851,40.198093]}},{"properties":{"city":"Emmetsburg","company":"Voyager Ethanol, LLC","zip":"50536","st":"IA","marketing company":"POET","millions of gallons":50.0,"geo_score":0.815,"serving railroad":"UP Transloading on ICE","id":"a6hdl73aa9z3","geo_precision":"range","web":"http://www.voyagerethanol.com/","address":"4724 380TH ST."},"type":"Feature","geometry":{"type":"Point","coordinates":[-94.65621,43.097484]}},{"properties":{"city":"Oakley/Campus","company":"Western Plains Energy, LLC","zip":"67748","st":"KS","marketing company":"POET","millions of gallons":40.0,"geo_score":0.61,"serving railroad":"UP","id":"a6hdl6tjq8a9","geo_precision":"street","web":"http://westernplainsenergy.biz/wpe.html","address":"3022 County Road 18"},"type":"Feature","geometry":{"type":"Point","coordinates":[-101.073509,39.394126]}}],"is_temporal":false,"author":{"url":"","metadata":"","contact_name":"","contact_address":"","source":"","contact_phone":""},"source":"","pagination":{"sort":null,"start":0,"total":35,"limit":1000000},"state":"complete","tags":"poet","published":"2014-08-10T21:03:26-04:00","id":59510}