{"type":"FeatureCollection","data_type":"Dataset","url_type":null,"permissions":[{"permissions":{"download":true,"view":true},"group_id":"everyone"}],"classification":null,"title":"Carrier Map","count":18,"stream_id":59653,"contributor":{"url":"http://geocommons.com/users/15002","name":"asandy"},"data_attributes":null,"calculation_params":null,"icon_link":null,"link":"http://geocommons.com/overlays/59653.json","extent":[-121.986,33.2116,-77.8057,47.7421],"geometry_types":["point"],"unique_name":null,"name":"Carrier Map","feature_count":18,"description":"Carrier map","next_feature":null,"is_raster":false,"short_classification":"Y","stats":{"geo_score":{"max":0.965,"mean":0.768722222222222,"variance":0.0319355065359477,"stdev":0.178705082568873,"min":0.49,"median":0.89}},"features":[{"properties":{"city":"Moorefield","name":"ALTT","zip":"26836","geo_score":0.685,"street":"1918 US Highway 220 South","id":"a6osuur0p1ro","geo_precision":"street","state":"WV"},"type":"Feature","geometry":{"type":"Point","coordinates":[-78.966566,39.073829]}},{"properties":{"city":"Pittsburgh","name":"BKXP","zip":"15205","geo_score":0.941,"street":"3 Crafton Square","id":"a6osuuc6s5qu","geo_precision":"range","state":"PA"},"type":"Feature","geometry":{"type":"Point","coordinates":[-80.063244,40.430286]}},{"properties":{"city":"Kingman","name":"BMTN","zip":"86401","geo_score":0.528,"street":"3530 Skylark Suit C","id":"a6osuuor02xs","geo_precision":"street","state":"AZ"},"type":"Feature","geometry":{"type":"Point","coordinates":[-114.028367,35.22668]}},{"properties":{"city":"Martinsburg","name":"BNDC","zip":"25402","geo_score":0.61,"street":"1014 Mid Atlantic Parkway","id":"a6osuubr1c05","geo_precision":"street","state":"WV"},"type":"Feature","geometry":{"type":"Point","coordinates":[-77.958418,39.490849]}},{"properties":{"city":"Williamsport","name":"BOMN","zip":"21795","geo_score":0.89,"street":"10038 Governor Lane Blvd","id":"a6osuujcremr","geo_precision":"range","state":"MD"},"type":"Feature","geometry":{"type":"Point","coordinates":[-77.805661,39.594736]}},{"properties":{"city":"Garrett","name":"BORN","zip":"46738","geo_score":0.912,"street":"325 North Taylor Road","id":"a6osuup5cudb","geo_precision":"range","state":"IN"},"type":"Feature","geometry":{"type":"Point","coordinates":[-85.116576,41.352861]}},{"properties":{"city":"Hartford City","name":"CCXM","zip":"47348","geo_score":0.919,"street":"2336 West State Road 18","id":"a6osuuck27f6","geo_precision":"range","state":"IN"},"type":"Feature","geometry":{"type":"Point","coordinates":[-85.41614,40.552642]}},{"properties":{"city":"Mt. Juliet","name":"DLNT","zip":"37121","geo_score":0.707,"street":"3770 Nonaville Road","id":"a6osuudhnh9s","geo_precision":"street","state":"TN"},"type":"Feature","geometry":{"type":"Point","coordinates":[-86.537003,36.275363]}},{"properties":{"city":"Fort Wayne","name":"FRTO","zip":"46809","geo_score":0.913,"street":"11120  Bluffton Road","id":"a6osuuqrhcps","geo_precision":"range","state":"IN"},"type":"Feature","geometry":{"type":"Point","coordinates":[-85.16834,40.982385]}},{"properties":{"city":"Pacific","name":"GORK","zip":"98047","geo_score":0.503,"street":"151 Steward Road SW","id":"a6osuul62wdj","geo_precision":"street","state":"WA"},"type":"Feature","geometry":{"type":"Point","coordinates":[-121.985899,47.742101]}},{"properties":{"city":"St Louis","name":"HGTN","zip":"63106","geo_score":0.887,"street":"1000 North 14th Street","id":"a6osuunjbei9","geo_precision":"range","state":"MO"},"type":"Feature","geometry":{"type":"Point","coordinates":[-90.19764,38.635805]}},{"properties":{"city":"Huntington","name":"HINR","zip":"46750","geo_score":0.932,"street":"1350 South Jefferson Street","id":"a6osuum93bul","geo_precision":"range","state":"IN"},"type":"Feature","geometry":{"type":"Point","coordinates":[-85.482676,40.870261]}},{"properties":{"city":"Phoenix","name":"KNIG","zip":"85043","geo_score":0.614,"street":"5601 W. Buckeye Road","id":"a6osuucazr16","geo_precision":"street","state":"AZ"},"type":"Feature","geometry":{"type":"Point","coordinates":[-112.152038,33.4369]}},{"properties":{"city":"Milan","name":"MLXP","zip":"38358","geo_score":0.902,"street":"1091 Kefauver  Drive","id":"a6osuubw4o2m","geo_precision":"range","state":"TN"},"type":"Feature","geometry":{"type":"Point","coordinates":[-88.752402,35.906018]}},{"properties":{"city":"Knoxville","name":"PMBR","zip":"37917","geo_score":0.965,"street":"2530 Mitchell Street","id":"a6osuub9on25","geo_precision":"range","state":"TN"},"type":"Feature","geometry":{"type":"Point","coordinates":[-83.903046,35.992922]}},{"properties":{"city":"Phoenix","name":"SWFT","zip":"85301","geo_score":0.537,"street":"2200 South 75th Avenue","id":"a6osuudiprg6","geo_precision":"street","state":"AZ"},"type":"Feature","geometry":{"type":"Point","coordinates":[-112.219596,33.391841]}},{"properties":{"city":"Muskogee","name":"TFYI","zip":"74401","geo_score":0.49,"street":"3250 N. 32nd Street","id":"a6osuurb7a9s","geo_precision":"street","state":"OK"},"type":"Feature","geometry":{"type":"Point","coordinates":[-95.402431,35.753119]}},{"properties":{"city":"Jackson","name":"TKSI","zip":"30233","geo_score":0.902,"street":"105 Short Road","id":"a6osuur6v4zh","geo_precision":"range","state":"GA"},"type":"Feature","geometry":{"type":"Point","coordinates":[-84.055998,33.211627]}}],"is_temporal":false,"author":{"url":"","metadata":"","contact_name":"","contact_address":"","source":"","contact_phone":""},"source":"","pagination":{"sort":null,"start":0,"total":18,"limit":1000000},"state":"complete","tags":"","published":"2010-07-27T16:00:00Z","id":59653}