{"type":"FeatureCollection","data_type":"Dataset","url_type":null,"permissions":[{"permissions":{"download":true,"view":true},"group_id":"everyone"}],"classification":null,"title":"BackOffice2","count":409,"stream_id":59823,"contributor":{"url":"http://geocommons.com/users/15017","name":"sbogle"},"data_attributes":null,"calculation_params":null,"icon_link":null,"link":"http://geocommons.com/overlays/59823.json","extent":[-124.224,25.6991,-68.7852,48.7564],"geometry_types":["point"],"unique_name":null,"name":"BackOffice2","feature_count":409,"description":"","next_feature":null,"is_raster":false,"short_classification":"Y","stats":{"store number":{"max":3834,"mean":1915.66014669927,"variance":996381.690589193,"stdev":998.189205806791,"min":27,"median":1794}},"features":[{"properties":{"city":"Deerfield Beach","zip":"33442","store number":1020,"id":"a6g5tq80l31x","address":"4008 Hillsboro Blvd","state":"FL"},"type":"Feature","geometry":{"type":"Point","coordinates":[-80.1387,26.3101]}},{"properties":{"city":"Plant City","zip":"33566","store number":1023,"id":"a6g5tq4ww4qx","address":"2502 Jim Redman Parkway","state":"FL"},"type":"Feature","geometry":{"type":"Point","coordinates":[-82.1132,28.0152]}},{"properties":{"city":"Enfield","zip":"6082","store number":1076,"id":"a6g5tq5c34te","address":"136 Elm Street","state":"CT"},"type":"Feature","geometry":{"type":"Point","coordinates":[-72.5742,41.9896]}},{"properties":{"city":"Clinton","zip":"20735","store number":1122,"id":"a6g5tq4d8ouc","address":"8829 Branch Avenue","state":"MD"},"type":"Feature","geometry":{"type":"Point","coordinates":[-76.8995,38.763]}},{"properties":{"city":"Rocky Mount","zip":"27804","store number":1132,"id":"a6g5tq8o3rms","address":"1261 Cobb Corners Drive","state":"NC"},"type":"Feature","geometry":{"type":"Point","coordinates":[-77.8419,35.9635]}},{"properties":{"city":"Savannah","zip":"31404","store number":1150,"id":"a6g5tq5u2fhh","address":"1915 East Victory Dr.","state":"GA"},"type":"Feature","geometry":{"type":"Point","coordinates":[-81.0619,32.0416]}},{"properties":{"city":"Brunswick","zip":"31520","store number":1154,"id":"a6g5tq2c4dac","address":"207 Golden Isle Plaza","state":"GA"},"type":"Feature","geometry":{"type":"Point","coordinates":[-81.4947,31.1693]}},{"properties":{"city":"Saratoga Springs","zip":"12866","store number":1163,"id":"a6g5tqdgqxhv","address":"117 Ballston Avenue","state":"NY"},"type":"Feature","geometry":{"type":"Point","coordinates":[-73.7709,43.0751]}},{"properties":{"city":"Sacramento","zip":"95820","store number":1203,"id":"a6g5tq37d3fx","address":"5051 Fruitridge Rd.","state":"CA"},"type":"Feature","geometry":{"type":"Point","coordinates":[-121.443,38.5354]}},{"properties":{"city":"Sacramento","zip":"95823","store number":1204,"id":"a6g5tq8rdrlp","address":"6650 Valley Hi Drive","state":"CA"},"type":"Feature","geometry":{"type":"Point","coordinates":[-121.439,38.4821]}},{"properties":{"city":"Rancho Cordova","zip":"95670","store number":1205,"id":"a6g5tqbu4eso","address":"10337 Folsom Boulevard","state":"CA"},"type":"Feature","geometry":{"type":"Point","coordinates":[-121.282,38.6018]}},{"properties":{"city":"Woodland","zip":"95695","store number":1206,"id":"a6g5tpzv2oc9","address":"18 West Court Street","state":"CA"},"type":"Feature","geometry":{"type":"Point","coordinates":[-121.791,38.6801]}},{"properties":{"city":"Vallejo","zip":"94590","store number":1210,"id":"a6g5tpzxkuu4","address":"3475 Sonoma Blvd.","state":"CA"},"type":"Feature","geometry":{"type":"Point","coordinates":[-122.25,38.103]}},{"properties":{"city":"Marysville","zip":"95901","store number":1211,"id":"a6g5tq2pjpgn","address":"1409 B Street","state":"CA"},"type":"Feature","geometry":{"type":"Point","coordinates":[-121.566,39.162]}},{"properties":{"city":"Auburn","zip":"95603","store number":1212,"id":"a6g5tqeedbsx","address":"2136 Grass Valley Hwy","state":"CA"},"type":"Feature","geometry":{"type":"Point","coordinates":[-121.085,38.9111]}},{"properties":{"city":"Elk Grove","zip":"95624","store number":1213,"id":"a6g5tqbp9eln","address":"8696 Elk Grove Blvd.","state":"CA"},"type":"Feature","geometry":{"type":"Point","coordinates":[-121.365,38.4199]}},{"properties":{"city":"West Sacramento","zip":"95691","store number":1215,"id":"a6g5tq8eoeyw","address":"3015 West Capital Avenue","state":"CA"},"type":"Feature","geometry":{"type":"Point","coordinates":[-121.539,38.5659]}},{"properties":{"city":"Modesto","zip":"95350","store number":1216,"id":"a6g5tq05hqdj","address":"2225 Plaza Pkwy. # H","state":"CA"},"type":"Feature","geometry":{"type":"Point","coordinates":[-121.008,37.6742]}},{"properties":{"city":"Yuba City","zip":"95993","store number":1218,"id":"a6g5tqf02go1","address":"1460 Bridge Street","state":"CA"},"type":"Feature","geometry":{"type":"Point","coordinates":[-121.652,39.1379]}},{"properties":{"city":"Oroville","zip":"95966","store number":1219,"id":"a6g5tq027n0k","address":"1911 Oro Dam Blvd East","state":"CA"},"type":"Feature","geometry":{"type":"Point","coordinates":[-121.492,39.4727]}},{"properties":{"city":"Madera","zip":"93637","store number":1220,"id":"a6g5tqbap6o5","address":"2140  W Cleveland Ave","state":"CA"},"type":"Feature","geometry":{"type":"Point","coordinates":[-120.092,36.9471]}},{"properties":{"city":"Redding","zip":"96001","store number":1221,"id":"a6g5tpzenre0","address":"2385 Athens Avenue","state":"CA"},"type":"Feature","geometry":{"type":"Point","coordinates":[-122.42,40.5662]}},{"properties":{"city":"Pleasant Hill","zip":"94523","store number":1226,"id":"a6g5tq9u4w5i","address":"2318 Monument Blvd.","state":"CA"},"type":"Feature","geometry":{"type":"Point","coordinates":[-122.075,37.9535]}},{"properties":{"city":"Chico","zip":"95926","store number":1227,"id":"a6g5tqdx5j2f","address":"801 East Ave","state":"CA"},"type":"Feature","geometry":{"type":"Point","coordinates":[-121.846,39.7446]}},{"properties":{"city":"Folsom","zip":"95630","store number":1228,"id":"a6g5tq55guwp","address":"627 E. Bidwell St","state":"CA"},"type":"Feature","geometry":{"type":"Point","coordinates":[-121.165,38.6787]}},{"properties":{"city":"Sacramento","zip":"95823","store number":1229,"id":"a6g5tq1s06w9","address":"7020 Stockton Blvd","state":"CA"},"type":"Feature","geometry":{"type":"Point","coordinates":[-121.439,38.4821]}},{"properties":{"city":"Fresno","zip":"93710","store number":1231,"id":"a6g5tqe9rav2","address":"4474 West Shaw Ave.","state":"CA"},"type":"Feature","geometry":{"type":"Point","coordinates":[-119.765,36.8252]}},{"properties":{"city":"Union City","zip":"94587","store number":1233,"id":"a6g5tq2hoikn","address":"1720 Decoto Rd.","state":"CA"},"type":"Feature","geometry":{"type":"Point","coordinates":[-122.051,37.589]}},{"properties":{"city":"Milpitas","zip":"95035","store number":1236,"id":"a6g5tqdlok5n","address":"1350 S Park Victoria Dr.","state":"CA"},"type":"Feature","geometry":{"type":"Point","coordinates":[-121.892,37.4393]}},{"properties":{"city":"Fresno","zip":"93727","store number":1239,"id":"a6g5tq1h7xt9","address":"5666 E Kings Canyon Rd","state":"CA"},"type":"Feature","geometry":{"type":"Point","coordinates":[-119.71,36.7505]}},{"properties":{"city":"Virginia Beach","zip":"23464","store number":124,"id":"a6g5tqc5sfl2","address":"1385 Fordham Dr #113","state":"VA"},"type":"Feature","geometry":{"type":"Point","coordinates":[-76.1848,36.798]}},{"properties":{"city":"Stockton","zip":"95205","store number":1240,"id":"a6g5tq9kcpru","address":"678 Wilson Way #37","state":"CA"},"type":"Feature","geometry":{"type":"Point","coordinates":[-121.258,37.9589]}},{"properties":{"city":"Lakeport","zip":"95453","store number":1242,"id":"a6g5tq7xnrrj","address":"1305 South Main St.","state":"CA"},"type":"Feature","geometry":{"type":"Point","coordinates":[-122.919,39.0519]}},{"properties":{"city":"Placerville","zip":"95667","store number":1244,"id":"a6g5tq0tnlft","address":"1480 Broadway","state":"CA"},"type":"Feature","geometry":{"type":"Point","coordinates":[-120.799,38.726]}},{"properties":{"city":"Roseville","zip":"95678","store number":1248,"id":"a6g5tq119vk5","address":"108 B Harding Blvd","state":"CA"},"type":"Feature","geometry":{"type":"Point","coordinates":[-121.297,38.7541]}},{"properties":{"city":"Livermore","zip":"94550","store number":1250,"id":"a6g5tq82glmb","address":"1490 Railroad Ave.","state":"CA"},"type":"Feature","geometry":{"type":"Point","coordinates":[-121.719,37.6745]}},{"properties":{"city":"Redding","zip":"96003","store number":1252,"id":"a6g5tq4gskey","address":"40 Lake Boulevard","state":"CA"},"type":"Feature","geometry":{"type":"Point","coordinates":[-122.357,40.6203]}},{"properties":{"city":"Visalia","zip":"93277","store number":1253,"id":"a6g5tq4hr145","address":"2333 South Mooney Blvd","state":"CA"},"type":"Feature","geometry":{"type":"Point","coordinates":[-119.329,36.3115]}},{"properties":{"city":"San Jose","zip":"95133","store number":1254,"id":"a6g5tq49fore","address":"331 North Capitol Blvd.","state":"CA"},"type":"Feature","geometry":{"type":"Point","coordinates":[-121.858,37.3739]}},{"properties":{"city":"Modesto","zip":"95351","store number":1258,"id":"a6g5tqe4e5gz","address":"1330 East Hatch Road","state":"CA"},"type":"Feature","geometry":{"type":"Point","coordinates":[-120.989,37.6239]}},{"properties":{"city":"Oakland","zip":"94601","store number":1259,"id":"a6g5tq9ct9ow","address":"2445 International Blvd.","state":"CA"},"type":"Feature","geometry":{"type":"Point","coordinates":[-122.218,37.7798]}},{"properties":{"city":"Stockton","zip":"95212","store number":1260,"id":"a6g5tq59m8sl","address":"3728 E. Hammer Lane #1","state":"CA"},"type":"Feature","geometry":{"type":"Point","coordinates":[-121.247,38.0277]}},{"properties":{"city":"Stockton","zip":"95207","store number":1263,"id":"a6g5tq3fxfn5","address":"4555 North Pershing Ave.","state":"CA"},"type":"Feature","geometry":{"type":"Point","coordinates":[-121.319,37.9993]}},{"properties":{"city":"Hayward","zip":"94541","store number":1264,"id":"a6g5tq7v4n0z","address":"20800 Hesperian Blvd.","state":"CA"},"type":"Feature","geometry":{"type":"Point","coordinates":[-122.09,37.6745]}},{"properties":{"city":"Baltimore","zip":"21234","store number":1283,"id":"a6g5tpyu6p1t","address":"7615 Harford Road","state":"MD"},"type":"Feature","geometry":{"type":"Point","coordinates":[-76.5376,39.3844]}},{"properties":{"city":"Jacksonville","zip":"32244","store number":1288,"id":"a6g5tq4krqgr","address":"6001 Argyle Forest Blvd","state":"FL"},"type":"Feature","geometry":{"type":"Point","coordinates":[-81.7478,30.2257]}},{"properties":{"city":"Raynham","zip":"2767","store number":1335,"id":"a6g5tq1jjbs6","address":"600 South St W","state":"MA"},"type":"Feature","geometry":{"type":"Point","coordinates":[-71.0531,41.9326]}},{"properties":{"city":"Bradley","zip":"60915","store number":1346,"id":"a6g5tq70tarm","address":"108 Village Square","state":"IL"},"type":"Feature","geometry":{"type":"Point","coordinates":[-87.8628,41.1422]}},{"properties":{"city":"Tifton","zip":"31794","store number":1359,"id":"a6g5tq2ifi6e","address":"161 South Virginia Ave","state":"GA"},"type":"Feature","geometry":{"type":"Point","coordinates":[-83.5127,31.4564]}},{"properties":{"city":"Cape Coral","zip":"33990","store number":1367,"id":"a6g5tpzv3788","address":"1631 Del Prado Blvd","state":"FL"},"type":"Feature","geometry":{"type":"Point","coordinates":[-81.9466,26.6283]}},{"properties":{"city":"Medford","zip":"97504","store number":1379,"id":"a6g5tqcstx8d","address":"1050 Biddle Road","state":"OR"},"type":"Feature","geometry":{"type":"Point","coordinates":[-122.837,42.3386]}},{"properties":{"city":"Gastonia","zip":"28056","store number":138,"id":"a6g5tqemmgwy","address":"2932 East Franklin Blvd","state":"NC"},"type":"Feature","geometry":{"type":"Point","coordinates":[-81.1288,35.2162]}},{"properties":{"city":"Scranton","zip":"18508","store number":1380,"id":"a6g5tq1nkjbb","address":"1780 North Keyser Avenue","state":"PA"},"type":"Feature","geometry":{"type":"Point","coordinates":[-75.6622,41.4415]}},{"properties":{"city":"Salinas","zip":"93906","store number":1389,"id":"a6g5tqb417bf","address":"1441 N. Main St","state":"CA"},"type":"Feature","geometry":{"type":"Point","coordinates":[-121.642,36.713]}},{"properties":{"city":"Auburn","zip":"13021","store number":1395,"id":"a6g5tqajraii","address":"217 Grant Ave, #35","state":"NY"},"type":"Feature","geometry":{"type":"Point","coordinates":[-76.5613,42.9271]}},{"properties":{"city":"Waterbury","zip":"6705","store number":1396,"id":"a6g5tq1f43w6","address":"650 Wolcott Street","state":"CT"},"type":"Feature","geometry":{"type":"Point","coordinates":[-72.9961,41.5573]}},{"properties":{"city":"New Hartford","zip":"13413","store number":1401,"id":"a6g5tqf5f58r","address":"4583 Commercial Drive","state":"NY"},"type":"Feature","geometry":{"type":"Point","coordinates":[-75.2897,43.0651]}},{"properties":{"city":"Vestal","zip":"13850","store number":1405,"id":"a6g5tq1hct1g","address":"2437 Vestal Pkwy East","state":"NY"},"type":"Feature","geometry":{"type":"Point","coordinates":[-76.0119,42.0922]}},{"properties":{"city":"Rome","zip":"13440","store number":1408,"id":"a6g5tq2vmvs8","address":"205 W. Erie Blvd","state":"NY"},"type":"Feature","geometry":{"type":"Point","coordinates":[-75.4515,43.2216]}},{"properties":{"city":"Chicopee","zip":"1020","store number":1432,"id":"a6g5tq5gbx1a","address":"591 Memorial Dr","state":"MA"},"type":"Feature","geometry":{"type":"Point","coordinates":[-72.5716,42.1783]}},{"properties":{"city":"Portland","zip":"97206","store number":1463,"id":"a6g5tq91slqq","address":"6868 SE Foster Road","state":"OR"},"type":"Feature","geometry":{"type":"Point","coordinates":[-122.598,45.4822]}},{"properties":{"city":"Greensboro","zip":"27405","store number":1467,"id":"a6g5tqcczdsd","address":"1014 Summit Avenue","state":"NC"},"type":"Feature","geometry":{"type":"Point","coordinates":[-79.7615,36.1161]}},{"properties":{"city":"Toms River","zip":"8755","store number":1468,"id":"a6g5tqbrqwei","address":"2360 Lakewood Rd","state":"NJ"},"type":"Feature","geometry":{"type":"Point","coordinates":[-74.2204,39.9967]}},{"properties":{"city":"Springfield","zip":"97477","store number":1470,"id":"a6g5tq46s2ow","address":"2090 Olympic Street","state":"OR"},"type":"Feature","geometry":{"type":"Point","coordinates":[-123.014,44.0603]}},{"properties":{"city":"Fairhaven","zip":"2719","store number":1478,"id":"a6g5tq8xac1n","address":"15 Plaza Way","state":"MA"},"type":"Feature","geometry":{"type":"Point","coordinates":[-70.8839,41.6471]}},{"properties":{"city":"Delano","zip":"93215","store number":1484,"id":"a6g5tq8aowct","address":"625 Cecil Ave","state":"CA"},"type":"Feature","geometry":{"type":"Point","coordinates":[-119.238,35.7719]}},{"properties":{"city":"Orlando","zip":"32828","store number":1489,"id":"a6g5tqdh4t76","address":"361 N. Alafaya Trail","state":"FL"},"type":"Feature","geometry":{"type":"Point","coordinates":[-81.1904,28.5416]}},{"properties":{"city":"Victorville","zip":"92395","store number":1504,"id":"a6g5tqdah41r","address":"12160 Hesperia Rd","state":"CA"},"type":"Feature","geometry":null},{"properties":{"city":"Albany","zip":"97322","store number":1508,"id":"a6g5tq3yask3","address":"1307 Waverly Drive SE","state":"OR"},"type":"Feature","geometry":null},{"properties":{"city":"Watsonville","zip":"95076","store number":1519,"id":"a6g5tqaxaoo6","address":"1075 S Green Valley","state":"CA"},"type":"Feature","geometry":{"type":"Point","coordinates":[-121.771,36.927]}},{"properties":{"city":"Oldsmar","zip":"34677","store number":1532,"id":"a6g5tqbntyt3","address":"3148 Tampa Road","state":"FL"},"type":"Feature","geometry":{"type":"Point","coordinates":[-82.6821,28.0478]}},{"properties":{"city":"Palmdale","zip":"93550","store number":1535,"id":"a6g5tq24ha75","address":"222 East Palmdale Blvd","state":"CA"},"type":"Feature","geometry":{"type":"Point","coordinates":[-118.094,34.5691]}},{"properties":{"city":"Lancaster","zip":"93535","store number":1540,"id":"a6g5tqes4vq5","address":"1061 E Avenue J","state":"CA"},"type":"Feature","geometry":{"type":"Point","coordinates":[-118.081,34.6824]}},{"properties":{"city":"Wilmington","zip":"28403","store number":155,"id":"a6g5tqc8z0hr","address":"341 South College Rd.","state":"NC"},"type":"Feature","geometry":{"type":"Point","coordinates":[-77.8818,34.2257]}},{"properties":{"city":"Tyngsborough","zip":"1879","store number":1554,"id":"a6g5tq6q0r0f","address":"440 Middlesex Rd","state":"MA"},"type":"Feature","geometry":{"type":"Point","coordinates":[-71.4205,42.6713]}},{"properties":{"city":"Pittsburg","zip":"94565","store number":1556,"id":"a6g5tq2xsqfz","address":"2951 Railroad Ave","state":"CA"},"type":"Feature","geometry":{"type":"Point","coordinates":[-121.92,38.0166]}},{"properties":{"city":"Glen Allen","zip":"23060","store number":156,"id":"a6g5tq2o4492","address":"9870 West Broad Street","state":"VA"},"type":"Feature","geometry":{"type":"Point","coordinates":[-77.5316,37.6667]}},{"properties":{"city":"Palatka","zip":"32177","store number":1562,"id":"a6g5tq9xhhcc","address":"137 Town &amp; Country Drive","state":"FL"},"type":"Feature","geometry":{"type":"Point","coordinates":[-81.6627,29.663]}},{"properties":{"city":"Winter Garden","zip":"34787","store number":1579,"id":"a6g5tq6adic7","address":"13263 W. Colonial Drive","state":"FL"},"type":"Feature","geometry":{"type":"Point","coordinates":[-81.6039,28.5399]}},{"properties":{"city":"Jacksonville","zip":"32218","store number":1588,"id":"a6g5tq5na3x7","address":"1034 Dunn Avenue","state":"FL"},"type":"Feature","geometry":{"type":"Point","coordinates":[-81.662,30.4422]}},{"properties":{"city":"Morrisville","zip":"19067","store number":1602,"id":"a6g5tqe2nlq5","address":"1 E Trenton Avenue","state":"PA"},"type":"Feature","geometry":{"type":"Point","coordinates":[-74.8318,40.2179]}},{"properties":{"city":"Philadelphia","zip":"19103","store number":1604,"id":"a6g5tq11o0yb","address":"1601 Market Street","state":"PA"},"type":"Feature","geometry":{"type":"Point","coordinates":[-75.1728,39.9519]}},{"properties":{"city":"Philadelphia","zip":"19114","store number":1612,"id":"a6g5tqbgimbk","address":"9163 Roosevelt Blvd","state":"PA"},"type":"Feature","geometry":{"type":"Point","coordinates":[-75.0022,40.0664]}},{"properties":{"city":"Philadelphia","zip":"19149","store number":1613,"id":"a6g5tqd5235y","address":"6429 Sackett Street","state":"PA"},"type":"Feature","geometry":{"type":"Point","coordinates":[-75.0641,40.0386]}},{"properties":{"city":"Philadelphia","zip":"19124","store number":1619,"id":"a6g5tpz7wnsq","address":"4600 East Roosevelt Blvd","state":"PA"},"type":"Feature","geometry":{"type":"Point","coordinates":[-75.0889,40.0166]}},{"properties":{"city":"Broomall","zip":"19008","store number":1620,"id":"a6g5tq1ojyj9","address":"1991 Sproul Road","state":"PA"},"type":"Feature","geometry":{"type":"Point","coordinates":[-75.3573,39.9743]}},{"properties":{"city":"Norristown","zip":"19401","store number":1623,"id":"a6g5tq9h8c2s","address":"2888 Dekalb Pike","state":"PA"},"type":"Feature","geometry":{"type":"Point","coordinates":[-75.3366,40.1256]}},{"properties":{"city":"Philadelphia","zip":"19134","store number":1624,"id":"a6g5tpzk2qgd","address":"3668 Aramingo Ave","state":"PA"},"type":"Feature","geometry":{"type":"Point","coordinates":[-75.1127,39.9927]}},{"properties":{"city":"North Brunswick","zip":"8902","store number":1629,"id":"a6g5tq04fnb8","address":"560 Milltown Rd","state":"NJ"},"type":"Feature","geometry":{"type":"Point","coordinates":[-74.4795,40.4533]}},{"properties":{"city":"Cherry Hill","zip":"8034","store number":1630,"id":"a6g5tq8ma7n7","address":"1660 Kings Hwy N","state":"NJ"},"type":"Feature","geometry":{"type":"Point","coordinates":[-75.0042,39.9095]}},{"properties":{"city":"Whitehall","zip":"18052","store number":1634,"id":"a6g5tq7uxv27","address":"2180 MacArthur Road","state":"PA"},"type":"Feature","geometry":{"type":"Point","coordinates":[-75.4948,40.6504]}},{"properties":{"city":"Brick","zip":"8723","store number":1635,"id":"a6g5tpzwl8dr","address":"56 Chambersbridge Rd","state":"NJ"},"type":"Feature","geometry":{"type":"Point","coordinates":[-74.1125,40.0385]}},{"properties":{"city":"Hamilton","zip":"8610","store number":1638,"id":"a6g5tqeqm3py","address":"2465 South Broad Street","state":"NJ"},"type":"Feature","geometry":{"type":"Point","coordinates":[-74.7201,40.1963]}},{"properties":{"city":"Newport","zip":"19804","store number":1646,"id":"a6g5tqbm2idw","address":"1716 West Newport Pike","state":"DE"},"type":"Feature","geometry":{"type":"Point","coordinates":[-75.6124,39.7191]}},{"properties":{"city":"Hamilton","zip":"8690","store number":1650,"id":"a6g5tq19yqrq","address":"1277 Route 33","state":"NJ"},"type":"Feature","geometry":{"type":"Point","coordinates":[-74.6661,40.2263]}},{"properties":{"city":"Claymont","zip":"19703","store number":1653,"id":"a6g5tqb7cmq9","address":"2099B Philadelphia Pike","state":"DE"},"type":"Feature","geometry":{"type":"Point","coordinates":[-75.4585,39.8056]}},{"properties":{"city":"Philadelphia","zip":"19124","store number":1655,"id":"a6g5tqczgk89","address":"700 E Hunting Park Ave","state":"PA"},"type":"Feature","geometry":{"type":"Point","coordinates":[-75.0889,40.0166]}},{"properties":{"city":"Philadelphia","zip":"19149","store number":1656,"id":"a6g5tq15j2lf","address":"2620 Cottman Ave","state":"PA"},"type":"Feature","geometry":{"type":"Point","coordinates":[-75.0641,40.0386]}},{"properties":{"city":"Lancaster","zip":"17601","store number":1660,"id":"a6g5tq3rzes3","address":"1280 Lititz Pike","state":"PA"},"type":"Feature","geometry":{"type":"Point","coordinates":[-76.3315,40.0723]}},{"properties":{"city":"Mays Landing","zip":"8330","store number":1665,"id":"a6g5tqeazmnt","address":"140 Consumer Sq","state":"NJ"},"type":"Feature","geometry":{"type":"Point","coordinates":[-74.7276,39.4602]}},{"properties":{"city":"Rockville","zip":"20852","store number":1668,"id":"a6g5tpzxdoxg","address":"1776 East Jefferson St","state":"MD"},"type":"Feature","geometry":{"type":"Point","coordinates":[-77.117,39.0451]}},{"properties":{"city":"Glen Burnie","zip":"21061","store number":1669,"id":"a6g5tq4ytbh5","address":"7419 Ritchie Hwy","state":"MD"},"type":"Feature","geometry":{"type":"Point","coordinates":[-76.6351,39.158]}},{"properties":{"city":"Burlington","zip":"8016","store number":1675,"id":"a6g5tq1bh85w","address":"2514 Mount Holly Rd","state":"NJ"},"type":"Feature","geometry":{"type":"Point","coordinates":[-74.8543,40.0692]}},{"properties":{"city":"Reisterstown","zip":"21136","store number":1676,"id":"a6g5tq9xblnc","address":"11935 Reistertown Rd","state":"MD"},"type":"Feature","geometry":{"type":"Point","coordinates":[-76.8008,39.4619]}},{"properties":{"city":"Wilkes Barre","zip":"18702","store number":1677,"id":"a6g5tq8dq5ky","address":"316 East End Centre","state":"PA"},"type":"Feature","geometry":{"type":"Point","coordinates":[-75.8726,41.2407]}},{"properties":{"city":"NEWARK","zip":"19711","store number":1678,"id":"a6g5tqcsbgla","address":"221 E MAIN ST","state":"DE"},"type":"Feature","geometry":{"type":"Point","coordinates":[-75.7315,39.7045]}},{"properties":{"city":"Lakeland","zip":"33809","store number":168,"id":"a6g5tq0c2b43","address":"4105 US Hwy 98 North","state":"FL"},"type":"Feature","geometry":{"type":"Point","coordinates":[-81.9618,28.1365]}},{"properties":{"city":"Reading","zip":"19605","store number":1682,"id":"a6g5tpztdgcc","address":"3049 North 5th Street","state":"PA"},"type":"Feature","geometry":{"type":"Point","coordinates":[-75.9353,40.3939]}},{"properties":{"city":"Rio Grande","zip":"8242","store number":1686,"id":"a6g5tq8kbwqu","address":"1500 Route 47","state":"NJ"},"type":"Feature","geometry":{"type":"Point","coordinates":[-74.8768,39.0234]}},{"properties":{"city":"Middletown","zip":"10940","store number":1687,"id":"a6g5tqaypem0","address":"88 Dunning Rd","state":"NY"},"type":"Feature","geometry":{"type":"Point","coordinates":[-74.4319,41.4469]}},{"properties":{"city":"Philadelphia","zip":"19154","store number":1688,"id":"a6g5tqeei3dz","address":"101 Franklin Mills Blvd","state":"PA"},"type":"Feature","geometry":{"type":"Point","coordinates":[-74.978,40.0895]}},{"properties":{"city":"Frederick","zip":"21701","store number":1691,"id":"a6g5tqejpu7q","address":"403 S Jefferson Street","state":"MD"},"type":"Feature","geometry":{"type":"Point","coordinates":[-77.3974,39.4243]}},{"properties":{"city":"Warrington","zip":"18976","store number":1693,"id":"a6g5tq5ym12v","address":"1380 Easton Road","state":"PA"},"type":"Feature","geometry":{"type":"Point","coordinates":[-75.1315,40.2446]}},{"properties":{"city":"Largo","zip":"20774","store number":1694,"id":"a6g5tqc5bo6x","address":"850 Largo Center Drive","state":"MD"},"type":"Feature","geometry":{"type":"Point","coordinates":[-76.808,38.8915]}},{"properties":{"city":"Clifton","zip":"7013","store number":1696,"id":"a6g5tq2tuuqi","address":"1006 Route 46","state":"NJ"},"type":"Feature","geometry":{"type":"Point","coordinates":[-74.1723,40.8715]}},{"properties":{"city":"Union","zip":"7083","store number":1697,"id":"a6g5tq1tr0tf","address":"1008 Stuyvesant Ave","state":"NJ"},"type":"Feature","geometry":{"type":"Point","coordinates":[-74.2701,40.6946]}},{"properties":{"city":"Lawrenceville","zip":"8648","store number":1699,"id":"a6g5tq719r9i","address":"2520 Brunswick Pike","state":"NJ"},"type":"Feature","geometry":{"type":"Point","coordinates":[-74.7251,40.2739]}},{"properties":{"city":"Laurel","zip":"20707","store number":1705,"id":"a6g5tq6gdh35","address":"9620 Fort Mead Rd","state":"MD"},"type":"Feature","geometry":{"type":"Point","coordinates":[-76.8683,39.0983]}},{"properties":{"city":"Baltimore","zip":"21236","store number":1709,"id":"a6g5tq86cf3t","address":"4327 Ebenezer Road","state":"MD"},"type":"Feature","geometry":{"type":"Point","coordinates":[-76.4868,39.3934]}},{"properties":{"city":"Chesapeake","zip":"23320","store number":171,"id":"a6g5tq7qjd76","address":"1105 South Military Hwy","state":"VA"},"type":"Feature","geometry":{"type":"Point","coordinates":[-76.2429,36.757]}},{"properties":{"city":"Annapolis","zip":"21401","store number":1710,"id":"a6g5tq4shg7b","address":"81 Forest Plaza","state":"MD"},"type":"Feature","geometry":{"type":"Point","coordinates":[-76.5186,38.9863]}},{"properties":{"city":"Bel Air","zip":"21014","store number":1713,"id":"a6g5tq3998ta","address":"602C Boulton St","state":"MD"},"type":"Feature","geometry":{"type":"Point","coordinates":[-76.3433,39.5382]}},{"properties":{"city":"Point Pleasant Boro","zip":"8742","store number":1720,"id":"a6g5tqa7zpvp","address":"3252 Bridge Ave","state":"NJ"},"type":"Feature","geometry":{"type":"Point","coordinates":[-74.0608,40.0789]}},{"properties":{"city":"Lumberton","zip":"28358","store number":1727,"id":"a6g5tqcju0my","address":"5035 Fayetteville Road","state":"NC"},"type":"Feature","geometry":{"type":"Point","coordinates":[-78.9934,34.6177]}},{"properties":{"city":"Providence","zip":"2909","store number":1733,"id":"a6g5tqakvyz1","address":"377 Killingly St","state":"RI"},"type":"Feature","geometry":{"type":"Point","coordinates":[-71.4515,41.8157]}},{"properties":{"city":"Jackson","zip":"95642","store number":1735,"id":"a6g5tqarfxsy","address":"11986 State Hwy 88","state":"CA"},"type":"Feature","geometry":{"type":"Point","coordinates":[-120.764,38.3619]}},{"properties":{"city":"Antioch","zip":"94509","store number":1740,"id":"a6g5tq1xzczz","address":"2710 Delta Fair Blvd","state":"CA"},"type":"Feature","geometry":{"type":"Point","coordinates":[-121.811,37.995]}},{"properties":{"city":"Salem","zip":"97305","store number":1745,"id":"a6g5tq6djtzp","address":"2789 Lancaster Drive NE","state":"OR"},"type":"Feature","geometry":{"type":"Point","coordinates":[-122.966,44.9852]}},{"properties":{"city":"Philadelphia","zip":"19153","store number":1781,"id":"a6g5tq2x2n1g","address":"3000 Island Ave","state":"PA"},"type":"Feature","geometry":{"type":"Point","coordinates":[-75.2402,39.9042]}},{"properties":{"city":"Santa Clarita","zip":"91351","store number":1783,"id":"a6g5tq2xn8v3","address":"19339 Soledad Canyon Rd","state":"CA"},"type":"Feature","geometry":{"type":"Point","coordinates":[-118.476,34.4253]}},{"properties":{"city":"Cranston","zip":"2920","store number":1794,"id":"a6g5tq2rtsch","address":"252 Garfield Ave","state":"RI"},"type":"Feature","geometry":{"type":"Point","coordinates":[-71.468,41.7722]}},{"properties":{"city":"Hazlet","zip":"7730","store number":1801,"id":"a6g5tqeyb87q","address":"3600 State Rte 35","state":"NJ"},"type":"Feature","geometry":{"type":"Point","coordinates":[-74.1796,40.4233]}},{"properties":{"city":"Riverside","zip":"92509","store number":1803,"id":"a6g5tq19pq0r","address":"7790 Limonite Ave","state":"CA"},"type":"Feature","geometry":{"type":"Point","coordinates":[-117.453,33.9986]}},{"properties":{"city":"North Bend","zip":"97459","store number":1810,"id":"a6g5tq1e93vl","address":"1611 Virginia Avenue","state":"OR"},"type":"Feature","geometry":{"type":"Point","coordinates":[-124.224,43.4107]}},{"properties":{"city":"Virginia Beach","zip":"23453","store number":1829,"id":"a6g5tq353jxs","address":"1949 Lynhaven Parkway","state":"VA"},"type":"Feature","geometry":null},{"properties":{"city":"Wyncote","zip":"19095","store number":1841,"id":"a6g5tq2mt2vc","address":"1000 Easton Road","state":"PA"},"type":"Feature","geometry":{"type":"Point","coordinates":[-75.1457,40.0864]}},{"properties":{"city":"Arcata","zip":"95521","store number":1845,"id":"a6g5tq3ahurh","address":"5000 Valley W Blvd","state":"CA"},"type":"Feature","geometry":{"type":"Point","coordinates":[-124.085,40.8744]}},{"properties":{"city":"Anderson","zip":"96007","store number":1857,"id":"a6g5tqam9b8p","address":"2611 Balls Ferry Road","state":"CA"},"type":"Feature","geometry":{"type":"Point","coordinates":[-122.314,40.4517]}},{"properties":{"city":"Portland","zip":"97233","store number":1858,"id":"a6g5tqa2sjv7","address":"2400 SE 182nd Avenue","state":"OR"},"type":"Feature","geometry":{"type":"Point","coordinates":[-122.495,45.5165]}},{"properties":{"city":"Charlotte","zip":"28270","store number":1859,"id":"a6g5tq3vvsjk","address":"1848 Galleria Blvd","state":"NC"},"type":"Feature","geometry":{"type":"Point","coordinates":[-80.7666,35.1208]}},{"properties":{"city":"Burlington","zip":"27217","store number":1866,"id":"a6g5tqa79nyj","address":"2120 North Church Street","state":"NC"},"type":"Feature","geometry":{"type":"Point","coordinates":[-79.4303,36.1403]}},{"properties":{"city":"Rohnert Park","zip":"94928","store number":1868,"id":"a6g5tqf39tmd","address":"4675 Redwood Drive","state":"CA"},"type":"Feature","geometry":{"type":"Point","coordinates":[-122.692,38.3449]}},{"properties":{"city":"Sanford","zip":"27330","store number":1874,"id":"a6g5tqenbigf","address":"2031 South Horner Blvd","state":"NC"},"type":"Feature","geometry":{"type":"Point","coordinates":[-79.1834,35.4911]}},{"properties":{"city":"Woodbridge","zip":"22192","store number":1890,"id":"a6g5tqej7eep","address":"13345 Worth Avenue","state":"VA"},"type":"Feature","geometry":{"type":"Point","coordinates":[-77.3081,38.6862]}},{"properties":{"city":"Winston Salem","zip":"27103","store number":1897,"id":"a6g5tq8e2tlm","address":"2219 Cloverdale Ave.","state":"NC"},"type":"Feature","geometry":{"type":"Point","coordinates":[-80.3009,36.0606]}},{"properties":{"city":"Highland","zip":"92346","store number":1899,"id":"a6g5tpz0kje4","address":"4040 East Highland Ave","state":"CA"},"type":"Feature","geometry":{"type":"Point","coordinates":[-117.202,34.1232]}},{"properties":{"city":"Bend","zip":"97702","store number":1912,"id":"a6g5tq0n8a8v","address":"61470 US Highway 97","state":"OR"},"type":"Feature","geometry":{"type":"Point","coordinates":[-121.302,44.0245]}},{"properties":{"city":"Lodi","zip":"7644","store number":1921,"id":"a6g5tq5mv5tw","address":"15 Washington St","state":"NJ"},"type":"Feature","geometry":{"type":"Point","coordinates":[-74.084,40.8734]}},{"properties":{"city":"Johnstown","zip":"12095","store number":1929,"id":"a6g5tq28hwj8","address":"215 North Comrie Avenue","state":"NY"},"type":"Feature","geometry":{"type":"Point","coordinates":[-74.371,43.0137]}},{"properties":{"city":"Tampa","zip":"33614","store number":1942,"id":"a6g5tq9eek0l","address":"2750 West Hillsboro","state":"FL"},"type":"Feature","geometry":{"type":"Point","coordinates":[-82.5022,28.0126]}},{"properties":{"city":"Arroyo Grande","zip":"93420","store number":1943,"id":"a6g5tpzg38ll","address":"1400 E Grand Ave, Ste A","state":"CA"},"type":"Feature","geometry":{"type":"Point","coordinates":[-120.578,35.1071]}},{"properties":{"city":"Tampa","zip":"33613","store number":196,"id":"a6g5tq8tpfku","address":"13616 University Plaza","state":"FL"},"type":"Feature","geometry":{"type":"Point","coordinates":[-82.438,28.078]}},{"properties":{"city":"Fresno","zip":"93726","store number":1964,"id":"a6g5tq4tuv6r","address":"3730 North Blackstone","state":"CA"},"type":"Feature","geometry":{"type":"Point","coordinates":[-119.758,36.7942]}},{"properties":{"city":"Newport News","zip":"23601","store number":1969,"id":"a6g5tqep3gay","address":"11008 Warwick Blvd","state":"VA"},"type":"Feature","geometry":{"type":"Point","coordinates":[-76.4561,37.0579]}},{"properties":{"city":"Rehoboth Beach","zip":"19971","store number":1974,"id":"a6g5tq0c2lea","address":"12 Midway Shopping Ctr.","state":"DE"},"type":"Feature","geometry":{"type":"Point","coordinates":[-75.0905,38.7159]}},{"properties":{"city":"Sebring","zip":"33870","store number":1980,"id":"a6g5tq2yjyzc","address":"2918 US Highway 27 South","state":"FL"},"type":"Feature","geometry":{"type":"Point","coordinates":[-81.4479,27.5027]}},{"properties":{"city":"St Augustine","zip":"32086","store number":199,"id":"a6g5tqexlm1h","address":"1938 US Highway 1 South","state":"FL"},"type":"Feature","geometry":{"type":"Point","coordinates":[-81.3188,29.8143]}},{"properties":{"city":"Palm Desert","zip":"92211","store number":2022,"id":"a6g5tqetpfr8","address":"42245 Washington Street","state":"CA"},"type":"Feature","geometry":{"type":"Point","coordinates":[-116.314,33.7517]}},{"properties":{"city":"Danvers","zip":"1923","store number":2036,"id":"a6g5tq43oszv","address":"230 Independence Way","state":"MA"},"type":"Feature","geometry":{"type":"Point","coordinates":[-70.9414,42.5707]}},{"properties":{"city":"Annandale","zip":"22003","store number":206,"id":"a6g5tq6wqxrm","address":"6920 Braddock Rd","state":"VA"},"type":"Feature","geometry":{"type":"Point","coordinates":[-77.2107,38.8297]}},{"properties":{"city":"Port Charlotte","zip":"33948","store number":2071,"id":"a6g5tq39tk9b","address":"1825 Tamiami Trail","state":"FL"},"type":"Feature","geometry":{"type":"Point","coordinates":[-82.1463,26.9855]}},{"properties":{"city":"Lake Park","zip":"33403","store number":2081,"id":"a6g5tqa8tetc","address":"1252 Northlake Blvd","state":"FL"},"type":"Feature","geometry":{"type":"Point","coordinates":[-80.0713,26.807]}},{"properties":{"city":"Wilmington","zip":"28412","store number":2082,"id":"a6g5tq8l2scx","address":"5309 Carolina Beach Rd.","state":"NC"},"type":"Feature","geometry":{"type":"Point","coordinates":[-77.9204,34.1625]}},{"properties":{"city":"San Jose","zip":"95123","store number":2083,"id":"a6g5tq101dqz","address":"5540 Snell Avenue","state":"CA"},"type":"Feature","geometry":{"type":"Point","coordinates":[-121.835,37.2458]}},{"properties":{"city":"Monroe","zip":"28110","store number":2101,"id":"a6g5tq9rk7uk","address":"2401 W. Roosevelt Blvd","state":"NC"},"type":"Feature","geometry":{"type":"Point","coordinates":[-80.5233,35.0547]}},{"properties":{"city":"Longview","zip":"98632","store number":2102,"id":"a6g5tqc0q3oo","address":"780 Ocean Beach Hwy","state":"WA"},"type":"Feature","geometry":{"type":"Point","coordinates":[-122.976,46.152]}},{"properties":{"city":"Kingston","zip":"12401","store number":2105,"id":"a6g5tqcj4lds","address":"1379 Ulster Avenue","state":"NY"},"type":"Feature","geometry":{"type":"Point","coordinates":[-74.0184,41.9309]}},{"properties":{"city":"FORT PIERCE","zip":"34950","store number":2108,"id":"a6g5tq52k2cj","address":"415 GEORGIA AVE","state":"FL"},"type":"Feature","geometry":{"type":"Point","coordinates":[-80.3405,27.4495]}},{"properties":{"city":"Miami","zip":"33174","store number":2117,"id":"a6g5tqexfpca","address":"9525 W. Flagler Street","state":"FL"},"type":"Feature","geometry":{"type":"Point","coordinates":[-80.3582,25.7638]}},{"properties":{"city":"Sonora","zip":"95370","store number":2122,"id":"a6g5tq36cnln","address":"13771 Mono Way","state":"CA"},"type":"Feature","geometry":{"type":"Point","coordinates":[-120.361,37.9821]}},{"properties":{"city":"PORTSMOUTH","zip":"23701","store number":2132,"id":"a6g5tqb59wst","address":"4036 VICTORY BLVD","state":"VA"},"type":"Feature","geometry":{"type":"Point","coordinates":[-76.365,36.8118]}},{"properties":{"city":"Jacksonville","zip":"32246","store number":2134,"id":"a6g5tqevxhti","address":"11000 Beach Blvd","state":"FL"},"type":"Feature","geometry":{"type":"Point","coordinates":[-81.5147,30.3034]}},{"properties":{"city":"Santa Rosa","zip":"95407","store number":2162,"id":"a6g5tq9abyyc","address":"777 Sebastopol Rd","state":"CA"},"type":"Feature","geometry":{"type":"Point","coordinates":[-122.737,38.4097]}},{"properties":{"city":"Lakeland","zip":"33801","store number":2167,"id":"a6g5tq4cx3as","address":"1625 Bartow Road","state":"FL"},"type":"Feature","geometry":{"type":"Point","coordinates":[-81.9116,28.038]}},{"properties":{"city":"Santa Rosa","zip":"95405","store number":2168,"id":"a6g5tq6bqhot","address":"2747 Yulupa Ave","state":"CA"},"type":"Feature","geometry":{"type":"Point","coordinates":[-122.672,38.4395]}},{"properties":{"city":"Dunedin","zip":"34698","store number":2169,"id":"a6g5tqbgccec","address":"928 Patricia Avenue","state":"FL"},"type":"Feature","geometry":{"type":"Point","coordinates":[-82.7794,28.024]}},{"properties":{"city":"Ridgecrest","zip":"93555","store number":2177,"id":"a6g5tq69rwfb","address":"100 North China Lake Blv","state":"CA"},"type":"Feature","geometry":{"type":"Point","coordinates":[-117.677,35.6241]}},{"properties":{"city":"Manteca","zip":"95336","store number":2189,"id":"a6g5tqcxsfkz","address":"1389 E. Yosemite Ave.","state":"CA"},"type":"Feature","geometry":{"type":"Point","coordinates":[-121.209,37.8071]}},{"properties":{"city":"Orlando","zip":"32806","store number":2190,"id":"a6g5tqcm0zm5","address":"300 East Michigan St.","state":"FL"},"type":"Feature","geometry":{"type":"Point","coordinates":[-81.3629,28.5137]}},{"properties":{"city":"Lighthouse Point","zip":"33064","store number":2192,"id":"a6g5tqe7hqcf","address":"3780 North Federal Hwy","state":"FL"},"type":"Feature","geometry":{"type":"Point","coordinates":[-80.1176,26.2788]}},{"properties":{"city":"Roseburg","zip":"97470","store number":2198,"id":"a6g5tqab9ra4","address":"780 NW Garden Valley","state":"OR"},"type":"Feature","geometry":{"type":"Point","coordinates":[-123.374,43.2176]}},{"properties":{"city":"Aberdeen","zip":"98520","store number":2202,"id":"a6g5tpysbboa","address":"2600 Simpson Avenue","state":"WA"},"type":"Feature","geometry":{"type":"Point","coordinates":[-123.809,46.9859]}},{"properties":{"city":"McMinnville","zip":"97128","store number":2205,"id":"a6g5tq0rntxo","address":"1460 NE Baker Street","state":"OR"},"type":"Feature","geometry":{"type":"Point","coordinates":[-123.216,45.2125]}},{"properties":{"city":"New Castle","zip":"19720","store number":2220,"id":"a6g5tqepdzyz","address":"7 Penn Mart Center","state":"DE"},"type":"Feature","geometry":{"type":"Point","coordinates":[-75.5875,39.6749]}},{"properties":{"city":"Miami","zip":"33183","store number":2229,"id":"a6g5tpzm4gpo","address":"7342 SW 117th Avenue","state":"FL"},"type":"Feature","geometry":{"type":"Point","coordinates":[-80.4102,25.6991]}},{"properties":{"city":"Alexandria","zip":"22312","store number":225,"id":"a6g5tq8aypxw","address":"6198 Little River Trnpk","state":"VA"},"type":"Feature","geometry":{"type":"Point","coordinates":[-77.147,38.8191]}},{"properties":{"city":"Lansdowne","zip":"19050","store number":2250,"id":"a6g5tqdgvghh","address":"39 N. Lansdowne Ave.","state":"PA"},"type":"Feature","geometry":{"type":"Point","coordinates":[-75.2694,39.9384]}},{"properties":{"city":"Wilmington","zip":"19802","store number":2251,"id":"a6g5tqanvhdu","address":"3602 Miller Rd","state":"DE"},"type":"Feature","geometry":{"type":"Point","coordinates":[-75.5338,39.7566]}},{"properties":{"city":"Charlotte","zip":"28213","store number":2255,"id":"a6g5tq5m8bbe","address":"8101 University","state":"NC"},"type":"Feature","geometry":{"type":"Point","coordinates":[-80.7639,35.2707]}},{"properties":{"city":"Healdsburg","zip":"95448","store number":2262,"id":"a6g5tq5ymjn5","address":"1041 Vine St.","state":"CA"},"type":"Feature","geometry":{"type":"Point","coordinates":[-122.87,38.6189]}},{"properties":{"city":"Kissimmee","zip":"34746","store number":2270,"id":"a6g5tq7celo9","address":"2557 Old Vineland Road","state":"FL"},"type":"Feature","geometry":{"type":"Point","coordinates":[-81.4599,28.2613]}},{"properties":{"city":"Spanaway","zip":"98387","store number":2282,"id":"a6g5tq943dx7","address":"18101 Pacific Avenue S","state":"WA"},"type":"Feature","geometry":{"type":"Point","coordinates":[-122.378,47.0648]}},{"properties":{"city":"Beaverton","zip":"97005","store number":2284,"id":"a6g5tqdj4gqz","address":"12635 Sw Walker Road","state":"OR"},"type":"Feature","geometry":{"type":"Point","coordinates":[-122.806,45.4946]}},{"properties":{"city":"NEWARK","zip":"19702","store number":2285,"id":"a6g5tq5hgyhe","address":"200 PEOPLES PLZ","state":"DE"},"type":"Feature","geometry":{"type":"Point","coordinates":[-75.6983,39.6424]}},{"properties":{"city":"Charlotte","zip":"28226","store number":229,"id":"a6g5tq2pdse2","address":"8330 Pineville-Matthews","state":"NC"},"type":"Feature","geometry":{"type":"Point","coordinates":[-80.8146,35.1143]}},{"properties":{"city":"Seattle","zip":"98133","store number":2320,"id":"a6g5tq4qn94p","address":"13233 Aurora Avenue N","state":"WA"},"type":"Feature","geometry":{"type":"Point","coordinates":[-122.347,47.7341]}},{"properties":{"city":"Murrieta","zip":"92562","store number":2326,"id":"a6g5tq9t3rv3","address":"40565 California Oaks Rd","state":"CA"},"type":"Feature","geometry":{"type":"Point","coordinates":[-117.216,33.5768]}},{"properties":{"city":"Portland","zip":"97216","store number":2338,"id":"a6g5tq4lsocz","address":"10534 SE Washington St","state":"OR"},"type":"Feature","geometry":{"type":"Point","coordinates":[-122.556,45.5155]}},{"properties":{"city":"Fairfield","zip":"94533","store number":2341,"id":"a6g5tq1csn2g","address":"2425 N Texas St.","state":"CA"},"type":"Feature","geometry":{"type":"Point","coordinates":[-122.039,38.2717]}},{"properties":{"city":"Tacoma","zip":"98444","store number":2344,"id":"a6g5tq2jf5lk","address":"9830 Pacific Ave","state":"WA"},"type":"Feature","geometry":{"type":"Point","coordinates":[-122.453,47.1563]}},{"properties":{"city":"Portland","zip":"97232","store number":2346,"id":"a6g5tq55wxxt","address":"1420 Lloyd Ctr","state":"OR"},"type":"Feature","geometry":{"type":"Point","coordinates":[-122.644,45.528]}},{"properties":{"city":"Yakima","zip":"98902","store number":2387,"id":"a6g5tq0dttvy","address":"703 Nob Hill Blvd.","state":"WA"},"type":"Feature","geometry":{"type":"Point","coordinates":[-120.529,46.5955]}},{"properties":{"city":"Norfolk","zip":"23502","store number":239,"id":"a6g5tq91xma0","address":"5900 E. Va. Beach Blvd.","state":"VA"},"type":"Feature","geometry":{"type":"Point","coordinates":[-76.2141,36.8527]}},{"properties":{"city":"New Port Richey","zip":"34653","store number":240,"id":"a6g5tq8gg5ta","address":"7227 State Rd 54","state":"FL"},"type":"Feature","geometry":{"type":"Point","coordinates":[-82.7009,28.2442]}},{"properties":{"city":"Brandon","zip":"33511","store number":241,"id":"a6g5tq7884b6","address":"2424 W. Brandon Blvd","state":"FL"},"type":"Feature","geometry":{"type":"Point","coordinates":[-82.2951,27.9129]}},{"properties":{"city":"Lake Stevens","zip":"98258","store number":2415,"id":"a6g5tq05no48","address":"303 91st Ave NE Ste B201","state":"WA"},"type":"Feature","geometry":{"type":"Point","coordinates":[-122.072,48.0208]}},{"properties":{"city":"Hollywood","zip":"33021","store number":242,"id":"a6g5tqdjig85","address":"5151 Sheridan Street","state":"FL"},"type":"Feature","geometry":{"type":"Point","coordinates":[-80.1871,26.0217]}},{"properties":{"city":"Moses Lake","zip":"98837","store number":2424,"id":"a6g5tqae6wk2","address":"1201 S Pioneer Way","state":"WA"},"type":"Feature","geometry":{"type":"Point","coordinates":[-119.285,47.1353]}},{"properties":{"city":"Rancho Cucamonga","zip":"91730","store number":2445,"id":"a6g5tq8gw71r","address":"9743 Baseline Road","state":"CA"},"type":"Feature","geometry":{"type":"Point","coordinates":[-117.589,34.1066]}},{"properties":{"city":"Spokane","zip":"99208","store number":2449,"id":"a6g5tq32ch1i","address":"6416 N. Division St.","state":"WA"},"type":"Feature","geometry":{"type":"Point","coordinates":[-117.428,47.7281]}},{"properties":{"city":"Puyallup","zip":"98373","store number":2450,"id":"a6g5tq88i6h0","address":"3807 Meridian St. S","state":"WA"},"type":"Feature","geometry":{"type":"Point","coordinates":[-122.325,47.1487]}},{"properties":{"city":"Naperville","zip":"60540","store number":2461,"id":"a6g5tqcprxur","address":"530 S Route 59","state":"IL"},"type":"Feature","geometry":{"type":"Point","coordinates":[-88.1473,41.7652]}},{"properties":{"city":"Apopka","zip":"32703","store number":2465,"id":"a6g5tq2psge1","address":"769 South Orange Blossom","state":"FL"},"type":"Feature","geometry":{"type":"Point","coordinates":[-81.4828,28.6639]}},{"properties":{"city":"Swansea","zip":"2777","store number":2471,"id":"a6g5tqcgobc4","address":"58 Swansea Mall Dr","state":"MA"},"type":"Feature","geometry":{"type":"Point","coordinates":[-71.2092,41.7357]}},{"properties":{"city":"Newport","zip":"97365","store number":2484,"id":"a6g5tq55q6sv","address":"44 S Coast Hwy","state":"OR"},"type":"Feature","geometry":{"type":"Point","coordinates":[-124.045,44.6443]}},{"properties":{"city":"Federal Way","zip":"98003","store number":2487,"id":"a6g5tq7u1ulm","address":"31014 Pacific Hwy South","state":"WA"},"type":"Feature","geometry":{"type":"Point","coordinates":[-122.311,47.3224]}},{"properties":{"city":"Augusta","zip":"4330","store number":2490,"id":"a6g5tqcv6y9l","address":"152 Western Ave","state":"ME"},"type":"Feature","geometry":{"type":"Point","coordinates":[-69.7704,44.3361]}},{"properties":{"city":"Wenatchee","zip":"98801","store number":2503,"id":"a6g5tq7jnbo0","address":"911 N. Wenatchee Avenue","state":"WA"},"type":"Feature","geometry":{"type":"Point","coordinates":[-120.33,47.427]}},{"properties":{"city":"Oceanside","zip":"92056","store number":2507,"id":"a6g5tqdcbxwv","address":"4161 Oceanside Blvd","state":"CA"},"type":"Feature","geometry":{"type":"Point","coordinates":[-117.285,33.1942]}},{"properties":{"city":"Vancouver","zip":"98683","store number":2508,"id":"a6g5tq2qmzgy","address":"305 SE Chkalov Drive","state":"WA"},"type":"Feature","geometry":{"type":"Point","coordinates":[-122.522,45.6042]}},{"properties":{"city":"Downers Grove","zip":"60516","store number":2510,"id":"a6g5tq28nbq7","address":"7323 S. Lemont Rd","state":"IL"},"type":"Feature","geometry":{"type":"Point","coordinates":[-88.0131,41.7635]}},{"properties":{"city":"San Leandro","zip":"94578","store number":2515,"id":"a6g5tq6c7ipt","address":"14801 Washington Ave","state":"CA"},"type":"Feature","geometry":{"type":"Point","coordinates":[-122.123,37.7043]}},{"properties":{"city":"Chino","zip":"91710","store number":2518,"id":"a6g5tq9ej2gs","address":"11975 Central Ave.","state":"CA"},"type":"Feature","geometry":{"type":"Point","coordinates":[-117.684,34.0159]}},{"properties":{"city":"Carlsbad","zip":"92008","store number":2521,"id":"a6g5tq3b3qtj","address":"1838 Marron Road #E","state":"CA"},"type":"Feature","geometry":{"type":"Point","coordinates":[-117.328,33.1596]}},{"properties":{"city":"Worcester","zip":"1607","store number":2522,"id":"a6g5tpzesp2r","address":"344 Greenwood St","state":"MA"},"type":"Feature","geometry":{"type":"Point","coordinates":[-71.796,42.2292]}},{"properties":{"city":"Sacramento","zip":"95831","store number":2545,"id":"a6g5tq1ucsry","address":"1347 Florin Road","state":"CA"},"type":"Feature","geometry":{"type":"Point","coordinates":[-121.531,38.4969]}},{"properties":{"city":"Renton","zip":"98056","store number":2563,"id":"a6g5tq09cnjy","address":"2902 NE Sunset Blvd","state":"WA"},"type":"Feature","geometry":{"type":"Point","coordinates":[-122.184,47.5095]}},{"properties":{"city":"West Haverstraw","zip":"10993","store number":2573,"id":"a6g5tq71vtf0","address":"15 Samsondale Plaza","state":"NY"},"type":"Feature","geometry":{"type":"Point","coordinates":[-73.9813,41.2103]}},{"properties":{"city":"Durham","zip":"27703","store number":2581,"id":"a6g5tqcukp30","address":"907 N Miami Blvd.","state":"NC"},"type":"Feature","geometry":{"type":"Point","coordinates":[-78.845,35.9788]}},{"properties":{"city":"Simi Valley","zip":"93065","store number":2585,"id":"a6g5tq74622n","address":"2970 Cochran Street","state":"CA"},"type":"Feature","geometry":{"type":"Point","coordinates":[-118.775,34.2631]}},{"properties":{"city":"Saint Cloud","zip":"34769","store number":2596,"id":"a6g5tq1q0fml","address":"4261 13th Street","state":"FL"},"type":"Feature","geometry":{"type":"Point","coordinates":[-81.2903,28.2468]}},{"properties":{"city":"Tinley Park","zip":"60477","store number":2598,"id":"a6g5tq1et0fc","address":"16199 South Harlem Ave","state":"IL"},"type":"Feature","geometry":{"type":"Point","coordinates":[-87.8017,41.5748]}},{"properties":{"city":"Fresno","zip":"93728","store number":2600,"id":"a6g5tq80pr31","address":"917 E. Olive Avenue","state":"CA"},"type":"Feature","geometry":{"type":"Point","coordinates":[-119.815,36.7613]}},{"properties":{"city":"Dundalk","zip":"21222","store number":261,"id":"a6g5tqdganyf","address":"2301 North Point Blvd.","state":"MD"},"type":"Feature","geometry":{"type":"Point","coordinates":[-76.5046,39.2621]}},{"properties":{"city":"Williamsport","zip":"17701","store number":27,"id":"a6g5tq6d8v92","address":"1923 East Third Street","state":"PA"},"type":"Feature","geometry":{"type":"Point","coordinates":[-77.015,41.2513]}},{"properties":{"city":"Kernersville","zip":"27284","store number":2707,"id":"a6g5tq8uzt49","address":"815 South Main Street","state":"NC"},"type":"Feature","geometry":{"type":"Point","coordinates":[-80.0781,36.118]}},{"properties":{"city":"Methuen","zip":"1844","store number":2718,"id":"a6g5tq2y5mru","address":"178 Haverhill St.","state":"MA"},"type":"Feature","geometry":{"type":"Point","coordinates":[-71.1715,42.7267]}},{"properties":{"city":"Salem","zip":"97317","store number":2731,"id":"a6g5tq4g28ra","address":"1264 Lancaster Drive SE","state":"OR"},"type":"Feature","geometry":null},{"properties":{"city":"Sunnyside","zip":"98944","store number":2753,"id":"a6g5tq6glww1","address":"2660 Yakima Valley Hwy","state":"WA"},"type":"Feature","geometry":{"type":"Point","coordinates":[-120.005,46.3239]}},{"properties":{"city":"Klamath Falls","zip":"97603","store number":2757,"id":"a6g5tq1rttcu","address":"3045 S 6th Street","state":"OR"},"type":"Feature","geometry":{"type":"Point","coordinates":[-121.708,42.1833]}},{"properties":{"city":"Bakersfield","zip":"93312","store number":2759,"id":"a6g5tq5zqfr2","address":"2717 Calloway Drive","state":"CA"},"type":"Feature","geometry":{"type":"Point","coordinates":[-119.147,35.385]}},{"properties":{"city":"Riverside","zip":"92507","store number":2770,"id":"a6g5tqa5v3fw","address":"4033 Chicago Avenue, #B","state":"CA"},"type":"Feature","geometry":{"type":"Point","coordinates":[-117.336,33.9793]}},{"properties":{"city":"Belmont","zip":"94002","store number":2782,"id":"a6g5tq9w89xn","address":"516 El Camino Real","state":"CA"},"type":"Feature","geometry":{"type":"Point","coordinates":[-122.295,37.5154]}},{"properties":{"city":"Morgan Hill","zip":"95037","store number":2785,"id":"a6g5tq493q68","address":"16975 Monterey Rd","state":"CA"},"type":"Feature","geometry":{"type":"Point","coordinates":[-121.655,37.1289]}},{"properties":{"city":"East Windsor","zip":"8520","store number":2797,"id":"a6g5tq5ft2zz","address":"370 Route 130","state":"NJ"},"type":"Feature","geometry":{"type":"Point","coordinates":[-74.5254,40.2643]}},{"properties":{"city":"Largo","zip":"33771","store number":2801,"id":"a6g5tq331b11","address":"10500 Ulmerton Road","state":"FL"},"type":"Feature","geometry":{"type":"Point","coordinates":[-82.7547,27.9109]}},{"properties":{"city":"Tacoma","zip":"98406","store number":2816,"id":"a6g5tqbqqfk8","address":"6111 6th Avenue","state":"WA"},"type":"Feature","geometry":{"type":"Point","coordinates":[-122.507,47.2587]}},{"properties":{"city":"Wilmington","zip":"19810","store number":2817,"id":"a6g5tqbt7t29","address":"3601 Silverside Road","state":"DE"},"type":"Feature","geometry":{"type":"Point","coordinates":[-75.502,39.8223]}},{"properties":{"city":"Merrionette Park","zip":"60803","store number":2821,"id":"a6g5tq03bcim","address":"3341 W 115th Street","state":"IL"},"type":"Feature","geometry":{"type":"Point","coordinates":[-87.7258,41.674]}},{"properties":{"city":"CHESAPEAKE","zip":"23321","store number":283,"id":"a6g5tqebw15m","address":"3146 WESTERN BRANCH BLVD","state":"VA"},"type":"Feature","geometry":{"type":"Point","coordinates":[-76.4117,36.8298]}},{"properties":{"city":"Riverbank","zip":"95367","store number":2840,"id":"a6g5tq1pcxev","address":"2250 Patterson Road","state":"CA"},"type":"Feature","geometry":{"type":"Point","coordinates":[-120.947,37.7309]}},{"properties":{"city":"Woodburn","zip":"97071","store number":2848,"id":"a6g5tqclw1ws","address":"1755 Mount Hood Ave #110","state":"OR"},"type":"Feature","geometry":{"type":"Point","coordinates":[-122.848,45.1413]}},{"properties":{"city":"Tamarac","zip":"33319","store number":286,"id":"a6g5tqcienhd","address":"4191 W. Commercial Blvd","state":"FL"},"type":"Feature","geometry":{"type":"Point","coordinates":[-80.2249,26.1849]}},{"properties":{"city":"Bangor","zip":"4401","store number":2864,"id":"a6g5tqdxsr89","address":"1115 Union St","state":"ME"},"type":"Feature","geometry":{"type":"Point","coordinates":[-68.7852,44.8213]}},{"properties":{"city":"National City","zip":"91950","store number":2889,"id":"a6g5tpyrlh38","address":"6 North Euclid Avenue","state":"CA"},"type":"Feature","geometry":{"type":"Point","coordinates":[-117.086,32.6756]}},{"properties":{"city":"Lake Worth","zip":"33467","store number":290,"id":"a6g5tqdezc6q","address":"5960 Jog Road","state":"FL"},"type":"Feature","geometry":{"type":"Point","coordinates":[-80.1691,26.5982]}},{"properties":{"city":"Pinellas Park","zip":"33781","store number":2926,"id":"a6g5tq6pyeu2","address":"7500 66th Street","state":"FL"},"type":"Feature","geometry":{"type":"Point","coordinates":[-82.7111,27.8428]}},{"properties":{"city":"Kissimmee","zip":"34744","store number":2929,"id":"a6g5tq10gu96","address":"1387 E Osceola Pkwy","state":"FL"},"type":"Feature","geometry":{"type":"Point","coordinates":[-81.3462,28.3104]}},{"properties":{"city":"Willits","zip":"95490","store number":2939,"id":"a6g5tqf4e6r5","address":"1710 S Main St.","state":"CA"},"type":"Feature","geometry":{"type":"Point","coordinates":[-123.378,39.43]}},{"properties":{"city":"Grants Pass","zip":"97526","store number":2945,"id":"a6g5tq2x70nd","address":"320 NE Agness Avenue","state":"OR"},"type":"Feature","geometry":{"type":"Point","coordinates":[-123.34,42.4633]}},{"properties":{"city":"San Diego","zip":"92123","store number":2965,"id":"a6g5tq9dzyk2","address":"3398 Murphy Canyon Rd","state":"CA"},"type":"Feature","geometry":{"type":"Point","coordinates":[-117.134,32.8025]}},{"properties":{"city":"Torrance","zip":"90502","store number":2966,"id":"a6g5tq1l4y5w","address":"855 Sepulveda Blvd","state":"CA"},"type":"Feature","geometry":{"type":"Point","coordinates":[-118.293,33.8272]}},{"properties":{"city":"Portland","zip":"97266","store number":2969,"id":"a6g5tqax7ate","address":"4420 SE 82nd Avenue","state":"OR"},"type":"Feature","geometry":{"type":"Point","coordinates":[-122.574,45.473]}},{"properties":{"city":"Perris","zip":"92571","store number":2980,"id":"a6g5tpzi2jov","address":"2560 N Perris Blvd","state":"CA"},"type":"Feature","geometry":{"type":"Point","coordinates":[-117.217,33.8093]}},{"properties":{"city":"Santa Ana","zip":"92705","store number":2981,"id":"a6g5tqdqz3h2","address":"1900 N Grand Avenue #B","state":"CA"},"type":"Feature","geometry":{"type":"Point","coordinates":[-117.817,33.76]}},{"properties":{"city":"Hillsboro","zip":"97123","store number":2985,"id":"a6g5tq5jwghi","address":"2165 SE Tualatin Valley","state":"OR"},"type":"Feature","geometry":{"type":"Point","coordinates":[-122.96,45.498]}},{"properties":{"city":"Tacoma","zip":"98409","store number":2987,"id":"a6g5tq7nau8w","address":"3815 S. Steele Street","state":"WA"},"type":"Feature","geometry":{"type":"Point","coordinates":[-122.482,47.211]}},{"properties":{"city":"Vancouver","zip":"98685","store number":3000,"id":"a6g5tq8jvbza","address":"10017 NE Hazel Dell Ave","state":"WA"},"type":"Feature","geometry":{"type":"Point","coordinates":[-122.689,45.7138]}},{"properties":{"city":"Somerville","zip":"2143","store number":3003,"id":"a6g5tq6in7wh","address":"14 Mcgrath Hwy","state":"MA"},"type":"Feature","geometry":{"type":"Point","coordinates":[-71.1024,42.3828]}},{"properties":{"city":"Jacksonville","zip":"32210","store number":3013,"id":"a6g5tqcsvs0l","address":"3636 Blanding Blvd","state":"FL"},"type":"Feature","geometry":{"type":"Point","coordinates":[-81.7489,30.2716]}},{"properties":{"city":"Dublin","zip":"94568","store number":3014,"id":"a6g5tqe0hxme","address":"7775 Amador Valley Blvd.","state":"CA"},"type":"Feature","geometry":{"type":"Point","coordinates":[-121.923,37.7131]}},{"properties":{"city":"North Attleboro","zip":"2760","store number":3018,"id":"a6g5tqd4v2sc","address":"1190 S Washington St","state":"MA"},"type":"Feature","geometry":{"type":"Point","coordinates":[-71.3231,41.9801]}},{"properties":{"city":"Catonsville","zip":"21228","store number":3038,"id":"a6g5tqdrzne8","address":"6503 Baltimore Natl Pike","state":"MD"},"type":"Feature","geometry":{"type":"Point","coordinates":[-76.7372,39.2738]}},{"properties":{"city":"Towson","zip":"21286","store number":3040,"id":"a6g5tqcruqhn","address":"1524 E Joppa Rd","state":"MD"},"type":"Feature","geometry":{"type":"Point","coordinates":[-76.5826,39.3985]}},{"properties":{"city":"Bay Shore","zip":"11706","store number":3041,"id":"a6g5tq2f51h1","address":"894 Sunrise Highway","state":"NY"},"type":"Feature","geometry":{"type":"Point","coordinates":[-73.2574,40.7381]}},{"properties":{"city":"Levittown","zip":"11756","store number":3042,"id":"a6g5tqbx8m0m","address":"3767 Hempstead Tpke","state":"NY"},"type":"Feature","geometry":{"type":"Point","coordinates":[-73.5162,40.7285]}},{"properties":{"city":"Patchogue","zip":"11772","store number":3043,"id":"a6g5tqa0gc3r","address":"167 N Service Rd.","state":"NY"},"type":"Feature","geometry":{"type":"Point","coordinates":[-72.9992,40.7715]}},{"properties":{"city":"Sarasota","zip":"34239","store number":3045,"id":"a6g5tqb4xw7i","address":"3660 S Tuttle Avenue","state":"FL"},"type":"Feature","geometry":{"type":"Point","coordinates":[-82.5198,27.3106]}},{"properties":{"city":"Titusville","zip":"32780","store number":3052,"id":"a6g5tqbl6jyk","address":"621 Cheney Hwy","state":"FL"},"type":"Feature","geometry":{"type":"Point","coordinates":[-80.8246,28.5699]}},{"properties":{"city":"El Cerrito","zip":"94530","store number":3058,"id":"a6g5tpzgpq90","address":"11555 San Pablo Ave.","state":"CA"},"type":"Feature","geometry":{"type":"Point","coordinates":[-122.304,37.9191]}},{"properties":{"city":"Brawley","zip":"92227","store number":3061,"id":"a6g5tqd8ppl6","address":"283 Main St.","state":"CA"},"type":"Feature","geometry":{"type":"Point","coordinates":[-115.521,32.9757]}},{"properties":{"city":"Worcester","zip":"1605","store number":3062,"id":"a6g5tq3n8zf6","address":"490 Lincoln St","state":"MA"},"type":"Feature","geometry":{"type":"Point","coordinates":[-71.7894,42.2844]}},{"properties":{"city":"Kent","zip":"98032","store number":3063,"id":"a6g5tq6wsvlw","address":"23406 PACIFIC HWY S","state":"WA"},"type":"Feature","geometry":{"type":"Point","coordinates":[-122.259,47.3812]}},{"properties":{"city":"Mount Vernon","zip":"98273","store number":3072,"id":"a6g5tqea759b","address":"220 E College Way","state":"WA"},"type":"Feature","geometry":{"type":"Point","coordinates":[-122.339,48.4154]}},{"properties":{"city":"Jacksonville","zip":"32205","store number":3080,"id":"a6g5tqbfl0uu","address":"7200 Normandy Blvd.","state":"FL"},"type":"Feature","geometry":{"type":"Point","coordinates":[-81.7239,30.3046]}},{"properties":{"city":"South Portland","zip":"4106","store number":3084,"id":"a6g5tqcy8znu","address":"198 Maine Mall Rd","state":"ME"},"type":"Feature","geometry":{"type":"Point","coordinates":[-70.2677,43.6326]}},{"properties":{"city":"Lynn","zip":"1905","store number":3085,"id":"a6g5tqeaz9bf","address":"759 Lynnway","state":"MA"},"type":"Feature","geometry":{"type":"Point","coordinates":[-70.9724,42.4666]}},{"properties":{"city":"Danville","zip":"24540","store number":309,"id":"a6g5tq0be24s","address":"364 Lowes Drive Suite A","state":"VA"},"type":"Feature","geometry":{"type":"Point","coordinates":[-79.3974,36.6263]}},{"properties":{"city":"Garden City","zip":"11530","store number":3090,"id":"a6g5tqbovs4b","address":"662 Stewart Ave","state":"NY"},"type":"Feature","geometry":{"type":"Point","coordinates":[-73.6498,40.7287]}},{"properties":{"city":"West Babylon","zip":"11704","store number":3091,"id":"a6g5tq4ckul0","address":"771 Montauk Hwy","state":"NY"},"type":"Feature","geometry":{"type":"Point","coordinates":[-73.3618,40.7143]}},{"properties":{"city":"Shirley","zip":"11967","store number":3092,"id":"a6g5tq92gec8","address":"800 Montauk Hwy","state":"NY"},"type":"Feature","geometry":{"type":"Point","coordinates":[-72.8699,40.7977]}},{"properties":{"city":"Commack","zip":"11725","store number":3093,"id":"a6g5tq83y855","address":"5014 Jericho Tpke","state":"NY"},"type":"Feature","geometry":{"type":"Point","coordinates":[-73.2746,40.8396]}},{"properties":{"city":"Staten Island","zip":"10306","store number":3094,"id":"a6g5tq9ruf92","address":"2600 Hylan Blvd","state":"NY"},"type":"Feature","geometry":{"type":"Point","coordinates":[-74.117,40.5675]}},{"properties":{"city":"Bronx","zip":"10475","store number":3096,"id":"a6g5tq6jjak2","address":"2047 Bartow Ave","state":"NY"},"type":"Feature","geometry":{"type":"Point","coordinates":[-73.8256,40.8737]}},{"properties":{"city":"Linden","zip":"7036","store number":3098,"id":"a6g5tq4yna40","address":"1601 W Edgar Rd","state":"NJ"},"type":"Feature","geometry":{"type":"Point","coordinates":[-74.2564,40.6358]}},{"properties":{"city":"Union","zip":"7083","store number":3099,"id":"a6g5tq493d4w","address":"2485 Rte 22 W","state":"NJ"},"type":"Feature","geometry":{"type":"Point","coordinates":[-74.2701,40.6946]}},{"properties":{"city":"Clifton","zip":"7012","store number":3101,"id":"a6g5tpzxqww5","address":"1053 Bloomfield Ave","state":"NJ"},"type":"Feature","geometry":{"type":"Point","coordinates":[-74.1616,40.8475]}},{"properties":{"city":"Hawthorne","zip":"7506","store number":3104,"id":"a6g5tq5c1rou","address":"111 Wagaraw Rd","state":"NJ"},"type":"Feature","geometry":{"type":"Point","coordinates":[-74.1578,40.9535]}},{"properties":{"city":"Peekskill","zip":"10566","store number":3105,"id":"a6g5tq5bhj0h","address":"1847 East Main St","state":"NY"},"type":"Feature","geometry":{"type":"Point","coordinates":[-73.9118,41.2914]}},{"properties":{"city":"Charlottesville","zip":"22911","store number":3118,"id":"a6g5tq14bm4g","address":"420 Pantops Ctr","state":"VA"},"type":"Feature","geometry":{"type":"Point","coordinates":[-78.4397,38.1136]}},{"properties":{"city":"Chicago","zip":"60617","store number":3128,"id":"a6g5tq3l107j","address":"8721 S Stoney Island Ave","state":"IL"},"type":"Feature","geometry":{"type":"Point","coordinates":[-87.5566,41.7247]}},{"properties":{"city":"Moreno Valley","zip":"92557","store number":3135,"id":"a6g5tqbtm33a","address":"12320 Perris Blvd","state":"CA"},"type":"Feature","geometry":{"type":"Point","coordinates":[-117.247,33.9574]}},{"properties":{"city":"Bellingham","zip":"98226","store number":3137,"id":"a6g5tq9yqz4b","address":"300 Telegraph Rd","state":"WA"},"type":"Feature","geometry":{"type":"Point","coordinates":[-122.45,48.7564]}},{"properties":{"city":"Panama City","zip":"32405","store number":314,"id":"a6g5tq06w8qz","address":"841 West 23rd Street","state":"FL"},"type":"Feature","geometry":{"type":"Point","coordinates":[-85.6745,30.1979]}},{"properties":{"city":"Winter Haven","zip":"33881","store number":316,"id":"a6g5tqdr6eu4","address":"1160 Havendale Blvd NW","state":"FL"},"type":"Feature","geometry":{"type":"Point","coordinates":[-81.729,28.0468]}},{"properties":{"city":"Upper Darby","zip":"19082","store number":3166,"id":"a6g5tqf9mtbg","address":"6709 Market Street","state":"PA"},"type":"Feature","geometry":{"type":"Point","coordinates":[-75.2674,39.9561]}},{"properties":{"city":"Orlando","zip":"32803","store number":3172,"id":"a6g5tpznogo8","address":"1840 E Colonial Dr","state":"FL"},"type":"Feature","geometry":{"type":"Point","coordinates":[-81.3509,28.5557]}},{"properties":{"city":"Pinole","zip":"94564","store number":3178,"id":"a6g5tq8bjwkl","address":"1598 Fitzgerald Dr.","state":"CA"},"type":"Feature","geometry":{"type":"Point","coordinates":[-122.29,38.0003]}},{"properties":{"city":"Woodbridge","zip":"7095","store number":3180,"id":"a6g5tqd2fm8v","address":"306 Route 9 N","state":"NJ"},"type":"Feature","geometry":{"type":"Point","coordinates":[-74.2847,40.5583]}},{"properties":{"city":"San Jose","zip":"95118","store number":3185,"id":"a6g5tq8g1jg6","address":"5041 Almaden Expy","state":"CA"},"type":"Feature","geometry":{"type":"Point","coordinates":[-121.89,37.2559]}},{"properties":{"city":"Spring Valley","zip":"91977","store number":3195,"id":"a6g5tq9kcl0d","address":"9805 Campo Rd","state":"CA"},"type":"Feature","geometry":{"type":"Point","coordinates":[-116.997,32.7221]}},{"properties":{"city":"Auburn","zip":"98002","store number":3197,"id":"a6g5tq1hoa36","address":"1241 Auburn Way N.","state":"WA"},"type":"Feature","geometry":{"type":"Point","coordinates":[-122.216,47.3049]}},{"properties":{"city":"Campbell","zip":"95008","store number":3203,"id":"a6g5tq7fq4o9","address":"150 N San Tomas Aquino","state":"CA"},"type":"Feature","geometry":{"type":"Point","coordinates":[-121.953,37.2789]}},{"properties":{"city":"Pensacola","zip":"32504","store number":321,"id":"a6g5tq4aih5y","address":"6863 North Ninth Avenue","state":"FL"},"type":"Feature","geometry":{"type":"Point","coordinates":[-87.1881,30.489]}},{"properties":{"city":"Lacey","zip":"98503","store number":3210,"id":"a6g5tq2txrhw","address":"606 Sleater Kinney Rd","state":"WA"},"type":"Feature","geometry":{"type":"Point","coordinates":[-122.807,47.0284]}},{"properties":{"city":"Monroe","zip":"98272","store number":3258,"id":"a6g5tq2ccgpe","address":"19947 Hwy 2","state":"WA"},"type":"Feature","geometry":{"type":"Point","coordinates":[-121.969,47.8529]}},{"properties":{"city":"South San Francisco","zip":"94080","store number":3275,"id":"a6g5tq6qhcxq","address":"555 El Camino Real","state":"CA"},"type":"Feature","geometry":{"type":"Point","coordinates":[-122.437,37.6566]}},{"properties":{"city":"Parlin","zip":"8859","store number":3276,"id":"a6g5tq63grv6","address":"1038 US Highway 9","state":"NJ"},"type":"Feature","geometry":{"type":"Point","coordinates":[-74.3043,40.4594]}},{"properties":{"city":"Jacksonville","zip":"32218","store number":3289,"id":"a6g5tqf98t2k","address":"13141 City Station Dr.","state":"FL"},"type":"Feature","geometry":{"type":"Point","coordinates":[-81.662,30.4422]}},{"properties":{"city":"Philadelphia","zip":"19148","store number":3300,"id":"a6g5tqaysfo5","address":"2116 S. Columbus Blvd","state":"PA"},"type":"Feature","geometry":{"type":"Point","coordinates":[-75.1588,39.9209]}},{"properties":{"city":"Fairview Heights","zip":"62208","store number":3301,"id":"a6g5tq2u8jlj","address":"10850 Lincoln Trail","state":"IL"},"type":"Feature","geometry":{"type":"Point","coordinates":[-89.9942,38.5882]}},{"properties":{"city":"Pembroke Pines","zip":"33024","store number":331,"id":"a6g5tpzakhoq","address":"660 North University Dr","state":"FL"},"type":"Feature","geometry":{"type":"Point","coordinates":[-80.2425,26.0225]}},{"properties":{"city":"Elk Grove","zip":"95758","store number":3447,"id":"a6g5tqer5qsf","address":"8126 Sheldon Road","state":"CA"},"type":"Feature","geometry":{"type":"Point","coordinates":[-121.431,38.4135]}},{"properties":{"city":"Allston","zip":"2134","store number":3456,"id":"a6g5tq5ir0fn","address":"60 Everett St","state":"MA"},"type":"Feature","geometry":{"type":"Point","coordinates":[-71.1319,42.3509]}},{"properties":{"city":"Selden","zip":"11784","store number":3471,"id":"a6g5tq9uwpun","address":"287 Middle Country Rd","state":"NY"},"type":"Feature","geometry":{"type":"Point","coordinates":[-73.0473,40.8718]}},{"properties":{"city":"Fairview","zip":"7022","store number":3472,"id":"a6g5tq9baunu","address":"153 Bergen Blvd","state":"NJ"},"type":"Feature","geometry":{"type":"Point","coordinates":[-73.9982,40.8152]}},{"properties":{"city":"Novato","zip":"94949","store number":3480,"id":"a6g5tq7ofbbd","address":"455 Entrada Rd","state":"CA"},"type":"Feature","geometry":{"type":"Point","coordinates":[-122.54,38.0653]}},{"properties":{"city":"Rocky Point","zip":"11778","store number":3485,"id":"a6g5tpzrbi0v","address":"85 Route 25A","state":"NY"},"type":"Feature","geometry":{"type":"Point","coordinates":[-72.9369,40.9517]}},{"properties":{"city":"Brentwood","zip":"94513","store number":3494,"id":"a6g5tq9c8617","address":"51 W Sand Creek Rd","state":"CA"},"type":"Feature","geometry":{"type":"Point","coordinates":[-121.711,37.9358]}},{"properties":{"city":"Tallahassee","zip":"32301","store number":350,"id":"a6g5tq3dswg7","address":"1212 SE Capital Circle","state":"FL"},"type":"Feature","geometry":{"type":"Point","coordinates":[-84.2559,30.425]}},{"properties":{"city":"Elmont","zip":"11003","store number":3516,"id":"a6g5tq7z9pd7","address":"1725 Dutch Broadway","state":"NY"},"type":"Feature","geometry":{"type":"Point","coordinates":[-73.7015,40.703]}},{"properties":{"city":"Sacramento","zip":"95819","store number":3566,"id":"a6g5tq6onum6","address":"6710 Folsom Blvd.","state":"CA"},"type":"Feature","geometry":{"type":"Point","coordinates":[-121.44,38.5704]}},{"properties":{"city":"Clifton","zip":"7011","store number":3568,"id":"a6g5tq6ruqqa","address":"505 Piaget Ave","state":"NJ"},"type":"Feature","geometry":{"type":"Point","coordinates":[-74.1411,40.8775]}},{"properties":{"city":"Philadelphia","zip":"19137","store number":3574,"id":"a6g5tqdroeag","address":"3829 Aramingo Ave","state":"PA"},"type":"Feature","geometry":{"type":"Point","coordinates":[-75.0747,40.0007]}},{"properties":{"city":"Baldwin","zip":"11510","store number":3590,"id":"a6g5tq7wxb22","address":"1741 Grand Ave.","state":"NY"},"type":"Feature","geometry":{"type":"Point","coordinates":[-73.6093,40.6562]}},{"properties":{"city":"Philadelphia","zip":"19120","store number":3594,"id":"a6g5tqa8bt2l","address":"101 East Olney Ave","state":"PA"},"type":"Feature","geometry":{"type":"Point","coordinates":[-75.1228,40.0347]}},{"properties":{"city":"Beaumont","zip":"92223","store number":3621,"id":"a6g5tq12tsow","address":"1486 E 2nd Street","state":"CA"},"type":"Feature","geometry":{"type":"Point","coordinates":[-116.966,33.957]}},{"properties":{"city":"Oxon Hill","zip":"20745","store number":3651,"id":"a6g5tqdks3ua","address":"5209 A Indian Head Hwy","state":"MD"},"type":"Feature","geometry":{"type":"Point","coordinates":[-76.9933,38.8092]}},{"properties":{"city":"Covington","zip":"98042","store number":3655,"id":"a6g5tqdupjpp","address":"16933 SE 272nd Street","state":"WA"},"type":"Feature","geometry":{"type":"Point","coordinates":[-122.112,47.3679]}},{"properties":{"city":"Lorton","zip":"22079","store number":366,"id":"a6g5tq89p13x","address":"7700 A Gunston Plaza","state":"VA"},"type":"Feature","geometry":{"type":"Point","coordinates":[-77.2083,38.7077]}},{"properties":{"city":"Santa Cruz","zip":"95062","store number":3689,"id":"a6g5tqdwi168","address":"2-1515 East Cliff Dr","state":"CA"},"type":"Feature","geometry":{"type":"Point","coordinates":[-121.983,36.9711]}},{"properties":{"city":"Savannah","zip":"31406","store number":372,"id":"a6g5tq3xcm2u","address":"7805 Abercorn St. Ext.","state":"GA"},"type":"Feature","geometry":{"type":"Point","coordinates":[-81.0963,31.9906]}},{"properties":{"city":"Sunnyvale","zip":"94087","store number":3725,"id":"a6g5tqcvbhig","address":"588 E. El Camino Real","state":"CA"},"type":"Feature","geometry":{"type":"Point","coordinates":[-122.032,37.3565]}},{"properties":{"city":"Brooklyn","zip":"11212","store number":3740,"id":"a6g5tq6uh5hl","address":"198 E 98th Street","state":"NY"},"type":"Feature","geometry":{"type":"Point","coordinates":[-73.9154,40.6611]}},{"properties":{"city":"Scotts Valley","zip":"95066","store number":3759,"id":"a6g5tq298u5d","address":"266-B Mt. Hermon Rd","state":"CA"},"type":"Feature","geometry":{"type":"Point","coordinates":[-122.021,37.0566]}},{"properties":{"city":"Ocala","zip":"34470","store number":3778,"id":"a6g5tq7iyj59","address":"3436 E Silver Springs","state":"FL"},"type":"Feature","geometry":{"type":"Point","coordinates":[-82.096,29.1947]}},{"properties":{"city":"Philadelphia","zip":"19151","store number":3783,"id":"a6g5tq9mpw3d","address":"7602 City Line Avenue","state":"PA"},"type":"Feature","geometry":{"type":"Point","coordinates":[-75.2532,39.9776]}},{"properties":{"city":"Bayonne","zip":"7002","store number":3787,"id":"a6g5tq4jjhhn","address":"517 Broadway","state":"NJ"},"type":"Feature","geometry":{"type":"Point","coordinates":[-74.1162,40.6663]}},{"properties":{"city":"Bronx","zip":"10461","store number":3788,"id":"a6g5tpznxu4z","address":"2641 E. Tremont Avenue","state":"NY"},"type":"Feature","geometry":{"type":"Point","coordinates":[-73.8357,40.8464]}},{"properties":{"city":"Woodside","zip":"11377","store number":3789,"id":"a6g5tq7map0f","address":"51-02 Northern Blvd","state":"NY"},"type":"Feature","geometry":{"type":"Point","coordinates":[-73.9088,40.7443]}},{"properties":{"city":"Norwalk","zip":"6854","store number":3794,"id":"a6g5tq5kjckp","address":"330 Connecticut Ave","state":"CT"},"type":"Feature","geometry":{"type":"Point","coordinates":[-73.4304,41.0947]}},{"properties":{"city":"College Point","zip":"11356","store number":3795,"id":"a6g5tpzcnhrz","address":"132-23 14th Avenue","state":"NY"},"type":"Feature","geometry":{"type":"Point","coordinates":[-73.8438,40.7869]}},{"properties":{"city":"Staten Island","zip":"10312","store number":3798,"id":"a6g5tq9vfjrb","address":"3231 Richmond Ave","state":"NY"},"type":"Feature","geometry":{"type":"Point","coordinates":[-74.1776,40.5485]}},{"properties":{"city":"West Orange","zip":"7052","store number":3811,"id":"a6g5tqa5a8wq","address":"235 Prospect Ave","state":"NJ"},"type":"Feature","geometry":{"type":"Point","coordinates":[-74.2583,40.7853]}},{"properties":{"city":"Lexington","zip":"2420","store number":3820,"id":"a6g5tq0cj0fw","address":"675 Lowell St","state":"MA"},"type":"Feature","geometry":{"type":"Point","coordinates":[-71.2147,42.4591]}},{"properties":{"city":"Williamstown","zip":"8094","store number":3833,"id":"a6g5tq975kot","address":"111 S. Black Horse Pike","state":"NJ"},"type":"Feature","geometry":{"type":"Point","coordinates":[-74.9748,39.6638]}},{"properties":{"city":"Philadelphia","zip":"19145","store number":3834,"id":"a6g5tqa4h1dz","address":"2017 W. Oregon Avenue","state":"PA"},"type":"Feature","geometry":{"type":"Point","coordinates":[-75.182,39.9232]}},{"properties":{"city":"Tallahassee","zip":"32304","store number":429,"id":"a6g5tq0nqn87","address":"1960 West Tennessee St","state":"FL"},"type":"Feature","geometry":{"type":"Point","coordinates":[-84.3276,30.4461]}},{"properties":{"city":"Fayetteville","zip":"28303","store number":471,"id":"a6g5tq2pbqja","address":"2636 Bragg Blvd","state":"NC"},"type":"Feature","geometry":{"type":"Point","coordinates":[-78.9544,35.0767]}},{"properties":{"city":"Midlothian","zip":"23112","store number":476,"id":"a6g5tqb6jl4o","address":"10901 Hull St","state":"VA"},"type":"Feature","geometry":{"type":"Point","coordinates":[-77.6487,37.4315]}},{"properties":{"city":"Toms River","zip":"8753","store number":491,"id":"a6g5tq7qo0vd","address":"1354 Hooper Ave","state":"NJ"},"type":"Feature","geometry":{"type":"Point","coordinates":[-74.1618,39.9814]}},{"properties":{"city":"Richmond","zip":"23231","store number":508,"id":"a6g5tpzi22bw","address":"4340 S. Laburnum Avenue","state":"VA"},"type":"Feature","geometry":{"type":"Point","coordinates":[-77.3768,37.4887]}},{"properties":{"city":"Martinsville","zip":"24112","store number":522,"id":"a6g5tq5jozj4","address":"239 Commonwealth  Blvd","state":"VA"},"type":"Feature","geometry":{"type":"Point","coordinates":[-79.8758,36.686]}},{"properties":{"city":"Richmond","zip":"23225","store number":539,"id":"a6g5tq20le5z","address":"7300 Midlothian Turnpike","state":"VA"},"type":"Feature","geometry":{"type":"Point","coordinates":[-77.511,37.5154]}},{"properties":{"city":"Pembroke Pines","zip":"33026","store number":574,"id":"a6g5tq09npdf","address":"10345 Pines Blvd","state":"FL"},"type":"Feature","geometry":{"type":"Point","coordinates":[-80.2911,26.0248]}},{"properties":{"city":"West Palm Beach","zip":"33409","store number":583,"id":"a6g5tqebqhbs","address":"2491 Okeechobee Blvd","state":"FL"},"type":"Feature","geometry":{"type":"Point","coordinates":[-80.1004,26.7168]}},{"properties":{"city":"South Plainfield","zip":"7080","store number":612,"id":"a6g5tq08qi99","address":"6301 Hadley Rd","state":"NJ"},"type":"Feature","geometry":{"type":"Point","coordinates":[-74.414,40.5844]}},{"properties":{"city":"Tinton Falls","zip":"7724","store number":615,"id":"a6g5tq8yiyyk","address":"980 Shrewsbury Ave","state":"NJ"},"type":"Feature","geometry":{"type":"Point","coordinates":[-74.0698,40.3041]}},{"properties":{"city":"Vero Beach","zip":"32966","store number":620,"id":"a6g5tq5la59k","address":"5890 20th Street","state":"FL"},"type":"Feature","geometry":{"type":"Point","coordinates":[-80.4749,27.6392]}},{"properties":{"city":"Greensboro","zip":"27406","store number":623,"id":"a6g5tq7x6yis","address":"2902 Randleman Rd","state":"NC"},"type":"Feature","geometry":{"type":"Point","coordinates":[-79.7861,36.0224]}},{"properties":{"city":"Waldorf","zip":"20603","store number":626,"id":"a6g5tq2qb2ih","address":"1140 Smallwood Dr West","state":"MD"},"type":"Feature","geometry":{"type":"Point","coordinates":[-76.9525,38.6224]}},{"properties":{"city":"Colonial Heights","zip":"23834","store number":63,"id":"a6g5tq24gy2t","address":"830 Southpark Blvd","state":"VA"},"type":"Feature","geometry":{"type":"Point","coordinates":[-77.4004,37.2702]}},{"properties":{"city":"Fredericksburg","zip":"22401","store number":630,"id":"a6g5tq8h2eka","address":"3061 Plank Rd","state":"VA"},"type":"Feature","geometry":{"type":"Point","coordinates":[-77.4791,38.3013]}},{"properties":{"city":"Lansing","zip":"60438","store number":631,"id":"a6g5tq0clwqo","address":"16719 Torrence Ave","state":"IL"},"type":"Feature","geometry":{"type":"Point","coordinates":[-87.5466,41.5626]}},{"properties":{"city":"District Heights","zip":"20747","store number":636,"id":"a6g5tq16kwhg","address":"5572 Silver Hill Road","state":"MD"},"type":"Feature","geometry":{"type":"Point","coordinates":[-76.8901,38.8515]}},{"properties":{"city":"Streamwood","zip":"60107","store number":641,"id":"a6g5tq63ehp4","address":"1040 South Barrington Rd","state":"IL"},"type":"Feature","geometry":{"type":"Point","coordinates":[-88.1719,42.0208]}},{"properties":{"city":"Chicago","zip":"60707","store number":645,"id":"a6g5tq7ohpkx","address":"6560 W Fullerton Avenue","state":"IL"},"type":"Feature","geometry":{"type":"Point","coordinates":[-87.8085,41.9216]}},{"properties":{"city":"Crest Hill","zip":"60403","store number":646,"id":"a6g5tq2t1lxm","address":"1701 N Larkin Ave","state":"IL"},"type":"Feature","geometry":null},{"properties":{"city":"Landover Hills","zip":"20784","store number":647,"id":"a6g5tqcumqjl","address":"6539 Annapolis Road","state":"MD"},"type":"Feature","geometry":{"type":"Point","coordinates":[-76.8867,38.9456]}},{"properties":{"city":"Berwyn","zip":"60402","store number":648,"id":"a6g5tq8451jh","address":"7147 West Cermak Plaza","state":"IL"},"type":"Feature","geometry":{"type":"Point","coordinates":[-87.7931,41.8438]}},{"properties":{"city":"Chicago","zip":"60620","store number":650,"id":"a6g5tq0t759n","address":"112 West 87th Street","state":"IL"},"type":"Feature","geometry":{"type":"Point","coordinates":[-87.6537,41.7395]}},{"properties":{"city":"Baltimore","zip":"21223","store number":651,"id":"a6g5tqesrf1g","address":"2445 Frederick Avenue","state":"MD"},"type":"Feature","geometry":{"type":"Point","coordinates":[-76.6477,39.2871]}},{"properties":{"city":"Melrose Park","zip":"60160","store number":655,"id":"a6g5tq3bhb1b","address":"1320 Winston Plaza","state":"IL"},"type":"Feature","geometry":{"type":"Point","coordinates":[-87.8593,41.9004]}},{"properties":{"city":"Crestwood","zip":"60445","store number":662,"id":"a6g5tqasltcv","address":"4913 Cal Sag Road","state":"IL"},"type":"Feature","geometry":{"type":"Point","coordinates":[-87.7297,41.6358]}},{"properties":{"city":"Chicago","zip":"60618","store number":665,"id":"a6g5tq6x7i3e","address":"2931 West Addison St.","state":"IL"},"type":"Feature","geometry":{"type":"Point","coordinates":[-87.7042,41.9447]}},{"properties":{"city":"Chicago","zip":"60645","store number":673,"id":"a6g5tq8529qq","address":"7540 N. Western Ave","state":"IL"},"type":"Feature","geometry":{"type":"Point","coordinates":[-87.6915,42.0095]}},{"properties":{"city":"Lanham","zip":"20706","store number":674,"id":"a6g5tq5v7v26","address":"9453 Annapolis Rd","state":"MD"},"type":"Feature","geometry":{"type":"Point","coordinates":[-76.8557,38.9617]}},{"properties":{"city":"Hickory","zip":"28602","store number":69,"id":"a6g5tqeokezi","address":"2120 Highway 70 SE","state":"NC"},"type":"Feature","geometry":{"type":"Point","coordinates":[-81.3617,35.6855]}},{"properties":{"city":"Oakland Park","zip":"33334","store number":701,"id":"a6g5tq20p4g1","address":"941 East Commercial","state":"FL"},"type":"Feature","geometry":{"type":"Point","coordinates":[-80.1389,26.1855]}},{"properties":{"city":"Wheaton","zip":"20902","store number":702,"id":"a6g5tq0gbaa6","address":"12029 Georgia Avenue","state":"MD"},"type":"Feature","geometry":{"type":"Point","coordinates":[-77.0482,39.0413]}},{"properties":{"city":"Baltimore","zip":"21215","store number":703,"id":"a6g5tq2n0qnj","address":"6812 Reisterstown Road","state":"MD"},"type":"Feature","geometry":{"type":"Point","coordinates":[-76.6805,39.3462]}},{"properties":{"city":"Cicero","zip":"60804","store number":707,"id":"a6g5tqd718d0","address":"4621 W Cermak Rd, #A","state":"IL"},"type":"Feature","geometry":{"type":"Point","coordinates":[-87.7594,41.8474]}},{"properties":{"city":"Fort Lauderdale","zip":"33312","store number":709,"id":"a6g5tqeuu0q6","address":"3857 West Broward Blvd","state":"FL"},"type":"Feature","geometry":{"type":"Point","coordinates":[-80.1747,26.0868]}},{"properties":{"city":"Randallstown","zip":"21133","store number":722,"id":"a6g5tqeqozhy","address":"8656 Liberty Road","state":"MD"},"type":"Feature","geometry":{"type":"Point","coordinates":[-76.7988,39.3731]}},{"properties":{"city":"Miami","zip":"33165","store number":723,"id":"a6g5tqf50sd7","address":"11397 Southwest 40th St.","state":"FL"},"type":"Feature","geometry":{"type":"Point","coordinates":[-80.3577,25.7357]}},{"properties":{"city":"Villa Park","zip":"60181","store number":740,"id":"a6g5tq24ws8f","address":"104 West Roosevelt Road","state":"IL"},"type":"Feature","geometry":{"type":"Point","coordinates":[-87.9804,41.876]}},{"properties":{"city":"Countryside","zip":"60525","store number":753,"id":"a6g5tq56tx4o","address":"13 Countryside Plaza","state":"IL"},"type":"Feature","geometry":{"type":"Point","coordinates":[-87.8765,41.787]}},{"properties":{"city":"Oak Lawn","zip":"60453","store number":754,"id":"a6g5tqautmy8","address":"8727 South Ridgeland Ave","state":"IL"},"type":"Feature","geometry":{"type":"Point","coordinates":[-87.7503,41.7153]}},{"properties":{"city":"Smithfield","zip":"27577","store number":769,"id":"a6g5tq5gr65t","address":"1265  N Bright Leaf Road","state":"NC"},"type":"Feature","geometry":{"type":"Point","coordinates":[-78.3411,35.5093]}},{"properties":{"city":"Forestville","zip":"20747","store number":793,"id":"a6g5tq56k5lc","address":"3014 Donnell Drive","state":"MD"},"type":"Feature","geometry":{"type":"Point","coordinates":[-76.8901,38.8515]}},{"properties":{"city":"Moorestown","zip":"8057","store number":797,"id":"a6g5tqe7hy1q","address":"401 West Route 38","state":"NJ"},"type":"Feature","geometry":{"type":"Point","coordinates":[-74.9518,39.9689]}},{"properties":{"city":"Charlotte","zip":"28208","store number":808,"id":"a6g5tq0kjh8v","address":"3301 Freedom Drive","state":"NC"},"type":"Feature","geometry":{"type":"Point","coordinates":[-80.8904,35.2341]}},{"properties":{"city":"Greensboro","zip":"27407","store number":822,"id":"a6g5tq1kj6y4","address":"1311 Bridford Parkway","state":"NC"},"type":"Feature","geometry":{"type":"Point","coordinates":[-79.8632,36.0391]}},{"properties":{"city":"Des Plaines","zip":"60018","store number":842,"id":"a6g5tqbsmhnc","address":"1031 East Oakton Street","state":"IL"},"type":"Feature","geometry":{"type":"Point","coordinates":[-87.8998,42.0159]}},{"properties":{"city":"Naples","zip":"34105","store number":875,"id":"a6g5tq281h22","address":"5060 Airport Pulling Rd.","state":"FL"},"type":"Feature","geometry":{"type":"Point","coordinates":[-81.7721,26.191]}},{"properties":{"city":"Deland","zip":"32720","store number":889,"id":"a6g5tq7q6nvc","address":"1466 N Woodland Blvd","state":"FL"},"type":"Feature","geometry":{"type":"Point","coordinates":[-81.3305,29.0279]}},{"properties":{"city":"Chesapeake","zip":"23321","store number":95,"id":"a6g5tqb3bhe3","address":"4300 Portsmouth Blvd","state":"VA"},"type":"Feature","geometry":{"type":"Point","coordinates":[-76.4117,36.8298]}},{"properties":{"city":"Tampa","zip":"33611","store number":974,"id":"a6g5tq47iz02","address":"3908 S Dale Mabry Hwy","state":"FL"},"type":"Feature","geometry":{"type":"Point","coordinates":[-82.5038,27.8908]}},{"properties":{"city":"Raleigh","zip":"27609","store number":978,"id":"a6g5tqe0tu52","address":"1721 New Hope Church Rd","state":"NC"},"type":"Feature","geometry":{"type":"Point","coordinates":[-78.6332,35.8492]}}],"is_temporal":false,"author":{"url":"","metadata":"","contact_name":"","contact_address":"","source":"","contact_phone":""},"source":"","pagination":{"sort":null,"start":0,"total":409,"limit":1000000},"state":"complete","tags":"","published":"2014-08-10T21:22:49-04:00","id":59823}