{"type":"FeatureCollection","data_type":"Dataset","url_type":null,"permissions":[{"permissions":{"download":true,"view":true},"group_id":"everyone"}],"classification":null,"title":"NFL Combine Prospects and Draft Picks by College/University, USA, 4.2008","count":148,"stream_id":6010,"contributor":{"url":"http://geocommons.com/users/139","name":"Burkey"},"data_attributes":null,"calculation_params":null,"icon_link":null,"link":"http://geocommons.com/overlays/6010.json","extent":[-157.93,21.3728,-71.1664,48.7325],"geometry_types":["point"],"unique_name":null,"name":"NFL Combine Prospects and Draft Picks by College/University, USA, 4.2008","feature_count":148,"description":"This dataset maps the locations of universities and colleges across the USA where 2008 NFL Combine Participants and Draft picks played their college ball. It gives a good look at which university/college football programs are bringing up players that eventually play in the NFL. Information that is included is;  college/university, college/university location, combine competitors, number drafted, and number not drafted in the 08 NFL Draft. \n\nEach year the NFL puts on a combine where potential draft picks are invited to showcase their skills and hopefully gain attention from NFL scouts and coaches. Not all the invitees are drafted so the competitive nature of the event is at a high. \n\nOf all schools the University of Southern California had the most athletes drafted into the NFL with 10. So if you are eager to play in the NFL then you may want to play your college ball in sunny Los Angeles.\n","next_feature":null,"is_raster":false,"short_classification":"Y","stats":{"lon":{"max":-71.166446,"mean":-91.854985195946,"variance":223.011272656315,"stdev":14.9335619547486,"min":-157.92996,"median":-86.918469},"drafted":{"max":10,"mean":1.7027027027027,"variance":3.0266593123736,"stdev":1.73972966646361,"min":0,"median":1},"not drafted":{"max":6,"mean":1.38513513513514,"variance":1.4901176686891,"stdev":1.22070375959489,"min":0,"median":1},"lat":{"max":48.732521,"mean":37.3534311216216,"variance":24.368403772257,"stdev":4.93643634338143,"min":21.372842,"median":37.573657},"combine competitors":{"max":12,"mean":3.08783783783784,"variance":5.7405313476742,"stdev":2.39594059769315,"min":1,"median":2}},"features":[{"properties":{"city":"Jackson","lon":-88.805561,"drafted":0,"not drafted":1,"id":"a647kwoudqjy","school":"Lane (TN)","lat":35.62744,"combine competitors":1,"state":"Tennessee"},"type":"Feature","geometry":{"type":"Point","coordinates":[-88.805561,35.62744]}},{"properties":{"city":"Winston-Salem","lon":-88.095989,"drafted":1,"not drafted":0,"id":"a647kwtfa4m9","school":"Winston-Salem State","lat":36.082654,"combine competitors":1,"state":"North Carolina"},"type":"Feature","geometry":{"type":"Point","coordinates":[-88.095989,36.082654]}},{"properties":{"city":"Wheaton","lon":-88.095989,"drafted":1,"not drafted":0,"id":"a647kwpsltru","school":"Wheaton","lat":41.867346,"combine competitors":1,"state":"Illinois"},"type":"Feature","geometry":{"type":"Point","coordinates":[-88.095989,41.867346]}},{"properties":{"city":"Bellingham","lon":-122.48822,"drafted":0,"not drafted":1,"id":"a647kx18api3","school":"Western Washington","lat":48.732521,"combine competitors":1,"state":"Washington"},"type":"Feature","geometry":{"type":"Point","coordinates":[-122.48822,48.732521]}},{"properties":{"city":"Kalamazoo","lon":-85.601031,"drafted":0,"not drafted":1,"id":"a647kwvuvusp","school":"Western Michigan","lat":42.285719,"combine competitors":1,"state":"Michigan"},"type":"Feature","geometry":{"type":"Point","coordinates":[-85.601031,42.285719]}},{"properties":{"city":"Alliance","lon":-81.11212,"drafted":1,"not drafted":0,"id":"a647kwsug4t9","school":"Mount Union","lat":40.903714,"combine competitors":1,"state":"Ohio"},"type":"Feature","geometry":{"type":"Point","coordinates":[-81.11212,40.903714]}},{"properties":{"city":"Jonesboro","lon":-90.667188,"drafted":1,"not drafted":0,"id":"a647kx0zxrfz","school":"Arkansas State","lat":35.848847,"combine competitors":1,"state":"Arkansas"},"type":"Feature","geometry":{"type":"Point","coordinates":[-90.667188,35.848847]}},{"properties":{"city":"Pine Bluff","lon":-92.021136,"drafted":0,"not drafted":1,"id":"a647kwqbt8s2","school":"Arkansas-Pine Bluff","lat":34.253338,"combine competitors":1,"state":"Arkansas"},"type":"Feature","geometry":{"type":"Point","coordinates":[-92.021136,34.253338]}},{"properties":{"city":"Ogden","lon":-111.940026,"drafted":1,"not drafted":0,"id":"a647kwv1llux","school":"Weber State","lat":41.191919,"combine competitors":1,"state":"Utah"},"type":"Feature","geometry":{"type":"Point","coordinates":[-111.940026,41.191919]}},{"properties":{"city":"Baltimore","lon":-76.582873,"drafted":0,"not drafted":1,"id":"a647kx2acifc","school":"Morgan State","lat":39.343853,"combine competitors":1,"state":"Maryland"},"type":"Feature","geometry":{"type":"Point","coordinates":[-76.582873,39.343853]}},{"properties":{"city":"Waltham","lon":-71.223779,"drafted":1,"not drafted":0,"id":"a647kx0pfkh0","school":"Bentley","lat":42.382652,"combine competitors":1,"state":"Massachusetts"},"type":"Feature","geometry":{"type":"Point","coordinates":[-71.223779,42.382652]}},{"properties":{"city":"Las Cruces","lon":-106.740997,"drafted":0,"not drafted":1,"id":"a647kwq7ah4p","school":"New Mexico State","lat":32.279559,"combine competitors":1,"state":"New Mexico"},"type":"Feature","geometry":{"type":"Point","coordinates":[-106.740997,32.279559]}},{"properties":{"city":"Topeka","lon":-95.700868,"drafted":1,"not drafted":0,"id":"a647kwun2sxl","school":"Washburn","lat":39.033509,"combine competitors":1,"state":"Kansas"},"type":"Feature","geometry":{"type":"Point","coordinates":[-95.700868,39.033509]}},{"properties":{"city":"Staten Island","lon":-74.094851,"drafted":0,"not drafted":1,"id":"a647kwzj3afm","school":"Wagner","lat":40.617442,"combine competitors":1,"state":"New York"},"type":"Feature","geometry":{"type":"Point","coordinates":[-74.094851,40.617442]}},{"properties":{"city":"Bowling Green","lon":-83.622457,"drafted":1,"not drafted":0,"id":"a647kwyfn7io","school":"Bowling Green","lat":41.378052,"combine competitors":1,"state":"Ohio"},"type":"Feature","geometry":{"type":"Point","coordinates":[-83.622457,41.378052]}},{"properties":{"city":"Itta Bena","lon":-90.343169,"drafted":0,"not drafted":1,"id":"a647kwzfjjye","school":"Mississippi Valley St","lat":33.509373,"combine competitors":1,"state":"Mississippi"},"type":"Feature","geometry":{"type":"Point","coordinates":[-90.343169,33.509373]}},{"properties":{"city":"Miss State","lon":-88.793728,"drafted":0,"not drafted":1,"id":"a647kwu4ealb","school":"Mississippi State","lat":33.45617,"combine competitors":1,"state":"Mississippi"},"type":"Feature","geometry":{"type":"Point","coordinates":[-88.793728,33.45617]}},{"properties":{"city":"Villanova","lon":-75.336677,"drafted":1,"not drafted":0,"id":"a647kwo7jkor","school":"Villanova","lat":40.032967,"combine competitors":1,"state":"Pennsylvania"},"type":"Feature","geometry":{"type":"Point","coordinates":[-75.336677,40.032967]}},{"properties":{"city":"California","lon":-79.899247,"drafted":0,"not drafted":1,"id":"a647kwv1pkgo","school":"California (PA)","lat":40.049006,"combine competitors":1,"state":"Pennsylvania"},"type":"Feature","geometry":{"type":"Point","coordinates":[-79.899247,40.049006]}},{"properties":{"city":"Oxford","lon":-93.224045,"drafted":0,"not drafted":1,"id":"a647kx1wro6t","school":"Mississippi","lat":44.975702,"combine competitors":1,"state":"Mississippi"},"type":"Feature","geometry":{"type":"Point","coordinates":[-93.224045,44.975702]}},{"properties":{"city":"Chadron","lon":-102.993965,"drafted":0,"not drafted":1,"id":"a647kwulkx4n","school":"Chadron State","lat":42.823574,"combine competitors":1,"state":"Nebraska"},"type":"Feature","geometry":{"type":"Point","coordinates":[-102.993965,42.823574]}},{"properties":{"city":"Minneapolis","lon":-93.224045,"drafted":1,"not drafted":0,"id":"a647kwqzdmpk","school":"Minnesota","lat":44.975702,"combine competitors":1,"state":"Minnesota"},"type":"Feature","geometry":{"type":"Point","coordinates":[-93.224045,44.975702]}},{"properties":{"city":"Atlanta","lon":-84.411459,"drafted":0,"not drafted":1,"id":"a647kwsexcc0","school":"Clark Atlanta","lat":33.753088,"combine competitors":1,"state":"Georgia"},"type":"Feature","geometry":{"type":"Point","coordinates":[-84.411459,33.753088]}},{"properties":{"city":"Thibodaux","lon":-90.804517,"drafted":1,"not drafted":0,"id":"a647kwxyw9lj","school":"Nicholls State","lat":29.786563,"combine competitors":1,"state":"Louisiana"},"type":"Feature","geometry":{"type":"Point","coordinates":[-90.804517,29.786563]}},{"properties":{"city":"Conway","lon":-79.017486,"drafted":1,"not drafted":0,"id":"a647kwp9v4u8","school":"Coastal Carolina","lat":33.79287,"combine competitors":1,"state":"South Carolina"},"type":"Feature","geometry":{"type":"Point","coordinates":[-79.017486,33.79287]}},{"properties":{"city":"New Orleans","lon":-90.121989,"drafted":1,"not drafted":0,"id":"a647kwpm1nsf","school":"Tulane","lat":29.936179,"combine competitors":1,"state":"Louisiana"},"type":"Feature","geometry":{"type":"Point","coordinates":[-90.121989,29.936179]}},{"properties":{"city":"Lake Charles","lon":-93.210151,"drafted":1,"not drafted":0,"id":"a647kx3ncjjv","school":"McNeese State","lat":30.173533,"combine competitors":1,"state":"Louisiana"},"type":"Feature","geometry":{"type":"Point","coordinates":[-93.210151,30.173533]}},{"properties":{"city":"Natchitoches","lon":-93.096075,"drafted":1,"not drafted":0,"id":"a647kx3en39n","school":"Northwestern State (LA)","lat":31.747314,"combine competitors":1,"state":"Louisiana"},"type":"Feature","geometry":{"type":"Point","coordinates":[-93.096075,31.747314]}},{"properties":{"city":"Dover","lon":-75.543297,"drafted":0,"not drafted":1,"id":"a647kwoii41t","school":"Delaware State","lat":39.189306,"combine competitors":1,"state":"Delaware"},"type":"Feature","geometry":{"type":"Point","coordinates":[-75.543297,39.189306]}},{"properties":{"city":"Durham","lon":-78.943993,"drafted":1,"not drafted":0,"id":"a647kx2bwlxi","school":"Duke","lat":35.995791,"combine competitors":1,"state":"North Carolina"},"type":"Feature","geometry":{"type":"Point","coordinates":[-78.943993,35.995791]}},{"properties":{"city":"Monroe","lon":-92.065799,"drafted":0,"not drafted":1,"id":"a647kwrasak3","school":"Louisiana-Monroe","lat":32.530958,"combine competitors":1,"state":"Louisiana"},"type":"Feature","geometry":{"type":"Point","coordinates":[-92.065799,32.530958]}},{"properties":{"city":"Richmond","lon":-84.298707,"drafted":1,"not drafted":0,"id":"a647kwnencs2","school":"Eastern Kentucky","lat":37.736287,"combine competitors":1,"state":"Kentucky"},"type":"Feature","geometry":{"type":"Point","coordinates":[-84.298707,37.736287]}},{"properties":{"city":"Ypsilanti","lon":-83.647237,"drafted":1,"not drafted":0,"id":"a647kwy1gk3s","school":"Eastern Michigan","lat":42.255998,"combine competitors":1,"state":"Michigan"},"type":"Feature","geometry":{"type":"Point","coordinates":[-83.647237,42.255998]}},{"properties":{"city":"Big Rapids","lon":-85.48529,"drafted":0,"not drafted":1,"id":"a647kwyg8q8p","school":"Ferris State","lat":43.70843,"combine competitors":1,"state":"Michigan"},"type":"Feature","geometry":{"type":"Point","coordinates":[-85.48529,43.70843]}},{"properties":{"city":"Lubbock","lon":-101.87291,"drafted":0,"not drafted":1,"id":"a647kwr4q0rw","school":"Texas Tech","lat":33.591057,"combine competitors":1,"state":"Texas"},"type":"Feature","geometry":{"type":"Point","coordinates":[-101.87291,33.591057]}},{"properties":{"city":"Houston","lon":-95.362411,"drafted":0,"not drafted":1,"id":"a647kwps50j8","school":"Texas Southern","lat":29.720956,"combine competitors":1,"state":"Texas"},"type":"Feature","geometry":{"type":"Point","coordinates":[-95.362411,29.720956]}},{"properties":{"city":"Fordham","lon":-73.89317,"drafted":0,"not drafted":1,"id":"a647kwqrjuwp","school":"Fordham","lat":40.86296,"combine competitors":1,"state":"New York"},"type":"Feature","geometry":{"type":"Point","coordinates":[-73.89317,40.86296]}},{"properties":{"city":"Fresno","lon":-119.758067,"drafted":1,"not drafted":0,"id":"a647kwr897uf","school":"Fresno State","lat":36.814355,"combine competitors":1,"state":"California"},"type":"Feature","geometry":{"type":"Point","coordinates":[-119.758067,36.814355]}},{"properties":{"city":"Greenville","lon":-82.44146,"drafted":1,"not drafted":0,"id":"a647kwura9g2","school":"Furman","lat":34.92483,"combine competitors":1,"state":"South Carolina"},"type":"Feature","geometry":{"type":"Point","coordinates":[-82.44146,34.92483]}},{"properties":{"city":"Boiling Springs","lon":-81.673274,"drafted":1,"not drafted":0,"id":"a647kwsn35zq","school":"Gardner-Webb","lat":35.245492,"combine competitors":1,"state":"North Carolina"},"type":"Feature","geometry":{"type":"Point","coordinates":[-81.673274,35.245492]}},{"properties":{"city":"Nashville","lon":-86.826914,"drafted":1,"not drafted":0,"id":"a647kwtfmkyg","school":"Tennessee State","lat":36.168194,"combine competitors":1,"state":"Tennessee"},"type":"Feature","geometry":{"type":"Point","coordinates":[-86.826914,36.168194]}},{"properties":{"city":"Orland Park","lon":-90.044885,"drafted":0,"not drafted":1,"id":"a647kwxd5cmq","school":"St Xavier","lat":30.025703,"combine competitors":1,"state":"Illinois"},"type":"Feature","geometry":{"type":"Point","coordinates":[-90.044885,30.025703]}},{"properties":{"city":"Lynchburg","lon":-79.174996,"drafted":0,"not drafted":1,"id":"a647kwvg7jbj","school":"Liberty","lat":37.354415,"combine competitors":1,"state":"Virginia"},"type":"Feature","geometry":{"type":"Point","coordinates":[-79.174996,37.354415]}},{"properties":{"city":"Kent","lon":-81.313305,"drafted":1,"not drafted":0,"id":"a647kwqz5kiu","school":"Kent State","lat":41.139035,"combine competitors":1,"state":"Ohio"},"type":"Feature","geometry":{"type":"Point","coordinates":[-81.313305,41.139035]}},{"properties":{"city":"Raleigh","lon":-78.618571,"drafted":1,"not drafted":0,"id":"a647kwqq7rxg","school":"St Augustine","lat":35.789515,"combine competitors":1,"state":"North Carolina"},"type":"Feature","geometry":{"type":"Point","coordinates":[-78.618571,35.789515]}},{"properties":{"city":"New Orleans","lon":-90.044885,"drafted":0,"not drafted":1,"id":"a647kx27d05n","school":"Southern","lat":30.025703,"combine competitors":1,"state":"Louisiana"},"type":"Feature","geometry":{"type":"Point","coordinates":[-90.044885,30.025703]}},{"properties":{"city":"Washington","lon":-77.020798,"drafted":0,"not drafted":1,"id":"a647kwrylfy5","school":"Howard","lat":38.925591,"combine competitors":1,"state":"District of Columbia"},"type":"Feature","geometry":{"type":"Point","coordinates":[-77.020798,38.925591]}},{"properties":{"city":"Orangeburg","lon":-80.844628,"drafted":0,"not drafted":1,"id":"a647kwns8f1p","school":"South Carolina State","lat":33.498581,"combine competitors":1,"state":"South Carolina"},"type":"Feature","geometry":{"type":"Point","coordinates":[-80.844628,33.498581]}},{"properties":{"city":"Columbia","lon":-81.019102,"drafted":1,"not drafted":0,"id":"a647kx0rb8os","school":"South Carolina","lat":33.97283,"combine competitors":1,"state":"South Carolina"},"type":"Feature","geometry":{"type":"Point","coordinates":[-81.019102,33.97283]}},{"properties":{"city":"Portland","lon":-122.687399,"drafted":0,"not drafted":1,"id":"a647kwtc9l1f","school":"Portland State","lat":45.511811,"combine competitors":1,"state":"Oregon"},"type":"Feature","geometry":{"type":"Point","coordinates":[-122.687399,45.511811]}},{"properties":{"city":"Houston","lon":-95.409314,"drafted":0,"not drafted":1,"id":"a647kx235vog","school":"Rice","lat":29.716285,"combine competitors":1,"state":"Texas"},"type":"Feature","geometry":{"type":"Point","coordinates":[-95.409314,29.716285]}},{"properties":{"city":"Harrisonburg","lon":-78.872964,"drafted":0,"not drafted":1,"id":"a647kwuoqusv","school":"James Madison","lat":38.435228,"combine competitors":1,"state":"Virginia"},"type":"Feature","geometry":{"type":"Point","coordinates":[-78.872964,38.435228]}},{"properties":{"city":"Jackson","lon":-90.207638,"drafted":1,"not drafted":0,"id":"a647kwryxowv","school":"Jackson State","lat":32.299289,"combine competitors":1,"state":"Mississippi"},"type":"Feature","geometry":{"type":"Point","coordinates":[-90.207638,32.299289]}},{"properties":{"city":"Hattiesburg","lon":-89.3313,"drafted":1,"not drafted":1,"id":"a647kx0bib87","school":"Southern Miss","lat":31.328935,"combine competitors":2,"state":"Mississippi"},"type":"Feature","geometry":{"type":"Point","coordinates":[-89.3313,31.328935]}},{"properties":{"city":"San Diego","lon":-117.182902,"drafted":1,"not drafted":1,"id":"a647kwti1ugr","school":"San Diego","lat":32.776664,"combine competitors":2,"state":"California"},"type":"Feature","geometry":{"type":"Point","coordinates":[-117.182902,32.776664]}},{"properties":{"city":"San Jose","lon":-121.868268,"drafted":1,"not drafted":1,"id":"a647kx09g83v","school":"San Jose State","lat":37.319716,"combine competitors":2,"state":"California"},"type":"Feature","geometry":{"type":"Point","coordinates":[-121.868268,37.319716]}},{"properties":{"city":"Hampton","lon":-76.333528,"drafted":1,"not drafted":1,"id":"a647kwobkmj0","school":"Hampton","lat":37.020361,"combine competitors":2,"state":"Virginia"},"type":"Feature","geometry":{"type":"Point","coordinates":[-76.333528,37.020361]}},{"properties":{"city":"Athens","lon":-82.102869,"drafted":1,"not drafted":1,"id":"a647kx2fajyu","school":"Ohio","lat":39.321032,"combine competitors":2,"state":"Ohio"},"type":"Feature","geometry":{"type":"Point","coordinates":[-82.102869,39.321032]}},{"properties":{"city":"Richmond","lon":-77.543787,"drafted":2,"not drafted":0,"id":"a647kwtl0vdl","school":"Richmond","lat":37.573657,"combine competitors":2,"state":"Virginia"},"type":"Feature","geometry":{"type":"Point","coordinates":[-77.543787,37.573657]}},{"properties":{"city":"Pearline","lon":-85.89295,"drafted":1,"not drafted":1,"id":"a647kx1580v1","school":"Grand Valley State","lat":42.97238,"combine competitors":2,"state":"Michigan"},"type":"Feature","geometry":{"type":"Point","coordinates":[-85.89295,42.97238]}},{"properties":{"city":"Greenville","lon":-77.365237,"drafted":1,"not drafted":1,"id":"a647kwpgdstt","school":"East Carolina","lat":35.596401,"combine competitors":2,"state":"North Carolina"},"type":"Feature","geometry":{"type":"Point","coordinates":[-77.365237,35.596401]}},{"properties":{"city":"Newark","lon":-75.748839,"drafted":1,"not drafted":1,"id":"a647kwtbj5qo","school":"Delaware","lat":39.661664,"combine competitors":2,"state":"Delaware"},"type":"Feature","geometry":{"type":"Point","coordinates":[-75.748839,39.661664]}},{"properties":{"city":"Maryville","lon":-94.885775,"drafted":1,"not drafted":1,"id":"a647kx038u15","school":"Northwest Missouri State","lat":40.350617,"combine competitors":2,"state":"Missouri"},"type":"Feature","geometry":{"type":"Point","coordinates":[-94.885775,40.350617]}},{"properties":{"city":"Huntington","lon":-82.420917,"drafted":0,"not drafted":2,"id":"a647kwqse8q9","school":"Marshall","lat":38.424847,"combine competitors":2,"state":"West Virginia"},"type":"Feature","geometry":{"type":"Point","coordinates":[-82.420917,38.424847]}},{"properties":{"city":"Cedar Falls","lon":-92.464447,"drafted":2,"not drafted":0,"id":"a647kx33b9jt","school":"Northern Iowa","lat":42.520281,"combine competitors":2,"state":"Iowa"},"type":"Feature","geometry":{"type":"Point","coordinates":[-92.464447,42.520281]}},{"properties":{"city":"Troy","lon":-85.951827,"drafted":1,"not drafted":1,"id":"a647kwxexh6g","school":"Troy","lat":31.799553,"combine competitors":2,"state":"Alabama"},"type":"Feature","geometry":{"type":"Point","coordinates":[-85.951827,31.799553]}},{"properties":{"city":"Fargo","lon":-96.806297,"drafted":1,"not drafted":1,"id":"a647kwtfiuac","school":"North Dakota State","lat":46.898556,"combine competitors":2,"state":"North Dakota"},"type":"Feature","geometry":{"type":"Point","coordinates":[-96.806297,46.898556]}},{"properties":{"city":"Raleigh","lon":-78.719493,"drafted":2,"not drafted":0,"id":"a647kwzqpak3","school":"North Carolina State","lat":35.800806,"combine competitors":2,"state":"North Carolina"},"type":"Feature","geometry":{"type":"Point","coordinates":[-78.719493,35.800806]}},{"properties":{"city":"Tulsa","lon":-95.943787,"drafted":1,"not drafted":1,"id":"a647kwyv7gmt","school":"Tulsa","lat":36.148701,"combine competitors":2,"state":"Oklahoma"},"type":"Feature","geometry":{"type":"Point","coordinates":[-95.943787,36.148701]}},{"properties":{"city":"Murfreesboro","lon":-86.368454,"drafted":1,"not drafted":1,"id":"a647kx16xz53","school":"Middle Tennessee State","lat":35.851039,"combine competitors":2,"state":"Tennessee"},"type":"Feature","geometry":{"type":"Point","coordinates":[-86.368454,35.851039]}},{"properties":{"city":"Las Vegas","lon":-115.14736,"drafted":1,"not drafted":1,"id":"a647kwngw40k","school":"UNLV","lat":36.109507,"combine competitors":2,"state":"Nevada"},"type":"Feature","geometry":{"type":"Point","coordinates":[-115.14736,36.109507]}},{"properties":{"city":"Logan","lon":-111.811573,"drafted":2,"not drafted":0,"id":"a647kwokrn7c","school":"Utah State","lat":41.75167,"combine competitors":2,"state":"Utah"},"type":"Feature","geometry":{"type":"Point","coordinates":[-111.811573,41.75167]}},{"properties":{"city":"Provo","lon":-111.654618,"drafted":1,"not drafted":1,"id":"a647kws3kyop","school":"BYU","lat":40.257387,"combine competitors":2,"state":"Utah"},"type":"Feature","geometry":{"type":"Point","coordinates":[-111.654618,40.257387]}},{"properties":{"city":"Buffalo","lon":-78.887474,"drafted":2,"not drafted":0,"id":"a647kwxlqoor","school":"Buffalo","lat":42.935755,"combine competitors":2,"state":"New York"},"type":"Feature","geometry":{"type":"Point","coordinates":[-78.887474,42.935755]}},{"properties":{"city":"Daytona Beach","lon":-81.031208,"drafted":0,"not drafted":2,"id":"a647kwv5k8vm","school":"Bethune-Cookman","lat":29.210931,"combine competitors":2,"state":"Florida"},"type":"Feature","geometry":{"type":"Point","coordinates":[-81.031208,29.210931]}},{"properties":{"city":"Missoula","lon":-113.981557,"drafted":2,"not drafted":0,"id":"a647kwzfguih","school":"Montana","lat":46.863845,"combine competitors":2,"state":"Montana"},"type":"Feature","geometry":{"type":"Point","coordinates":[-113.981557,46.863845]}},{"properties":{"city":"Seattle","lon":-122.301723,"drafted":0,"not drafted":2,"id":"a647kwpsb72m","school":"Washington","lat":47.650324,"combine competitors":2,"state":"Washington"},"type":"Feature","geometry":{"type":"Point","coordinates":[-122.301723,47.650324]}},{"properties":{"city":"Canyon","lon":-101.913984,"drafted":0,"not drafted":2,"id":"a647kwqbgrki","school":"West Texas AM","lat":34.983325,"combine competitors":2,"state":"Texas"},"type":"Feature","geometry":{"type":"Point","coordinates":[-101.913984,34.983325]}},{"properties":{"city":"Reno","lon":-119.817556,"drafted":0,"not drafted":2,"id":"a647kwqv7yja","school":"Nevada","lat":39.546905,"combine competitors":2,"state":"Nevada"},"type":"Feature","geometry":{"type":"Point","coordinates":[-119.817556,39.546905]}},{"properties":{"city":"Akron","lon":-81.512996,"drafted":1,"not drafted":2,"id":"a647kwpwtds6","school":"Akron","lat":41.074272,"combine competitors":3,"state":"Ohio"},"type":"Feature","geometry":{"type":"Point","coordinates":[-81.512996,41.074272]}},{"properties":{"city":"Albuquerque","lon":-106.628294,"drafted":1,"not drafted":2,"id":"a647kwtn6sje","school":"New Mexico","lat":35.066963,"combine competitors":3,"state":"New Mexico"},"type":"Feature","geometry":{"type":"Point","coordinates":[-106.628294,35.066963]}},{"properties":{"city":"Tuscaloosa","lon":-87.550419,"drafted":0,"not drafted":3,"id":"a647kwulym5n","school":"Alabama","lat":33.207664,"combine competitors":3,"state":"Alabama"},"type":"Feature","geometry":{"type":"Point","coordinates":[-87.550419,33.207664]}},{"properties":{"city":"Boone","lon":-81.685522,"drafted":2,"not drafted":1,"id":"a647kwq0s9xw","school":"Appalachian State","lat":36.21158,"combine competitors":3,"state":"North Carolina"},"type":"Feature","geometry":{"type":"Point","coordinates":[-81.685522,36.21158]}},{"properties":{"city":"Chapel Hill","lon":-79.047973,"drafted":2,"not drafted":1,"id":"a647kwwrvp3s","school":"North Carolina","lat":35.907022,"combine competitors":3,"state":"North Carolina"},"type":"Feature","geometry":{"type":"Point","coordinates":[-79.047973,35.907022]}},{"properties":{"city":"West Point","lon":-73.964131,"drafted":1,"not drafted":2,"id":"a647kwxspcsw","school":"Army","lat":41.387547,"combine competitors":3,"state":"New York"},"type":"Feature","geometry":{"type":"Point","coordinates":[-73.964131,41.387547]}},{"properties":{"city":"Pullman","lon":-117.160288,"drafted":1,"not drafted":2,"id":"a647kwuv4nua","school":"Washington State","lat":46.731744,"combine competitors":3,"state":"Washington"},"type":"Feature","geometry":{"type":"Point","coordinates":[-117.160288,46.731744]}},{"properties":{"city":"Syracuse","lon":-76.136459,"drafted":0,"not drafted":3,"id":"a647kwwd64a7","school":"Syracuse","lat":43.03624,"combine competitors":3,"state":"New York"},"type":"Feature","geometry":{"type":"Point","coordinates":[-76.136459,43.03624]}},{"properties":{"city":"Houston","lon":-95.349331,"drafted":1,"not drafted":2,"id":"a647kwy8slqi","school":"Houston","lat":29.721963,"combine competitors":3,"state":"Texas"},"type":"Feature","geometry":{"type":"Point","coordinates":[-95.349331,29.721963]}},{"properties":{"city":"Charlottesville","lon":-78.513895,"drafted":3,"not drafted":0,"id":"a647kx2zsely","school":"Virginia","lat":38.031089,"combine competitors":3,"state":"Virginia"},"type":"Feature","geometry":{"type":"Point","coordinates":[-78.513895,38.031089]}},{"properties":{"city":"Tampa","lon":-82.503336,"drafted":2,"not drafted":1,"id":"a647kwtb3or5","school":"South Florida","lat":27.975975,"combine competitors":3,"state":"Florida"},"type":"Feature","geometry":{"type":"Point","coordinates":[-82.503336,27.975975]}},{"properties":{"city":"Moscow","lon":-117.011777,"drafted":1,"not drafted":2,"id":"a647kwsc9hy7","school":"Idaho","lat":46.728711,"combine competitors":3,"state":"Idaho"},"type":"Feature","geometry":{"type":"Point","coordinates":[-117.011777,46.728711]}},{"properties":{"city":"Champaign","lon":-88.235839,"drafted":1,"not drafted":2,"id":"a647kwnfzkqq","school":"Illinois","lat":40.099022,"combine competitors":3,"state":"Illinois"},"type":"Feature","geometry":{"type":"Point","coordinates":[-88.235839,40.099022]}},{"properties":{"city":"Orlando","lon":-81.19286,"drafted":3,"not drafted":0,"id":"a647kx12c1ma","school":"Central Florida","lat":28.609995,"combine competitors":3,"state":"Florida"},"type":"Feature","geometry":{"type":"Point","coordinates":[-81.19286,28.609995]}},{"properties":{"city":"Stillwater","lon":-97.066522,"drafted":0,"not drafted":3,"id":"a647kwyd5i88","school":"Oklahoma State","lat":36.125718,"combine competitors":3,"state":"Oklahoma"},"type":"Feature","geometry":{"type":"Point","coordinates":[-97.066522,36.125718]}},{"properties":{"city":"Bloomington","lon":-86.525618,"drafted":2,"not drafted":1,"id":"a647kx3gty8x","school":"Indiana","lat":39.18089,"combine competitors":3,"state":"Indiana"},"type":"Feature","geometry":{"type":"Point","coordinates":[-86.525618,39.18089]}},{"properties":{"city":"Cincinnati","lon":-84.516206,"drafted":2,"not drafted":1,"id":"a647kwpunxtr","school":"Cincinnati","lat":39.131222,"combine competitors":3,"state":"Ohio"},"type":"Feature","geometry":{"type":"Point","coordinates":[-84.516206,39.131222]}},{"properties":{"city":"Storrs","lon":-72.256981,"drafted":2,"not drafted":1,"id":"a647kwoqeuyi","school":"Connecticut","lat":41.806205,"combine competitors":3,"state":"Connecticut"},"type":"Feature","geometry":{"type":"Point","coordinates":[-72.256981,41.806205]}},{"properties":{"city":"Toledo","lon":-83.611172,"drafted":2,"not drafted":1,"id":"a647kwqhdwg4","school":"Toledo","lat":41.658499,"combine competitors":3,"state":"Ohio"},"type":"Feature","geometry":{"type":"Point","coordinates":[-83.611172,41.658499]}},{"properties":{"city":"Stanford","lon":-122.161019,"drafted":0,"not drafted":3,"id":"a647kwoy3a34","school":"Stanford","lat":37.434421,"combine competitors":3,"state":"California"},"type":"Feature","geometry":{"type":"Point","coordinates":[-122.161019,37.434421]}},{"properties":{"city":"Boulder","lon":-105.266909,"drafted":2,"not drafted":2,"id":"a647kwni0ci0","school":"Colorado","lat":40.009441,"combine competitors":4,"state":"Colorado"},"type":"Feature","geometry":{"type":"Point","coordinates":[-105.266909,40.009441]}},{"properties":{"city":"Manhattan","lon":-96.59377,"drafted":2,"not drafted":2,"id":"a647kx2ubbd2","school":"Kansas State","lat":39.202067,"combine competitors":4,"state":"Kansas"},"type":"Feature","geometry":{"type":"Point","coordinates":[-96.59377,39.202067]}},{"properties":{"city":"Ames","lon":-93.635819,"drafted":2,"not drafted":2,"id":"a647kwq6jvwi","school":"Iowa State","lat":42.013955,"combine competitors":4,"state":"Iowa"},"type":"Feature","geometry":{"type":"Point","coordinates":[-93.635819,42.013955]}},{"properties":{"city":"Greenville","lon":-82.84321,"drafted":2,"not drafted":2,"id":"a647kwvcnnmh","school":"Clemson","lat":34.678708,"combine competitors":4,"state":"South Carolina"},"type":"Feature","geometry":{"type":"Point","coordinates":[-82.84321,34.678708]}},{"properties":{"city":"Iowa City","lon":-91.551056,"drafted":3,"not drafted":1,"id":"a647kwrmascy","school":"Iowa","lat":41.658649,"combine competitors":4,"state":"Iowa"},"type":"Feature","geometry":{"type":"Point","coordinates":[-91.551056,41.658649]}},{"properties":{"city":"Tallahassee","lon":-84.304453,"drafted":3,"not drafted":1,"id":"a647kx3f8y3n","school":"Florida State","lat":30.438124,"combine competitors":4,"state":"Florida"},"type":"Feature","geometry":{"type":"Point","coordinates":[-84.304453,30.438124]}},{"properties":{"city":"Eugene","lon":-123.068417,"drafted":3,"not drafted":1,"id":"a647kwr4cphm","school":"Oregon","lat":44.058247,"combine competitors":4,"state":"Oregon"},"type":"Feature","geometry":{"type":"Point","coordinates":[-123.068417,44.058247]}},{"properties":{"city":"Columbus","lon":-83.019734,"drafted":3,"not drafted":1,"id":"a647kwvuufjc","school":"Ohio State","lat":40.001647,"combine competitors":4,"state":"Ohio"},"type":"Feature","geometry":{"type":"Point","coordinates":[-83.019734,40.001647]}},{"properties":{"city":"Aiea","lon":-157.92996,"drafted":1,"not drafted":3,"id":"a647kwx61d02","school":"Hawaii","lat":21.372842,"combine competitors":4,"state":"Hawaii"},"type":"Feature","geometry":{"type":"Point","coordinates":[-157.92996,21.372842]}},{"properties":{"city":"South Bend","lon":-86.228211,"drafted":4,"not drafted":0,"id":"a647kwy4nyec","school":"Notre Dame","lat":41.698857,"combine competitors":4,"state":"Indiana"},"type":"Feature","geometry":{"type":"Point","coordinates":[-86.228211,41.698857]}},{"properties":{"city":"Winston-Salem","lon":-80.254772,"drafted":3,"not drafted":1,"id":"a647kwynpptl","school":"Wake Forest","lat":36.130579,"combine competitors":4,"state":"North Carolina"},"type":"Feature","geometry":{"type":"Point","coordinates":[-80.254772,36.130579]}},{"properties":{"city":"Boise","lon":-116.195849,"drafted":2,"not drafted":2,"id":"a647kx1szh7u","school":"Boise State","lat":43.602848,"combine competitors":4,"state":"Idaho"},"type":"Feature","geometry":{"type":"Point","coordinates":[-116.195849,43.602848]}},{"properties":{"city":"State College","lon":-77.856238,"drafted":2,"not drafted":2,"id":"a647kwvwr2wp","school":"Penn State","lat":40.811909,"combine competitors":4,"state":"Pennsylvania"},"type":"Feature","geometry":{"type":"Point","coordinates":[-77.856238,40.811909]}},{"properties":{"city":"Nashville","lon":-86.80894,"drafted":3,"not drafted":1,"id":"a647kwvzkrwm","school":"Vanderbilt","lat":36.143981,"combine competitors":4,"state":"Tennessee"},"type":"Feature","geometry":{"type":"Point","coordinates":[-86.80894,36.143981]}},{"properties":{"city":"College Park","lon":-76.947266,"drafted":1,"not drafted":4,"id":"a647kwzy93fp","school":"Maryland","lat":38.990266,"combine competitors":5,"state":"Maryland"},"type":"Feature","geometry":{"type":"Point","coordinates":[-76.947266,38.990266]}},{"properties":{"city":"Columbia","lon":-92.333176,"drafted":2,"not drafted":3,"id":"a647kwve2mbr","school":"Missouri","lat":38.93583,"combine competitors":5,"state":"Missouri"},"type":"Feature","geometry":{"type":"Point","coordinates":[-92.333176,38.93583]}},{"properties":{"city":"Boston","lon":-71.166446,"drafted":3,"not drafted":2,"id":"a647kwwioda0","school":"Boston College","lat":42.335112,"combine competitors":5,"state":"Massachusetts"},"type":"Feature","geometry":{"type":"Point","coordinates":[-71.166446,42.335112]}},{"properties":{"city":"Fort Worth","lon":-97.368074,"drafted":0,"not drafted":5,"id":"a647kwnfcixk","school":"TCU","lat":32.709524,"combine competitors":5,"state":"Texas"},"type":"Feature","geometry":{"type":"Point","coordinates":[-97.368074,32.709524]}},{"properties":{"city":"Pittsburgh","lon":-80.015743,"drafted":3,"not drafted":2,"id":"a647kwumd7lx","school":"Pittsburgh","lat":40.446795,"combine competitors":5,"state":"Pennsylvania"},"type":"Feature","geometry":{"type":"Point","coordinates":[-80.015743,40.446795]}},{"properties":{"city":"West Lafayette","lon":-86.918469,"drafted":3,"not drafted":2,"id":"a647kwsvjt6k","school":"Purdue","lat":40.434392,"combine competitors":5,"state":"Indiana"},"type":"Feature","geometry":{"type":"Point","coordinates":[-86.918469,40.434392]}},{"properties":{"city":"Tucson","lon":-110.9488,"drafted":4,"not drafted":1,"id":"a647kww4g84j","school":"Arizona","lat":32.228836,"combine competitors":5,"state":"Arizona"},"type":"Feature","geometry":{"type":"Point","coordinates":[-110.9488,32.228836]}},{"properties":{"city":"El Paso","lon":-106.507916,"drafted":3,"not drafted":2,"id":"a647kwty26dk","school":"Texas-El Paso","lat":31.773309,"combine competitors":5,"state":"Texas"},"type":"Feature","geometry":{"type":"Point","coordinates":[-106.507916,31.773309]}},{"properties":{"city":"San Diego","lon":-117.078059,"drafted":4,"not drafted":1,"id":"a647kwvusdvm","school":"San Diego State","lat":32.772782,"combine competitors":5,"state":"California"},"type":"Feature","geometry":{"type":"Point","coordinates":[-117.078059,32.772782]}},{"properties":{"city":"Gainesville","lon":-82.348581,"drafted":2,"not drafted":3,"id":"a647kwzzt4w9","school":"Florida","lat":29.649914,"combine competitors":5,"state":"Florida"},"type":"Feature","geometry":{"type":"Point","coordinates":[-82.348581,29.649914]}},{"properties":{"city":"Lawrence","lon":-95.24639,"drafted":4,"not drafted":2,"id":"a647kwulddl4","school":"Kansas","lat":38.963016,"combine competitors":6,"state":"Kansas"},"type":"Feature","geometry":{"type":"Point","coordinates":[-95.24639,38.963016]}},{"properties":{"city":"Tempe","lon":-111.932578,"drafted":5,"not drafted":1,"id":"a647kwvyojbx","school":"Arizona State","lat":33.426424,"combine competitors":6,"state":"Arizona"},"type":"Feature","geometry":{"type":"Point","coordinates":[-111.932578,33.426424]}},{"properties":{"city":"Lincoln","lon":-96.705706,"drafted":3,"not drafted":3,"id":"a647kwtg11wq","school":"Nebraska","lat":40.820444,"combine competitors":6,"state":"Nebraska"},"type":"Feature","geometry":{"type":"Point","coordinates":[-96.705706,40.820444]}},{"properties":{"city":"East Lansing","lon":-84.484858,"drafted":3,"not drafted":3,"id":"a647kws0e862","school":"Michigan State","lat":42.728101,"combine competitors":6,"state":"Michigan"},"type":"Feature","geometry":{"type":"Point","coordinates":[-84.484858,42.728101]}},{"properties":{"city":"Knoxville","lon":-83.925122,"drafted":3,"not drafted":3,"id":"a647kwxhnj89","school":"Tennessee","lat":35.954955,"combine competitors":6,"state":"Tennessee"},"type":"Feature","geometry":{"type":"Point","coordinates":[-83.925122,35.954955]}},{"properties":{"city":"Los Angeles","lon":-118.167606,"drafted":3,"not drafted":3,"id":"a647kwypayto","school":"UCLA","lat":34.161306,"combine competitors":6,"state":"California"},"type":"Feature","geometry":{"type":"Point","coordinates":[-118.167606,34.161306]}},{"properties":{"city":"Miami","lon":-80.219842,"drafted":3,"not drafted":3,"id":"a647kx1vm2u7","school":"Miami","lat":25.778063,"combine competitors":6,"state":"Florida"},"type":"Feature","geometry":{"type":"Point","coordinates":[-80.219842,25.778063]}},{"properties":{"city":"Lexington","lon":-84.505196,"drafted":4,"not drafted":2,"id":"a647kx1w6jj8","school":"Kentucky","lat":38.022728,"combine competitors":6,"state":"Kentucky"},"type":"Feature","geometry":{"type":"Point","coordinates":[-84.505196,38.022728]}},{"properties":{"city":"Morgantown","lon":-79.954664,"drafted":3,"not drafted":3,"id":"a647kwse9ddi","school":"West Virginia","lat":39.650215,"combine competitors":6,"state":"West Virginia"},"type":"Feature","geometry":{"type":"Point","coordinates":[-79.954664,39.650215]}},{"properties":{"city":"Berkeley","lon":-122.250761,"drafted":6,"not drafted":1,"id":"a647kx3dhlxi","school":"California","lat":37.870988,"combine competitors":7,"state":"California"},"type":"Feature","geometry":{"type":"Point","coordinates":[-122.250761,37.870988]}},{"properties":{"city":"Corvallis","lon":-123.28139,"drafted":2,"not drafted":5,"id":"a647kx0zeaur","school":"Oregon State","lat":44.559544,"combine competitors":7,"state":"Oregon"},"type":"Feature","geometry":{"type":"Point","coordinates":[-123.28139,44.559544]}},{"properties":{"city":"Auburn","lon":-85.489077,"drafted":5,"not drafted":2,"id":"a647kx2p21vq","school":"Auburn","lat":32.602179,"combine competitors":7,"state":"Alabama"},"type":"Feature","geometry":{"type":"Point","coordinates":[-85.489077,32.602179]}},{"properties":{"city":"Athens","lon":-83.373266,"drafted":4,"not drafted":3,"id":"a647kwywensc","school":"Georgia","lat":33.94974,"combine competitors":7,"state":"Georgia"},"type":"Feature","geometry":{"type":"Point","coordinates":[-83.373266,33.94974]}},{"properties":{"city":"College Station","lon":-96.3404,"drafted":5,"not drafted":2,"id":"a647kwocrb2b","school":"Texas A&amp;M","lat":30.609782,"combine competitors":7,"state":"Texas"},"type":"Feature","geometry":{"type":"Point","coordinates":[-96.3404,30.609782]}},{"properties":{"city":"Norman","lon":-97.442519,"drafted":4,"not drafted":4,"id":"a647kwxc8o8q","school":"Oklahoma","lat":35.205876,"combine competitors":8,"state":"Oklahoma"},"type":"Feature","geometry":{"type":"Point","coordinates":[-97.442519,35.205876]}},{"properties":{"city":"Madison","lon":-89.412862,"drafted":4,"not drafted":4,"id":"a647kwxy5kx4","school":"Wisconsin","lat":43.069923,"combine competitors":8,"state":"Wisconsin"},"type":"Feature","geometry":{"type":"Point","coordinates":[-89.412862,43.069923]}},{"properties":{"city":"Louisville","lon":-85.758889,"drafted":5,"not drafted":3,"id":"a647kwp0hmb8","school":"Louisville","lat":38.205749,"combine competitors":8,"state":"Kentucky"},"type":"Feature","geometry":{"type":"Point","coordinates":[-85.758889,38.205749]}},{"properties":{"city":"Ann Arbor","lon":-83.748615,"drafted":6,"not drafted":2,"id":"a647kx0zhjmq","school":"Michigan","lat":42.265859,"combine competitors":8,"state":"Michigan"},"type":"Feature","geometry":{"type":"Point","coordinates":[-83.748615,42.265859]}},{"properties":{"city":"Atlanta","lon":-84.392864,"drafted":3,"not drafted":5,"id":"a647kx38db67","school":"Georgia Tech","lat":33.772502,"combine competitors":8,"state":"Georgia"},"type":"Feature","geometry":{"type":"Point","coordinates":[-84.392864,33.772502]}},{"properties":{"city":"Baton Rouge","lon":-91.183791,"drafted":6,"not drafted":2,"id":"a647kwvkha3x","school":"LSU","lat":30.412034,"combine competitors":8,"state":"Louisiana"},"type":"Feature","geometry":{"type":"Point","coordinates":[-91.183791,30.412034]}},{"properties":{"city":"Piscataway","lon":-74.465288,"drafted":2,"not drafted":6,"id":"a647kwoci4na","school":"Rutgers","lat":40.513495,"combine competitors":8,"state":"New Jersey"},"type":"Feature","geometry":{"type":"Point","coordinates":[-74.465288,40.513495]}},{"properties":{"city":"Austin","lon":-97.732529,"drafted":5,"not drafted":4,"id":"a647kwr8iz9t","school":"Texas","lat":30.283656,"combine competitors":9,"state":"Texas"},"type":"Feature","geometry":{"type":"Point","coordinates":[-97.732529,30.283656]}},{"properties":{"city":"Fayetteville","lon":-94.178935,"drafted":6,"not drafted":3,"id":"a647kwwmfalb","school":"Arkansas","lat":36.068078,"combine competitors":9,"state":"Arkansas"},"type":"Feature","geometry":{"type":"Point","coordinates":[-94.178935,36.068078]}},{"properties":{"city":"Blacksburg","lon":-80.417727,"drafted":8,"not drafted":3,"id":"a647kww26suo","school":"Virginia Tech","lat":37.21972,"combine competitors":11,"state":"Virginia"},"type":"Feature","geometry":{"type":"Point","coordinates":[-80.417727,37.21972]}},{"properties":{"city":"Los Angeles","lon":-118.288046,"drafted":10,"not drafted":2,"id":"a647kwuifhsu","school":"Southern Cal","lat":34.014008,"combine competitors":12,"state":"California"},"type":"Feature","geometry":{"type":"Point","coordinates":[-118.288046,34.014008]}}],"is_temporal":false,"author":{"url":"http://www.nfl.com/draft/tracker#tab:dt-by-name","metadata":"","contact_name":"","contact_address":"","source":"National Football League (NFL)","contact_phone":""},"source":"http://www.nfl.com/draft/tracker#tab:dt-by-name","pagination":{"sort":null,"start":0,"total":148,"limit":1000000},"state":"complete","tags":"athletics,college,combine,draft,football,nfl,sport,sports,university","published":"2008-04-16T12:00:00Z","id":6010}