{"type":"FeatureCollection","data_type":"Dataset","url_type":null,"permissions":[{"permissions":{"download":true,"view":true},"group_id":"everyone"}],"classification":null,"title":"Twitter AFL Sentiment analysis - Happy","count":59,"stream_id":60483,"contributor":{"url":"http://geocommons.com/users/12003","name":"LauraHale"},"data_attributes":null,"calculation_params":null,"icon_link":null,"link":"http://geocommons.com/overlays/60483.json","extent":[-118.244,-42.8827,153.431,53.7996],"geometry_types":["point"],"unique_name":null,"name":"Twitter AFL Sentiment analysis - Happy","feature_count":59,"description":"","next_feature":null,"is_raster":false,"short_classification":"Y","stats":{"happy":{"max":140,"mean":8.54237288135593,"variance":704.597311513734,"stdev":26.5442519486561,"min":1,"median":1},"latitude":{"max":53.7996388,"mean":-0.0877582813559316,"variance":1428.90730698311,"stdev":37.8008902935249,"min":-42.882743,"median":-26.6753836},"longitude":{"max":153.431052,"mean":47.5590294762712,"variance":12063.2928111564,"stdev":109.833022407455,"min":-118.2436849,"median":130.841904}},"features":[{"properties":{"happy":33,"city":"Adelaide","latitude":-34.92577,"country":"Australia","postal code":null,"longitude":138.599732,"id":"a6kw475njcc6","state":"South Australia"},"type":"Feature","geometry":{"type":"Point","coordinates":[138.599732,-34.92577]}},{"properties":{"happy":2,"city":"Albert Park","latitude":-37.840705,"country":"Australia","postal code":null,"longitude":144.95571,"id":"a6kw4739gta0","state":"Victoria"},"type":"Feature","geometry":{"type":"Point","coordinates":[144.95571,-37.840705]}},{"properties":{"happy":2,"city":"Alberton","latitude":-34.85922,"country":"Australia","postal code":"5014","longitude":138.51953,"id":"a6kw473r0xx3","state":"South Australia"},"type":"Feature","geometry":{"type":"Point","coordinates":[138.51953,-34.85922]}},{"properties":{"happy":1,"city":"Albury","latitude":-36.082137,"country":"Australia","postal code":"2640","longitude":146.910174,"id":"a6kw477saqtp","state":"New South Wales"},"type":"Feature","geometry":{"type":"Point","coordinates":[146.910174,-36.082137]}},{"properties":{"happy":8,"city":"Ballarat","latitude":-37.563318,"country":"Australia","postal code":"3352","longitude":143.863715,"id":"a6kw473ww2aq","state":"Victoria"},"type":"Feature","geometry":{"type":"Point","coordinates":[143.863715,-37.563318]}},{"properties":{"happy":1,"city":"Bogart","latitude":33.949281,"country":"United States","postal code":null,"longitude":-83.534608,"id":"a6kw4717bmi8","state":"Georgia"},"type":"Feature","geometry":{"type":"Point","coordinates":[-83.534608,33.949281]}},{"properties":{"happy":1,"city":"Box Hill","latitude":-37.817455,"country":"Australia","postal code":"3128","longitude":145.119314,"id":"a6kw46vq85n2","state":"Victoria"},"type":"Feature","geometry":{"type":"Point","coordinates":[145.119314,-37.817455]}},{"properties":{"happy":17,"city":"Brisbane","latitude":-27.46758,"country":"Australia","postal code":null,"longitude":153.027892,"id":"a6kw471lwq8u","state":"Queensland"},"type":"Feature","geometry":{"type":"Point","coordinates":[153.027892,-27.46758]}},{"properties":{"happy":1,"city":"Brunswick","latitude":-37.767052,"country":"Australia","postal code":null,"longitude":144.962137,"id":"a6kw470nnq1i","state":"Victoria"},"type":"Feature","geometry":{"type":"Point","coordinates":[144.962137,-37.767052]}},{"properties":{"happy":10,"city":"Brunswick West","latitude":-37.764829,"country":"Australia","postal code":null,"longitude":144.943778,"id":"a6kw473reeck","state":"Victoria"},"type":"Feature","geometry":{"type":"Point","coordinates":[144.943778,-37.764829]}},{"properties":{"happy":1,"city":"Caloundra","latitude":-26.804636,"country":"Australia","postal code":"4551","longitude":153.130349,"id":"a6kw477lxv1t","state":"Queensland"},"type":"Feature","geometry":{"type":"Point","coordinates":[153.130349,-26.804636]}},{"properties":{"happy":1,"city":"Canberra","latitude":-35.28204,"country":"Australia","postal code":"2600","longitude":149.12858,"id":"a6kw46u2q90j","state":"Australian Capital Territory"},"type":"Feature","geometry":{"type":"Point","coordinates":[149.12858,-35.28204]}},{"properties":{"happy":1,"city":"Chicago","latitude":41.850033,"country":"United States","postal code":null,"longitude":-87.6500523,"id":"a6kw46whcf6b","state":"Illinois"},"type":"Feature","geometry":{"type":"Point","coordinates":[-87.6500523,41.850033]}},{"properties":{"happy":1,"city":"Cincinnati","latitude":39.1361111,"country":"United States","postal code":null,"longitude":-84.5030556,"id":"a6kw476zlsxe","state":"Ohio"},"type":"Feature","geometry":{"type":"Point","coordinates":[-84.5030556,39.1361111]}},{"properties":{"happy":1,"city":"Cleveland","latitude":41.4994954,"country":"United States","postal code":null,"longitude":-81.6954088,"id":"a6kw47787x3p","state":"Ohio"},"type":"Feature","geometry":{"type":"Point","coordinates":[-81.6954088,41.4994954]}},{"properties":{"happy":2,"city":"Cortland","latitude":42.6011813,"country":"United States","postal code":null,"longitude":-76.1804843,"id":"a6kw46ul7u7d","state":"New York"},"type":"Feature","geometry":{"type":"Point","coordinates":[-76.1804843,42.6011813]}},{"properties":{"happy":12,"city":"Darley","latitude":-37.660314,"country":"Australia","postal code":null,"longitude":144.441634,"id":"a6kw473ykvzo","state":"Victoria"},"type":"Feature","geometry":{"type":"Point","coordinates":[144.441634,-37.660314]}},{"properties":{"happy":3,"city":"Darwin","latitude":-12.461334,"country":"Australia","postal code":"822","longitude":130.841904,"id":"a6kw477kiuph","state":"Northern Territory"},"type":"Feature","geometry":{"type":"Point","coordinates":[130.841904,-12.461334]}},{"properties":{"happy":1,"city":"Dean","latitude":-37.4645,"country":"Australia","postal code":"3352","longitude":143.991203,"id":"a6kw476d8hzu","state":"Victoria"},"type":"Feature","geometry":{"type":"Point","coordinates":[143.991203,-37.4645]}},{"properties":{"happy":1,"city":"Deniliquin","latitude":-35.528544,"country":"Australia","postal code":"2710","longitude":144.958974,"id":"a6kw4741j3oi","state":"New South Wales"},"type":"Feature","geometry":{"type":"Point","coordinates":[144.958974,-35.528544]}},{"properties":{"happy":3,"city":"Denver","latitude":39.7391536,"country":"United States","postal code":null,"longitude":-104.9847034,"id":"a6kw473t978q","state":"Colorado"},"type":"Feature","geometry":{"type":"Point","coordinates":[-104.9847034,39.7391536]}},{"properties":{"happy":1,"city":"Dubai","latitude":25.2644444,"country":"United Arab Emirates","postal code":null,"longitude":55.3116667,"id":"a6kw471knnj4","state":null},"type":"Feature","geometry":{"type":"Point","coordinates":[55.3116667,25.2644444]}},{"properties":{"happy":1,"city":"Dublin","latitude":53.344104,"country":"Ireland","postal code":null,"longitude":-6.2674937,"id":"a6kw474tj8j5","state":"Dublin"},"type":"Feature","geometry":{"type":"Point","coordinates":[-6.2674937,53.344104]}},{"properties":{"happy":1,"city":"Endeavour Hills","latitude":-37.976293,"country":"Australia","postal code":null,"longitude":145.257787,"id":"a6kw473pag6t","state":"Victoria"},"type":"Feature","geometry":{"type":"Point","coordinates":[145.257787,-37.976293]}},{"properties":{"happy":1,"city":"Essendon","latitude":-37.754973,"country":"Australia","postal code":null,"longitude":144.917407,"id":"a6kw46wou3h7","state":"Victoria"},"type":"Feature","geometry":{"type":"Point","coordinates":[144.917407,-37.754973]}},{"properties":{"happy":2,"city":"Essex","latitude":51.7659078,"country":"United Kingdom","postal code":null,"longitude":0.6673665,"id":"a6kw474tv3ss","state":"England"},"type":"Feature","geometry":{"type":"Point","coordinates":[0.6673665,51.7659078]}},{"properties":{"happy":2,"city":"Fitzroy North","latitude":-37.7834,"country":"Australia","postal code":null,"longitude":144.984688,"id":"a6kw476z9cgy","state":"Victoria"},"type":"Feature","geometry":{"type":"Point","coordinates":[144.984688,-37.7834]}},{"properties":{"happy":2,"city":"Frankston South","latitude":-38.156538,"country":"Australia","postal code":null,"longitude":145.123524,"id":"a6kw46xwng0z","state":"Victoria"},"type":"Feature","geometry":{"type":"Point","coordinates":[145.123524,-38.156538]}},{"properties":{"happy":1,"city":"Fremantle","latitude":-32.053128,"country":"Australia","postal code":null,"longitude":115.745869,"id":"a6kw4768mqz6","state":"Western Australia"},"type":"Feature","geometry":{"type":"Point","coordinates":[115.745869,-32.053128]}},{"properties":{"happy":6,"city":"Geelong","latitude":-38.14729,"country":"Australia","postal code":"3220","longitude":144.360735,"id":"a6kw47986fpn","state":"Victoria"},"type":"Feature","geometry":{"type":"Point","coordinates":[144.360735,-38.14729]}},{"properties":{"happy":5,"city":"Gold Coast","latitude":-27.9852778,"country":"Australia","postal code":"4215","longitude":153.3919444,"id":"a6kw470rnhtp","state":"Queensland"},"type":"Feature","geometry":{"type":"Point","coordinates":[153.3919444,-27.9852778]}},{"properties":{"happy":1,"city":"Goshen","latitude":38.4016667,"country":"United States","postal code":null,"longitude":-85.5827778,"id":"a6kw46vd7xa9","state":"Kentucky"},"type":"Feature","geometry":{"type":"Point","coordinates":[-85.5827778,38.4016667]}},{"properties":{"happy":1,"city":"Grand Rapids","latitude":42.9633599,"country":"United States","postal code":null,"longitude":-85.6680863,"id":"a6kw4763pwmz","state":"Michigan"},"type":"Feature","geometry":{"type":"Point","coordinates":[-85.6680863,42.9633599]}},{"properties":{"happy":1,"city":"Hagerstown","latitude":39.6417629,"country":"United States","postal code":null,"longitude":-77.7199932,"id":"a6kw46t9wk2f","state":"Maryland"},"type":"Feature","geometry":{"type":"Point","coordinates":[-77.7199932,39.6417629]}},{"properties":{"happy":1,"city":"Hobart","latitude":-42.882743,"country":"Australia","postal code":"7140","longitude":147.330234,"id":"a6kw475si1h9","state":"Tasmania"},"type":"Feature","geometry":{"type":"Point","coordinates":[147.330234,-42.882743]}},{"properties":{"happy":1,"city":"Huntington Beach","latitude":33.660297,"country":"United States","postal code":null,"longitude":-117.9992265,"id":"a6kw46u78mmw","state":"California"},"type":"Feature","geometry":{"type":"Point","coordinates":[-117.9992265,33.660297]}},{"properties":{"happy":1,"city":"Indianapolis","latitude":39.7683765,"country":"United States","postal code":null,"longitude":-86.1580423,"id":"a6kw46w3p3m7","state":"Indiana"},"type":"Feature","geometry":{"type":"Point","coordinates":[-86.1580423,39.7683765]}},{"properties":{"happy":1,"city":"Jakarta","latitude":-6.211544,"country":"Indonesia","postal code":null,"longitude":106.845172,"id":"a6kw472q5nz3","state":null},"type":"Feature","geometry":{"type":"Point","coordinates":[106.845172,-6.211544]}},{"properties":{"happy":1,"city":"Kilsyth","latitude":-37.802304,"country":"Australia","postal code":null,"longitude":145.312198,"id":"a6kw47367qlh","state":"Victoria"},"type":"Feature","geometry":{"type":"Point","coordinates":[145.312198,-37.802304]}},{"properties":{"happy":2,"city":"Lafayette","latitude":40.4167022,"country":"United States","postal code":null,"longitude":-86.8752869,"id":"a6kw477m2vxi","state":"Indiana"},"type":"Feature","geometry":{"type":"Point","coordinates":[-86.8752869,40.4167022]}},{"properties":{"happy":1,"city":"Las Vegas","latitude":36.114646,"country":"United States","postal code":null,"longitude":-115.172816,"id":"a6kw470n7quj","state":"Nevada"},"type":"Feature","geometry":{"type":"Point","coordinates":[-115.172816,36.114646]}},{"properties":{"happy":1,"city":"Leeds","latitude":53.7996388,"country":"United Kingdom","postal code":null,"longitude":-1.5491221,"id":"a6kw46zmafoa","state":"England"},"type":"Feature","geometry":{"type":"Point","coordinates":[-1.5491221,53.7996388]}},{"properties":{"happy":1,"city":"Lexington","latitude":38.0317136,"country":"United States","postal code":null,"longitude":-84.4951359,"id":"a6kw474qwebn","state":"Kentucky"},"type":"Feature","geometry":{"type":"Point","coordinates":[-84.4951359,38.0317136]}},{"properties":{"happy":2,"city":"London","latitude":51.5001524,"country":"United Kingdom","postal code":null,"longitude":-0.1262362,"id":"a6kw476ut0pn","state":"England"},"type":"Feature","geometry":{"type":"Point","coordinates":[-0.1262362,51.5001524]}},{"properties":{"happy":3,"city":"Los Angeles","latitude":34.0522342,"country":"United States","postal code":null,"longitude":-118.2436849,"id":"a6kw476perc4","state":"California"},"type":"Feature","geometry":{"type":"Point","coordinates":[-118.2436849,34.0522342]}},{"properties":{"happy":140,"city":"Melbourne","latitude":-37.814251,"country":"Australia","postal code":null,"longitude":144.963169,"id":"a6kw46w9yt8d","state":"Victora"},"type":"Feature","geometry":{"type":"Point","coordinates":[144.963169,-37.814251]}},{"properties":{"happy":140,"city":"Melbourne","latitude":-37.814251,"country":"Australia","postal code":null,"longitude":144.963169,"id":"a6kw47813pyw","state":"Victoria"},"type":"Feature","geometry":{"type":"Point","coordinates":[144.963169,-37.814251]}},{"properties":{"happy":1,"city":"Predosa","latitude":44.7523518,"country":"Italy","postal code":null,"longitude":8.656574,"id":"a6kw474vmh17","state":null},"type":"Feature","geometry":{"type":"Point","coordinates":[8.656574,44.7523518]}},{"properties":{"happy":5,"city":"Richmond","latitude":-37.818587,"country":"Australia","postal code":"3121","longitude":144.999181,"id":"a6kw475caio6","state":"Victoria"},"type":"Feature","geometry":{"type":"Point","coordinates":[144.999181,-37.818587]}},{"properties":{"happy":1,"city":"Ridley","latitude":39.891779,"country":"United States","postal code":"19033","longitude":-75.3329666,"id":"a6kw472jdl58","state":"Pennsylvania"},"type":"Feature","geometry":{"type":"Point","coordinates":[-75.3329666,39.891779]}},{"properties":{"happy":1,"city":"Rockingham","latitude":34.9393201,"country":"United States","postal code":null,"longitude":-79.7739457,"id":"a6kw46vihl6o","state":"North Carolina"},"type":"Feature","geometry":{"type":"Point","coordinates":[-79.7739457,34.9393201]}},{"properties":{"happy":1,"city":"Silver Spring","latitude":38.9906657,"country":"United States","postal code":null,"longitude":-77.026088,"id":"a6kw46x1gi2r","state":"Maryland"},"type":"Feature","geometry":{"type":"Point","coordinates":[-77.026088,38.9906657]}},{"properties":{"happy":1,"city":"South Geelong","latitude":-38.161708,"country":"Australia","postal code":"3221","longitude":144.354122,"id":"a6kw46xvbnn8","state":"Victoria"},"type":"Feature","geometry":{"type":"Point","coordinates":[144.354122,-38.161708]}},{"properties":{"happy":1,"city":"Sunshine Coast","latitude":-26.6753836,"country":"Australia","postal code":null,"longitude":153.0500809,"id":"a6kw46vf8lrn","state":"Queensland"},"type":"Feature","geometry":{"type":"Point","coordinates":[153.0500809,-26.6753836]}},{"properties":{"happy":1,"city":"Surfers Paradise","latitude":-28.00228,"country":"Australia","postal code":null,"longitude":153.431052,"id":"a6kw46y44it3","state":"Queensland"},"type":"Feature","geometry":{"type":"Point","coordinates":[153.431052,-28.00228]}},{"properties":{"happy":64,"city":"Sydney","latitude":-33.867139,"country":"Australia","postal code":null,"longitude":151.207114,"id":"a6kw470vai9s","state":"New South Wales"},"type":"Feature","geometry":{"type":"Point","coordinates":[151.207114,-33.867139]}},{"properties":{"happy":1,"city":"Tampa","latitude":27.949436,"country":"United States","postal code":null,"longitude":-82.4651441,"id":"a6kw47867yzv","state":"Florida"},"type":"Feature","geometry":{"type":"Point","coordinates":[-82.4651441,27.949436]}},{"properties":{"happy":3,"city":"Washington D.C.","latitude":38.8951118,"country":"United States","postal code":null,"longitude":-77.0363658,"id":"a6kw46xnrhub","state":null},"type":"Feature","geometry":{"type":"Point","coordinates":[-77.0363658,38.8951118]}},{"properties":{"happy":1,"city":"Winston-Salem","latitude":36.0998596,"country":"United States","postal code":null,"longitude":-80.244216,"id":"a6kw46vvl1c0","state":"North Carolina"},"type":"Feature","geometry":{"type":"Point","coordinates":[-80.244216,36.0998596]}}],"is_temporal":false,"author":{"url":"","metadata":"","contact_name":"","contact_address":"","source":"","contact_phone":""},"source":"","pagination":{"sort":null,"start":0,"total":59,"limit":1000000},"state":"complete","tags":"afl","published":"2014-08-10T12:06:57-04:00","id":60483}