{"type":"FeatureCollection","data_type":"Dataset","url_type":null,"permissions":[{"permissions":{"download":true,"view":true},"group_id":"everyone"}],"classification":null,"title":"detainee-atty ratios - no attys","count":42,"stream_id":60544,"contributor":{"url":"http://geocommons.com/users/9945","name":"immigrantjustice"},"data_attributes":null,"calculation_params":null,"icon_link":null,"link":"http://geocommons.com/overlays/60544.json","extent":[-122.887,13.4742,144.748,46.6646],"geometry_types":["point"],"unique_name":null,"name":"detainee-atty ratios - no attys","feature_count":42,"description":"","next_feature":null,"is_raster":false,"short_classification":"Y","stats":{"geo_score":{"max":1.0,"mean":0.928785714285714,"variance":0.00448758710801394,"stdev":0.0669894552001577,"min":0.755,"median":0.901},"detainees per day (snapshot)":{"max":454,"mean":77.4634146341463,"variance":11221.0048780488,"stdev":105.929244677987,"min":11,"median":29},"number of attorneys/ paralegals":{"max":0.0,"mean":0.0,"variance":0.0,"stdev":0.0,"min":0.0,"median":0.0}},"features":[{"properties":{"city":"Aguadilla","zip":"00604","geo_score":1.0,"average detainees per attorney":"n/a","detainees per day (snapshot)":25,"address 1":"505 Gun Road","number of attorneys/ paralegals":null,"ngos serving facility":"No","id":"a6bgs0k0pw4y","geo_precision":"zip","detention center":"Aguadilla Service Processing Center","state":"Puerto Rico"},"type":"Feature","geometry":{"type":"Point","coordinates":[-67.135883,18.49352]}},{"properties":{"city":"Graham","zip":"27253","geo_score":1.0,"average detainees per attorney":"n/a","detainees per day (snapshot)":37,"address 1":"109 S. Maple St.","number of attorneys/ paralegals":0.0,"ngos serving facility":"Yes","id":"a6bgs0hvcwfi","geo_precision":"zip","detention center":"Alamance County Jail","state":"North Carolina"},"type":"Feature","geometry":{"type":"Point","coordinates":[-79.347527,35.972114]}},{"properties":{"city":"Belmont","zip":"14813","geo_score":0.868,"average detainees per attorney":"n/a","detainees per day (snapshot)":11,"address 1":"4884 State Rte 19","number of attorneys/ paralegals":null,"ngos serving facility":"No","id":"a6bgs0a2n0kw","geo_precision":"zip","detention center":"Allegany County Jail","state":"New York"},"type":"Feature","geometry":{"type":"Point","coordinates":[-77.893611,42.258125]}},{"properties":{"city":"Pittsburgh","zip":"15219","geo_score":1.0,"average detainees per attorney":"n/a","detainees per day (snapshot)":12,"address 1":"950 Second Avenue","number of attorneys/ paralegals":0.0,"ngos serving facility":"No","id":"a6bgs092limo","geo_precision":"zip","detention center":"Allegheny County Jail","state":"Pennsylvania"},"type":"Feature","geometry":{"type":"Point","coordinates":[-80.017075,40.375351]}},{"properties":{"city":"Bedford","zip":"76021","geo_score":1.0,"average detainees per attorney":"n/a","detainees per day (snapshot)":11,"address 1":"2121 L. Don Dodson Dr.","number of attorneys/ paralegals":null,"ngos serving facility":"No","id":"a6bgs0bd4tkj","geo_precision":"zip","detention center":"Bedford City Jail","state":"Texas"},"type":"Feature","geometry":{"type":"Point","coordinates":[-97.136289,32.852546]}},{"properties":{"city":"Concord","zip":"28025","geo_score":0.948,"average detainees per attorney":"n/a","detainees per day (snapshot)":25,"address 1":"25 Corban Ave SE,","number of attorneys/ paralegals":null,"ngos serving facility":"No","id":"a6bgs0mma1o5","geo_precision":"zip","detention center":"Cabarrus County Jail","state":"North Carolina"},"type":"Feature","geometry":{"type":"Point","coordinates":[-80.595623,35.387919]}},{"properties":{"city":"Charleston","zip":"29405","geo_score":0.89,"average detainees per attorney":"n/a","detainees per day (snapshot)":29,"address 1":"3841 Leeds Avenue","number of attorneys/ paralegals":null,"ngos serving facility":"No","id":"a6bgs0i2lfnj","geo_precision":"zip","detention center":"Charleston County Detention Center","state":"South Carolina"},"type":"Feature","geometry":{"type":"Point","coordinates":[-79.987033,32.862397]}},{"properties":{"city":"Sault Ste Marie","zip":"49783","geo_score":0.901,"average detainees per attorney":"n/a","detainees per day (snapshot)":21,"address 1":"331 Court St.","number of attorneys/ paralegals":0.0,"ngos serving facility":"No","id":"a6bgs0gmdi8e","geo_precision":"zip","detention center":"Chippewa County Jail","state":"Michigan"},"type":"Feature","geometry":{"type":"Point","coordinates":[-84.321981,46.376131]}},{"properties":{"city":"McElhattan","zip":"17745","geo_score":0.857,"average detainees per attorney":"n/a","detainees per day (snapshot)":88,"address 1":"58 Pine Mountain Road","number of attorneys/ paralegals":null,"ngos serving facility":"No","id":"a6bgs0kqu27a","geo_precision":"zip","detention center":"Clinton County Jail","state":"Pennsylvania"},"type":"Feature","geometry":{"type":"Point","coordinates":[-77.433313,41.178125]}},{"properties":{"city":"Columbia","zip":"29203","geo_score":0.893,"average detainees per attorney":"n/a","detainees per day (snapshot)":23,"address 1":"7901 Farrow Road","number of attorneys/ paralegals":null,"ngos serving facility":"No","id":"a6bgs0futzuw","geo_precision":"zip","detention center":"Columbia Care Center","state":"South Carolina"},"type":"Feature","geometry":{"type":"Point","coordinates":[-80.9462,34.138207]}},{"properties":{"city":"Saint Helens","zip":"97051","geo_score":0.896,"average detainees per attorney":"n/a","detainees per day (snapshot)":33,"address 1":"901 Port Avenue","number of attorneys/ paralegals":null,"ngos serving facility":"No","id":"a6bgs0hjmiva","geo_precision":"zip","detention center":"Columbia County Community Corrections","state":"Oregon"},"type":"Feature","geometry":{"type":"Point","coordinates":[-122.886772,45.866781]}},{"properties":{"city":"Bloomsburg","zip":"17815","geo_score":0.901,"average detainees per attorney":"n/a","detainees per day (snapshot)":25,"address 1":"35 West Main Street","number of attorneys/ paralegals":null,"ngos serving facility":"No","id":"a6bgs0eeyajj","geo_precision":"zip","detention center":"Columbia County Jail","state":"Pennsylvania"},"type":"Feature","geometry":{"type":"Point","coordinates":[-76.316605,41.038419]}},{"properties":{"city":"Nashville","zip":"37211","geo_score":0.873,"average detainees per attorney":"n/a","detainees per day (snapshot)":12,"address 1":"5113 Harding Place","number of attorneys/ paralegals":null,"ngos serving facility":"No","id":"a6bgs0eqh87d","geo_precision":"zip","detention center":"Correctional Development Centers","state":"Tennessee"},"type":"Feature","geometry":{"type":"Point","coordinates":[-86.703609,36.012562]}},{"properties":{"city":"Hagatna","zip":null,"geo_score":0.857,"average detainees per attorney":"n/a","detainees per day (snapshot)":27,"address 1":"Ste. 502 Pacific News Bldg.","number of attorneys/ paralegals":null,"ngos serving facility":"No","id":"a6bgs0i0jfeo","geo_precision":"city","detention center":"Department of Corrections","state":"Guam"},"type":"Feature","geometry":{"type":"Point","coordinates":[144.747778,13.474167]}},{"properties":{"city":"El Centro","zip":"92243","geo_score":0.875,"average detainees per attorney":"n/a","detainees per day (snapshot)":454,"address 1":"1115 North Imperial Avenue","number of attorneys/ paralegals":null,"ngos serving facility":"No","id":"a6bgs0jicxua","geo_precision":"zip","detention center":"El Centro SPC","state":"California"},"type":"Feature","geometry":{"type":"Point","coordinates":[-115.44749,32.803108]}},{"properties":{"city":"Colorado Springs","zip":"80906","geo_score":0.876,"average detainees per attorney":"n/a","detainees per day (snapshot)":124,"address 1":"2739 East Las Vegas Street","number of attorneys/ paralegals":null,"ngos serving facility":"No","id":"a6bgs0g6inm4","geo_precision":"zip","detention center":"El Paso County Jail","state":"Colorado"},"type":"Feature","geometry":{"type":"Point","coordinates":[-104.81164,38.803326]}},{"properties":{"city":"Pauls Valley","zip":"73075","geo_score":0.857,"average detainees per attorney":"n/a","detainees per day (snapshot)":18,"address 1":"201 W Grant Ave.","number of attorneys/ paralegals":null,"ngos serving facility":"No","id":"a6bgs0eqfe0h","geo_precision":"zip","detention center":"Garvin County Detention Center","state":"Oklahoma"},"type":"Feature","geometry":{"type":"Point","coordinates":[-97.301969,34.763413]}},{"properties":{"city":"Hendersonville","zip":"28792","geo_score":1.0,"average detainees per attorney":"n/a","detainees per day (snapshot)":26,"address 1":"375 First Avenue East","number of attorneys/ paralegals":null,"ngos serving facility":"No","id":"a6bgs0a0cw7g","geo_precision":"zip","detention center":"Henderson County Jail","state":"North Carolina"},"type":"Feature","geometry":{"type":"Point","coordinates":[-82.450455,35.317413]}},{"properties":{"city":"Beaumont","zip":"77701","geo_score":1.0,"average detainees per attorney":"n/a","detainees per day (snapshot)":19,"address 1":"1001 Pearl Street","number of attorneys/ paralegals":null,"ngos serving facility":"No","id":"a6bgs0cbpa15","geo_precision":"zip","detention center":"Jefferson County Downtown Jail","state":"Texas"},"type":"Feature","geometry":{"type":"Point","coordinates":[-94.109705,30.073712]}},{"properties":{"city":"Conroe","zip":"77301","geo_score":0.857,"average detainees per attorney":"n/a","detainees per day (snapshot)":392,"address 1":"500 Hilbig Rd","number of attorneys/ paralegals":null,"ngos serving facility":"No","id":"a6bgs0exr0cp","geo_precision":"zip","detention center":"Joe Corley Detention Facility","state":"Texas"},"type":"Feature","geometry":{"type":"Point","coordinates":[-95.441606,30.178549]}},{"properties":{"city":"Newton","zip":"07860","geo_score":0.871,"average detainees per attorney":"n/a","detainees per day (snapshot)":28,"address 1":"41 High Street","number of attorneys/ paralegals":null,"ngos serving facility":"No","id":"a6bgs0funmir","geo_precision":"zip","detention center":"Keogh-Dwyer Correctional Facility","state":"New Jersey"},"type":"Feature","geometry":{"type":"Point","coordinates":[-74.769054,41.020375]}},{"properties":{"city":"Laredo","zip":"78041","geo_score":1.0,"average detainees per attorney":"n/a","detainees per day (snapshot)":266,"address 1":"4602 E. Saunders","number of attorneys/ paralegals":null,"ngos serving facility":"No","id":"a6bgs0dopffp","geo_precision":"zip","detention center":"Laredo Processing Center","state":"Texas"},"type":"Feature","geometry":{"type":"Point","coordinates":[-99.475079,27.556714]}},{"properties":{"city":"Charlotte","zip":"28269","geo_score":1.0,"average detainees per attorney":"n/a","detainees per day (snapshot)":24,"address 1":"5235 Spector Drive North","number of attorneys/ paralegals":null,"ngos serving facility":"No","id":"a6bgs0ds3loh","geo_precision":"zip","detention center":"Mecklenburg County Jail North","state":"North Carolina"},"type":"Feature","geometry":{"type":"Point","coordinates":[-80.798583,35.331981]}},{"properties":{"city":"North Las Vegas","zip":"89030","geo_score":1.0,"average detainees per attorney":"n/a","detainees per day (snapshot)":134,"address 1":"2332 Las Vegas Blvd North","number of attorneys/ paralegals":null,"ngos serving facility":"Yes","id":"a6bgs0m12s6l","geo_precision":"zip","detention center":"North Las Vegas Police Dept.","state":"Nevada"},"type":"Feature","geometry":{"type":"Point","coordinates":[-115.15431,36.225271]}},{"properties":{"city":"The Dalles","zip":"97058","geo_score":0.873,"average detainees per attorney":"n/a","detainees per day (snapshot)":14,"address 1":"201 Webber Road","number of attorneys/ paralegals":null,"ngos serving facility":"No","id":"a6bgs08146w7","geo_precision":"zip","detention center":"Northern Oregon Correctional Facility","state":"Oregon"},"type":"Feature","geometry":{"type":"Point","coordinates":[-121.268406,45.672343]}},{"properties":{"city":"New Orleans","zip":"70119","geo_score":1.0,"average detainees per attorney":"n/a","detainees per day (snapshot)":31,"address 1":"3000 Perdido St.","number of attorneys/ paralegals":null,"ngos serving facility":"No","id":"a6bgs0g55jyy","geo_precision":"zip","detention center":"Orleans Parish Prison","state":"Louisiana"},"type":"Feature","geometry":{"type":"Point","coordinates":[-90.08542,29.973053]}},{"properties":{"city":"Fairplay","zip":"80440","geo_score":0.873,"average detainees per attorney":"n/a","detainees per day (snapshot)":115,"address 1":"1180 County Road 16","number of attorneys/ paralegals":null,"ngos serving facility":"No","id":"a6bgs0fulqhd","geo_precision":"zip","detention center":"Park County Jail","state":"Colorado"},"type":"Feature","geometry":{"type":"Point","coordinates":[-105.60417,39.04777]}},{"properties":{"city":"Union Town","zip":"36786","geo_score":1.0,"average detainees per attorney":"n/a","detainees per day (snapshot)":227,"address 1":"Rt 2 Highway #80","number of attorneys/ paralegals":null,"ngos serving facility":"No","id":"a6bgs0ahsbhx","geo_precision":"zip","detention center":"Perry County Correctional Center","state":"Alabama"},"type":"Feature","geometry":{"type":"Point","coordinates":[-87.503256,32.446243]}},{"properties":{"city":"Holdrege","zip":"68949","geo_score":1.0,"average detainees per attorney":"n/a","detainees per day (snapshot)":48,"address 1":"715 Fifth Ave.","number of attorneys/ paralegals":null,"ngos serving facility":"No","id":"a6bgs088ayyx","geo_precision":"zip","detention center":"Phelps County Jail","state":"Nebraska"},"type":"Feature","geometry":{"type":"Point","coordinates":[-99.325955,40.429207]}},{"properties":{"city":"Plymouth","zip":"02360","geo_score":0.869,"average detainees per attorney":"n/a","detainees per day (snapshot)":315,"address 1":"26 Long Pond Road","number of attorneys/ paralegals":null,"ngos serving facility":"No","id":"a6bgs0b339y4","geo_precision":"zip","detention center":"Plymouth County Correctional Facility","state":"Massachusetts"},"type":"Feature","geometry":{"type":"Point","coordinates":[-70.628645,41.937604]}},{"properties":{"city":"Council Bluffs","zip":"51503","geo_score":1.0,"average detainees per attorney":"n/a","detainees per day (snapshot)":39,"address 1":"1400 Big Lake Road","number of attorneys/ paralegals":null,"ngos serving facility":"No","id":"a6bgs0dlt3e0","geo_precision":"zip","detention center":"Pottawatamie County Jail","state":"Iowa"},"type":"Feature","geometry":{"type":"Point","coordinates":[-95.711085,41.286046]}},{"properties":{"city":"Hopewell","zip":"23860","geo_score":0.875,"average detainees per attorney":"n/a","detainees per day (snapshot)":38,"address 1":"1000 River Road","number of attorneys/ paralegals":null,"ngos serving facility":"No","id":"a6bgs0n7p5b5","geo_precision":"zip","detention center":"Riverside Regional Jail","state":"Virginia"},"type":"Feature","geometry":{"type":"Point","coordinates":[-77.315257,37.280705]}},{"properties":{"city":"Port Huron","zip":"48060","geo_score":0.873,"average detainees per attorney":"n/a","detainees per day (snapshot)":24,"address 1":"1170 Michigan Rd.","number of attorneys/ paralegals":null,"ngos serving facility":"No","id":"a6bgs0cgnarc","geo_precision":"zip","detention center":"St. Clair County Jail","state":"Michigan"},"type":"Feature","geometry":{"type":"Point","coordinates":[-82.538531,42.987251]}},{"properties":{"city":"Dover","zip":"03820","geo_score":0.755,"average detainees per attorney":"n/a","detainees per day (snapshot)":22,"address 1":"266 County Farm Road","number of attorneys/ paralegals":null,"ngos serving facility":"No","id":"a6bgs0l31xko","geo_precision":"zip","detention center":"Strafford County Department of Corrections","state":"New Hampshire"},"type":"Feature","geometry":{"type":"Point","coordinates":[-70.889225,43.180918]}},{"properties":{"city":"Divide","zip":"80814","geo_score":1.0,"average detainees per attorney":"n/a","detainees per day (snapshot)":34,"address 1":"288 County Rd 29","number of attorneys/ paralegals":null,"ngos serving facility":"No","id":"a6bgs0965wuo","geo_precision":"zip","detention center":"Teller County Jail","state":"Colorado"},"type":"Feature","geometry":{"type":"Point","coordinates":[-105.185653,38.923901]}},{"properties":{"city":"Estancia","zip":"87016","geo_score":1.0,"average detainees per attorney":"n/a","detainees per day (snapshot)":27,"address 1":"County Road 49","number of attorneys/ paralegals":null,"ngos serving facility":"No","id":"a6bgs0bv1gwe","geo_precision":"zip","detention center":"Torrance County Detention Facility","state":"New Mexico"},"type":"Feature","geometry":{"type":"Point","coordinates":[-106.16066,34.752146]}},{"properties":{"city":"Tulsa","zip":"74103","geo_score":1.0,"average detainees per attorney":"n/a","detainees per day (snapshot)":156,"address 1":"300 N. Denver Ave.","number of attorneys/ paralegals":null,"ngos serving facility":"No","id":"a6bgs0jr6uy2","geo_precision":"zip","detention center":"Tulsa County Jail","state":"Oklahoma"},"type":"Feature","geometry":{"type":"Point","coordinates":[-95.994424,36.155392]}},{"properties":{"city":"Spanish Fork","zip":"84660","geo_score":0.896,"average detainees per attorney":"n/a","detainees per day (snapshot)":86,"address 1":"3075 N Main St","number of attorneys/ paralegals":null,"ngos serving facility":"No","id":"a6bgs0bj8slo","geo_precision":"zip","detention center":"Utah County Jail","state":"Utah"},"type":"Feature","geometry":{"type":"Point","coordinates":[-111.698815,40.140232]}},{"properties":{"city":"Hurricane","zip":"84737","geo_score":1.0,"average detainees per attorney":"n/a","detainees per day (snapshot)":19,"address 1":"750 South 5300 West","number of attorneys/ paralegals":null,"ngos serving facility":"No","id":"a6bgs0fzzy0u","geo_precision":"zip","detention center":"Washington County Jail","state":"Utah"},"type":"Feature","geometry":{"type":"Point","coordinates":[-113.367458,37.145366]}},{"properties":{"city":"Laredo","zip":"78046","geo_score":1.0,"average detainees per attorney":"n/a","detainees per day (snapshot)":null,"address 1":"9998 South Highway 83","number of attorneys/ paralegals":null,"ngos serving facility":"No","id":"a6bgs0h9jspw","geo_precision":"zip","detention center":"Webb County Detention Center","state":"Texas"},"type":"Feature","geometry":{"type":"Point","coordinates":[-99.474294,27.404679]}},{"properties":{"city":"Ogden","zip":"84404","geo_score":0.886,"average detainees per attorney":"n/a","detainees per day (snapshot)":79,"address 1":"721 12th Street","number of attorneys/ paralegals":null,"ngos serving facility":"No","id":"a6bgs0euft16","geo_precision":"zip","detention center":"Weber County Jail","state":"Utah"},"type":"Feature","geometry":{"type":"Point","coordinates":[-112.152441,41.250222]}},{"properties":{"city":"Yakima","zip":"98901","geo_score":0.889,"average detainees per attorney":"n/a","detainees per day (snapshot)":38,"address 1":"111 N Front Street","number of attorneys/ paralegals":null,"ngos serving facility":"No","id":"a6bgs0lrc2zf","geo_precision":"zip","detention center":"Yakima County Jail","state":"Washington"},"type":"Feature","geometry":{"type":"Point","coordinates":[-120.487843,46.664571]}}],"is_temporal":false,"author":{"url":"","metadata":"","contact_name":"","contact_address":"","source":"","contact_phone":""},"source":"","pagination":{"sort":null,"start":0,"total":42,"limit":1000000},"state":"complete","tags":"","published":"2010-08-06T19:00:41Z","id":60544}