{"type":"FeatureCollection","data_type":"Dataset","url_type":null,"permissions":[{"permissions":{"download":true,"view":true},"group_id":"everyone"}],"classification":null,"title":"Average Daily Mobile Scans (top 20 cities)","count":20,"stream_id":60561,"contributor":{"url":"http://geocommons.com/users/15157","name":"azubair"},"data_attributes":null,"calculation_params":null,"icon_link":null,"link":"http://geocommons.com/overlays/60561.json","extent":[-157.858,21.3069,-74.006,61.2181],"geometry_types":["point"],"unique_name":null,"name":"Average Daily Mobile Scans (top 20 cities)","feature_count":20,"description":"","next_feature":null,"is_raster":false,"short_classification":"Y","stats":{"mobile scans (daily average)":{"max":8927,"mean":3553.55,"variance":2417042.68157895,"stdev":1554.68410990109,"min":2055,"median":3342},"geo_score":{"max":0.714,"mean":0.7037,"variance":0.0010118,"stdev":0.0318088038127812,"min":0.603,"median":0.714},"scan count":{"max":160692,"mean":63963.15,"variance":783202287.292105,"stdev":27985.7515048659,"min":36996,"median":60160}},"features":[{"properties":{"city":"Anchorage","mobile scans (daily average)":2301,"geo_score":0.714,"scan count":41422,"id":"a65kc15sdrxk","geo_precision":"city","state":"AK"},"type":"Feature","geometry":{"type":"Point","coordinates":[-149.900278,61.218056]}},{"properties":{"city":"Atlanta","mobile scans (daily average)":2774,"geo_score":0.714,"scan count":49923,"id":"a65kc0xwmhq8","geo_precision":"city","state":"GA"},"type":"Feature","geometry":{"type":"Point","coordinates":[-84.387982,33.748995]}},{"properties":{"city":"Austin","mobile scans (daily average)":8927,"geo_score":0.714,"scan count":160692,"id":"a65kc0xflaey","geo_precision":"city","state":"TX"},"type":"Feature","geometry":{"type":"Point","coordinates":[-97.743061,30.267153]}},{"properties":{"city":"Brooklyn","mobile scans (daily average)":2237,"geo_score":0.714,"scan count":40270,"id":"a65kc0z6c1gx","geo_precision":"city","state":"NY"},"type":"Feature","geometry":{"type":"Point","coordinates":[-86.615271,34.22593]}},{"properties":{"city":"Chicago","mobile scans (daily average)":3561,"geo_score":0.714,"scan count":64101,"id":"a65kc0vt5ncb","geo_precision":"city","state":"IL"},"type":"Feature","geometry":{"type":"Point","coordinates":[-87.650052,41.850033]}},{"properties":{"city":"Dallas","mobile scans (daily average)":2114,"geo_score":0.619,"scan count":38043,"id":"a65kc0ums63y","geo_precision":"city","state":"TX"},"type":"Feature","geometry":{"type":"Point","coordinates":[-95.992775,36.153982]}},{"properties":{"city":"Fort Worth","mobile scans (daily average)":2255,"geo_score":0.603,"scan count":40586,"id":"a65kc0yzaox1","geo_precision":"city","state":"TX"},"type":"Feature","geometry":{"type":"Point","coordinates":[-91.954583,34.458984]}},{"properties":{"city":"Honolulu","mobile scans (daily average)":2055,"geo_score":0.714,"scan count":36996,"id":"a65kc14whth6","geo_precision":"city","state":"HI"},"type":"Feature","geometry":{"type":"Point","coordinates":[-157.858333,21.306944]}},{"properties":{"city":"Houston","mobile scans (daily average)":3427,"geo_score":0.714,"scan count":61694,"id":"a65kc147v0o2","geo_precision":"city","state":"TX"},"type":"Feature","geometry":{"type":"Point","coordinates":[-82.902629,30.256893]}},{"properties":{"city":"Las Vegas","mobile scans (daily average)":4601,"geo_score":0.714,"scan count":82813,"id":"a65kc12i8das","geo_precision":"city","state":"NV"},"type":"Feature","geometry":{"type":"Point","coordinates":[-115.137223,36.174971]}},{"properties":{"city":"Longmont","mobile scans (daily average)":4456,"geo_score":0.714,"scan count":80203,"id":"a65kc136umvl","geo_precision":"city","state":"CO"},"type":"Feature","geometry":{"type":"Point","coordinates":[-105.1633,40.165634]}},{"properties":{"city":"Los Angeles","mobile scans (daily average)":3200,"geo_score":0.714,"scan count":57600,"id":"a65kc0u2mt40","geo_precision":"city","state":"CA"},"type":"Feature","geometry":{"type":"Point","coordinates":[-118.243685,34.052234]}},{"properties":{"city":"Miami","mobile scans (daily average)":4720,"geo_score":0.714,"scan count":84968,"id":"a65kc0rtqkek","geo_precision":"city","state":"FL"},"type":"Feature","geometry":{"type":"Point","coordinates":[-80.193659,25.774266]}},{"properties":{"city":"New York","mobile scans (daily average)":4174,"geo_score":0.714,"scan count":75133,"id":"a65kc0xmvhw9","geo_precision":"city","state":"NY"},"type":"Feature","geometry":{"type":"Point","coordinates":[-74.005973,40.714269]}},{"properties":{"city":"Orlando","mobile scans (daily average)":3342,"geo_score":0.714,"scan count":60160,"id":"a65kc0yjocmv","geo_precision":"city","state":"FL"},"type":"Feature","geometry":{"type":"Point","coordinates":[-81.379237,28.538336]}},{"properties":{"city":"Plano","mobile scans (daily average)":2927,"geo_score":0.714,"scan count":52687,"id":"a65kc0x5pya9","geo_precision":"city","state":"TX"},"type":"Feature","geometry":{"type":"Point","coordinates":[-96.698886,33.019843]}},{"properties":{"city":"San Antonio","mobile scans (daily average)":4211,"geo_score":0.714,"scan count":75793,"id":"a65kc0z46i61","geo_precision":"city","state":"TX"},"type":"Feature","geometry":{"type":"Point","coordinates":[-98.493628,29.424122]}},{"properties":{"city":"San Diego","mobile scans (daily average)":4461,"geo_score":0.714,"scan count":80292,"id":"a65kc0xc8bjb","geo_precision":"city","state":"CA"},"type":"Feature","geometry":{"type":"Point","coordinates":[-117.157255,32.715329]}},{"properties":{"city":"San Francisco","mobile scans (daily average)":2488,"geo_score":0.714,"scan count":44775,"id":"a65kc12un4p4","geo_precision":"city","state":"CA"},"type":"Feature","geometry":{"type":"Point","coordinates":[-122.419416,37.77493]}},{"properties":{"city":"San Jose","mobile scans (daily average)":2840,"geo_score":0.714,"scan count":51112,"id":"a65kc13tut86","geo_precision":"city","state":"CA"},"type":"Feature","geometry":{"type":"Point","coordinates":[-121.894956,37.339386]}}],"is_temporal":false,"author":{"url":"","metadata":"","contact_name":"","contact_address":"","source":"","contact_phone":""},"source":"","pagination":{"sort":null,"start":0,"total":20,"limit":1000000},"state":"complete","tags":"","published":"2014-08-10T12:15:02-04:00","id":60561}