{"type":"FeatureCollection","data_type":"Dataset","url_type":null,"permissions":[{"permissions":{"download":true,"view":true},"group_id":"everyone"}],"classification":null,"title":"Winning Candidates -- Wellstone Action, United States, 2006","count":86,"stream_id":6057,"contributor":{"url":"http://geocommons.com/users/2423","name":"wellstoneaction"},"data_attributes":null,"calculation_params":null,"icon_link":null,"link":"http://geocommons.com/overlays/6057.json","extent":[-122.693,27.9804,-70.7499,48.2399],"geometry_types":["point"],"unique_name":null,"name":"Winning Candidates -- Wellstone Action, United States, 2006","feature_count":86,"description":"","next_feature":null,"is_raster":false,"short_classification":"Y","stats":{"lat":{"max":48.239865,"mean":43.5017919186046,"variance":16.3518125585116,"stdev":4.04373744925553,"min":27.98044,"median":44.76562},"long":{"max":-70.749885,"mean":-95.2452955348838,"variance":163.321026894406,"stdev":12.7797115340843,"min":-122.692899,"median":-93.193119}},"features":[{"properties":{"city":"Tempe","incumbent":"","first time candidate":"","elected office":"State House","id":"a62tzxro7gni","b name":"Ableser","date of election":"11/7/2006","lat":33.392935,"a name":"Edward","state":"AZ","long":-111.929009},"type":"Feature","geometry":{"type":"Point","coordinates":[-111.929009,33.392935]}},{"properties":{"city":"Tucson","incumbent":"","first time candidate":"","elected office":"State Senate","id":"a62tzxucb8s5","b name":"Aboud","date of election":"11/7/2006","lat":32.243705,"a name":"Paula A","state":"AZ","long":-110.949029},"type":"Feature","geometry":{"type":"Point","coordinates":[-110.949029,32.243705]}},{"properties":{"city":"Baltimore","incumbent":"","first time candidate":"","elected office":"State House","id":"a62tzxxf52um","b name":"Baisden","date of election":"11/7/2006","lat":39.3785,"a name":"Ms. Ruth E.","state":"MD","long":-76.538819},"type":"Feature","geometry":{"type":"Point","coordinates":[-76.538819,39.3785]}},{"properties":{"city":"Minnetonka","incumbent":"","first time candidate":"","elected office":"State House","id":"a62tzxos1n2v","b name":"Benson","date of election":"11/7/2006","lat":44.945,"a name":"Mr. John   Benson Ms. Kate","state":"MN","long":-93.418904},"type":"Feature","geometry":{"type":"Point","coordinates":[-93.418904,44.945]}},{"properties":{"city":"Rochester","incumbent":"","first time candidate":"","elected office":"City Council","id":"a62tzxs766pl","b name":"Blenker","date of election":"11/7/2006","lat":44.01925,"a name":"Ms. Amy","state":"MN","long":-92.459779},"type":"Feature","geometry":{"type":"Point","coordinates":[-92.459779,44.01925]}},{"properties":{"city":"Northfield","incumbent":"","first time candidate":"","elected office":"State House","id":"a62tzxplzgpj","b name":"Bly","date of election":"11/7/2006","lat":44.4496,"a name":"Mr. David","state":"MN","long":-93.153759},"type":"Feature","geometry":{"type":"Point","coordinates":[-93.153759,44.4496]}},{"properties":{"city":"Reno","incumbent":"","first time candidate":"","elected office":"State House","id":"a62tzxkun9na","b name":"Bobzien","date of election":"11/7/2006","lat":39.53725,"a name":"David P","state":"NV","long":-119.838747},"type":"Feature","geometry":{"type":"Point","coordinates":[-119.838747,39.53725]}},{"properties":{"city":"Grays Lake","incumbent":"","first time candidate":"","elected office":"State Senate","id":"a62tzxndlt8g","b name":"Bond","date of election":"11/7/2006","lat":42.344825,"a name":"Michael","state":"IL","long":-88.070949},"type":"Feature","geometry":{"type":"Point","coordinates":[-88.070949,42.344825]}},{"properties":{"city":"Kittery","incumbent":"","first time candidate":"Yes","elected office":"State Senate","id":"a62tzxwfnqkf","b name":"Bowman","date of election":"11/7/2006","lat":43.086874,"a name":"Peter B","state":"ME","long":-70.749885},"type":"Feature","geometry":{"type":"Point","coordinates":[-70.749885,43.086874]}},{"properties":{"city":"Silverdale","incumbent":"","first time candidate":"Yes","elected office":"County Board","id":"a62tzxxyigo7","b name":"Brown","date of election":"11/7/2006","lat":47.65158,"a name":"Joshua W","state":"WA","long":-122.692899},"type":"Feature","geometry":{"type":"Point","coordinates":[-122.692899,47.65158]}},{"properties":{"city":"Austin","incumbent":"","first time candidate":"","elected office":"State House","id":"a62tzxl1kg48","b name":"Brown","date of election":"11/7/2006","lat":43.66659,"a name":"Robin K","state":"MN","long":-92.972333},"type":"Feature","geometry":{"type":"Point","coordinates":[-92.972333,43.66659]}},{"properties":{"city":"Eagan","incumbent":"","first time candidate":"","elected office":"State Senate","id":"a62tzxuscj1o","b name":"Carlson","date of election":"11/7/2006","lat":44.80459,"a name":"James","state":"MN","long":-93.136569},"type":"Feature","geometry":{"type":"Point","coordinates":[-93.136569,44.80459]}},{"properties":{"city":"Boise","incumbent":"","first time candidate":"","elected office":"State House","id":"a62tzxqgtpwm","b name":"Chew","date of election":"11/7/2006","lat":43.58208,"a name":"Sue B","state":"ID","long":-116.191039},"type":"Feature","geometry":{"type":"Point","coordinates":[-116.191039,43.58208]}},{"properties":{"city":"White Salmon","incumbent":"","first time candidate":"","elected office":"County Board","id":"a62tzxsi6961","b name":"Connolly","date of election":"11/7/2006","lat":45.727768,"a name":"Chris D","state":"WA","long":-121.487404},"type":"Feature","geometry":{"type":"Point","coordinates":[-121.487404,45.727768]}},{"properties":{"city":"Camano Island","incumbent":"","first time candidate":"Yes","elected office":"County Board","id":"a62tzxqv8fj1","b name":"Dean","date of election":"11/7/2006","lat":48.239865,"a name":"John G   Dean Julie A","state":"WA","long":-122.400584},"type":"Feature","geometry":{"type":"Point","coordinates":[-122.400584,48.239865]}},{"properties":{"city":"Barrington","incumbent":"","first time candidate":"","elected office":"State House","id":"a62tzxx96gwc","b name":"Dechane","date of election":"11/7/2006","lat":43.219952,"a name":"Marlene","state":"NH","long":-71.037697},"type":"Feature","geometry":{"type":"Point","coordinates":[-71.037697,43.219952]}},{"properties":{"city":"Burnsville","incumbent":"","first time candidate":"","elected office":"State Senate","id":"a62tzxpa55ch","b name":"Doll","date of election":"11/7/2006","lat":44.76562,"a name":"John P","state":"MN","long":-93.27419},"type":"Feature","geometry":{"type":"Point","coordinates":[-93.27419,44.76562]}},{"properties":{"city":"Grant","incumbent":"","first time candidate":"","elected office":"School Board","id":"a62tzy0a9d3c","b name":"Donovan","date of election":"11/7/2006","lat":45.082699,"a name":"Kevin P","state":"MN","long":-93.012316},"type":"Feature","geometry":{"type":"Point","coordinates":[-93.012316,45.082699]}},{"properties":{"city":"Tucson","incumbent":"","first time candidate":"","elected office":"State House","id":"a62tzxw4mu0s","b name":"Farley","date of election":"11/7/2006","lat":32.2437,"a name":"Steve","state":"AZ","long":-110.924669},"type":"Feature","geometry":{"type":"Point","coordinates":[-110.924669,32.2437]}},{"properties":{"city":"Mora","incumbent":"","first time candidate":"","elected office":"State House","id":"a62tzxo4hw4a","b name":"Faust","date of election":"11/7/2006","lat":45.875545,"a name":"Tim D","state":"MN","long":-93.296254},"type":"Feature","geometry":{"type":"Point","coordinates":[-93.296254,45.875545]}},{"properties":{"city":"Fort Collins","incumbent":"","first time candidate":"","elected office":"State House","id":"a62tzxsuzkb6","b name":"Fischer","date of election":"11/7/2006","lat":40.53854,"a name":"Randy","state":"CO","long":-105.110369},"type":"Feature","geometry":{"type":"Point","coordinates":[-105.110369,40.53854]}},{"properties":{"city":"Duluth","incumbent":"","first time candidate":"Yes","elected office":"County Attorney","id":"a62tzxyrqs78","b name":"Ford","date of election":"11/7/2006","lat":46.861497,"a name":"Melanie  S","state":"MN","long":-91.997583},"type":"Feature","geometry":{"type":"Point","coordinates":[-91.997583,46.861497]}},{"properties":{"city":"Faribault","incumbent":"","first time candidate":"","elected office":"State House","id":"a62tzxzsc77u","b name":"Fritz","date of election":"11/7/2006","lat":44.294696,"a name":"Rep. Patti   Fritz Jim","state":"MN","long":-93.275384},"type":"Feature","geometry":{"type":"Point","coordinates":[-93.275384,44.294696]}},{"properties":{"city":"Shoreview","incumbent":"","first time candidate":"","elected office":"State House","id":"a62tzxnrzgtc","b name":"Gardner","date of election":"11/7/2006","lat":45.081135,"a name":"Paul D","state":"MN","long":-93.135094},"type":"Feature","geometry":{"type":"Point","coordinates":[-93.135094,45.081135]}},{"properties":{"city":"Dover Plains","incumbent":"","first time candidate":"","elected office":"United States Congress","id":"a62tzxxmow4x","b name":"Hall","date of election":"11/7/2006","lat":41.738649,"a name":"John J","state":"NY","long":-73.579824},"type":"Feature","geometry":{"type":"Point","coordinates":[-73.579824,41.738649]}},{"properties":{"city":"Littleton","incumbent":"","first time candidate":"Yes","elected office":"County Board","id":"a62tzxld7ahl","b name":"Hartman","date of election":"11/7/2006","lat":39.58603,"a name":"Kathy","state":"CO","long":-105.128999},"type":"Feature","geometry":{"type":"Point","coordinates":[-105.128999,39.58603]}},{"properties":{"city":"Nashua","incumbent":"","first time candidate":"","elected office":"State House","id":"a62tzxzek9ht","b name":"Harvey","date of election":"11/7/2006","lat":42.75835,"a name":"Suzanne","state":"NH","long":-71.464233},"type":"Feature","geometry":{"type":"Point","coordinates":[-71.464233,42.75835]}},{"properties":{"city":"Dodgeville","incumbent":"","first time candidate":"","elected office":"State House","id":"a62tzxlicpco","b name":"Hilgenberg","date of election":"11/7/2006","lat":42.9605,"a name":"Mr. Steve J.","state":"WI","long":-90.130385},"type":"Feature","geometry":{"type":"Point","coordinates":[-90.130385,42.9605]}},{"properties":{"city":"Oshkosh","incumbent":"Yes","first time candidate":"","elected office":"State House","id":"a62tzxqdhcz7","b name":"Hintz","date of election":"11/7/2006","lat":44.02491,"a name":"Gordon N","state":"WI","long":-88.544434},"type":"Feature","geometry":{"type":"Point","coordinates":[-88.544434,44.02491]}},{"properties":{"city":"Brooklyn Park","incumbent":"","first time candidate":"","elected office":"State House","id":"a62tzy0y5fzv","b name":"Hortman","date of election":"11/7/2006","lat":45.10889,"a name":"Ms. Melissa A   Hortman Mr. Mark","state":"MN","long":-93.348574},"type":"Feature","geometry":{"type":"Point","coordinates":[-93.348574,45.10889]}},{"properties":{"city":"Silver Spring","incumbent":"","first time candidate":"","elected office":"State House","id":"a62tzxzd17m3","b name":"Hucker","date of election":"11/7/2006","lat":38.99668,"a name":"Tom","state":"MD","long":-77.028874},"type":"Feature","geometry":{"type":"Point","coordinates":[-77.028874,38.99668]}},{"properties":{"city":"North Branch","incumbent":"","first time candidate":"","elected office":"State House","id":"a62tzxr8207h","b name":"Kalin","date of election":"11/7/2006","lat":45.511434,"a name":"Jeremy N","state":"MN","long":-92.979374},"type":"Feature","geometry":{"type":"Point","coordinates":[-92.979374,45.511434]}},{"properties":{"city":"Detroit","incumbent":"","first time candidate":"","elected office":"County Board","id":"a62tzxlyqrpe","b name":"Killeen","date of election":"11/7/2006","lat":42.43457,"a name":"Timothy","state":"MI","long":-82.980254},"type":"Feature","geometry":{"type":"Point","coordinates":[-82.980254,42.43457]}},{"properties":{"city":"Boise","incumbent":"","first time candidate":"","elected office":"State House","id":"a62tzxrrcn1e","b name":"Killen","date of election":"11/7/2006","lat":43.58439,"a name":"William M","state":"ID","long":-116.226049},"type":"Feature","geometry":{"type":"Point","coordinates":[-116.226049,43.58439]}},{"properties":{"city":"Greenbank","incumbent":"","first time candidate":"Yes","elected office":"State House","id":"a62tzxqb09a1","b name":"Knue","date of election":"11/7/2006","lat":48.088449,"a name":"Tim","state":"WA","long":-122.568204},"type":"Feature","geometry":{"type":"Point","coordinates":[-122.568204,48.088449]}},{"properties":{"city":"New Brighton","incumbent":"","first time candidate":"","elected office":"State House","id":"a62tzxpinyxs","b name":"Knuth","date of election":"11/7/2006","lat":45.06324,"a name":"Kate A","state":"MN","long":-93.193119},"type":"Feature","geometry":{"type":"Point","coordinates":[-93.193119,45.06324]}},{"properties":{"city":"Chippewa Falls","incumbent":"","first time candidate":"","elected office":"State Senate","id":"a62tzxzm63jr","b name":"Kreitlow","date of election":"11/7/2006","lat":44.937469,"a name":"Patrick J","state":"WI","long":-91.392513},"type":"Feature","geometry":{"type":"Point","coordinates":[-91.392513,44.937469]}},{"properties":{"city":"Eveleth","incumbent":"","first time candidate":"","elected office":"City Council","id":"a62tzxn1mvnk","b name":"Kuoppala","date of election":"11/7/2006","lat":47.460579,"a name":"Ms. Liz","state":"MN","long":-92.535364},"type":"Feature","geometry":{"type":"Point","coordinates":[-92.535364,47.460579]}},{"properties":{"city":"Columbia Heights","incumbent":"","first time candidate":"","elected office":"State House","id":"a62tzxrrgcwq","b name":"Laine","date of election":"11/7/2006","lat":45.04096,"a name":"Carolyn","state":"MN","long":-93.256969},"type":"Feature","geometry":{"type":"Point","coordinates":[-93.256969,45.04096]}},{"properties":{"city":"Rochester","incumbent":"","first time candidate":"","elected office":"State House","id":"a62tzxurswz2","b name":"Liebling","date of election":"11/7/2006","lat":43.993458,"a name":"Ms. Tina","state":"MN","long":-92.491449},"type":"Feature","geometry":{"type":"Point","coordinates":[-92.491449,43.993458]}},{"properties":{"city":"Mount Vernon","incumbent":"","first time candidate":"","elected office":"United States Congress","id":"a62tzxmwg4wq","b name":"Loebsack","date of election":"11/7/2006","lat":41.92254,"a name":"Mr. David","state":"IA","long":-91.417539},"type":"Feature","geometry":{"type":"Point","coordinates":[-91.417539,41.92254]}},{"properties":{"city":"Minneapolis","incumbent":"","first time candidate":"","elected office":"State House","id":"a62tzxpopcol","b name":"Loeffler","date of election":"11/7/2006","lat":45.028665,"a name":"Ms. Diane","state":"MN","long":-93.21812},"type":"Feature","geometry":{"type":"Point","coordinates":[-93.21812,45.028665]}},{"properties":{"city":"Rochester","incumbent":"","first time candidate":"","elected office":"State Senate","id":"a62tzxx9y5rb","b name":"Lynch","date of election":"11/7/2006","lat":43.993458,"a name":"Ann","state":"MN","long":-92.491449},"type":"Feature","geometry":{"type":"Point","coordinates":[-92.491449,43.993458]}},{"properties":{"city":"Minneapolis","incumbent":"","first time candidate":"","elected office":"School Board","id":"a62tzxzzqrd3","b name":"Madden","date of election":"11/7/2006","lat":44.969532,"a name":"Tom","state":"MN","long":-93.30154},"type":"Feature","geometry":{"type":"Point","coordinates":[-93.30154,44.969532]}},{"properties":{"city":"Apple Valley","incumbent":"","first time candidate":"","elected office":"State House","id":"a62tzxnx782a","b name":"Madore","date of election":"11/7/2006","lat":44.74275,"a name":"Shelley J","state":"MN","long":-93.217579},"type":"Feature","geometry":{"type":"Point","coordinates":[-93.217579,44.74275]}},{"properties":{"city":"Freeland","incumbent":"","first time candidate":"Yes","elected office":"County AState SenateeState Senateor","id":"a62tzy0b5wi2","b name":"Mattens","date of election":"11/7/2006","lat":48.00955,"a name":"David","state":"WA","long":-122.526349},"type":"Feature","geometry":{"type":"Point","coordinates":[-122.526349,48.00955]}},{"properties":{"city":"Centennial","incumbent":"","first time candidate":"","elected office":"Treasurer","id":"a62tzxp1zsg3","b name":"Milliken","date of election":"11/7/2006","lat":39.62298,"a name":"Doug","state":"CO","long":-104.775679},"type":"Feature","geometry":{"type":"Point","coordinates":[-104.775679,39.62298]}},{"properties":{"city":"Bemidji","incumbent":"","first time candidate":"","elected office":"State House","id":"a62tzxw3zlxl","b name":"Moe","date of election":"11/7/2006","lat":47.473145,"a name":"Frank","state":"MN","long":-94.879649},"type":"Feature","geometry":{"type":"Point","coordinates":[-94.879649,47.473145]}},{"properties":{"city":"Titlon","incumbent":"","first time candidate":"","elected office":"State House","id":"a62tzxlyt9bo","b name":"Morrison","date of election":"11/7/2006","lat":44.001301,"a name":"Gail","state":"NH","long":-71.632828},"type":"Feature","geometry":{"type":"Point","coordinates":[-71.632828,44.001301]}},{"properties":{"city":"Saint Peter","incumbent":"","first time candidate":"","elected office":"State House","id":"a62tzxvfez9j","b name":"Morrow","date of election":"11/7/2006","lat":44.326765,"a name":"Terence S","state":"MN","long":-93.957754},"type":"Feature","geometry":{"type":"Point","coordinates":[-93.957754,44.326765]}},{"properties":{"city":"Saint Paul","incumbent":"","first time candidate":"Yes","elected office":"State House","id":"a62tzy106p1w","b name":"Murphy","date of election":"11/7/2006","lat":44.982495,"a name":"Erin P   Eisenshenk Kelli","state":"MN","long":-93.176209},"type":"Feature","geometry":{"type":"Point","coordinates":[-93.176209,44.982495]}},{"properties":{"city":"Candia","incumbent":"","first time candidate":"","elected office":"State House","id":"a62tzxujnlmu","b name":"Nord","date of election":"11/7/2006","lat":43.06319,"a name":"Susi","state":"NH","long":-71.300262},"type":"Feature","geometry":{"type":"Point","coordinates":[-71.300262,43.06319]}},{"properties":{"city":"Rochester","incumbent":"","first time candidate":"","elected office":"State House","id":"a62tzxti1nt6","b name":"Norton","date of election":"11/7/2006","lat":44.059647,"a name":"Kim","state":"MN","long":-92.49952},"type":"Feature","geometry":{"type":"Point","coordinates":[-92.49952,44.059647]}},{"properties":{"city":"Kirkland","incumbent":"","first time candidate":"","elected office":"State Senate","id":"a62tzxx1t4gi","b name":"Oemig","date of election":"11/7/2006","lat":47.678855,"a name":"Eric W   Oemig Mary E","state":"WA","long":-122.207244},"type":"Feature","geometry":{"type":"Point","coordinates":[-122.207244,47.678855]}},{"properties":{"city":"Bemidji","incumbent":"","first time candidate":"","elected office":"State Senate","id":"a62tzxleagpx","b name":"Olson","date of election":"11/7/2006","lat":47.473145,"a name":"Mary A","state":"MN","long":-94.879649},"type":"Feature","geometry":{"type":"Point","coordinates":[-94.879649,47.473145]}},{"properties":{"city":"Spokane","incumbent":"","first time candidate":"","elected office":"State House","id":"a62tzxr8grr9","b name":"Ormsby","date of election":"11/7/2006","lat":47.656245,"a name":"Tim","state":"WA","long":-117.380449},"type":"Feature","geometry":{"type":"Point","coordinates":[-117.380449,47.656245]}},{"properties":{"city":"Marine on St. Croix","incumbent":"","first time candidate":"","elected office":"State Auditor","id":"a62tzxnr54jy","b name":"Otto","date of election":"11/7/2006","lat":45.198435,"a name":"Ms. Rebecca M","state":"MN","long":-92.770584},"type":"Feature","geometry":{"type":"Point","coordinates":[-92.770584,45.198435]}},{"properties":{"city":"Fargo","incumbent":"","first time candidate":"","elected office":"State Senate","id":"a62tzy1b0xqj","b name":"Pomeroy","date of election":"11/7/2006","lat":46.856133,"a name":"James   Pomeroy Mavis","state":"ND","long":-96.818729},"type":"Feature","geometry":{"type":"Point","coordinates":[-96.818729,46.856133]}},{"properties":{"city":"Orlando","incumbent":"","first time candidate":"","elected office":"State House","id":"a62tzxnjlj2e","b name":"Randolph","date of election":"11/7/2006","lat":28.555736,"a name":"Scott","state":"FL","long":-81.351049},"type":"Feature","geometry":{"type":"Point","coordinates":[-81.351049,28.555736]}},{"properties":{"city":"Winter Haven","incumbent":"","first time candidate":"","elected office":"County Board","id":"a62tzxrtr8ha","b name":"Reed","date of election":"11/7/2006","lat":27.98044,"a name":"Jean","state":"FL","long":-81.675439},"type":"Feature","geometry":{"type":"Point","coordinates":[-81.675439,27.98044]}},{"properties":{"city":"Minneapolis","incumbent":"","first time candidate":"Yes","elected office":"Sec. of State","id":"a62tzxm3915y","b name":"Ritchie","date of election":"11/7/2006","lat":44.94566,"a name":"Mark   Gaschott Nancy","state":"MN","long":-93.288124},"type":"Feature","geometry":{"type":"Point","coordinates":[-93.288124,44.94566]}},{"properties":{"city":"White Bear Lake","incumbent":"","first time candidate":"","elected office":"State Senate","id":"a62tzxpevhk7","b name":"Rummel","date of election":"11/7/2006","lat":45.082699,"a name":"Ms. Sandy   Rummel Mr. Jim","state":"MN","long":-93.012316},"type":"Feature","geometry":{"type":"Point","coordinates":[-93.012316,45.082699]}},{"properties":{"city":"Minnetonka","incumbent":"Yes","first time candidate":"","elected office":"State House","id":"a62tzxqkumci","b name":"Ruud","date of election":"11/7/2006","lat":44.92241,"a name":"Maria N","state":"MN","long":-93.413474},"type":"Feature","geometry":{"type":"Point","coordinates":[-93.413474,44.92241]}},{"properties":{"city":"Park Rapids","incumbent":"Yes","first time candidate":"","elected office":"State House","id":"a62tzxtmm7vb","b name":"Sailer","date of election":"11/7/2006","lat":46.922144,"a name":"Ms. Brita S.   Sailer Mr. Philip G","state":"MN","long":-95.059234},"type":"Feature","geometry":{"type":"Point","coordinates":[-95.059234,46.922144]}},{"properties":{"city":"Woodbury","incumbent":"","first time candidate":"","elected office":"State Senate","id":"a62tzxqrkbiz","b name":"Saltzman","date of election":"11/7/2006","lat":44.919876,"a name":"Ms. Kathy L.","state":"MN","long":-92.940617},"type":"Feature","geometry":{"type":"Point","coordinates":[-92.940617,44.919876]}},{"properties":{"city":"Tucson","incumbent":"","first time candidate":"Yes","elected office":"State House","id":"a62tzxl1q7p1","b name":"Saradnik","date of election":"11/7/2006","lat":32.40983,"a name":"Lena S","state":"AZ","long":-111.018199},"type":"Feature","geometry":{"type":"Point","coordinates":[-111.018199,32.40983]}},{"properties":{"city":"Saint Louis Park","incumbent":"Yes","first time candidate":"","elected office":"State House","id":"a62tzxwgqfpv","b name":"Simon","date of election":"11/7/2006","lat":44.94848,"a name":"Rep. Stephen","state":"MN","long":-93.343394},"type":"Feature","geometry":{"type":"Point","coordinates":[-93.343394,44.94848]}},{"properties":{"city":"Eau Claire","incumbent":"","first time candidate":"","elected office":"State House","id":"a62tzxylcirn","b name":"Smith","date of election":"11/7/2006","lat":44.816512,"a name":"Jeff E","state":"WI","long":-91.501238},"type":"Feature","geometry":{"type":"Point","coordinates":[-91.501238,44.816512]}},{"properties":{"city":"Green Bay","incumbent":"","first time candidate":"Yes","elected office":"State House","id":"a62tzxxu74zx","b name":"Soletski","date of election":"11/7/2006","lat":44.504175,"a name":"James R","state":"WI","long":-87.977459},"type":"Feature","geometry":{"type":"Point","coordinates":[-87.977459,44.504175]}},{"properties":{"city":"Minneapolis","incumbent":"","first time candidate":"Yes","elected office":"School Board","id":"a62tzxxvxmz4","b name":"Stewart","date of election":"11/7/2006","lat":44.90531,"a name":"Chris A","state":"MN","long":-93.237259},"type":"Feature","geometry":{"type":"Point","coordinates":[-93.237259,44.90531]}},{"properties":{"city":"Columbus","incumbent":"","first time candidate":"","elected office":"State House","id":"a62tzxthf2i5","b name":"Stewart","date of election":"11/7/2006","lat":40.05183,"a name":"Jimmy R   Stewart Victoria","state":"OH","long":-83.020064},"type":"Feature","geometry":{"type":"Point","coordinates":[-83.020064,40.05183]}},{"properties":{"city":"North Syracuse","incumbent":"","first time candidate":"","elected office":"State House","id":"a62tzxtwhwo1","b name":"Stirpe","date of election":"11/7/2006","lat":43.132525,"a name":"Albert A","state":"NY","long":-76.127904},"type":"Feature","geometry":{"type":"Point","coordinates":[-76.127904,43.132525]}},{"properties":{"city":"Moscow","incumbent":"","first time candidate":"","elected office":"City Council","id":"a62tzy0per9r","b name":"Stout","date of election":"11/7/2006","lat":46.73237,"a name":"Robert","state":"ID","long":-117.000544},"type":"Feature","geometry":{"type":"Point","coordinates":[-117.000544,46.73237]}},{"properties":{"city":"Wauwatosa","incumbent":"","first time candidate":"","elected office":"State Senate","id":"a62tzxt74t5f","b name":"Sullivan","date of election":"11/7/2006","lat":43.06076,"a name":"Jim","state":"WI","long":-88.008394},"type":"Feature","geometry":{"type":"Point","coordinates":[-88.008394,43.06076]}},{"properties":{"city":"Woodbury","incumbent":"","first time candidate":"Yes","elected office":"State House","id":"a62tzy17j1j6","b name":"Swails","date of election":"11/7/2006","lat":44.919876,"a name":"Marsha G","state":"MN","long":-92.940617},"type":"Feature","geometry":{"type":"Point","coordinates":[-92.940617,44.919876]}},{"properties":{"city":"Kansas City","incumbent":"","first time candidate":"","elected office":"State House","id":"a62tzxo1eopx","b name":"Talboy","date of election":"11/7/2006","lat":39.10296,"a name":"Michael","state":"MO","long":-94.583062},"type":"Feature","geometry":{"type":"Point","coordinates":[-94.583062,39.10296]}},{"properties":{"city":"Saint Paul","incumbent":"","first time candidate":"","elected office":"State House","id":"a62tzy0rm9jc","b name":"Thao","date of election":"11/7/2006","lat":44.96251,"a name":"Mr. Cy","state":"MN","long":-93.123799},"type":"Feature","geometry":{"type":"Point","coordinates":[-93.123799,44.96251]}},{"properties":{"city":"Minneapolis","incumbent":"","first time candidate":"","elected office":"State Senate","id":"a62tzxnvqm8n","b name":"Torres Ray","date of election":"11/7/2006","lat":44.9378,"a name":"Patricia","state":"MN","long":-93.221029},"type":"Feature","geometry":{"type":"Point","coordinates":[-93.221029,44.9378]}},{"properties":{"city":"Billings","incumbent":"","first time candidate":"","elected office":"State House","id":"a62tzxmgk2ng","b name":"Van Dyk","date of election":"11/7/2006","lat":45.783975,"a name":"Kendall","state":"MT","long":-108.505794},"type":"Feature","geometry":{"type":"Point","coordinates":[-108.505794,45.783975]}},{"properties":{"city":"Sharon","incumbent":"","first time candidate":"Yes","elected office":"State House","id":"a62tzxlcn655","b name":"Vig","date of election":"11/7/2006","lat":47.601045,"a name":"Ben","state":"ND","long":-97.898684},"type":"Feature","geometry":{"type":"Point","coordinates":[-97.898684,47.601045]}},{"properties":{"city":"Alma","incumbent":"","first time candidate":"Yes","elected office":"State Senate","id":"a62tzxrfcaf0","b name":"Vinehout","date of election":"11/7/2006","lat":44.311928,"a name":"Kathleen A","state":"WI","long":-91.910464},"type":"Feature","geometry":{"type":"Point","coordinates":[-91.910464,44.311928]}},{"properties":{"city":"Mankato","incumbent":"","first time candidate":"","elected office":"United States Congress","id":"a62tzxlhv2gw","b name":"Walz","date of election":"11/7/2006","lat":44.167597,"a name":"Timothy   Walz Gwen","state":"MN","long":-94.002889},"type":"Feature","geometry":{"type":"Point","coordinates":[-94.002889,44.167597]}},{"properties":{"city":"Brainerd","incumbent":"","first time candidate":"","elected office":"State House","id":"a62tzxuc84yt","b name":"Ward","date of election":"11/7/2006","lat":46.353165,"a name":"Mr. John E","state":"MN","long":-94.200689},"type":"Feature","geometry":{"type":"Point","coordinates":[-94.200689,46.353165]}},{"properties":{"city":"Plainview","incumbent":"Yes","first time candidate":"","elected office":"State House","id":"a62tzxrznub2","b name":"Welti","date of election":"11/7/2006","lat":44.164989,"a name":"Rep. Andy J.","state":"MN","long":-92.166414},"type":"Feature","geometry":{"type":"Point","coordinates":[-92.166414,44.164989]}},{"properties":{"city":"Brooklyn Center","incumbent":"","first time candidate":"","elected office":"Mayor","id":"a62tzxt1a964","b name":"Willson","date of election":"11/7/2006","lat":45.068688,"a name":"Mr. Timothy  J   Eaton Ms. Christine","state":"MN","long":-93.308514},"type":"Feature","geometry":{"type":"Point","coordinates":[-93.308514,45.068688]}},{"properties":{"city":"Cannon Falls","incumbent":"","first time candidate":"","elected office":"State House","id":"a62tzxynymt7","b name":"Wollschlager","date of election":"11/7/2006","lat":44.50763,"a name":"Sandy G","state":"MN","long":-92.905739},"type":"Feature","geometry":{"type":"Point","coordinates":[-92.905739,44.50763]}}],"is_temporal":false,"author":{"url":null,"metadata":null,"contact_name":"","contact_address":"","source":null,"contact_phone":""},"source":null,"pagination":{"sort":null,"start":0,"total":86,"limit":1000000},"state":"complete","tags":"action,canidates,wellstone,winning","published":"2014-08-11T06:52:05-04:00","id":6057}