{"type":"FeatureCollection","data_type":"Dataset","url_type":null,"permissions":[{"permissions":{"download":true,"view":true},"group_id":"everyone"}],"classification":null,"title":"Current Congregate Meal Locationscsv","count":39,"stream_id":60781,"contributor":{"url":"http://geocommons.com/users/14525","name":"mtorres"},"data_attributes":null,"calculation_params":null,"icon_link":null,"link":"http://geocommons.com/overlays/60781.json","extent":[-122.162,37.0049,-121.573,37.4463],"geometry_types":["point"],"unique_name":null,"name":"Current Congregate Meal Locationscsv","feature_count":39,"description":"","next_feature":null,"is_raster":false,"short_classification":"Y","stats":{"geo_score":{"max":0.902,"mean":0.678307692307692,"variance":0.0454049028340081,"stdev":0.213084262286092,"min":0.286,"median":0.798}},"features":[{"properties":{"city":"San Jose","zip":"95111","operated by":"City of SJ","supervisorial district":null,"city council district":null,"geo_score":0.902,"site name":"*Seven Trees","id":"a6e1d0i35ruf","geo_precision":"range","address":"3590 Cas Drive"},"type":"Feature","geometry":{"type":"Point","coordinates":[-121.83326,37.284595]}},{"properties":{"city":"San Jose","zip":"95128","operated by":"CBO","supervisorial district":null,"city council district":null,"geo_score":0.368,"site name":"AACI","id":"a6e1d0na5n6l","geo_precision":"street","address":"2400 Moorpark Ave, Ste. 300"},"type":"Feature","geometry":{"type":"Point","coordinates":[-121.916246,37.313331]}},{"properties":{"city":"San Jose","zip":"95110","operated by":"City of SJ","supervisorial district":null,"city council district":null,"geo_score":0.482,"site name":"Alma","id":"a6e1d0ft9kcx","geo_precision":"street","address":"136 W. Alma Ave."},"type":"Feature","geometry":{"type":"Point","coordinates":[-121.87509,37.315636]}},{"properties":{"city":"San Jose","zip":"95125","operated by":"City of SJ","supervisorial district":null,"city council district":null,"geo_score":0.805,"site name":"Almaden","id":"a6e1d0kt6xpo","geo_precision":"range","address":"6445 Camden Avenue"},"type":"Feature","geometry":{"type":"Point","coordinates":[-121.868239,37.221704]}},{"properties":{"city":"San Jose","zip":"95110","operated by":"City of SJ","supervisorial district":null,"city council district":null,"geo_score":0.5,"site name":"Alviso","id":"a6e1d0nbumrt","geo_precision":"street","address":"5050 N. 1st St."},"type":"Feature","geometry":{"type":"Point","coordinates":[-121.893828,37.340548]}},{"properties":{"city":"San Jose","zip":"95132","operated by":"City of SJ","supervisorial district":null,"city council district":null,"geo_score":0.831,"site name":"Berryessa","id":"a6e1d0hr6z7n","geo_precision":"range","address":"3050 Berryessa Road"},"type":"Feature","geometry":{"type":"Point","coordinates":[-121.852501,37.391448]}},{"properties":{"city":"San Jose","zip":"95124","operated by":"City of SJ","supervisorial district":null,"city council district":null,"geo_score":0.821,"site name":"Camden","id":"a6e1d0f72u7c","geo_precision":"range","address":"3369 Union Avenue"},"type":"Feature","geometry":{"type":"Point","coordinates":[-121.931432,37.263373]}},{"properties":{"city":"Campbell","zip":"95008","operated by":"City","supervisorial district":null,"city council district":null,"geo_score":0.464,"site name":"Campbell","id":"a6e1d0nsksle","geo_precision":"street","address":"1 W. Campbell Ave"},"type":"Feature","geometry":{"type":"Point","coordinates":[-121.94975,37.28702]}},{"properties":{"city":"Palo Alto","zip":"94306","operated by":"CBO","supervisorial district":null,"city council district":null,"geo_score":0.708,"site name":"Cubberly","id":"a6e1d0bkyayx","geo_precision":"street","address":"4000 Middlefield Rd."},"type":"Feature","geometry":{"type":"Point","coordinates":[-122.11472,37.424189]}},{"properties":{"city":"San Jose","zip":"95117","operated by":"City of SJ","supervisorial district":null,"city council district":null,"geo_score":0.471,"site name":"Cypress","id":"a6e1d0n6plo7","geo_precision":"street","address":"403 S. Cypress Ave."},"type":"Feature","geometry":{"type":"Point","coordinates":[-121.95979,37.32428]}},{"properties":{"city":"San Jose","zip":"95116","operated by":"Catholic Charities","supervisorial district":null,"city council district":null,"geo_score":0.902,"site name":"Eastside","id":"a6e1d0pp91ve","geo_precision":"range","address":"2150 Alum Rock Ave."},"type":"Feature","geometry":{"type":"Point","coordinates":[-121.845542,37.357545]}},{"properties":{"city":"San Jose","zip":"95135","operated by":"City of SJ","supervisorial district":null,"city council district":null,"geo_score":0.902,"site name":"Evergreen","id":"a6e1d0feay0o","geo_precision":"range","address":"4860 San Felipe Road"},"type":"Feature","geometry":{"type":"Point","coordinates":[-121.771479,37.299505]}},{"properties":{"city":"San Jose","zip":"95125","operated by":"City of SJ","supervisorial district":null,"city council district":null,"geo_score":0.286,"site name":"Gardner","id":"a6e1d0lrypg4","geo_precision":"street","address":"520 W. Virginia St."},"type":"Feature","geometry":{"type":"Point","coordinates":[-121.881017,37.324315]}},{"properties":{"city":"Gilroy","zip":"95020","operated by":"Catholic Charities","supervisorial district":null,"city council district":null,"geo_score":0.805,"site name":"Gilroy","id":"a6e1d0k6rvq4","geo_precision":"range","address":"7371 Hanna St."},"type":"Feature","geometry":{"type":"Point","coordinates":[-121.573273,37.004931]}},{"properties":{"city":"San Jose","zip":"95128","operated by":"CBO","supervisorial district":null,"city council district":null,"geo_score":0.638,"site name":"Hope","id":"a6e1d0ev3jd6","geo_precision":"street","address":"1555 Parkmoor Ave."},"type":"Feature","geometry":{"type":"Point","coordinates":[-121.917102,37.316825]}},{"properties":{"city":"Milpitas","zip":"95035","operated by":"CBO","supervisorial district":null,"city council district":null,"geo_score":0.902,"site name":"ICC Milpitas","id":"a6e1d0qlxbug","geo_precision":"range","address":"525 Los Coches St."},"type":"Feature","geometry":{"type":"Point","coordinates":[-121.896423,37.431274]}},{"properties":{"city":"San Jose","zip":"95112","operated by":"Catholic Charities","supervisorial district":null,"city council district":null,"geo_score":0.459,"site name":"John XXIII","id":"a6e1d0kqjhca","geo_precision":"street","address":"195 E. San Fernando St."},"type":"Feature","geometry":{"type":"Point","coordinates":[-121.888135,37.334817]}},{"properties":{"city":"San Jose","zip":"95128","operated by":"CBO","supervisorial district":null,"city council district":null,"geo_score":0.807,"site name":"Korean American","id":"a6e1d0pd6x1l","geo_precision":"range","address":"1800-B Fruitdale Ave."},"type":"Feature","geometry":{"type":"Point","coordinates":[-121.924326,37.310693]}},{"properties":{"city":"Palo Alto","zip":"94301","operated by":"CBO","supervisorial district":null,"city council district":null,"geo_score":0.902,"site name":"La Comida","id":"a6e1d0qbn2py","geo_precision":"range","address":"450 Bryant St."},"type":"Feature","geometry":{"type":"Point","coordinates":[-122.162347,37.446309]}},{"properties":{"city":"Los Gatos","zip":"95030","operated by":"CBO","supervisorial district":null,"city council district":null,"geo_score":0.817,"site name":"Live Oak Los Gatos","id":"a6e1d0ohbxo2","geo_precision":"range","address":"111 Church St."},"type":"Feature","geometry":{"type":"Point","coordinates":[-121.978338,37.221682]}},{"properties":{"city":"San Jose","zip":"95116","operated by":"City of SJ","supervisorial district":null,"city council district":null,"geo_score":0.902,"site name":"Mayfair","id":"a6e1d0gm46v9","geo_precision":"range","address":"2039 Kammerer Avenue"},"type":"Feature","geometry":{"type":"Point","coordinates":[-121.844291,37.350802]}},{"properties":{"city":"Milpitas","zip":"95035","operated by":"City","supervisorial district":null,"city council district":null,"geo_score":0.49,"site name":"Milpitas","id":"a6e1d0fdvhy3","geo_precision":"street","address":"540 S. Abel St."},"type":"Feature","geometry":{"type":"Point","coordinates":[-121.909744,37.43344]}},{"properties":{"city":"Morgan Hill","zip":"95037","operated by":"City","supervisorial district":null,"city council district":null,"geo_score":0.333,"site name":"Morgan Hill","id":"a6e1d0km6cic","geo_precision":"street","address":"171 W. Edmundson Ave."},"type":"Feature","geometry":{"type":"Point","coordinates":[-121.645743,37.112528]}},{"properties":{"city":"Mountain View","zip":"94040","operated by":"City","supervisorial district":null,"city council district":null,"geo_score":0.902,"site name":"Mountain View","id":"a6e1d0rry58i","geo_precision":"range","address":"266 Escuela Ave."},"type":"Feature","geometry":{"type":"Point","coordinates":[-122.093067,37.398331]}},{"properties":{"city":"San Jose","zip":"95112","operated by":"CBO","supervisorial district":null,"city council district":null,"geo_score":0.5,"site name":"Northside","id":"a6e1d0n692l4","geo_precision":"street","address":"488 N. 6th St."},"type":"Feature","geometry":{"type":"Point","coordinates":[-121.885248,37.338696]}},{"properties":{"city":"San Jose","zip":"95116","operated by":"CBO","supervisorial district":null,"city council district":null,"geo_score":0.462,"site name":"POSSO","id":"a6e1d0p2t931","geo_precision":"street","address":"1115 E. Santa Clara St."},"type":"Feature","geometry":{"type":"Point","coordinates":[-121.872533,37.344736]}},{"properties":{"city":"San Jose","zip":"95116","operated by":"City of SJ","supervisorial district":null,"city council district":null,"geo_score":0.902,"site name":"Roosevelt","id":"a6e1d0ibv1r0","geo_precision":"range","address":"901 East Santa Clara Street"},"type":"Feature","geometry":{"type":"Point","coordinates":[-121.872533,37.344736]}},{"properties":{"city":"San Jose","zip":"95128","operated by":"CBO","supervisorial district":null,"city council district":null,"geo_score":0.364,"site name":"SCV Blind Center","id":"a6e1d0p1tk3v","geo_precision":"street","address":"101 N. Bascom Ave."},"type":"Feature","geometry":{"type":"Point","coordinates":[-121.931949,37.323382]}},{"properties":{"city":"San Jose","zip":"95112","operated by":"CBO","supervisorial district":null,"city council district":null,"geo_score":0.5,"site name":"Salvation Army","id":"a6e1d0rhsklf","geo_precision":"street","address":"359 N. 4th St."},"type":"Feature","geometry":{"type":"Point","coordinates":[-121.888522,37.339158]}},{"properties":{"city":"Santa Clara","zip":"95050","operated by":"City","supervisorial district":null,"city council district":null,"geo_score":0.902,"site name":"Santa Clara","id":"a6e1d0ce83ny","geo_precision":"range","address":"1303 Fremont St."},"type":"Feature","geometry":{"type":"Point","coordinates":[-121.949123,37.350388]}},{"properties":{"city":"Cupertino","zip":"95014","operated by":"CBO","supervisorial district":null,"city council district":null,"geo_score":0.798,"site name":"Self-Help Cupertino","id":"a6e1d0qkf02u","geo_precision":"range","address":"940 Stelling Rd."},"type":"Feature","geometry":{"type":"Point","coordinates":[-122.04142,37.311789]}},{"properties":{"city":"San Jose","zip":"95126","operated by":"CBO","supervisorial district":null,"city council district":null,"geo_score":0.557,"site name":"Self-Help MT Liang","id":"a6e1d0dad7or","geo_precision":"street","address":"1050 Elizabeth Dr."},"type":"Feature","geometry":{"type":"Point","coordinates":[-121.880618,37.340133]}},{"properties":{"city":"San Jose","zip":"95112","operated by":"CBO","supervisorial district":null,"city council district":null,"geo_score":0.5,"site name":"Self-Help San Jose","id":"a6e1d0cvv2rr","geo_precision":"street","address":"199 N. 3rd St."},"type":"Feature","geometry":{"type":"Point","coordinates":[-121.888463,37.337172]}},{"properties":{"city":"San Jose","zip":"95122","operated by":"City of SJ","supervisorial district":null,"city council district":null,"geo_score":0.902,"site name":"Shirakawa (Iola Williams)","id":"a6e1d0o1l4q3","geo_precision":"range","address":"2072 Lucretia Avenue"},"type":"Feature","geometry":{"type":"Point","coordinates":[-121.846495,37.319071]}},{"properties":{"city":"San Jose","zip":"95123","operated by":"City of SJ","supervisorial district":null,"city council district":null,"geo_score":0.902,"site name":"Southside","id":"a6e1d0kxa7gh","geo_precision":"range","address":"5585 Cottle Road"},"type":"Feature","geometry":{"type":"Point","coordinates":[-121.804026,37.251758]}},{"properties":{"city":"Palo Alto","zip":"94306","operated by":"CBO","supervisorial district":null,"city council district":null,"geo_score":0.462,"site name":"Stevenson","id":"a6e1d0k23wm1","geo_precision":"street","address":"455 E. Charlston Rd."},"type":"Feature","geometry":{"type":"Point","coordinates":[-122.11844,37.41475]}},{"properties":{"city":"Sunnyvale","zip":"94086","operated by":"City","supervisorial district":null,"city council district":null,"geo_score":0.902,"site name":"Sunnyvale","id":"a6e1d0mra1ky","geo_precision":"range","address":"535 Old San Francisco Rd."},"type":"Feature","geometry":{"type":"Point","coordinates":[-122.025063,37.367579]}},{"properties":{"city":"San Jose","zip":"95125","operated by":"City of SJ","supervisorial district":null,"city council district":null,"geo_score":0.902,"site name":"Willow Glen","id":"a6e1d0fslk69","geo_precision":"range","address":"2175 Lincoln Avenue"},"type":"Feature","geometry":{"type":"Point","coordinates":[-121.888892,37.291596]}},{"properties":{"city":"San Jose","zip":"95112","operated by":"CBO","supervisorial district":null,"city council district":null,"geo_score":0.5,"site name":"Yu Ai Kai","id":"a6e1d0c7e92g","geo_precision":"street","address":"588 N. 4th St."},"type":"Feature","geometry":{"type":"Point","coordinates":[-121.888522,37.339158]}}],"is_temporal":false,"author":{"url":"","metadata":"","contact_name":"","contact_address":"","source":"","contact_phone":""},"source":"","pagination":{"sort":null,"start":0,"total":39,"limit":1000000},"state":"complete","tags":"","published":"2014-08-10T12:40:18-04:00","id":60781}