{"type":"FeatureCollection","data_type":"Dataset","url_type":null,"permissions":[{"permissions":{"download":true,"view":true},"group_id":"everyone"}],"classification":null,"title":"Cambridge Real Estate 8.13.2010","count":359,"stream_id":60952,"contributor":{"url":"http://geocommons.com/users/139","name":"Burkey"},"data_attributes":null,"calculation_params":null,"icon_link":null,"link":"http://geocommons.com/overlays/60952.json","extent":[-71.1553,42.3554,-71.0684,42.3978],"geometry_types":["point"],"unique_name":null,"name":"Cambridge Real Estate 8.13.2010","feature_count":359,"description":"","next_feature":null,"is_raster":false,"short_classification":"Y","stats":{"lon":{"max":-71.068429,"mean":-71.1086741169916,"variance":0.000494878937595246,"stdev":0.0222458746196963,"min":-71.155263,"median":-71.10955},"sale price":{"max":4500000,"mean":690047.206128134,"variance":370514582032.276,"stdev":608699.089889475,"min":170000,"median":499000},"lat":{"max":42.397813,"mean":42.3727250027855,"variance":7.93321961536218e-05,"stdev":0.00890686230687451,"min":42.355428,"median":42.370867}},"features":[{"properties":{"lon":-71.110717,"city":"Cambridge","bedrooms":"1 Br","zip":"02138","sq feet":"345 Sqft","bathrooms":"1 Ba","street address":"3 Dana St","sale price":170000,"housing type":"Condo","id":"a62xz7yeagcq","lat":42.369481,"state":"MA"},"type":"Feature","geometry":{"type":"Point","coordinates":[-71.110717,42.369481]}},{"properties":{"lon":-71.100535,"city":"Cambridge","bedrooms":"N/A Br","zip":"02139","sq feet":"350 Sqft","bathrooms":"1 Ba","street address":"190 Prospect St","sale price":224000,"housing type":"Condo","id":"a62xz7sgpz5c","lat":42.369737,"state":"MA"},"type":"Feature","geometry":{"type":"Point","coordinates":[-71.100535,42.369737]}},{"properties":{"lon":-71.094624,"city":"Cambridge","bedrooms":"N/A Br","zip":"02139","sq feet":"N/A Sqft","bathrooms":"N/A Ba","street address":"Washington St","sale price":227000,"housing type":"Single Family","id":"a62xz7nuxp2z","lat":42.3645,"state":"MA"},"type":"Feature","geometry":{"type":"Point","coordinates":[-71.094624,42.3645]}},{"properties":{"lon":-71.100535,"city":"Cambridge","bedrooms":"N/A Br","zip":"02139","sq feet":"350 Sqft","bathrooms":"1 Ba","street address":"190 Prospect St","sale price":229000,"housing type":"Condo","id":"a62xz7y9ovqa","lat":42.369737,"state":"MA"},"type":"Feature","geometry":{"type":"Point","coordinates":[-71.100535,42.369737]}},{"properties":{"lon":-71.136616,"city":"Cambridge","bedrooms":"1 Br","zip":"02239","sq feet":"510 Sqft","bathrooms":"1 Ba","street address":"312 Rindge Ave","sale price":229900,"housing type":"Condo","id":"a62xz7vmrxwm","lat":42.393584,"state":"MA"},"type":"Feature","geometry":{"type":"Point","coordinates":[-71.136616,42.393584]}},{"properties":{"lon":-71.089628,"city":"Cambridge","bedrooms":"1 Br","zip":"02141","sq feet":"610 Sqft","bathrooms":"1 Ba","street address":"764 Cambridge St","sale price":233000,"housing type":"Condo","id":"a62xz7rrb9sc","lat":42.372211,"state":"MA"},"type":"Feature","geometry":{"type":"Point","coordinates":[-71.089628,42.372211]}},{"properties":{"lon":-71.0798,"city":"Cambridge","bedrooms":"1 Br","zip":"02141","sq feet":"626 Sqft","bathrooms":"1 Ba","street address":"210 Monsignor Obrien Hwy","sale price":233750,"housing type":"Condo","id":"a62xz8009vjv","lat":42.372481,"state":"MA"},"type":"Feature","geometry":{"type":"Point","coordinates":[-71.0798,42.372481]}},{"properties":{"lon":-71.123298,"city":"Cambridge","bedrooms":"1 Br","zip":"02138","sq feet":"370 Sqft","bathrooms":"1 Ba","street address":"4 Follen St","sale price":236000,"housing type":"Condo","id":"a62xz7xu4u3q","lat":42.378164,"state":"MA"},"type":"Feature","geometry":{"type":"Point","coordinates":[-71.123298,42.378164]}},{"properties":{"lon":-71.089225,"city":"Cambridge","bedrooms":"1 Br","zip":"02141","sq feet":"535 Sqft","bathrooms":"1 Ba","street address":"34 Jefferson St","sale price":239000,"housing type":"Condo","id":"a62xz7po71mn","lat":42.372912,"state":"MA"},"type":"Feature","geometry":{"type":"Point","coordinates":[-71.089225,42.372912]}},{"properties":{"lon":-71.114711,"city":"Cambridge","bedrooms":"1 Br","zip":"02239","sq feet":"414 Sqft","bathrooms":"1 Ba","street address":"375 Western Ave","sale price":239000,"housing type":"Condo","id":"a62xz7ojnkiw","lat":42.364472,"state":"MA"},"type":"Feature","geometry":{"type":"Point","coordinates":[-71.114711,42.364472]}},{"properties":{"lon":-71.111785,"city":"Cambridge","bedrooms":"1 Br","zip":"02138","sq feet":"410 Sqft","bathrooms":"1 Ba","street address":"1699 Cambridge St","sale price":239000,"housing type":"Condo","id":"a62xz7w1mg2h","lat":42.375299,"state":"MA"},"type":"Feature","geometry":{"type":"Point","coordinates":[-71.111785,42.375299]}},{"properties":{"lon":-71.088414,"city":"Cambridge","bedrooms":"1 Br","zip":"02141","sq feet":"535 Sqft","bathrooms":"1 Ba","street address":"Jefferson St","sale price":239000,"housing type":"Condo","id":"a62xz7u90tn4","lat":42.372945,"state":"MA"},"type":"Feature","geometry":{"type":"Point","coordinates":[-71.088414,42.372945]}},{"properties":{"lon":-71.114711,"city":"Cambridge","bedrooms":"1 Br","zip":"02239","sq feet":"476 Sqft","bathrooms":"1 Ba","street address":"375 Western Ave","sale price":244000,"housing type":"Condo","id":"a62xz7ppske3","lat":42.364472,"state":"MA"},"type":"Feature","geometry":{"type":"Point","coordinates":[-71.114711,42.364472]}},{"properties":{"lon":-71.107206,"city":"Cambridge","bedrooms":"N/A Br","zip":"02139","sq feet":"432 Sqft","bathrooms":"1 Ba","street address":"848 Massachusetts Ave","sale price":245000,"housing type":"Condo","id":"a62xz83ix35l","lat":42.367405,"state":"MA"},"type":"Feature","geometry":{"type":"Point","coordinates":[-71.107206,42.367405]}},{"properties":{"lon":-71.07933,"city":"Cambridge","bedrooms":"1 Br","zip":"02239","sq feet":"507 Sqft","bathrooms":"1 Ba","street address":"95 2nd St","sale price":250000,"housing type":"Condo","id":"a62xz81efzhk","lat":42.368259,"state":"MA"},"type":"Feature","geometry":{"type":"Point","coordinates":[-71.07933,42.368259]}},{"properties":{"lon":-71.11931,"city":"Cambridge","bedrooms":"1 Br","zip":"02138","sq feet":"474 Sqft","bathrooms":"1 Ba","street address":"1800 Massachusetts Ave","sale price":254900,"housing type":"Condo","id":"a62xz7x1ftt7","lat":42.386261,"state":"MA"},"type":"Feature","geometry":{"type":"Point","coordinates":[-71.11931,42.386261]}},{"properties":{"lon":-71.077302,"city":"Cambridge","bedrooms":"N/A Br","zip":"02141","sq feet":"531 Sqft","bathrooms":"1 Ba","street address":"169 Monsignor Obrien Hwy","sale price":255000,"housing type":"Condo","id":"a62xz7q4n8gg","lat":42.371667,"state":"MA"},"type":"Feature","geometry":{"type":"Point","coordinates":[-71.077302,42.371667]}},{"properties":{"lon":-71.077531,"city":"Cambridge","bedrooms":"1 Br","zip":"02141","sq feet":"552 Sqft","bathrooms":"1 Ba","street address":"3 Thorndike St","sale price":257126,"housing type":"Condo","id":"a62xz82ei7pn","lat":42.369451,"state":"MA"},"type":"Feature","geometry":{"type":"Point","coordinates":[-71.077531,42.369451]}},{"properties":{"lon":-71.082634,"city":"Cambridge","bedrooms":"1 Br","zip":"02141","sq feet":"537 Sqft","bathrooms":"1 Ba","street address":"105 Gore St","sale price":259000,"housing type":"Condo","id":"a62xz7q5mdlh","lat":42.372183,"state":"MA"},"type":"Feature","geometry":{"type":"Point","coordinates":[-71.082634,42.372183]}},{"properties":{"lon":-71.122704,"city":"Cambridge","bedrooms":"1 Br","zip":"02239","sq feet":"500 Sqft","bathrooms":"1 Ba","street address":"Concord Ave","sale price":259500,"housing type":"Condo","id":"a62xz7pqu39b","lat":42.37781,"state":"MA"},"type":"Feature","geometry":{"type":"Point","coordinates":[-71.122704,42.37781]}},{"properties":{"lon":-71.095379,"city":"Cambridge","bedrooms":"2 Br","zip":"02139","sq feet":"670 Sqft","bathrooms":"1 Ba","street address":"303 Elm St","sale price":259900,"housing type":"Condo","id":"a62xz7xrzpbi","lat":42.373341,"state":"MA"},"type":"Feature","geometry":{"type":"Point","coordinates":[-71.095379,42.373341]}},{"properties":{"lon":-71.110782,"city":"Cambridge","bedrooms":"1 Br","zip":"02138","sq feet":"408 Sqft","bathrooms":"1 Ba","street address":"1 Dana St","sale price":259900,"housing type":"Condo","id":"a62xz7p9hhq6","lat":42.369365,"state":"MA"},"type":"Feature","geometry":{"type":"Point","coordinates":[-71.110782,42.369365]}},{"properties":{"lon":-71.10274,"city":"Cambridge","bedrooms":"1 Br","zip":"02239","sq feet":"604 Sqft","bathrooms":"1 Ba","street address":"269 Harvard St","sale price":265000,"housing type":"Condo","id":"a62xz7zb1fbw","lat":42.368778,"state":"MA"},"type":"Feature","geometry":{"type":"Point","coordinates":[-71.10274,42.368778]}},{"properties":{"lon":-71.109164,"city":"Cambridge","bedrooms":"N/A Br","zip":"02139","sq feet":"N/A Sqft","bathrooms":"N/A Ba","street address":"Putnam Ave # 6","sale price":266000,"housing type":"Condo","id":"a62xz7rhalns","lat":42.358055,"state":"MA"},"type":"Feature","geometry":{"type":"Point","coordinates":[-71.109164,42.358055]}},{"properties":{"lon":-71.099764,"city":"Cambridge","bedrooms":"2 Br","zip":"02139","sq feet":"1,042 Sqft","bathrooms":"1 Ba","street address":"Franklin St # B2","sale price":266000,"housing type":"Condo","id":"a62xz7u1z19t","lat":42.36127,"state":"MA"},"type":"Feature","geometry":{"type":"Point","coordinates":[-71.099764,42.36127]}},{"properties":{"lon":-71.122704,"city":"Cambridge","bedrooms":"1 Br","zip":"02239","sq feet":"517 Sqft","bathrooms":"1 Ba","street address":"Concord Ave","sale price":269500,"housing type":"Condo","id":"a62xz7w4kmhf","lat":42.37781,"state":"MA"},"type":"Feature","geometry":{"type":"Point","coordinates":[-71.122704,42.37781]}},{"properties":{"lon":-71.10063,"city":"Cambridge","bedrooms":"1 Br","zip":"02139","sq feet":"532 Sqft","bathrooms":"1 Ba","street address":"199 Prospect St","sale price":269900,"housing type":"Condo","id":"a62xz7ni7nav","lat":42.370181,"state":"MA"},"type":"Feature","geometry":{"type":"Point","coordinates":[-71.10063,42.370181]}},{"properties":{"lon":-71.10063,"city":"Cambridge","bedrooms":"1 Br","zip":"02139","sq feet":"532 Sqft","bathrooms":"1 Ba","street address":"199 Prospect St","sale price":269900,"housing type":"Condo","id":"a62xz7yu732h","lat":42.370181,"state":"MA"},"type":"Feature","geometry":{"type":"Point","coordinates":[-71.10063,42.370181]}},{"properties":{"lon":-71.089831,"city":"Cambridge","bedrooms":"N/A Br","zip":"02141","sq feet":"N/A Sqft","bathrooms":"N/A Ba","street address":"148 Berkshire St","sale price":269900,"housing type":"Condo","id":"a62xz7xwbf83","lat":42.371801,"state":"MA"},"type":"Feature","geometry":{"type":"Point","coordinates":[-71.089831,42.371801]}},{"properties":{"lon":-71.08591,"city":"Cambridge","bedrooms":"1 Br","zip":"02141","sq feet":"737 Sqft","bathrooms":"1 Ba","street address":"572 Cambridge St","sale price":274900,"housing type":"Condo","id":"a62xz7y8mxoi","lat":42.371666,"state":"MA"},"type":"Feature","geometry":{"type":"Point","coordinates":[-71.08591,42.371666]}},{"properties":{"lon":-71.110782,"city":"Cambridge","bedrooms":"1 Br","zip":"02138","sq feet":"500 Sqft","bathrooms":"1 Ba","street address":"1 Dana St","sale price":279900,"housing type":"Condo","id":"a62xz7vy8913","lat":42.369365,"state":"MA"},"type":"Feature","geometry":{"type":"Point","coordinates":[-71.110782,42.369365]}},{"properties":{"lon":-71.13044,"city":"Cambridge","bedrooms":"1 Br","zip":"02138","sq feet":"464 Sqft","bathrooms":"1 Ba","street address":"138 Huron Ave","sale price":285000,"housing type":"Condo","id":"a62xz7x8s8ul","lat":42.382692,"state":"MA"},"type":"Feature","geometry":{"type":"Point","coordinates":[-71.13044,42.382692]}},{"properties":{"lon":-71.091274,"city":"Cambridge","bedrooms":"1 Br","zip":"02239","sq feet":"552 Sqft","bathrooms":"1 Ba","street address":"6 Bristol St.","sale price":287000,"housing type":"Condo","id":"a62xz7rkhf2f","lat":42.367691,"state":"MA"},"type":"Feature","geometry":{"type":"Point","coordinates":[-71.091274,42.367691]}},{"properties":{"lon":-71.109964,"city":"Cambridge","bedrooms":"1 Br","zip":"02138","sq feet":"540 Sqft","bathrooms":"1 Ba","street address":"345 Harvard St G2","sale price":287500,"housing type":"Single Family","id":"a62xz7wmmme5","lat":42.371051,"state":"MA"},"type":"Feature","geometry":{"type":"Point","coordinates":[-71.109964,42.371051]}},{"properties":{"lon":-71.109964,"city":"Cambridge","bedrooms":"1 Br","zip":"02138","sq feet":"540 Sqft","bathrooms":"1 Ba","street address":"345 Harvard St","sale price":287500,"housing type":"Condo","id":"a62xz7tzn50b","lat":42.371051,"state":"MA"},"type":"Feature","geometry":{"type":"Point","coordinates":[-71.109964,42.371051]}},{"properties":{"lon":-71.086773,"city":"Cambridge","bedrooms":"1 Br","zip":"02141","sq feet":"1 Sqft","bathrooms":"1 Ba","street address":"633 Cambridge St","sale price":289900,"housing type":"Condo","id":"a62xz80ndnfm","lat":42.371965,"state":"MA"},"type":"Feature","geometry":{"type":"Point","coordinates":[-71.086773,42.371965]}},{"properties":{"lon":-71.123665,"city":"Cambridge","bedrooms":"1 Br","zip":"02239","sq feet":"575 Sqft","bathrooms":"1 Ba","street address":"40 Linnaean St","sale price":289900,"housing type":"Condo","id":"a62xz7u7t4jx","lat":42.383335,"state":"MA"},"type":"Feature","geometry":{"type":"Point","coordinates":[-71.123665,42.383335]}},{"properties":{"lon":-71.129589,"city":"Cambridge","bedrooms":"1 Br","zip":"02138","sq feet":"588 Sqft","bathrooms":"1 Ba","street address":"2 Garden Ct","sale price":289900,"housing type":"Condo","id":"a62xz7qbk5t3","lat":42.3837,"state":"MA"},"type":"Feature","geometry":{"type":"Point","coordinates":[-71.129589,42.3837]}},{"properties":{"lon":-71.083104,"city":"Cambridge","bedrooms":"2 Br","zip":"02141","sq feet":"659 Sqft","bathrooms":"1 Ba","street address":"Charles St # 1","sale price":295000,"housing type":"Condo","id":"a62xz7smlagp","lat":42.367925,"state":"MA"},"type":"Feature","geometry":{"type":"Point","coordinates":[-71.083104,42.367925]}},{"properties":{"lon":-71.122704,"city":"Cambridge","bedrooms":"1 Br","zip":"02138","sq feet":"636 Sqft","bathrooms":"1 Ba","street address":"Concord Ave # 14","sale price":298000,"housing type":"Condo","id":"a62xz7xzg8ez","lat":42.37781,"state":"MA"},"type":"Feature","geometry":{"type":"Point","coordinates":[-71.122704,42.37781]}},{"properties":{"lon":-71.089628,"city":"Cambridge","bedrooms":"1 Br","zip":"02141","sq feet":"620 Sqft","bathrooms":"1 Ba","street address":"764 Cambridge St","sale price":299000,"housing type":"Condo","id":"a62xz7wwb0dy","lat":42.372211,"state":"MA"},"type":"Feature","geometry":{"type":"Point","coordinates":[-71.089628,42.372211]}},{"properties":{"lon":-71.086128,"city":"Cambridge","bedrooms":"1 Br","zip":"02141","sq feet":"650 Sqft","bathrooms":"1 Ba","street address":"170 Gore St","sale price":299000,"housing type":"Condo","id":"a62xz7t32u1k","lat":42.372763,"state":"MA"},"type":"Feature","geometry":{"type":"Point","coordinates":[-71.086128,42.372763]}},{"properties":{"lon":-71.111829,"city":"Cambridge","bedrooms":"2 Br","zip":"02239","sq feet":"648 Sqft","bathrooms":"1 Ba","street address":"57 Magee St","sale price":299000,"housing type":"Condo","id":"a62xz7uqmdmz","lat":42.366348,"state":"MA"},"type":"Feature","geometry":{"type":"Point","coordinates":[-71.111829,42.366348]}},{"properties":{"lon":-71.109968,"city":"Cambridge","bedrooms":"1 Br","zip":"02138","sq feet":"525 Sqft","bathrooms":"1 Ba","street address":"10 Dana St","sale price":299000,"housing type":"Condo","id":"a62xz7xz928i","lat":42.370061,"state":"MA"},"type":"Feature","geometry":{"type":"Point","coordinates":[-71.109968,42.370061]}},{"properties":{"lon":-71.080545,"city":"Cambridge","bedrooms":"2 Br","zip":"02141","sq feet":"768 Sqft","bathrooms":"1 Ba","street address":"29 Winter St","sale price":299000,"housing type":"Single Family","id":"a62xz7wb4bbc","lat":42.372671,"state":"MA"},"type":"Feature","geometry":{"type":"Point","coordinates":[-71.080545,42.372671]}},{"properties":{"lon":-71.077302,"city":"Cambridge","bedrooms":"1 Br","zip":"02141","sq feet":"670 Sqft","bathrooms":"1 Ba","street address":"169 Monsignor Obrien Hwy","sale price":300000,"housing type":"Condo","id":"a62xz82o327j","lat":42.371667,"state":"MA"},"type":"Feature","geometry":{"type":"Point","coordinates":[-71.077302,42.371667]}},{"properties":{"lon":-71.077302,"city":"Cambridge","bedrooms":"1 Br","zip":"02141","sq feet":"670 Sqft","bathrooms":"1 Ba","street address":"169 Monsignor Obrien Hwy","sale price":300000,"housing type":"Condo","id":"a62xz7ymwntb","lat":42.371667,"state":"MA"},"type":"Feature","geometry":{"type":"Point","coordinates":[-71.077302,42.371667]}},{"properties":{"lon":-71.077302,"city":"Cambridge","bedrooms":"1 Br","zip":"02141","sq feet":"N/A Sqft","bathrooms":"1 Ba","street address":"169 MONSIGNOR O AMP APOS BRIEN Hwy","sale price":300000,"housing type":"Condo","id":"a62xz83aw5un","lat":42.371667,"state":"MA"},"type":"Feature","geometry":{"type":"Point","coordinates":[-71.077302,42.371667]}},{"properties":{"lon":-71.137039,"city":"Cambridge","bedrooms":"1 Br","zip":"02239","sq feet":"795 Sqft","bathrooms":"1 Ba","street address":"320 Rindge Ave","sale price":304000,"housing type":"Condo","id":"a62xz7pcqs5p","lat":42.393675,"state":"MA"},"type":"Feature","geometry":{"type":"Point","coordinates":[-71.137039,42.393675]}},{"properties":{"lon":-71.068429,"city":"Cambridge","bedrooms":"1 Br","zip":"02141","sq feet":"663 Sqft","bathrooms":"1 Ba","street address":"627 Museum Way","sale price":306132,"housing type":"Condo","id":"a62xz7wui3md","lat":42.37069,"state":"MA"},"type":"Feature","geometry":{"type":"Point","coordinates":[-71.068429,42.37069]}},{"properties":{"lon":-71.12895,"city":"Cambridge","bedrooms":"1 Br","zip":"02239","sq feet":"632 Sqft","bathrooms":"1 Ba","street address":"2353 Massachusetts Ave","sale price":309000,"housing type":"Condo","id":"a62xz7qp5lvj","lat":42.396452,"state":"MA"},"type":"Feature","geometry":{"type":"Point","coordinates":[-71.12895,42.396452]}},{"properties":{"lon":-71.098101,"city":"Cambridge","bedrooms":"2 Br","zip":"02139","sq feet":"678 Sqft","bathrooms":"1 Ba","street address":"353 Prospect St","sale price":309000,"housing type":"Condo","id":"a62xz83o0pt8","lat":42.373737,"state":"MA"},"type":"Feature","geometry":{"type":"Point","coordinates":[-71.098101,42.373737]}},{"properties":{"lon":-71.09884,"city":"Cambridge","bedrooms":"2 Br","zip":"02239","sq feet":"784 Sqft","bathrooms":"1 Ba","street address":"6 Suffolk St","sale price":309000,"housing type":"Single Family","id":"a62xz7t7id89","lat":42.365837,"state":"MA"},"type":"Feature","geometry":{"type":"Point","coordinates":[-71.09884,42.365837]}},{"properties":{"lon":-71.098101,"city":"Cambridge","bedrooms":"2 Br","zip":"02139","sq feet":"678 Sqft","bathrooms":"1 Ba","street address":"353 Prospect St","sale price":309000,"housing type":"Condo","id":"a62xz83tmsjw","lat":42.373737,"state":"MA"},"type":"Feature","geometry":{"type":"Point","coordinates":[-71.098101,42.373737]}},{"properties":{"lon":-71.107311,"city":"Cambridge","bedrooms":"1 Br","zip":"02139","sq feet":"590 Sqft","bathrooms":"1 Ba","street address":"3 Crawford St","sale price":309000,"housing type":"Condo","id":"a62xz7poalfd","lat":42.371066,"state":"MA"},"type":"Feature","geometry":{"type":"Point","coordinates":[-71.107311,42.371066]}},{"properties":{"lon":-71.080502,"city":"Cambridge","bedrooms":"2 Br","zip":"02141","sq feet":"768 Sqft","bathrooms":"1 Ba","street address":"27 Winter St","sale price":309000,"housing type":"Single Family","id":"a62xz7x68um8","lat":42.372665,"state":"MA"},"type":"Feature","geometry":{"type":"Point","coordinates":[-71.080502,42.372665]}},{"properties":{"lon":-71.110773,"city":"Cambridge","bedrooms":"1 Br","zip":"02139","sq feet":"587 Sqft","bathrooms":"1 Ba","street address":"303 Pearl St","sale price":310000,"housing type":"Condo","id":"a62xz7vw3py5","lat":42.357352,"state":"MA"},"type":"Feature","geometry":{"type":"Point","coordinates":[-71.110773,42.357352]}},{"properties":{"lon":-71.110773,"city":"Cambridge","bedrooms":"1 Br","zip":"02139","sq feet":"587 Sqft","bathrooms":"1 Ba","street address":"303 Pearl St","sale price":310000,"housing type":"Condo","id":"a62xz80cdc5q","lat":42.357352,"state":"MA"},"type":"Feature","geometry":{"type":"Point","coordinates":[-71.110773,42.357352]}},{"properties":{"lon":-71.111876,"city":"Cambridge","bedrooms":"2 Br","zip":"02239","sq feet":"750 Sqft","bathrooms":"1 Ba","street address":"55 Magee St","sale price":319000,"housing type":"Condo","id":"a62xz7x353t4","lat":42.366359,"state":"MA"},"type":"Feature","geometry":{"type":"Point","coordinates":[-71.111876,42.366359]}},{"properties":{"lon":-71.112283,"city":"Cambridge","bedrooms":"1 Br","zip":"02139","sq feet":"866 Sqft","bathrooms":"1 Ba","street address":"18 Whitney Ave","sale price":319000,"housing type":"Condo","id":"a62xz81mmjd4","lat":42.359577,"state":"MA"},"type":"Feature","geometry":{"type":"Point","coordinates":[-71.112283,42.359577]}},{"properties":{"lon":-71.099764,"city":"Cambridge","bedrooms":"2 Br","zip":"02139","sq feet":"616 Sqft","bathrooms":"1 Ba","street address":"Franklin St # B","sale price":320000,"housing type":"Condo","id":"a62xz7wz0i1x","lat":42.36127,"state":"MA"},"type":"Feature","geometry":{"type":"Point","coordinates":[-71.099764,42.36127]}},{"properties":{"lon":-71.110858,"city":"Cambridge","bedrooms":"2 Br","zip":"02239","sq feet":"710 Sqft","bathrooms":"1 Ba","street address":"128 Magazine St","sale price":322000,"housing type":"Condo","id":"a62xz7zxiek0","lat":42.359162,"state":"MA"},"type":"Feature","geometry":{"type":"Point","coordinates":[-71.110858,42.359162]}},{"properties":{"lon":-71.091034,"city":"Cambridge","bedrooms":"2 Br","zip":"02141","sq feet":"608 Sqft","bathrooms":"1 Ba","street address":"233 Cardinal Medeiros Ave","sale price":324000,"housing type":"Condo","id":"a62xz80d0jpp","lat":42.3677,"state":"MA"},"type":"Feature","geometry":{"type":"Point","coordinates":[-71.091034,42.3677]}},{"properties":{"lon":-71.123352,"city":"Cambridge","bedrooms":"1 Br","zip":"02138","sq feet":"580 Sqft","bathrooms":"1 Ba","street address":"38 Linnaean St","sale price":325000,"housing type":"Condo","id":"a62xz7w7xufc","lat":42.38343,"state":"MA"},"type":"Feature","geometry":{"type":"Point","coordinates":[-71.123352,42.38343]}},{"properties":{"lon":-71.085619,"city":"Cambridge","bedrooms":"2 Br","zip":"02141","sq feet":"1,530 Sqft","bathrooms":"1.5 Ba","street address":"7th St","sale price":328000,"housing type":"Single Family","id":"a62xz81p7ay7","lat":42.37139,"state":"MA"},"type":"Feature","geometry":{"type":"Point","coordinates":[-71.085619,42.37139]}},{"properties":{"lon":-71.110046,"city":"Cambridge","bedrooms":"2 Br","zip":"02139","sq feet":"783 Sqft","bathrooms":"1 Ba","street address":"19 Fairmont St","sale price":329000,"housing type":"Condo","id":"a62xz7xvxzzh","lat":42.361395,"state":"MA"},"type":"Feature","geometry":{"type":"Point","coordinates":[-71.110046,42.361395]}},{"properties":{"lon":-71.128707,"city":"Cambridge","bedrooms":"2 Br","zip":"02138","sq feet":"690 Sqft","bathrooms":"1 Ba","street address":"36 Parker St","sale price":329000,"housing type":"Condo","id":"a62xz7wijtvz","lat":42.379578,"state":"MA"},"type":"Feature","geometry":{"type":"Point","coordinates":[-71.128707,42.379578]}},{"properties":{"lon":-71.106019,"city":"Cambridge","bedrooms":"2 Br","zip":"02139","sq feet":"985 Sqft","bathrooms":"1 Ba","street address":"15-15a Howard St # 2","sale price":329116,"housing type":"Condo","id":"a62xz7nmfc89","lat":42.36679,"state":"MA"},"type":"Feature","geometry":{"type":"Point","coordinates":[-71.106019,42.36679]}},{"properties":{"lon":-71.091483,"city":"Cambridge","bedrooms":"2 Br","zip":"02141","sq feet":"927 Sqft","bathrooms":"1 Ba","street address":"30 Berkshire St","sale price":329888,"housing type":"Condo","id":"a62xz82systr","lat":42.369074,"state":"MA"},"type":"Feature","geometry":{"type":"Point","coordinates":[-71.091483,42.369074]}},{"properties":{"lon":-71.130846,"city":"Cambridge","bedrooms":"1 Br","zip":"02239","sq feet":"580 Sqft","bathrooms":"1 Ba","street address":"2440 Massachusetts Ave","sale price":329900,"housing type":"Condo","id":"a62xz7v1ps08","lat":42.397813,"state":"MA"},"type":"Feature","geometry":{"type":"Point","coordinates":[-71.130846,42.397813]}},{"properties":{"lon":-71.076536,"city":"Cambridge","bedrooms":"2 Br","zip":"02138","sq feet":"740 Sqft","bathrooms":"1 Ba","street address":"52 Cambridge St","sale price":333336,"housing type":"Condo","id":"a62xz7yqrx2k","lat":42.370445,"state":"MA"},"type":"Feature","geometry":{"type":"Point","coordinates":[-71.076536,42.370445]}},{"properties":{"lon":-71.107368,"city":"Cambridge","bedrooms":"1 Br","zip":"02139","sq feet":"661 Sqft","bathrooms":"1 Ba","street address":"856 Massachusetts Ave","sale price":335000,"housing type":"Condo","id":"a62xz7sgzaln","lat":42.36747,"state":"MA"},"type":"Feature","geometry":{"type":"Point","coordinates":[-71.107368,42.36747]}},{"properties":{"lon":-71.080489,"city":"Cambridge","bedrooms":"4 Br","zip":"02141","sq feet":"2,589 Sqft","bathrooms":"3 Ba","street address":"Winter St","sale price":335370,"housing type":"Townhome","id":"a62xz7vdnrde","lat":42.372527,"state":"MA"},"type":"Feature","geometry":{"type":"Point","coordinates":[-71.080489,42.372527]}},{"properties":{"lon":-71.114669,"city":"Cambridge","bedrooms":"1 Br","zip":"02239","sq feet":"857 Sqft","bathrooms":"1 Ba","street address":"Hingham St","sale price":337500,"housing type":"Condo","id":"a62xz7vyceo2","lat":42.36519,"state":"MA"},"type":"Feature","geometry":{"type":"Point","coordinates":[-71.114669,42.36519]}},{"properties":{"lon":-71.07808,"city":"Cambridge","bedrooms":"3 Br","zip":"02141","sq feet":"1,083 Sqft","bathrooms":"2 Ba","street address":"4 Gore St","sale price":339000,"housing type":"Single Family","id":"a62xz80ymsij","lat":42.371629,"state":"MA"},"type":"Feature","geometry":{"type":"Point","coordinates":[-71.07808,42.371629]}},{"properties":{"lon":-71.071834,"city":"Cambridge","bedrooms":"N/A Br","zip":"02141","sq feet":"735 Sqft","bathrooms":"1 Ba","street address":"8 Museum Way","sale price":339000,"housing type":"Condo","id":"a62xz811toyo","lat":42.369068,"state":"MA"},"type":"Feature","geometry":{"type":"Point","coordinates":[-71.071834,42.369068]}},{"properties":{"lon":-71.12895,"city":"Cambridge","bedrooms":"2 Br","zip":"02239","sq feet":"923 Sqft","bathrooms":"1 Ba","street address":"2353 Massachusetts Ave","sale price":339000,"housing type":"Condo","id":"a62xz82zpomk","lat":42.396452,"state":"MA"},"type":"Feature","geometry":{"type":"Point","coordinates":[-71.12895,42.396452]}},{"properties":{"lon":-71.08087,"city":"Cambridge","bedrooms":"4 Br","zip":"02141","sq feet":"1,379 Sqft","bathrooms":"1 Ba","street address":"73 Gore St","sale price":339000,"housing type":"Single Family","id":"a62xz7uyv1rb","lat":42.372002,"state":"MA"},"type":"Feature","geometry":{"type":"Point","coordinates":[-71.08087,42.372002]}},{"properties":{"lon":-71.124075,"city":"Cambridge","bedrooms":"1 Br","zip":"02239","sq feet":"597 Sqft","bathrooms":"1 Ba","street address":"43 Linnaean St","sale price":339000,"housing type":"Condo","id":"a62xz7qfufh4","lat":42.383373,"state":"MA"},"type":"Feature","geometry":{"type":"Point","coordinates":[-71.124075,42.383373]}},{"properties":{"lon":-71.112619,"city":"Cambridge","bedrooms":"1 Br","zip":"02239","sq feet":"600 Sqft","bathrooms":"1 Ba","street address":"15 Trowbridge St","sale price":339000,"housing type":"Condo","id":"a62xz82rq3lv","lat":42.370867,"state":"MA"},"type":"Feature","geometry":{"type":"Point","coordinates":[-71.112619,42.370867]}},{"properties":{"lon":-71.12354,"city":"Cambridge","bedrooms":"2 Br","zip":"02239","sq feet":"686 Sqft","bathrooms":"1 Ba","street address":"5 Walden St","sale price":339000,"housing type":"Condo","id":"a62xz7zjgdz6","lat":42.391224,"state":"MA"},"type":"Feature","geometry":{"type":"Point","coordinates":[-71.12354,42.391224]}},{"properties":{"lon":-71.104693,"city":"Cambridge","bedrooms":"2 Br","zip":"02139","sq feet":"857 Sqft","bathrooms":"1 Ba","street address":"284 Harvard St","sale price":339990,"housing type":"Condo","id":"a62xz7q8q5oy","lat":42.369194,"state":"MA"},"type":"Feature","geometry":{"type":"Point","coordinates":[-71.104693,42.369194]}},{"properties":{"lon":-71.108955,"city":"Cambridge","bedrooms":"2 Br","zip":"02139","sq feet":"700 Sqft","bathrooms":"1 Ba","street address":"516 Green St","sale price":339999,"housing type":"Condo","id":"a62xz7onq4eb","lat":42.367376,"state":"MA"},"type":"Feature","geometry":{"type":"Point","coordinates":[-71.108955,42.367376]}},{"properties":{"lon":-71.080862,"city":"Cambridge","bedrooms":"2 Br","zip":"02141","sq feet":"876 Sqft","bathrooms":"2 Ba","street address":"42 Winter St","sale price":344900,"housing type":"Condo","id":"a62xz80xf8fg","lat":42.372437,"state":"MA"},"type":"Feature","geometry":{"type":"Point","coordinates":[-71.080862,42.372437]}},{"properties":{"lon":-71.120671,"city":"Cambridge","bedrooms":"1 Br","zip":"02138","sq feet":"606 Sqft","bathrooms":"1 Ba","street address":"1572 Massachusetts Ave","sale price":348000,"housing type":"Condo","id":"a62xz7r2s6ot","lat":42.378393,"state":"MA"},"type":"Feature","geometry":{"type":"Point","coordinates":[-71.120671,42.378393]}},{"properties":{"lon":-71.071834,"city":"Cambridge","bedrooms":"1 Br","zip":"02141","sq feet":"655 Sqft","bathrooms":"1 Ba","street address":"8 Museum Way","sale price":349000,"housing type":"Condo","id":"a62xz7oq0w5j","lat":42.369068,"state":"MA"},"type":"Feature","geometry":{"type":"Point","coordinates":[-71.071834,42.369068]}},{"properties":{"lon":-71.122285,"city":"Cambridge","bedrooms":"1 Br","zip":"02138","sq feet":"571 Sqft","bathrooms":"1 Ba","street address":"16 Chauncy St","sale price":349000,"housing type":"Condo","id":"a62xz7y2khfb","lat":42.379473,"state":"MA"},"type":"Feature","geometry":{"type":"Point","coordinates":[-71.122285,42.379473]}},{"properties":{"lon":-71.095506,"city":"Cambridge","bedrooms":"1 Br","zip":"02239","sq feet":"642 Sqft","bathrooms":"1 Ba","street address":"2 Union Ter","sale price":349900,"housing type":"Condo","id":"a62xz7plgdzi","lat":42.370005,"state":"MA"},"type":"Feature","geometry":{"type":"Point","coordinates":[-71.095506,42.370005]}},{"properties":{"lon":-71.151679,"city":"Cambridge","bedrooms":"2 Br","zip":"02138","sq feet":"1,179 Sqft","bathrooms":"1 Ba","street address":"30 Cushing St","sale price":349900,"housing type":"Condo","id":"a62xz82e17u2","lat":42.37559,"state":"MA"},"type":"Feature","geometry":{"type":"Point","coordinates":[-71.151679,42.37559]}},{"properties":{"lon":-71.114286,"city":"Cambridge","bedrooms":"1 Br","zip":"02239","sq feet":"790 Sqft","bathrooms":"1 Ba","street address":"59 Sacramento St","sale price":349900,"housing type":"Condo","id":"a62xz7v4lcoq","lat":42.382687,"state":"MA"},"type":"Feature","geometry":{"type":"Point","coordinates":[-71.114286,42.382687]}},{"properties":{"lon":-71.099734,"city":"Cambridge","bedrooms":"2 Br","zip":"02139","sq feet":"981 Sqft","bathrooms":"2 Ba","street address":"2 Columbia St","sale price":350860,"housing type":"Condo","id":"a62xz7waghj2","lat":42.363595,"state":"MA"},"type":"Feature","geometry":{"type":"Point","coordinates":[-71.099734,42.363595]}},{"properties":{"lon":-71.106034,"city":"Cambridge","bedrooms":"2 Br","zip":"02239","sq feet":"613 Sqft","bathrooms":"1 Ba","street address":"193 Brookline St","sale price":354000,"housing type":"Condo","id":"a62xz7xupnss","lat":42.359501,"state":"MA"},"type":"Feature","geometry":{"type":"Point","coordinates":[-71.106034,42.359501]}},{"properties":{"lon":-71.149333,"city":"Cambridge","bedrooms":"2 Br","zip":"02138","sq feet":"1,112 Sqft","bathrooms":"2 Ba","street address":"655 Concord Ave","sale price":357000,"housing type":"Condo","id":"a62xz7zm3ypn","lat":42.390003,"state":"MA"},"type":"Feature","geometry":{"type":"Point","coordinates":[-71.149333,42.390003]}},{"properties":{"lon":-71.107622,"city":"Cambridge","bedrooms":"1 Br","zip":"02239","sq feet":"750 Sqft","bathrooms":"1.5 Ba","street address":"872 Massachusetts Ave","sale price":359000,"housing type":"Condo","id":"a62xz7pdk4fg","lat":42.367667,"state":"MA"},"type":"Feature","geometry":{"type":"Point","coordinates":[-71.107622,42.367667]}},{"properties":{"lon":-71.122304,"city":"Cambridge","bedrooms":"1 Br","zip":"02138","sq feet":"777 Sqft","bathrooms":"1 Ba","street address":"77 Martin St","sale price":359000,"housing type":"Condo","id":"a62xz81m3d6x","lat":42.382565,"state":"MA"},"type":"Feature","geometry":{"type":"Point","coordinates":[-71.122304,42.382565]}},{"properties":{"lon":-71.107314,"city":"Cambridge","bedrooms":"1 Br","zip":"02139","sq feet":"698 Sqft","bathrooms":"1 Ba","street address":"852 Massachusetts Ave","sale price":359000,"housing type":"Condo","id":"a62xz83i8ltf","lat":42.367415,"state":"MA"},"type":"Feature","geometry":{"type":"Point","coordinates":[-71.107314,42.367415]}},{"properties":{"lon":-71.071804,"city":"Cambridge","bedrooms":"1 Br","zip":"02239","sq feet":"663 Sqft","bathrooms":"1 Ba","street address":"Museum Way","sale price":359000,"housing type":"Condo","id":"a62xz7wxkzzb","lat":42.36933,"state":"MA"},"type":"Feature","geometry":{"type":"Point","coordinates":[-71.071804,42.36933]}},{"properties":{"lon":-71.132961,"city":"Cambridge","bedrooms":"1 Br","zip":"02239","sq feet":"1,175 Sqft","bathrooms":"1.5 Ba","street address":"147 Sherman St","sale price":359000,"housing type":"Condo","id":"a62xz82eazyh","lat":42.391426,"state":"MA"},"type":"Feature","geometry":{"type":"Point","coordinates":[-71.132961,42.391426]}},{"properties":{"lon":-71.086128,"city":"Cambridge","bedrooms":"2 Br","zip":"02239","sq feet":"970 Sqft","bathrooms":"2 Ba","street address":"170 Gore St","sale price":359000,"housing type":"Condo","id":"a62xz7sd2yom","lat":42.372763,"state":"MA"},"type":"Feature","geometry":{"type":"Point","coordinates":[-71.086128,42.372763]}},{"properties":{"lon":-71.104535,"city":"Cambridge","bedrooms":"2 Br","zip":"02139","sq feet":"760 Sqft","bathrooms":"1 Ba","street address":"287 Harvard St","sale price":359000,"housing type":"Condo","id":"a62xz7v8frbm","lat":42.369436,"state":"MA"},"type":"Feature","geometry":{"type":"Point","coordinates":[-71.104535,42.369436]}},{"properties":{"lon":-71.107348,"city":"Cambridge","bedrooms":"1 Br","zip":"02139","sq feet":"694 Sqft","bathrooms":"1 Ba","street address":"854 Massachusetts Ave","sale price":359000,"housing type":"Condo","id":"a62xz82agp3y","lat":42.367437,"state":"MA"},"type":"Feature","geometry":{"type":"Point","coordinates":[-71.107348,42.367437]}},{"properties":{"lon":-71.114878,"city":"Cambridge","bedrooms":"1 Br","zip":"02239","sq feet":"809 Sqft","bathrooms":"1 Ba","street address":"48 Crescent St","sale price":359000,"housing type":"Condo","id":"a62xz7ur6egf","lat":42.382845,"state":"MA"},"type":"Feature","geometry":{"type":"Point","coordinates":[-71.114878,42.382845]}},{"properties":{"lon":-71.136807,"city":"Cambridge","bedrooms":"2 Br","zip":"02239","sq feet":"1,153 Sqft","bathrooms":"2 Ba","street address":"318 Rindge Ave","sale price":359900,"housing type":"Condo","id":"a62xz7w61vz8","lat":42.393673,"state":"MA"},"type":"Feature","geometry":{"type":"Point","coordinates":[-71.136807,42.393673]}},{"properties":{"lon":-71.136807,"city":"Cambridge","bedrooms":"2 Br","zip":"02239","sq feet":"1,210 Sqft","bathrooms":"2 Ba","street address":"318 Rindge Ave","sale price":359900,"housing type":"Condo","id":"a62xz8353wb1","lat":42.393673,"state":"MA"},"type":"Feature","geometry":{"type":"Point","coordinates":[-71.136807,42.393673]}},{"properties":{"lon":-71.136807,"city":"Cambridge","bedrooms":"2 Br","zip":"02239","sq feet":"1,149 Sqft","bathrooms":"2 Ba","street address":"318 Rindge Ave","sale price":364900,"housing type":"Condo","id":"a62xz7t9fwfw","lat":42.393673,"state":"MA"},"type":"Feature","geometry":{"type":"Point","coordinates":[-71.136807,42.393673]}},{"properties":{"lon":-71.12299,"city":"Cambridge","bedrooms":"2 Br","zip":"02239","sq feet":"1,120 Sqft","bathrooms":"1 Ba","street address":"31 Linnaean St","sale price":365000,"housing type":"Condo","id":"a62xz7qbra9w","lat":42.383868,"state":"MA"},"type":"Feature","geometry":{"type":"Point","coordinates":[-71.12299,42.383868]}},{"properties":{"lon":-71.12299,"city":"Cambridge","bedrooms":"2 Br","zip":"02138","sq feet":"2 Sqft","bathrooms":"1 Ba","street address":"31 Linnaean St","sale price":365000,"housing type":"Condo","id":"a62xz82dosjp","lat":42.383868,"state":"MA"},"type":"Feature","geometry":{"type":"Point","coordinates":[-71.12299,42.383868]}},{"properties":{"lon":-71.111987,"city":"Cambridge","bedrooms":"2 Br","zip":"02239","sq feet":"1,013 Sqft","bathrooms":"2 Ba","street address":"58 Fairmont St","sale price":369000,"housing type":"Condo","id":"a62xz7oitvr8","lat":42.362337,"state":"MA"},"type":"Feature","geometry":{"type":"Point","coordinates":[-71.111987,42.362337]}},{"properties":{"lon":-71.119828,"city":"Cambridge","bedrooms":"2 Br","zip":"02138","sq feet":"755 Sqft","bathrooms":"1 Ba","street address":"3 Linnaean St","sale price":369000,"housing type":"Condo","id":"a62xz7r43kgn","lat":42.384895,"state":"MA"},"type":"Feature","geometry":{"type":"Point","coordinates":[-71.119828,42.384895]}},{"properties":{"lon":-71.07808,"city":"Cambridge","bedrooms":"3 Br","zip":"02141","sq feet":"1,083 Sqft","bathrooms":"2 Ba","street address":"4 Gore St","sale price":369995,"housing type":"Single Family","id":"a62xz7nm0us0","lat":42.371629,"state":"MA"},"type":"Feature","geometry":{"type":"Point","coordinates":[-71.07808,42.371629]}},{"properties":{"lon":-71.117501,"city":"Cambridge","bedrooms":"2 Br","zip":"02239","sq feet":"817 Sqft","bathrooms":"1 Ba","street address":"64 Frost St","sale price":375000,"housing type":"Condo","id":"a62xz7uqah2m","lat":42.384528,"state":"MA"},"type":"Feature","geometry":{"type":"Point","coordinates":[-71.117501,42.384528]}},{"properties":{"lon":-71.110858,"city":"Cambridge","bedrooms":"2 Br","zip":"02139","sq feet":"836 Sqft","bathrooms":"1 Ba","street address":"128 Magazine St","sale price":379000,"housing type":"Condo","id":"a62xz7pbzelc","lat":42.359162,"state":"MA"},"type":"Feature","geometry":{"type":"Point","coordinates":[-71.110858,42.359162]}},{"properties":{"lon":-71.11056,"city":"Cambridge","bedrooms":"1 Br","zip":"02239","sq feet":"815 Sqft","bathrooms":"1.5 Ba","street address":"39 Ellery St","sale price":379000,"housing type":"Condo","id":"a62xz7w1502p","lat":42.371782,"state":"MA"},"type":"Feature","geometry":{"type":"Point","coordinates":[-71.11056,42.371782]}},{"properties":{"lon":-71.071783,"city":"Cambridge","bedrooms":"1 Br","zip":"02141","sq feet":"667 Sqft","bathrooms":"1 Ba","street address":"10 Museum Way","sale price":379000,"housing type":"Condo","id":"a62xz7r98jr7","lat":42.36912,"state":"MA"},"type":"Feature","geometry":{"type":"Point","coordinates":[-71.071783,42.36912]}},{"properties":{"lon":-71.114499,"city":"Cambridge","bedrooms":"2 Br","zip":"02239","sq feet":"919 Sqft","bathrooms":"1 Ba","street address":"4 Arcadia St","sale price":379000,"housing type":"Condo","id":"a62xz7ycejxo","lat":42.383528,"state":"MA"},"type":"Feature","geometry":{"type":"Point","coordinates":[-71.114499,42.383528]}},{"properties":{"lon":-71.077302,"city":"Cambridge","bedrooms":"2 Br","zip":"02141","sq feet":"906 Sqft","bathrooms":"2 Ba","street address":"169 Monsignor Obrien Hwy","sale price":379900,"housing type":"Condo","id":"a62xz7tovx4n","lat":42.371667,"state":"MA"},"type":"Feature","geometry":{"type":"Point","coordinates":[-71.077302,42.371667]}},{"properties":{"lon":-71.081539,"city":"Cambridge","bedrooms":"4 Br","zip":"02141","sq feet":"1,653 Sqft","bathrooms":"2 Ba","street address":"3rd St","sale price":381143,"housing type":"Single Family","id":"a62xz7on623n","lat":42.36718,"state":"MA"},"type":"Feature","geometry":{"type":"Point","coordinates":[-71.081539,42.36718]}},{"properties":{"lon":-71.13387,"city":"Cambridge","bedrooms":"2 Br","zip":"02239","sq feet":"1,101 Sqft","bathrooms":"1 Ba","street address":"249 Huron Ave","sale price":389000,"housing type":"Condo","id":"a62xz7wgbaxp","lat":42.381609,"state":"MA"},"type":"Feature","geometry":{"type":"Point","coordinates":[-71.13387,42.381609]}},{"properties":{"lon":-71.132199,"city":"Cambridge","bedrooms":"2 Br","zip":"02239","sq feet":"1,116 Sqft","bathrooms":"1 Ba","street address":"Reed St","sale price":389000,"housing type":"Condo","id":"a62xz7ol9gsu","lat":42.396775,"state":"MA"},"type":"Feature","geometry":{"type":"Point","coordinates":[-71.132199,42.396775]}},{"properties":{"lon":-71.096138,"city":"Cambridge","bedrooms":"1 Br","zip":"02139","sq feet":"1,000 Sqft","bathrooms":"1 Ba","street address":"252 Broadway","sale price":389000,"housing type":"Condo","id":"a62xz7vfpgnc","lat":42.367249,"state":"MA"},"type":"Feature","geometry":{"type":"Point","coordinates":[-71.096138,42.367249]}},{"properties":{"lon":-71.09277,"city":"Cambridge","bedrooms":"3 Br","zip":"02239","sq feet":"1,276 Sqft","bathrooms":"1 Ba","street address":"42 Bristol Street","sale price":389000,"housing type":"Single Family","id":"a62xz7vhzbz4","lat":42.368176,"state":"MA"},"type":"Feature","geometry":{"type":"Point","coordinates":[-71.09277,42.368176]}},{"properties":{"lon":-71.071783,"city":"Cambridge","bedrooms":"1 Br","zip":"02239","sq feet":"663 Sqft","bathrooms":"1 Ba","street address":"10 Museum Way","sale price":389900,"housing type":"Condo","id":"a62xz7r5wseq","lat":42.36912,"state":"MA"},"type":"Feature","geometry":{"type":"Point","coordinates":[-71.071783,42.36912]}},{"properties":{"lon":-71.113062,"city":"Cambridge","bedrooms":"1 Br","zip":"02239","sq feet":"742 Sqft","bathrooms":"1 Ba","street address":"7 Florence St","sale price":389900,"housing type":"Condo","id":"a62xz7v00c59","lat":42.358256,"state":"MA"},"type":"Feature","geometry":{"type":"Point","coordinates":[-71.113062,42.358256]}},{"properties":{"lon":-71.116534,"city":"Cambridge","bedrooms":"2 Br","zip":"02138","sq feet":"1,112 Sqft","bathrooms":"2 Ba","street address":"N/A","sale price":390000,"housing type":"Condo","id":"a62xz7u5ynia","lat":42.379485,"state":"MA"},"type":"Feature","geometry":{"type":"Point","coordinates":[-71.116534,42.379485]}},{"properties":{"lon":-71.071783,"city":"Cambridge","bedrooms":"1 Br","zip":"02141","sq feet":"663 Sqft","bathrooms":"1 Ba","street address":"10 Museum Way","sale price":395000,"housing type":"Condo","id":"a62xz81r7kx5","lat":42.36912,"state":"MA"},"type":"Feature","geometry":{"type":"Point","coordinates":[-71.071783,42.36912]}},{"properties":{"lon":-71.110322,"city":"Cambridge","bedrooms":"2 Br","zip":"02139","sq feet":"1,172 Sqft","bathrooms":"1 Ba","street address":"199 Western Ave","sale price":395000,"housing type":"Condo","id":"a62xz7so3ln5","lat":42.364931,"state":"MA"},"type":"Feature","geometry":{"type":"Point","coordinates":[-71.110322,42.364931]}},{"properties":{"lon":-71.071834,"city":"Cambridge","bedrooms":"1 Br","zip":"02141","sq feet":"665 Sqft","bathrooms":"1 Ba","street address":"8 Museum Way","sale price":399000,"housing type":"Condo","id":"a62xz7t0ost3","lat":42.369068,"state":"MA"},"type":"Feature","geometry":{"type":"Point","coordinates":[-71.071834,42.369068]}},{"properties":{"lon":-71.078372,"city":"Cambridge","bedrooms":"1 Br","zip":"02239","sq feet":"650 Sqft","bathrooms":"1 Ba","street address":"20 Second","sale price":399000,"housing type":"Condo","id":"a62xz81nelhd","lat":42.371024,"state":"MA"},"type":"Feature","geometry":{"type":"Point","coordinates":[-71.078372,42.371024]}},{"properties":{"lon":-71.110441,"city":"Cambridge","bedrooms":"2 Br","zip":"02239","sq feet":"1,202 Sqft","bathrooms":"1 Ba","street address":"8 Howard St","sale price":399000,"housing type":"Condo","id":"a62xz7qrrtp7","lat":42.363769,"state":"MA"},"type":"Feature","geometry":{"type":"Point","coordinates":[-71.110441,42.363769]}},{"properties":{"lon":-71.104077,"city":"Cambridge","bedrooms":"3 Br","zip":"02139","sq feet":"1,426 Sqft","bathrooms":"1 Ba","street address":"1 Salem St","sale price":399000,"housing type":"Condo","id":"a62xz7wpop35","lat":42.362896,"state":"MA"},"type":"Feature","geometry":{"type":"Point","coordinates":[-71.104077,42.362896]}},{"properties":{"lon":-71.137249,"city":"Cambridge","bedrooms":"2 Br","zip":"02138","sq feet":"1,200 Sqft","bathrooms":"1 Ba","street address":"103 Fayerweather St","sale price":399900,"housing type":"Condo","id":"a62xz7pa4ssd","lat":42.382514,"state":"MA"},"type":"Feature","geometry":{"type":"Point","coordinates":[-71.137249,42.382514]}},{"properties":{"lon":-71.103534,"city":"Cambridge","bedrooms":"2 Br","zip":"02239","sq feet":"903 Sqft","bathrooms":"1 Ba","street address":"276 Harvard St","sale price":404500,"housing type":"Condo","id":"a62xz7sot9ll","lat":42.368784,"state":"MA"},"type":"Feature","geometry":{"type":"Point","coordinates":[-71.103534,42.368784]}},{"properties":{"lon":-71.082089,"city":"Cambridge","bedrooms":"N/A Br","zip":"02141","sq feet":"N/A Sqft","bathrooms":"N/A Ba","street address":"716 Monsignor Obrien Hwy","sale price":405000,"housing type":"Condo","id":"a62xz7thpixm","lat":42.37367,"state":"MA"},"type":"Feature","geometry":{"type":"Point","coordinates":[-71.082089,42.37367]}},{"properties":{"lon":-71.071834,"city":"Cambridge","bedrooms":"1 Br","zip":"02141","sq feet":"663 Sqft","bathrooms":"1 Ba","street address":"8 Museum Way","sale price":415000,"housing type":"Condo","id":"a62xz7uxk9aw","lat":42.369068,"state":"MA"},"type":"Feature","geometry":{"type":"Point","coordinates":[-71.071834,42.369068]}},{"properties":{"lon":-71.108254,"city":"Cambridge","bedrooms":"2 Br","zip":"02239","sq feet":"704 Sqft","bathrooms":"1 Ba","street address":"Soden St","sale price":415000,"housing type":"Condo","id":"a62xz7xjeeh4","lat":42.36604,"state":"MA"},"type":"Feature","geometry":{"type":"Point","coordinates":[-71.108254,42.36604]}},{"properties":{"lon":-71.107005,"city":"Cambridge","bedrooms":"2 Br","zip":"02139","sq feet":"966 Sqft","bathrooms":"2 Ba","street address":"20 Chestnut St","sale price":415000,"housing type":"Condo","id":"a62xz7q03hfc","lat":42.355428,"state":"MA"},"type":"Feature","geometry":{"type":"Point","coordinates":[-71.107005,42.355428]}},{"properties":{"lon":-71.135171,"city":"Cambridge","bedrooms":"2 Br","zip":"02239","sq feet":"1,115 Sqft","bathrooms":"1 Ba","street address":"414 Walden St","sale price":415000,"housing type":"Condo","id":"a62xz7xheuap","lat":42.38277,"state":"MA"},"type":"Feature","geometry":{"type":"Point","coordinates":[-71.135171,42.38277]}},{"properties":{"lon":-71.086819,"city":"Cambridge","bedrooms":"3 Br","zip":"02141","sq feet":"962 Sqft","bathrooms":"1.5 Ba","street address":"179 Spring St","sale price":419000,"housing type":"Single Family","id":"a62xz7rfpje1","lat":42.369915,"state":"MA"},"type":"Feature","geometry":{"type":"Point","coordinates":[-71.086819,42.369915]}},{"properties":{"lon":-71.087371,"city":"Cambridge","bedrooms":"2 Br","zip":"02141","sq feet":"1,165 Sqft","bathrooms":"1.5 Ba","street address":"217 Thorndike St","sale price":419000,"housing type":"Condo","id":"a62xz7wqf9xr","lat":42.370662,"state":"MA"},"type":"Feature","geometry":{"type":"Point","coordinates":[-71.087371,42.370662]}},{"properties":{"lon":-71.13387,"city":"Cambridge","bedrooms":"2 Br","zip":"02239","sq feet":"1,028 Sqft","bathrooms":"1 Ba","street address":"249 Huron Ave","sale price":419000,"housing type":"Condo","id":"a62xz7q0v4ln","lat":42.381609,"state":"MA"},"type":"Feature","geometry":{"type":"Point","coordinates":[-71.13387,42.381609]}},{"properties":{"lon":-71.071783,"city":"Cambridge","bedrooms":"1 Br","zip":"02141","sq feet":"663 Sqft","bathrooms":"1 Ba","street address":"10 Museum Way","sale price":419000,"housing type":"Condo","id":"a62xz82wb9mm","lat":42.36912,"state":"MA"},"type":"Feature","geometry":{"type":"Point","coordinates":[-71.071783,42.36912]}},{"properties":{"lon":-71.106019,"city":"Cambridge","bedrooms":"3 Br","zip":"02139","sq feet":"1,155 Sqft","bathrooms":"1 Ba","street address":"15-15a Howard St # 1","sale price":421000,"housing type":"Condo","id":"a62xz7veui5n","lat":42.36679,"state":"MA"},"type":"Feature","geometry":{"type":"Point","coordinates":[-71.106019,42.36679]}},{"properties":{"lon":-71.083104,"city":"Cambridge","bedrooms":"2 Br","zip":"02141","sq feet":"1,318 Sqft","bathrooms":"2 Ba","street address":"Charles St","sale price":422000,"housing type":"Condo","id":"a62xz7wxqceg","lat":42.367925,"state":"MA"},"type":"Feature","geometry":{"type":"Point","coordinates":[-71.083104,42.367925]}},{"properties":{"lon":-71.081539,"city":"Cambridge","bedrooms":"3 Br","zip":"02141","sq feet":"1,674 Sqft","bathrooms":"4 Ba","street address":"3rd St","sale price":422000,"housing type":"Townhome","id":"a62xz82vj87r","lat":42.36718,"state":"MA"},"type":"Feature","geometry":{"type":"Point","coordinates":[-71.081539,42.36718]}},{"properties":{"lon":-71.074616,"city":"Cambridge","bedrooms":"1 Br","zip":"02141","sq feet":"814 Sqft","bathrooms":"1 Ba","street address":"6 Canal Park","sale price":422000,"housing type":"Condo","id":"a62xz83hudk3","lat":42.368053,"state":"MA"},"type":"Feature","geometry":{"type":"Point","coordinates":[-71.074616,42.368053]}},{"properties":{"lon":-71.13044,"city":"Cambridge","bedrooms":"2 Br","zip":"02239","sq feet":"1,199 Sqft","bathrooms":"1.5 Ba","street address":"138 Huron Ave","sale price":424900,"housing type":"Condo","id":"a62xz7pebxe6","lat":42.382692,"state":"MA"},"type":"Feature","geometry":{"type":"Point","coordinates":[-71.13044,42.382692]}},{"properties":{"lon":-71.137758,"city":"Cambridge","bedrooms":"2 Br","zip":"02138","sq feet":"869 Sqft","bathrooms":"1 Ba","street address":"391 Concord Ave","sale price":425000,"housing type":"Condo","id":"a62xz7td6nyc","lat":42.385583,"state":"MA"},"type":"Feature","geometry":{"type":"Point","coordinates":[-71.137758,42.385583]}},{"properties":{"lon":-71.133173,"city":"Cambridge","bedrooms":"3 Br","zip":"02239","sq feet":"1,152 Sqft","bathrooms":"1 Ba","street address":"271 Concord Ave","sale price":425000,"housing type":"Condo","id":"a62xz7sn4l5n","lat":42.383604,"state":"MA"},"type":"Feature","geometry":{"type":"Point","coordinates":[-71.133173,42.383604]}},{"properties":{"lon":-71.071783,"city":"Cambridge","bedrooms":"1 Br","zip":"02141","sq feet":"812 Sqft","bathrooms":"1 Ba","street address":"10 Museum Way","sale price":425000,"housing type":"Condo","id":"a62xz7qi1f7i","lat":42.36912,"state":"MA"},"type":"Feature","geometry":{"type":"Point","coordinates":[-71.071783,42.36912]}},{"properties":{"lon":-71.071804,"city":"Cambridge","bedrooms":"1 Br","zip":"02141","sq feet":"663 Sqft","bathrooms":"1 Ba","street address":"Museum Way # N1128","sale price":428000,"housing type":"Condo","id":"a62xz80ba459","lat":42.36933,"state":"MA"},"type":"Feature","geometry":{"type":"Point","coordinates":[-71.071804,42.36933]}},{"properties":{"lon":-71.137465,"city":"Cambridge","bedrooms":"3 Br","zip":"02239","sq feet":"1,103 Sqft","bathrooms":"1 Ba","street address":"374 Concord Ave","sale price":429000,"housing type":"Condo","id":"a62xz7ob52rp","lat":42.385243,"state":"MA"},"type":"Feature","geometry":{"type":"Point","coordinates":[-71.137465,42.385243]}},{"properties":{"lon":-71.13241,"city":"Cambridge","bedrooms":"2 Br","zip":"02239","sq feet":"1,098 Sqft","bathrooms":"2 Ba","street address":"69 Harvey St","sale price":429000,"housing type":"Condo","id":"a62xz7qa0v8f","lat":42.397413,"state":"MA"},"type":"Feature","geometry":{"type":"Point","coordinates":[-71.13241,42.397413]}},{"properties":{"lon":-71.098131,"city":"Cambridge","bedrooms":"1 Br","zip":"02139","sq feet":"1 Sqft","bathrooms":"1 Ba","street address":"253 Norfolk St","sale price":429000,"housing type":"Single Family","id":"a62xz7nvk9wr","lat":42.370323,"state":"MA"},"type":"Feature","geometry":{"type":"Point","coordinates":[-71.098131,42.370323]}},{"properties":{"lon":-71.140196,"city":"Cambridge","bedrooms":"2 Br","zip":"02138","sq feet":"1,032 Sqft","bathrooms":"1 Ba","street address":"24 Bay State Rd","sale price":439000,"housing type":"Condo","id":"a62xz7znilnm","lat":42.38708,"state":"MA"},"type":"Feature","geometry":{"type":"Point","coordinates":[-71.140196,42.38708]}},{"properties":{"lon":-71.071783,"city":"Cambridge","bedrooms":"1 Br","zip":"02141","sq feet":"663 Sqft","bathrooms":"1 Ba","street address":"10 Museum Way","sale price":439000,"housing type":"Condo","id":"a62xz7wf72rc","lat":42.36912,"state":"MA"},"type":"Feature","geometry":{"type":"Point","coordinates":[-71.071783,42.36912]}},{"properties":{"lon":-71.144325,"city":"Cambridge","bedrooms":"2 Br","zip":"02138","sq feet":"1,083 Sqft","bathrooms":"2 Ba","street address":"29 Wheeler St","sale price":440000,"housing type":"Condo","id":"a62xz7o07zyq","lat":42.389706,"state":"MA"},"type":"Feature","geometry":{"type":"Point","coordinates":[-71.144325,42.389706]}},{"properties":{"lon":-71.112219,"city":"Cambridge","bedrooms":"2 Br","zip":"02139","sq feet":"1,090 Sqft","bathrooms":"1 Ba","street address":"GLENWOOD Ave","sale price":449000,"housing type":"Condo","id":"a62xz7q6cq0q","lat":42.356945,"state":"MA"},"type":"Feature","geometry":{"type":"Point","coordinates":[-71.112219,42.356945]}},{"properties":{"lon":-71.106535,"city":"Cambridge","bedrooms":"2 Br","zip":"02239","sq feet":"906 Sqft","bathrooms":"1 Ba","street address":"173 Hancock St","sale price":449000,"housing type":"Condo","id":"a62xz7otc453","lat":42.370838,"state":"MA"},"type":"Feature","geometry":{"type":"Point","coordinates":[-71.106535,42.370838]}},{"properties":{"lon":-71.134298,"city":"Cambridge","bedrooms":"2 Br","zip":"02239","sq feet":"1,170 Sqft","bathrooms":"1.5 Ba","street address":"127 Appleton St","sale price":449000,"housing type":"Condo","id":"a62xz7oor02k","lat":42.381127,"state":"MA"},"type":"Feature","geometry":{"type":"Point","coordinates":[-71.134298,42.381127]}},{"properties":{"lon":-71.104465,"city":"Cambridge","bedrooms":"2 Br","zip":"02139","sq feet":"1,035 Sqft","bathrooms":"1 Ba","street address":"28 Maple Ave","sale price":469000,"housing type":"Condo","id":"a62xz7sxdpr6","lat":42.372477,"state":"MA"},"type":"Feature","geometry":{"type":"Point","coordinates":[-71.104465,42.372477]}},{"properties":{"lon":-71.071834,"city":"Cambridge","bedrooms":"1 Br","zip":"02141","sq feet":"663 Sqft","bathrooms":"1 Ba","street address":"8 Museum Way","sale price":469000,"housing type":"Condo","id":"a62xz7sezd8w","lat":42.369068,"state":"MA"},"type":"Feature","geometry":{"type":"Point","coordinates":[-71.071834,42.369068]}},{"properties":{"lon":-71.124923,"city":"Cambridge","bedrooms":"2 Br","zip":"02138","sq feet":"973 Sqft","bathrooms":"1 Ba","street address":"6 Brewer St","sale price":469000,"housing type":"Condo","id":"a62xz80ckj1n","lat":42.373682,"state":"MA"},"type":"Feature","geometry":{"type":"Point","coordinates":[-71.124923,42.373682]}},{"properties":{"lon":-71.071834,"city":"Cambridge","bedrooms":"1 Br","zip":"02141","sq feet":"663 Sqft","bathrooms":"1 Ba","street address":"8 Museum Way","sale price":469000,"housing type":"Condo","id":"a62xz81mqkur","lat":42.369068,"state":"MA"},"type":"Feature","geometry":{"type":"Point","coordinates":[-71.071834,42.369068]}},{"properties":{"lon":-71.071834,"city":"Cambridge","bedrooms":"1 Br","zip":"02141","sq feet":"796 Sqft","bathrooms":"1 Ba","street address":"8 Museum Way","sale price":469000,"housing type":"Condo","id":"a62xz80vngmu","lat":42.369068,"state":"MA"},"type":"Feature","geometry":{"type":"Point","coordinates":[-71.071834,42.369068]}},{"properties":{"lon":-71.112962,"city":"Cambridge","bedrooms":"2 Br","zip":"02139","sq feet":"1,375 Sqft","bathrooms":"1 Ba","street address":"222 Chestnut St","sale price":476000,"housing type":"Condo","id":"a62xz7pd92gw","lat":42.358863,"state":"MA"},"type":"Feature","geometry":{"type":"Point","coordinates":[-71.112962,42.358863]}},{"properties":{"lon":-71.112962,"city":"Cambridge","bedrooms":"2 Br","zip":"02139","sq feet":"1,375 Sqft","bathrooms":"1 Ba","street address":"222 Chestnut St","sale price":476000,"housing type":"Condo","id":"a62xz7o5tq5r","lat":42.358863,"state":"MA"},"type":"Feature","geometry":{"type":"Point","coordinates":[-71.112962,42.358863]}},{"properties":{"lon":-71.112926,"city":"Cambridge","bedrooms":"2 Br","zip":"02139","sq feet":"1,222 Sqft","bathrooms":"1.5 Ba","street address":"286 River St","sale price":479000,"housing type":"Condo","id":"a62xz7v06osb","lat":42.362333,"state":"MA"},"type":"Feature","geometry":{"type":"Point","coordinates":[-71.112926,42.362333]}},{"properties":{"lon":-71.071783,"city":"Cambridge","bedrooms":"1 Br","zip":"02141","sq feet":"807 Sqft","bathrooms":"1 Ba","street address":"10 Museum Way","sale price":479000,"housing type":"Condo","id":"a62xz7xc05zb","lat":42.36912,"state":"MA"},"type":"Feature","geometry":{"type":"Point","coordinates":[-71.071783,42.36912]}},{"properties":{"lon":-71.071783,"city":"Cambridge","bedrooms":"1 Br","zip":"02141","sq feet":"807 Sqft","bathrooms":"1 Ba","street address":"10 Museum Way","sale price":479000,"housing type":"Condo","id":"a62xz7wr5ers","lat":42.36912,"state":"MA"},"type":"Feature","geometry":{"type":"Point","coordinates":[-71.071783,42.36912]}},{"properties":{"lon":-71.137758,"city":"Cambridge","bedrooms":"2 Br","zip":"02138","sq feet":"1,228 Sqft","bathrooms":"1.5 Ba","street address":"391 Concord Ave","sale price":479000,"housing type":"Condo","id":"a62xz7shxwvs","lat":42.385583,"state":"MA"},"type":"Feature","geometry":{"type":"Point","coordinates":[-71.137758,42.385583]}},{"properties":{"lon":-71.077647,"city":"Cambridge","bedrooms":"1 Br","zip":"02141","sq feet":"879 Sqft","bathrooms":"1 Ba","street address":"17 Otis St","sale price":479900,"housing type":"Condo","id":"a62xz7yspnx7","lat":42.37014,"state":"MA"},"type":"Feature","geometry":{"type":"Point","coordinates":[-71.077647,42.37014]}},{"properties":{"lon":-71.071804,"city":"Cambridge","bedrooms":"2 Br","zip":"02141","sq feet":"1,066 Sqft","bathrooms":"2 Ba","street address":"Museum Way # N2122","sale price":485000,"housing type":"Condo","id":"a62xz7qj7ef6","lat":42.36933,"state":"MA"},"type":"Feature","geometry":{"type":"Point","coordinates":[-71.071804,42.36933]}},{"properties":{"lon":-71.101906,"city":"Cambridge","bedrooms":"2 Br","zip":"02239","sq feet":"1,208 Sqft","bathrooms":"1 Ba","street address":"328 Broadway","sale price":489000,"housing type":"Condo","id":"a62xz7o7wncd","lat":42.36956,"state":"MA"},"type":"Feature","geometry":{"type":"Point","coordinates":[-71.101906,42.36956]}},{"properties":{"lon":-71.077647,"city":"Cambridge","bedrooms":"1 Br","zip":"02239","sq feet":"879 Sqft","bathrooms":"1 Ba","street address":"17 Otis St","sale price":489000,"housing type":"Condo","id":"a62xz7vfg1cs","lat":42.37014,"state":"MA"},"type":"Feature","geometry":{"type":"Point","coordinates":[-71.077647,42.37014]}},{"properties":{"lon":-71.120516,"city":"Cambridge","bedrooms":"2 Br","zip":"02138","sq feet":"1,006 Sqft","bathrooms":"2 Ba","street address":"1580 Massachusetts Ave","sale price":489000,"housing type":"Condo","id":"a62xz7sw0e2s","lat":42.378793,"state":"MA"},"type":"Feature","geometry":{"type":"Point","coordinates":[-71.120516,42.378793]}},{"properties":{"lon":-71.101913,"city":"Cambridge","bedrooms":"2 Br","zip":"02139","sq feet":"2 Sqft","bathrooms":"1 Ba","street address":"328 Broadway","sale price":489000,"housing type":"Condo","id":"a62xz80j02ay","lat":42.369537,"state":"MA"},"type":"Feature","geometry":{"type":"Point","coordinates":[-71.101913,42.369537]}},{"properties":{"lon":-71.120516,"city":"Cambridge","bedrooms":"2 Br","zip":"02138","sq feet":"1,006 Sqft","bathrooms":"2 Ba","street address":"1580 Massachusetts Ave","sale price":489000,"housing type":"Condo","id":"a62xz7rnonux","lat":42.378793,"state":"MA"},"type":"Feature","geometry":{"type":"Point","coordinates":[-71.120516,42.378793]}},{"properties":{"lon":-71.107591,"city":"Cambridge","bedrooms":"2 Br","zip":"02139","sq feet":"929 Sqft","bathrooms":"1 Ba","street address":"55 Magazine St","sale price":490000,"housing type":"Condo","id":"a62xz7tk2no5","lat":42.362424,"state":"MA"},"type":"Feature","geometry":{"type":"Point","coordinates":[-71.107591,42.362424]}},{"properties":{"lon":-71.081944,"city":"Cambridge","bedrooms":"2 Br","zip":"02141","sq feet":"1,280 Sqft","bathrooms":"2 Ba","street address":"86 Winter St","sale price":498000,"housing type":"Condo","id":"a62xz7o5t47j","lat":42.372624,"state":"MA"},"type":"Feature","geometry":{"type":"Point","coordinates":[-71.081944,42.372624]}},{"properties":{"lon":-71.079405,"city":"Cambridge","bedrooms":"2 Br","zip":"02239","sq feet":"1,150 Sqft","bathrooms":"2.5 Ba","street address":"36 Spring St","sale price":499000,"housing type":"Condo","id":"a62xz7qwrxdn","lat":42.368697,"state":"MA"},"type":"Feature","geometry":{"type":"Point","coordinates":[-71.079405,42.368697]}},{"properties":{"lon":-71.136384,"city":"Cambridge","bedrooms":"3 Br","zip":"02239","sq feet":"1,280 Sqft","bathrooms":"1 Ba","street address":"Granville Rd","sale price":499000,"housing type":"Condo","id":"a62xz7q88jy4","lat":42.382128,"state":"MA"},"type":"Feature","geometry":{"type":"Point","coordinates":[-71.136384,42.382128]}},{"properties":{"lon":-71.14294,"city":"Cambridge","bedrooms":"2 Br","zip":"02138","sq feet":"1,172 Sqft","bathrooms":"1 Ba","street address":"246 Brattle St","sale price":499000,"housing type":"Condo","id":"a62xz7zljr9m","lat":42.375608,"state":"MA"},"type":"Feature","geometry":{"type":"Point","coordinates":[-71.14294,42.375608]}},{"properties":{"lon":-71.077647,"city":"Cambridge","bedrooms":"1 Br","zip":"02141","sq feet":"946 Sqft","bathrooms":"1.5 Ba","street address":"17 Otis St","sale price":499000,"housing type":"Condo","id":"a62xz7p1gc5a","lat":42.37014,"state":"MA"},"type":"Feature","geometry":{"type":"Point","coordinates":[-71.077647,42.37014]}},{"properties":{"lon":-71.071783,"city":"Cambridge","bedrooms":"2 Br","zip":"02141","sq feet":"983 Sqft","bathrooms":"2 Ba","street address":"10 Museum Way","sale price":499000,"housing type":"Condo","id":"a62xz83jjvi0","lat":42.36912,"state":"MA"},"type":"Feature","geometry":{"type":"Point","coordinates":[-71.071783,42.36912]}},{"properties":{"lon":-71.086769,"city":"Cambridge","bedrooms":"4 Br","zip":"02141","sq feet":"1,600 Sqft","bathrooms":"2 Ba","street address":"6 Fulkerson St","sale price":499900,"housing type":"Single Family","id":"a62xz7sd6jda","lat":42.371621,"state":"MA"},"type":"Feature","geometry":{"type":"Point","coordinates":[-71.086769,42.371621]}},{"properties":{"lon":-71.097318,"city":"Cambridge","bedrooms":"3 Br","zip":"02139","sq feet":"1,210 Sqft","bathrooms":"2.5 Ba","street address":"71 School St","sale price":499900,"housing type":"Condo","id":"a62xz7qu5cwc","lat":42.363988,"state":"MA"},"type":"Feature","geometry":{"type":"Point","coordinates":[-71.097318,42.363988]}},{"properties":{"lon":-71.071834,"city":"Cambridge","bedrooms":"2 Br","zip":"02141","sq feet":"1,055 Sqft","bathrooms":"2 Ba","street address":"8 Museum Way","sale price":503000,"housing type":"Condo","id":"a62xz7t0bz3z","lat":42.369068,"state":"MA"},"type":"Feature","geometry":{"type":"Point","coordinates":[-71.071834,42.369068]}},{"properties":{"lon":-71.068429,"city":"Cambridge","bedrooms":"2 Br","zip":"02141","sq feet":"1,014 Sqft","bathrooms":"2 Ba","street address":"921 Museum Way","sale price":507000,"housing type":"Condo","id":"a62xz7uhqekx","lat":42.37069,"state":"MA"},"type":"Feature","geometry":{"type":"Point","coordinates":[-71.068429,42.37069]}},{"properties":{"lon":-71.113223,"city":"Cambridge","bedrooms":"2 Br","zip":"02139","sq feet":"1,210 Sqft","bathrooms":"2 Ba","street address":"236 Chestnut St","sale price":515000,"housing type":"Condo","id":"a62xz81sgx9d","lat":42.359084,"state":"MA"},"type":"Feature","geometry":{"type":"Point","coordinates":[-71.113223,42.359084]}},{"properties":{"lon":-71.102653,"city":"Cambridge","bedrooms":"2 Br","zip":"02139","sq feet":"1,091 Sqft","bathrooms":"2 Ba","street address":"2 Saint Paul St","sale price":515000,"housing type":"Condo","id":"a62xz7z4fb34","lat":42.367322,"state":"MA"},"type":"Feature","geometry":{"type":"Point","coordinates":[-71.102653,42.367322]}},{"properties":{"lon":-71.068429,"city":"Cambridge","bedrooms":"2 Br","zip":"02141","sq feet":"1,055 Sqft","bathrooms":"2 Ba","street address":"1502 Museum Way","sale price":515531,"housing type":"Condo","id":"a62xz7ng0z6d","lat":42.37069,"state":"MA"},"type":"Feature","geometry":{"type":"Point","coordinates":[-71.068429,42.37069]}},{"properties":{"lon":-71.13509,"city":"Cambridge","bedrooms":"2 Br","zip":"02239","sq feet":"1,031 Sqft","bathrooms":"1 Ba","street address":"405 Walden St","sale price":519000,"housing type":"Condo","id":"a62xz7yfxumj","lat":42.383127,"state":"MA"},"type":"Feature","geometry":{"type":"Point","coordinates":[-71.13509,42.383127]}},{"properties":{"lon":-71.10496,"city":"Cambridge","bedrooms":"2 Br","zip":"02139","sq feet":"1,050 Sqft","bathrooms":"2.5 Ba","street address":"46 Bigelow St","sale price":519000,"housing type":"Condo","id":"a62xz7t5erai","lat":42.368176,"state":"MA"},"type":"Feature","geometry":{"type":"Point","coordinates":[-71.10496,42.368176]}},{"properties":{"lon":-71.071834,"city":"Cambridge","bedrooms":"2 Br","zip":"02141","sq feet":"1,067 Sqft","bathrooms":"2 Ba","street address":"8 Museum Way","sale price":519900,"housing type":"Condo","id":"a62xz7rox941","lat":42.369068,"state":"MA"},"type":"Feature","geometry":{"type":"Point","coordinates":[-71.071834,42.369068]}},{"properties":{"lon":-71.099094,"city":"Cambridge","bedrooms":"2 Br","zip":"02139","sq feet":"1,505 Sqft","bathrooms":"2.5 Ba","street address":"Gardner Rd # 5","sale price":520000,"housing type":"Condo","id":"a62xz835t74c","lat":42.37057,"state":"MA"},"type":"Feature","geometry":{"type":"Point","coordinates":[-71.099094,42.37057]}},{"properties":{"lon":-71.113245,"city":"Cambridge","bedrooms":"3 Br","zip":"02239","sq feet":"1,165 Sqft","bathrooms":"1 Ba","street address":"182 Magazine St","sale price":525000,"housing type":"Condo","id":"a62xz7wavl4p","lat":42.357009,"state":"MA"},"type":"Feature","geometry":{"type":"Point","coordinates":[-71.113245,42.357009]}},{"properties":{"lon":-71.097318,"city":"Cambridge","bedrooms":"3 Br","zip":"02139","sq feet":"1,210 Sqft","bathrooms":"2.5 Ba","street address":"71 School St","sale price":529000,"housing type":"Condo","id":"a62xz7sa12q4","lat":42.363988,"state":"MA"},"type":"Feature","geometry":{"type":"Point","coordinates":[-71.097318,42.363988]}},{"properties":{"lon":-71.071783,"city":"Cambridge","bedrooms":"2 Br","zip":"02141","sq feet":"1,014 Sqft","bathrooms":"2 Ba","street address":"10 Museum Way","sale price":529000,"housing type":"Condo","id":"a62xz7v7usyr","lat":42.36912,"state":"MA"},"type":"Feature","geometry":{"type":"Point","coordinates":[-71.071783,42.36912]}},{"properties":{"lon":-71.147306,"city":"Cambridge","bedrooms":"1 Br","zip":"02138","sq feet":"1,249 Sqft","bathrooms":"2 Ba","street address":"1 Aberdeen Way","sale price":539000,"housing type":"Condo","id":"a62xz80sc6xq","lat":42.377254,"state":"MA"},"type":"Feature","geometry":{"type":"Point","coordinates":[-71.147306,42.377254]}},{"properties":{"lon":-71.106019,"city":"Cambridge","bedrooms":"1 Br","zip":"02239","sq feet":"751 Sqft","bathrooms":"1 Ba","street address":"20 Dana Park Place","sale price":539000,"housing type":"Condo","id":"a62xz814glwm","lat":42.36679,"state":"MA"},"type":"Feature","geometry":{"type":"Point","coordinates":[-71.106019,42.36679]}},{"properties":{"lon":-71.081723,"city":"Cambridge","bedrooms":"2 Br","zip":"02141","sq feet":"1,432 Sqft","bathrooms":"2 Ba","street address":"127 Charles St","sale price":539900,"housing type":"Single Family","id":"a62xz81uw817","lat":42.367881,"state":"MA"},"type":"Feature","geometry":{"type":"Point","coordinates":[-71.081723,42.367881]}},{"properties":{"lon":-71.124429,"city":"Cambridge","bedrooms":"3 Br","zip":"02138","sq feet":"1,358 Sqft","bathrooms":"3 Ba","street address":"Garden St","sale price":546000,"housing type":"Condo","id":"a62xz7vyzxwh","lat":42.379315,"state":"MA"},"type":"Feature","geometry":{"type":"Point","coordinates":[-71.124429,42.379315]}},{"properties":{"lon":-71.10955,"city":"Cambridge","bedrooms":"3 Br","zip":"02139","sq feet":"1,614 Sqft","bathrooms":"2 Ba","street address":"266 Pearl St","sale price":549000,"housing type":"Condo","id":"a62xz7v58fhf","lat":42.358064,"state":"MA"},"type":"Feature","geometry":{"type":"Point","coordinates":[-71.10955,42.358064]}},{"properties":{"lon":-71.109959,"city":"Cambridge","bedrooms":"3 Br","zip":"02139","sq feet":"1,600 Sqft","bathrooms":"2 Ba","street address":"PEARL St","sale price":549000,"housing type":"Condo","id":"a62xz7sdisxs","lat":42.357895,"state":"MA"},"type":"Feature","geometry":{"type":"Point","coordinates":[-71.109959,42.357895]}},{"properties":{"lon":-71.091541,"city":"Cambridge","bedrooms":"2 Br","zip":"02239","sq feet":"1,472 Sqft","bathrooms":"2 Ba","street address":"22 Lilac Ct","sale price":549000,"housing type":"Single Family","id":"a62xz7x3wdkc","lat":42.367404,"state":"MA"},"type":"Feature","geometry":{"type":"Point","coordinates":[-71.091541,42.367404]}},{"properties":{"lon":-71.148854,"city":"Cambridge","bedrooms":"2 Br","zip":"02239","sq feet":"1,980 Sqft","bathrooms":"2.5 Ba","street address":"Mount Auburn St","sale price":549000,"housing type":"Single Family","id":"a62xz7x0c0ov","lat":42.374846,"state":"MA"},"type":"Feature","geometry":{"type":"Point","coordinates":[-71.148854,42.374846]}},{"properties":{"lon":-71.077647,"city":"Cambridge","bedrooms":"2 Br","zip":"02239","sq feet":"1,010 Sqft","bathrooms":"2 Ba","street address":"17 Otis St","sale price":549000,"housing type":"Condo","id":"a62xz7p5iiu2","lat":42.37014,"state":"MA"},"type":"Feature","geometry":{"type":"Point","coordinates":[-71.077647,42.37014]}},{"properties":{"lon":-71.151333,"city":"Cambridge","bedrooms":"3 Br","zip":"02239","sq feet":"1,581 Sqft","bathrooms":"2 Ba","street address":"33 Cushing St","sale price":549000,"housing type":"Single Family","id":"a62xz7yq4xi0","lat":42.375688,"state":"MA"},"type":"Feature","geometry":{"type":"Point","coordinates":[-71.151333,42.375688]}},{"properties":{"lon":-71.096236,"city":"Cambridge","bedrooms":"3 Br","zip":"02139","sq feet":"1,557 Sqft","bathrooms":"3 Ba","street address":"184 Elm St","sale price":549900,"housing type":"Condo","id":"a62xz7z4bpy3","lat":42.371215,"state":"MA"},"type":"Feature","geometry":{"type":"Point","coordinates":[-71.096236,42.371215]}},{"properties":{"lon":-71.123148,"city":"Cambridge","bedrooms":"2 Br","zip":"02239","sq feet":"1,076 Sqft","bathrooms":"2 Ba","street address":"8 Russell St","sale price":549900,"housing type":"Condo","id":"a62xz7pnkc9j","lat":42.392074,"state":"MA"},"type":"Feature","geometry":{"type":"Point","coordinates":[-71.123148,42.392074]}},{"properties":{"lon":-71.071783,"city":"Cambridge","bedrooms":"2 Br","zip":"02141","sq feet":"1,050 Sqft","bathrooms":"2 Ba","street address":"10 Museum Way","sale price":549900,"housing type":"Condo","id":"a62xz81ju1ls","lat":42.36912,"state":"MA"},"type":"Feature","geometry":{"type":"Point","coordinates":[-71.071783,42.36912]}},{"properties":{"lon":-71.071804,"city":"Cambridge","bedrooms":"2 Br","zip":"02239","sq feet":"1,067 Sqft","bathrooms":"2 Ba","street address":"Museum Way","sale price":559000,"housing type":"Condo","id":"a62xz7z6684d","lat":42.36933,"state":"MA"},"type":"Feature","geometry":{"type":"Point","coordinates":[-71.071804,42.36933]}},{"properties":{"lon":-71.112263,"city":"Cambridge","bedrooms":"2 Br","zip":"02139","sq feet":"1,177 Sqft","bathrooms":"2 Ba","street address":"408 Putnam Ave","sale price":559000,"housing type":"Condo","id":"a62xz7ory5as","lat":42.359926,"state":"MA"},"type":"Feature","geometry":{"type":"Point","coordinates":[-71.112263,42.359926]}},{"properties":{"lon":-71.084306,"city":"Cambridge","bedrooms":"1 Br","zip":"02141","sq feet":"1,360 Sqft","bathrooms":"1.5 Ba","street address":"225 Bent St","sale price":565000,"housing type":"Condo","id":"a62xz7rohtip","lat":42.367517,"state":"MA"},"type":"Feature","geometry":{"type":"Point","coordinates":[-71.084306,42.367517]}},{"properties":{"lon":-71.154857,"city":"Cambridge","bedrooms":"2 Br","zip":"02239","sq feet":"1,422 Sqft","bathrooms":"2 Ba","street address":"773 Concord Ave","sale price":569000,"housing type":"Condo","id":"a62xz7tvxh8h","lat":42.390796,"state":"MA"},"type":"Feature","geometry":{"type":"Point","coordinates":[-71.154857,42.390796]}},{"properties":{"lon":-71.106579,"city":"Cambridge","bedrooms":"2 Br","zip":"02139","sq feet":"1,235 Sqft","bathrooms":"1.5 Ba","street address":"56 Western Ave","sale price":569500,"housing type":"Condo","id":"a62xz7z9d23q","lat":42.364965,"state":"MA"},"type":"Feature","geometry":{"type":"Point","coordinates":[-71.106579,42.364965]}},{"properties":{"lon":-71.134353,"city":"Cambridge","bedrooms":"2 Br","zip":"02239","sq feet":"1,174 Sqft","bathrooms":"1.5 Ba","street address":"264 Huron Ave","sale price":575000,"housing type":"Condo","id":"a62xz7ops89u","lat":42.381467,"state":"MA"},"type":"Feature","geometry":{"type":"Point","coordinates":[-71.134353,42.381467]}},{"properties":{"lon":-71.154857,"city":"Cambridge","bedrooms":"2 Br","zip":"02239","sq feet":"1,449 Sqft","bathrooms":"2 Ba","street address":"773 Concord Ave","sale price":584000,"housing type":"Condo","id":"a62xz7ofyoe3","lat":42.390796,"state":"MA"},"type":"Feature","geometry":{"type":"Point","coordinates":[-71.154857,42.390796]}},{"properties":{"lon":-71.07843,"city":"Cambridge","bedrooms":"2 Br","zip":"02141","sq feet":"1,116 Sqft","bathrooms":"2 Ba","street address":"150 Cambridge St","sale price":585000,"housing type":"Condo","id":"a62xz7tbhjyy","lat":42.370727,"state":"MA"},"type":"Feature","geometry":{"type":"Point","coordinates":[-71.07843,42.370727]}},{"properties":{"lon":-71.149883,"city":"Cambridge","bedrooms":"2 Br","zip":"02138","sq feet":"2 Sqft","bathrooms":"2 Ba","street address":"612 Huron Ave","sale price":589000,"housing type":"Condo","id":"a62xz7nr7xkb","lat":42.379021,"state":"MA"},"type":"Feature","geometry":{"type":"Point","coordinates":[-71.149883,42.379021]}},{"properties":{"lon":-71.149883,"city":"Cambridge","bedrooms":"2 Br","zip":"02239","sq feet":"1,178 Sqft","bathrooms":"2 Ba","street address":"612 Huron Ave","sale price":589000,"housing type":"Condo","id":"a62xz81nz6zq","lat":42.379021,"state":"MA"},"type":"Feature","geometry":{"type":"Point","coordinates":[-71.149883,42.379021]}},{"properties":{"lon":-71.071834,"city":"Cambridge","bedrooms":"2 Br","zip":"02141","sq feet":"1,067 Sqft","bathrooms":"2 Ba","street address":"8 Museum Way","sale price":589000,"housing type":"Condo","id":"a62xz7wbcp8g","lat":42.369068,"state":"MA"},"type":"Feature","geometry":{"type":"Point","coordinates":[-71.071834,42.369068]}},{"properties":{"lon":-71.103243,"city":"Cambridge","bedrooms":"2 Br","zip":"02139","sq feet":"1,743 Sqft","bathrooms":"1 Ba","street address":"18 Antrim St","sale price":590000,"housing type":"Condo","id":"a62xz7sfj8sg","lat":42.370823,"state":"MA"},"type":"Feature","geometry":{"type":"Point","coordinates":[-71.103243,42.370823]}},{"properties":{"lon":-71.1252,"city":"Cambridge","bedrooms":"1 Br","zip":"02138","sq feet":"1,162 Sqft","bathrooms":"1 Ba","street address":"985 Memorial Dr","sale price":595000,"housing type":"Condo","id":"a62xz7t1wqpr","lat":42.372452,"state":"MA"},"type":"Feature","geometry":{"type":"Point","coordinates":[-71.1252,42.372452]}},{"properties":{"lon":-71.120671,"city":"Cambridge","bedrooms":"2 Br","zip":"02239","sq feet":"1,294 Sqft","bathrooms":"1 Ba","street address":"1572 Massachusetts Ave","sale price":595000,"housing type":"Condo","id":"a62xz7rjguwu","lat":42.378393,"state":"MA"},"type":"Feature","geometry":{"type":"Point","coordinates":[-71.120671,42.378393]}},{"properties":{"lon":-71.12343,"city":"Cambridge","bedrooms":"2 Br","zip":"02239","sq feet":"1,688 Sqft","bathrooms":"2 Ba","street address":"75 Richdale Ave","sale price":595000,"housing type":"Condo","id":"a62xz82x2wte","lat":42.388683,"state":"MA"},"type":"Feature","geometry":{"type":"Point","coordinates":[-71.12343,42.388683]}},{"properties":{"lon":-71.152104,"city":"Cambridge","bedrooms":"3 Br","zip":"02138","sq feet":"3 Sqft","bathrooms":"2 Ba","street address":"147 Cushing St","sale price":597000,"housing type":"Condo","id":"a62xz7sz0dxb","lat":42.37866,"state":"MA"},"type":"Feature","geometry":{"type":"Point","coordinates":[-71.152104,42.37866]}},{"properties":{"lon":-71.152104,"city":"Cambridge","bedrooms":"3 Br","zip":"02239","sq feet":"1,722 Sqft","bathrooms":"2 Ba","street address":"147 Cushing St","sale price":597000,"housing type":"Condo","id":"a62xz82wct8g","lat":42.37866,"state":"MA"},"type":"Feature","geometry":{"type":"Point","coordinates":[-71.152104,42.37866]}},{"properties":{"lon":-71.081598,"city":"Cambridge","bedrooms":"3 Br","zip":"02141","sq feet":"1,800 Sqft","bathrooms":"2 Ba","street address":"123 Charles St","sale price":599000,"housing type":"Single Family","id":"a62xz7omz6fl","lat":42.367864,"state":"MA"},"type":"Feature","geometry":{"type":"Point","coordinates":[-71.081598,42.367864]}},{"properties":{"lon":-71.081598,"city":"Cambridge","bedrooms":"3 Br","zip":"02141","sq feet":"1,800 Sqft","bathrooms":"2 Ba","street address":"123 Charles St","sale price":609000,"housing type":"Single Family","id":"a62xz7uizlqz","lat":42.367864,"state":"MA"},"type":"Feature","geometry":{"type":"Point","coordinates":[-71.081598,42.367864]}},{"properties":{"lon":-71.068429,"city":"Cambridge","bedrooms":"2 Br","zip":"02141","sq feet":"1,064 Sqft","bathrooms":"2 Ba","street address":"1329 Museum Way","sale price":609000,"housing type":"Condo","id":"a62xz7vl9eq8","lat":42.37069,"state":"MA"},"type":"Feature","geometry":{"type":"Point","coordinates":[-71.068429,42.37069]}},{"properties":{"lon":-71.13919,"city":"Cambridge","bedrooms":"3 Br","zip":"02239","sq feet":"1,313 Sqft","bathrooms":"2 Ba","street address":"57 Standish St","sale price":619000,"housing type":"Condo","id":"a62xz7u552u4","lat":42.382762,"state":"MA"},"type":"Feature","geometry":{"type":"Point","coordinates":[-71.13919,42.382762]}},{"properties":{"lon":-71.074611,"city":"Cambridge","bedrooms":"2 Br","zip":"02141","sq feet":"1,215 Sqft","bathrooms":"2 Ba","street address":"4 Canal Park","sale price":619999,"housing type":"Condo","id":"a62xz7xz3y35","lat":42.368041,"state":"MA"},"type":"Feature","geometry":{"type":"Point","coordinates":[-71.074611,42.368041]}},{"properties":{"lon":-71.109053,"city":"Cambridge","bedrooms":"5 Br","zip":"02139","sq feet":"1,962 Sqft","bathrooms":"2.5 Ba","street address":"135 River St","sale price":635000,"housing type":"Condo","id":"a62xz7qnieoe","lat":42.363898,"state":"MA"},"type":"Feature","geometry":{"type":"Point","coordinates":[-71.109053,42.363898]}},{"properties":{"lon":-71.109053,"city":"Cambridge","bedrooms":"5 Br","zip":"02139","sq feet":"2,038 Sqft","bathrooms":"2.5 Ba","street address":"135 River St","sale price":635000,"housing type":"Condo","id":"a62xz7y3u5lq","lat":42.363898,"state":"MA"},"type":"Feature","geometry":{"type":"Point","coordinates":[-71.109053,42.363898]}},{"properties":{"lon":-71.113934,"city":"Cambridge","bedrooms":"5 Br","zip":"02139","sq feet":"2,038 Sqft","bathrooms":"2.5 Ba","street address":"River St","sale price":635000,"housing type":"Townhome","id":"a62xz80xkdmf","lat":42.36213,"state":"MA"},"type":"Feature","geometry":{"type":"Point","coordinates":[-71.113934,42.36213]}},{"properties":{"lon":-71.113934,"city":"Cambridge","bedrooms":"5 Br","zip":"02139","sq feet":"1,962 Sqft","bathrooms":"2.5 Ba","street address":"River St","sale price":635000,"housing type":"Townhome","id":"a62xz7v9stpc","lat":42.36213,"state":"MA"},"type":"Feature","geometry":{"type":"Point","coordinates":[-71.113934,42.36213]}},{"properties":{"lon":-71.095308,"city":"Cambridge","bedrooms":"3 Br","zip":"02139","sq feet":"1,610 Sqft","bathrooms":"2.5 Ba","street address":"321 Elm St","sale price":639000,"housing type":"Condo","id":"a62xz7sr0gzl","lat":42.37349,"state":"MA"},"type":"Feature","geometry":{"type":"Point","coordinates":[-71.095308,42.37349]}},{"properties":{"lon":-71.152104,"city":"Cambridge","bedrooms":"2 Br","zip":"02239","sq feet":"2,173 Sqft","bathrooms":"2.5 Ba","street address":"147 Cushing St","sale price":639000,"housing type":"Condo","id":"a62xz7z9i8lm","lat":42.37866,"state":"MA"},"type":"Feature","geometry":{"type":"Point","coordinates":[-71.152104,42.37866]}},{"properties":{"lon":-71.125452,"city":"Cambridge","bedrooms":"2 Br","zip":"02239","sq feet":"1,286 Sqft","bathrooms":"2 Ba","street address":"113 Richdale Ave","sale price":639000,"housing type":"Condo","id":"a62xz7zevbh5","lat":42.389112,"state":"MA"},"type":"Feature","geometry":{"type":"Point","coordinates":[-71.125452,42.389112]}},{"properties":{"lon":-71.151364,"city":"Cambridge","bedrooms":"2 Br","zip":"02239","sq feet":"2,173 Sqft","bathrooms":"2.5 Ba","street address":"Cushing St","sale price":639000,"housing type":"Single Family","id":"a62xz80fqiq5","lat":42.375081,"state":"MA"},"type":"Feature","geometry":{"type":"Point","coordinates":[-71.151364,42.375081]}},{"properties":{"lon":-71.152104,"city":"Cambridge","bedrooms":"3 Br","zip":"02138","sq feet":"1,749 Sqft","bathrooms":"2 Ba","street address":"147 Cushing St","sale price":639000,"housing type":"Condo","id":"a62xz7ttuwpz","lat":42.37866,"state":"MA"},"type":"Feature","geometry":{"type":"Point","coordinates":[-71.152104,42.37866]}},{"properties":{"lon":-71.140009,"city":"Cambridge","bedrooms":"2 Br","zip":"02239","sq feet":"1,786 Sqft","bathrooms":"2 Ba","street address":"Maple Ave","sale price":649000,"housing type":"Condo","id":"a62xz81bf9wg","lat":42.374746,"state":"MA"},"type":"Feature","geometry":{"type":"Point","coordinates":[-71.140009,42.374746]}},{"properties":{"lon":-71.139286,"city":"Cambridge","bedrooms":"4 Br","zip":"02239","sq feet":"1,805 Sqft","bathrooms":"2 Ba","street address":"36 Coolidge Hill Rd","sale price":650000,"housing type":"Single Family","id":"a62xz7qst3iy","lat":42.374083,"state":"MA"},"type":"Feature","geometry":{"type":"Point","coordinates":[-71.139286,42.374083]}},{"properties":{"lon":-71.127069,"city":"Cambridge","bedrooms":"6 Br","zip":"02138","sq feet":"2,821 Sqft","bathrooms":"3 Ba","street address":"Huron Ave","sale price":658000,"housing type":"Townhome","id":"a62xz83hlrbz","lat":42.385065,"state":"MA"},"type":"Feature","geometry":{"type":"Point","coordinates":[-71.127069,42.385065]}},{"properties":{"lon":-71.071783,"city":"Cambridge","bedrooms":"2 Br","zip":"02239","sq feet":"1,046 Sqft","bathrooms":"2 Ba","street address":"10 Museum Way","sale price":659000,"housing type":"Condo","id":"a62xz7rk3ynu","lat":42.36912,"state":"MA"},"type":"Feature","geometry":{"type":"Point","coordinates":[-71.071783,42.36912]}},{"properties":{"lon":-71.138013,"city":"Cambridge","bedrooms":"3 Br","zip":"02138","sq feet":"1,202 Sqft","bathrooms":"1 Ba","street address":"19 Corporal Burns Rd","sale price":669000,"housing type":"Single Family","id":"a62xz7uj50dk","lat":42.385941,"state":"MA"},"type":"Feature","geometry":{"type":"Point","coordinates":[-71.138013,42.385941]}},{"properties":{"lon":-71.138013,"city":"Cambridge","bedrooms":"3 Br","zip":"02138","sq feet":"1,202 Sqft","bathrooms":"1 Ba","street address":"19 Corporal Burns Rd","sale price":669000,"housing type":"Condo","id":"a62xz7wfla49","lat":42.385941,"state":"MA"},"type":"Feature","geometry":{"type":"Point","coordinates":[-71.138013,42.385941]}},{"properties":{"lon":-71.100568,"city":"Cambridge","bedrooms":"3 Br","zip":"02139","sq feet":"1,504 Sqft","bathrooms":"2 Ba","street address":"188 Prospect St","sale price":669900,"housing type":"Condo","id":"a62xz7w00nx9","lat":42.369691,"state":"MA"},"type":"Feature","geometry":{"type":"Point","coordinates":[-71.100568,42.369691]}},{"properties":{"lon":-71.113934,"city":"Cambridge","bedrooms":"5 Br","zip":"02139","sq feet":"2,038 Sqft","bathrooms":"2.5 Ba","street address":"River St","sale price":675000,"housing type":"Townhome","id":"a62xz7nq1mxs","lat":42.36213,"state":"MA"},"type":"Feature","geometry":{"type":"Point","coordinates":[-71.113934,42.36213]}},{"properties":{"lon":-71.113934,"city":"Cambridge","bedrooms":"5 Br","zip":"02139","sq feet":"1,962 Sqft","bathrooms":"2.5 Ba","street address":"River St","sale price":675000,"housing type":"Townhome","id":"a62xz7tv62nh","lat":42.36213,"state":"MA"},"type":"Feature","geometry":{"type":"Point","coordinates":[-71.113934,42.36213]}},{"properties":{"lon":-71.10476,"city":"Cambridge","bedrooms":"2 Br","zip":"02239","sq feet":"1,364 Sqft","bathrooms":"2.5 Ba","street address":"35 West St","sale price":679000,"housing type":"Condo","id":"a62xz7xixuay","lat":42.369942,"state":"MA"},"type":"Feature","geometry":{"type":"Point","coordinates":[-71.10476,42.369942]}},{"properties":{"lon":-71.10457,"city":"Cambridge","bedrooms":"2 Br","zip":"02139","sq feet":"1,408 Sqft","bathrooms":"2 Ba","street address":"7 Broadway Ter","sale price":679000,"housing type":"Condo","id":"a62xz80rm7ug","lat":42.370164,"state":"MA"},"type":"Feature","geometry":{"type":"Point","coordinates":[-71.10457,42.370164]}},{"properties":{"lon":-71.074611,"city":"Cambridge","bedrooms":"2 Br","zip":"02141","sq feet":"1,205 Sqft","bathrooms":"2 Ba","street address":"4 Canal Park","sale price":685000,"housing type":"Condo","id":"a62xz7psu2hg","lat":42.368041,"state":"MA"},"type":"Feature","geometry":{"type":"Point","coordinates":[-71.074611,42.368041]}},{"properties":{"lon":-71.074611,"city":"Cambridge","bedrooms":"2 Br","zip":"02141","sq feet":"1,205 Sqft","bathrooms":"2 Ba","street address":"4 Canal Park","sale price":685000,"housing type":"Condo","id":"a62xz80odesq","lat":42.368041,"state":"MA"},"type":"Feature","geometry":{"type":"Point","coordinates":[-71.074611,42.368041]}},{"properties":{"lon":-71.111055,"city":"Cambridge","bedrooms":"3 Br","zip":"02139","sq feet":"1,510 Sqft","bathrooms":"1.5 Ba","street address":"514 Franklin St","sale price":698000,"housing type":"Single Family","id":"a62xz7pmah5j","lat":42.367713,"state":"MA"},"type":"Feature","geometry":{"type":"Point","coordinates":[-71.111055,42.367713]}},{"properties":{"lon":-71.10637,"city":"Cambridge","bedrooms":"2 Br","zip":"02139","sq feet":"1,244 Sqft","bathrooms":"2.5 Ba","street address":"72 Hamilton St","sale price":699000,"housing type":"Condo","id":"a62xz7nwkpn8","lat":42.358246,"state":"MA"},"type":"Feature","geometry":{"type":"Point","coordinates":[-71.10637,42.358246]}},{"properties":{"lon":-71.10637,"city":"Cambridge","bedrooms":"2 Br","zip":"02139","sq feet":"1,233 Sqft","bathrooms":"2.5 Ba","street address":"72 Hamilton St","sale price":699000,"housing type":"Condo","id":"a62xz82emge3","lat":42.358246,"state":"MA"},"type":"Feature","geometry":{"type":"Point","coordinates":[-71.10637,42.358246]}},{"properties":{"lon":-71.10637,"city":"Cambridge","bedrooms":"2 Br","zip":"02139","sq feet":"1,464 Sqft","bathrooms":"2.5 Ba","street address":"72 Hamilton St","sale price":715000,"housing type":"Condo","id":"a62xz81iwxux","lat":42.358246,"state":"MA"},"type":"Feature","geometry":{"type":"Point","coordinates":[-71.10637,42.358246]}},{"properties":{"lon":-71.10637,"city":"Cambridge","bedrooms":"2 Br","zip":"02139","sq feet":"1,494 Sqft","bathrooms":"2.5 Ba","street address":"72 Hamilton St","sale price":715000,"housing type":"Condo","id":"a62xz80r95el","lat":42.358246,"state":"MA"},"type":"Feature","geometry":{"type":"Point","coordinates":[-71.10637,42.358246]}},{"properties":{"lon":-71.097153,"city":"Cambridge","bedrooms":"3 Br","zip":"02139","sq feet":"1,943 Sqft","bathrooms":"2.5 Ba","street address":"271 Washington St","sale price":724900,"housing type":"Condo","id":"a62xz810l1hf","lat":42.365173,"state":"MA"},"type":"Feature","geometry":{"type":"Point","coordinates":[-71.097153,42.365173]}},{"properties":{"lon":-71.10637,"city":"Cambridge","bedrooms":"2 Br","zip":"02139","sq feet":"1,538 Sqft","bathrooms":"2.5 Ba","street address":"72 Hamilton St","sale price":725000,"housing type":"Condo","id":"a62xz7ydls34","lat":42.358246,"state":"MA"},"type":"Feature","geometry":{"type":"Point","coordinates":[-71.10637,42.358246]}},{"properties":{"lon":-71.126605,"city":"Cambridge","bedrooms":"3 Br","zip":"02239","sq feet":"2,219 Sqft","bathrooms":"2.5 Ba","street address":"189 Richdale Ave","sale price":725000,"housing type":"Condo","id":"a62xz7tqg40x","lat":42.38931,"state":"MA"},"type":"Feature","geometry":{"type":"Point","coordinates":[-71.126605,42.38931]}},{"properties":{"lon":-71.112263,"city":"Cambridge","bedrooms":"3 Br","zip":"02139","sq feet":"1,430 Sqft","bathrooms":"2.5 Ba","street address":"408 Putnam Ave","sale price":730000,"housing type":"Condo","id":"a62xz7o0epdq","lat":42.359926,"state":"MA"},"type":"Feature","geometry":{"type":"Point","coordinates":[-71.112263,42.359926]}},{"properties":{"lon":-71.107737,"city":"Cambridge","bedrooms":"2 Br","zip":"02239","sq feet":"1,153 Sqft","bathrooms":"2 Ba","street address":"20 Mcternan St","sale price":734000,"housing type":"Condo","id":"a62xz834415q","lat":42.360868,"state":"MA"},"type":"Feature","geometry":{"type":"Point","coordinates":[-71.107737,42.360868]}},{"properties":{"lon":-71.107737,"city":"Cambridge","bedrooms":"2 Br","zip":"02239","sq feet":"1,234 Sqft","bathrooms":"2 Ba","street address":"20 Mcternan St","sale price":734000,"housing type":"Condo","id":"a62xz7qh2scj","lat":42.360868,"state":"MA"},"type":"Feature","geometry":{"type":"Point","coordinates":[-71.107737,42.360868]}},{"properties":{"lon":-71.130424,"city":"Cambridge","bedrooms":"3 Br","zip":"02239","sq feet":"1,750 Sqft","bathrooms":"2.5 Ba","street address":"119 Garden St","sale price":739000,"housing type":"Condo","id":"a62xz7w9xm9r","lat":42.384425,"state":"MA"},"type":"Feature","geometry":{"type":"Point","coordinates":[-71.130424,42.384425]}},{"properties":{"lon":-71.10637,"city":"Cambridge","bedrooms":"2 Br","zip":"02139","sq feet":"1,345 Sqft","bathrooms":"2.5 Ba","street address":"72 Hamilton St","sale price":740000,"housing type":"Condo","id":"a62xz81fndtx","lat":42.358246,"state":"MA"},"type":"Feature","geometry":{"type":"Point","coordinates":[-71.10637,42.358246]}},{"properties":{"lon":-71.107737,"city":"Cambridge","bedrooms":"2 Br","zip":"02239","sq feet":"1,165 Sqft","bathrooms":"2 Ba","street address":"20 Mcternan St","sale price":744000,"housing type":"Condo","id":"a62xz7rw3h6k","lat":42.360868,"state":"MA"},"type":"Feature","geometry":{"type":"Point","coordinates":[-71.107737,42.360868]}},{"properties":{"lon":-71.097153,"city":"Cambridge","bedrooms":"3 Br","zip":"02139","sq feet":"1,943 Sqft","bathrooms":"2.5 Ba","street address":"271 Washington St","sale price":749000,"housing type":"Condo","id":"a62xz80ykc9f","lat":42.365173,"state":"MA"},"type":"Feature","geometry":{"type":"Point","coordinates":[-71.097153,42.365173]}},{"properties":{"lon":-71.099528,"city":"Cambridge","bedrooms":"3 Br","zip":"02139","sq feet":"1,677 Sqft","bathrooms":"2.5 Ba","street address":"17 Tremont St","sale price":759000,"housing type":"Condo","id":"a62xz7uy0qj9","lat":42.369787,"state":"MA"},"type":"Feature","geometry":{"type":"Point","coordinates":[-71.099528,42.369787]}},{"properties":{"lon":-71.129931,"city":"Cambridge","bedrooms":"3 Br","zip":"02239","sq feet":"1,890 Sqft","bathrooms":"2.5 Ba","street address":"Bradbury St","sale price":769000,"housing type":"Condo","id":"a62xz82zu1dp","lat":42.37541,"state":"MA"},"type":"Feature","geometry":{"type":"Point","coordinates":[-71.129931,42.37541]}},{"properties":{"lon":-71.107737,"city":"Cambridge","bedrooms":"2 Br","zip":"02239","sq feet":"1,090 Sqft","bathrooms":"2 Ba","street address":"20 Mcternan St","sale price":774000,"housing type":"Condo","id":"a62xz80zv9r3","lat":42.360868,"state":"MA"},"type":"Feature","geometry":{"type":"Point","coordinates":[-71.107737,42.360868]}},{"properties":{"lon":-71.111868,"city":"Cambridge","bedrooms":"2 Br","zip":"02139","sq feet":"1,976 Sqft","bathrooms":"2.5 Ba","street address":"560 Franklin St","sale price":779000,"housing type":"Single Family","id":"a62xz7v6y7ly","lat":42.367881,"state":"MA"},"type":"Feature","geometry":{"type":"Point","coordinates":[-71.111868,42.367881]}},{"properties":{"lon":-71.100354,"city":"Cambridge","bedrooms":"3 Br","zip":"02139","sq feet":"2,000 Sqft","bathrooms":"2.5 Ba","street address":"118 Amory St","sale price":785000,"housing type":"Single Family","id":"a62xz81edaga","lat":42.371726,"state":"MA"},"type":"Feature","geometry":{"type":"Point","coordinates":[-71.100354,42.371726]}},{"properties":{"lon":-71.129992,"city":"Cambridge","bedrooms":"3 Br","zip":"02239","sq feet":"1,192 Sqft","bathrooms":"1.5 Ba","street address":"61 Foster St","sale price":789000,"housing type":"Single Family","id":"a62xz7z6m0an","lat":42.376174,"state":"MA"},"type":"Feature","geometry":{"type":"Point","coordinates":[-71.129992,42.376174]}},{"properties":{"lon":-71.10964,"city":"Cambridge","bedrooms":"3 Br","zip":"02239","sq feet":"1,585 Sqft","bathrooms":"2 Ba","street address":"114 Trowbridge St","sale price":789000,"housing type":"Condo","id":"a62xz7vv4s7k","lat":42.375838,"state":"MA"},"type":"Feature","geometry":{"type":"Point","coordinates":[-71.10964,42.375838]}},{"properties":{"lon":-71.112112,"city":"Cambridge","bedrooms":"3 Br","zip":"02139","sq feet":"1,529 Sqft","bathrooms":"2.5 Ba","street address":"410 Putnam Ave","sale price":795000,"housing type":"Condo","id":"a62xz7rgab1j","lat":42.359843,"state":"MA"},"type":"Feature","geometry":{"type":"Point","coordinates":[-71.112112,42.359843]}},{"properties":{"lon":-71.110441,"city":"Cambridge","bedrooms":"4 Br","zip":"02239","sq feet":"2,332 Sqft","bathrooms":"2 Ba","street address":"8 Howard St","sale price":799000,"housing type":"Misc Property Type","id":"a62xz7wexgm1","lat":42.363769,"state":"MA"},"type":"Feature","geometry":{"type":"Point","coordinates":[-71.110441,42.363769]}},{"properties":{"lon":-71.111868,"city":"Cambridge","bedrooms":"2 Br","zip":"02139","sq feet":"1,976 Sqft","bathrooms":"2.5 Ba","street address":"560 Franklin St","sale price":799000,"housing type":"Condo","id":"a62xz7x3j6ke","lat":42.367881,"state":"MA"},"type":"Feature","geometry":{"type":"Point","coordinates":[-71.111868,42.367881]}},{"properties":{"lon":-71.10637,"city":"Cambridge","bedrooms":"2 Br","zip":"02139","sq feet":"1,404 Sqft","bathrooms":"2.5 Ba","street address":"72 Hamilton St","sale price":825000,"housing type":"Condo","id":"a62xz7w8cxdb","lat":42.358246,"state":"MA"},"type":"Feature","geometry":{"type":"Point","coordinates":[-71.10637,42.358246]}},{"properties":{"lon":-71.125313,"city":"Cambridge","bedrooms":"2 Br","zip":"02138","sq feet":"1,463 Sqft","bathrooms":"1.5 Ba","street address":"986 Memorial Dr","sale price":825000,"housing type":"Condo","id":"a62xz7vdfrof","lat":42.372552,"state":"MA"},"type":"Feature","geometry":{"type":"Point","coordinates":[-71.125313,42.372552]}},{"properties":{"lon":-71.129931,"city":"Cambridge","bedrooms":"3 Br","zip":"02138","sq feet":"2,007 Sqft","bathrooms":"2.5 Ba","street address":"BRADBURY St","sale price":825000,"housing type":"Condo","id":"a62xz83an0ne","lat":42.37541,"state":"MA"},"type":"Feature","geometry":{"type":"Point","coordinates":[-71.129931,42.37541]}},{"properties":{"lon":-71.10913,"city":"Cambridge","bedrooms":"4 Br","zip":"02139","sq feet":"2,162 Sqft","bathrooms":"3 Ba","street address":"52 Kinnaird St","sale price":829000,"housing type":"Single Family","id":"a62xz81qz5vp","lat":42.366301,"state":"MA"},"type":"Feature","geometry":{"type":"Point","coordinates":[-71.10913,42.366301]}},{"properties":{"lon":-71.107549,"city":"Cambridge","bedrooms":"3 Br","zip":"02239","sq feet":"1,401 Sqft","bathrooms":"2 Ba","street address":"10 Mcternan St","sale price":829000,"housing type":"Condo","id":"a62xz7upycg1","lat":42.360767,"state":"MA"},"type":"Feature","geometry":{"type":"Point","coordinates":[-71.107549,42.360767]}},{"properties":{"lon":-71.116573,"city":"Cambridge","bedrooms":"4 Br","zip":"02239","sq feet":"2,344 Sqft","bathrooms":"3 Ba","street address":"20 Forest St","sale price":830000,"housing type":"Condo","id":"a62xz7vhfwpo","lat":42.385063,"state":"MA"},"type":"Feature","geometry":{"type":"Point","coordinates":[-71.116573,42.385063]}},{"properties":{"lon":-71.122656,"city":"Cambridge","bedrooms":"2 Br","zip":"02138","sq feet":"1,722 Sqft","bathrooms":"2.5 Ba","street address":"69 Walker St","sale price":839000,"housing type":"Condo","id":"a62xz7uqcaeg","lat":42.38059,"state":"MA"},"type":"Feature","geometry":{"type":"Point","coordinates":[-71.122656,42.38059]}},{"properties":{"lon":-71.107549,"city":"Cambridge","bedrooms":"2 Br","zip":"02239","sq feet":"1,387 Sqft","bathrooms":"2.5 Ba","street address":"10 Mcternan St","sale price":839000,"housing type":"Condo","id":"a62xz7sixz1w","lat":42.360767,"state":"MA"},"type":"Feature","geometry":{"type":"Point","coordinates":[-71.107549,42.360767]}},{"properties":{"lon":-71.106266,"city":"Cambridge","bedrooms":"3 Br","zip":"02239","sq feet":"1,875 Sqft","bathrooms":"3 Ba","street address":"304 Harvard St","sale price":849000,"housing type":"Condo","id":"a62xz7qqiadp","lat":42.36972,"state":"MA"},"type":"Feature","geometry":{"type":"Point","coordinates":[-71.106266,42.36972]}},{"properties":{"lon":-71.107549,"city":"Cambridge","bedrooms":"2 Br","zip":"02239","sq feet":"1,590 Sqft","bathrooms":"2 Ba","street address":"10 Mcternan St","sale price":849000,"housing type":"Condo","id":"a62xz7x6iphe","lat":42.360767,"state":"MA"},"type":"Feature","geometry":{"type":"Point","coordinates":[-71.107549,42.360767]}},{"properties":{"lon":-71.123614,"city":"Cambridge","bedrooms":"1 Br","zip":"02138","sq feet":"1,033 Sqft","bathrooms":"1.5 Ba","street address":"130 Mount Auburn St","sale price":850000,"housing type":"Condo","id":"a62xz7yz2yjz","lat":42.373573,"state":"MA"},"type":"Feature","geometry":{"type":"Point","coordinates":[-71.123614,42.373573]}},{"properties":{"lon":-71.10637,"city":"Cambridge","bedrooms":"2 Br","zip":"02139","sq feet":"1,486 Sqft","bathrooms":"2.5 Ba","street address":"72 Hamilton St","sale price":855000,"housing type":"Condo","id":"a62xz8113jj0","lat":42.358246,"state":"MA"},"type":"Feature","geometry":{"type":"Point","coordinates":[-71.10637,42.358246]}},{"properties":{"lon":-71.121284,"city":"Cambridge","bedrooms":"3 Br","zip":"02239","sq feet":"2,197 Sqft","bathrooms":"2.5 Ba","street address":"11 Wright St","sale price":867000,"housing type":"Condo","id":"a62xz7vka4uq","lat":42.382072,"state":"MA"},"type":"Feature","geometry":{"type":"Point","coordinates":[-71.121284,42.382072]}},{"properties":{"lon":-71.106053,"city":"Cambridge","bedrooms":"2 Br","zip":"02139","sq feet":"2,061 Sqft","bathrooms":"2.5 Ba","street address":"100 Erie St","sale price":868000,"housing type":"Condo","id":"a62xz7wrpxck","lat":42.358924,"state":"MA"},"type":"Feature","geometry":{"type":"Point","coordinates":[-71.106053,42.358924]}},{"properties":{"lon":-71.121662,"city":"Cambridge","bedrooms":"3 Br","zip":"02239","sq feet":"1,879 Sqft","bathrooms":"1.5 Ba","street address":"68 Orchard St","sale price":875000,"housing type":"Single Family","id":"a62xz7noay9z","lat":42.392258,"state":"MA"},"type":"Feature","geometry":{"type":"Point","coordinates":[-71.121662,42.392258]}},{"properties":{"lon":-71.105512,"city":"Cambridge","bedrooms":"3 Br","zip":"02239","sq feet":"1,965 Sqft","bathrooms":"2.5 Ba","street address":"15 Valentine St","sale price":879000,"housing type":"Condo","id":"a62xz7rgkh2x","lat":42.360262,"state":"MA"},"type":"Feature","geometry":{"type":"Point","coordinates":[-71.105512,42.360262]}},{"properties":{"lon":-71.077647,"city":"Cambridge","bedrooms":"3 Br","zip":"02239","sq feet":"1,638 Sqft","bathrooms":"2.5 Ba","street address":"17 Otis St","sale price":879000,"housing type":"Condo","id":"a62xz80wl6l3","lat":42.37014,"state":"MA"},"type":"Feature","geometry":{"type":"Point","coordinates":[-71.077647,42.37014]}},{"properties":{"lon":-71.129287,"city":"Cambridge","bedrooms":"3 Br","zip":"02138","sq feet":"1,717 Sqft","bathrooms":"2 Ba","street address":"56 Winslow St","sale price":895000,"housing type":"Condo","id":"a62xz7v6dtb0","lat":42.384655,"state":"MA"},"type":"Feature","geometry":{"type":"Point","coordinates":[-71.129287,42.384655]}},{"properties":{"lon":-71.1252,"city":"Cambridge","bedrooms":"2 Br","zip":"02239","sq feet":"1,337 Sqft","bathrooms":"2 Ba","street address":"985 Memorial Dr","sale price":895000,"housing type":"Condo","id":"a62xz81a8g0x","lat":42.372452,"state":"MA"},"type":"Feature","geometry":{"type":"Point","coordinates":[-71.1252,42.372452]}},{"properties":{"lon":-71.111921,"city":"Cambridge","bedrooms":"3 Br","zip":"02138","sq feet":"1,849 Sqft","bathrooms":"2.5 Ba","street address":"35 Trowbridge St","sale price":925000,"housing type":"Condo","id":"a62xz7w8wugr","lat":42.371903,"state":"MA"},"type":"Feature","geometry":{"type":"Point","coordinates":[-71.111921,42.371903]}},{"properties":{"lon":-71.107869,"city":"Cambridge","bedrooms":"3 Br","zip":"02139","sq feet":"2,010 Sqft","bathrooms":"2 Ba","street address":"324 Harvard St","sale price":935000,"housing type":"Condo","id":"a62xz7srisfc","lat":42.370176,"state":"MA"},"type":"Feature","geometry":{"type":"Point","coordinates":[-71.107869,42.370176]}},{"properties":{"lon":-71.122987,"city":"Cambridge","bedrooms":"3 Br","zip":"02239","sq feet":"1,545 Sqft","bathrooms":"2.5 Ba","street address":"19 Chauncy St","sale price":945000,"housing type":"Condo","id":"a62xz7t07xr0","lat":42.379562,"state":"MA"},"type":"Feature","geometry":{"type":"Point","coordinates":[-71.122987,42.379562]}},{"properties":{"lon":-71.155263,"city":"Cambridge","bedrooms":"7 Br","zip":"02239","sq feet":"3,525 Sqft","bathrooms":"4 Ba","street address":"92 Oxford Ave","sale price":965000,"housing type":"Misc Property Type","id":"a62xz7xm0eh9","lat":42.378815,"state":"MA"},"type":"Feature","geometry":{"type":"Point","coordinates":[-71.155263,42.378815]}},{"properties":{"lon":-71.140133,"city":"Cambridge","bedrooms":"5 Br","zip":"02239","sq feet":"3,048 Sqft","bathrooms":"4 Ba","street address":"183 Lake View Ave","sale price":975000,"housing type":"Misc Property Type","id":"a62xz7rl1c1t","lat":42.381774,"state":"MA"},"type":"Feature","geometry":{"type":"Point","coordinates":[-71.140133,42.381774]}},{"properties":{"lon":-71.140133,"city":"Cambridge","bedrooms":"5 Br","zip":"02239","sq feet":"3,048 Sqft","bathrooms":"4 Ba","street address":"183 Lake View Ave","sale price":975000,"housing type":"Single Family","id":"a62xz7om9f16","lat":42.381774,"state":"MA"},"type":"Feature","geometry":{"type":"Point","coordinates":[-71.140133,42.381774]}},{"properties":{"lon":-71.126353,"city":"Cambridge","bedrooms":"3 Br","zip":"02239","sq feet":"1,352 Sqft","bathrooms":"1.5 Ba","street address":"15 Robinson St","sale price":995000,"housing type":"Single Family","id":"a62xz7ztoinj","lat":42.38377,"state":"MA"},"type":"Feature","geometry":{"type":"Point","coordinates":[-71.126353,42.38377]}},{"properties":{"lon":-71.133194,"city":"Cambridge","bedrooms":"N/A Br","zip":"02138","sq feet":"4,524 Sqft","bathrooms":"N/A Ba","street address":"Appleton St","sale price":995632,"housing type":"Misc : Commercial","id":"a62xz827tjvb","lat":42.38304,"state":"MA"},"type":"Feature","geometry":{"type":"Point","coordinates":[-71.133194,42.38304]}},{"properties":{"lon":-71.07843,"city":"Cambridge","bedrooms":"3 Br","zip":"02141","sq feet":"1,590 Sqft","bathrooms":"2.5 Ba","street address":"150 Cambridge St","sale price":999000,"housing type":"Condo","id":"a62xz808bgw0","lat":42.370727,"state":"MA"},"type":"Feature","geometry":{"type":"Point","coordinates":[-71.07843,42.370727]}},{"properties":{"lon":-71.130046,"city":"Cambridge","bedrooms":"3 Br","zip":"02138","sq feet":"1,331 Sqft","bathrooms":"1 Ba","street address":"63 Foster St","sale price":1050000,"housing type":"Single Family","id":"a62xz7smtpb7","lat":42.376188,"state":"MA"},"type":"Feature","geometry":{"type":"Point","coordinates":[-71.130046,42.376188]}},{"properties":{"lon":-71.131644,"city":"Cambridge","bedrooms":"2 Br","zip":"02239","sq feet":"1,970 Sqft","bathrooms":"3.5 Ba","street address":"Clement Cir","sale price":1075000,"housing type":"Condo","id":"a62xz7x6kl9v","lat":42.381145,"state":"MA"},"type":"Feature","geometry":{"type":"Point","coordinates":[-71.131644,42.381145]}},{"properties":{"lon":-71.128063,"city":"Cambridge","bedrooms":"6 Br","zip":"02239","sq feet":"3,393 Sqft","bathrooms":"4 Ba","street address":"262 Upland Rd","sale price":1100000,"housing type":"Misc Property Type","id":"a62xz7unkl3n","lat":42.385392,"state":"MA"},"type":"Feature","geometry":{"type":"Point","coordinates":[-71.128063,42.385392]}},{"properties":{"lon":-71.109387,"city":"Cambridge","bedrooms":"3 Br","zip":"02138","sq feet":"2,500 Sqft","bathrooms":"2.5 Ba","street address":"29 Dana St","sale price":1100000,"housing type":"Single Family","id":"a62xz7p9m80m","lat":42.371398,"state":"MA"},"type":"Feature","geometry":{"type":"Point","coordinates":[-71.109387,42.371398]}},{"properties":{"lon":-71.128063,"city":"Cambridge","bedrooms":"6 Br","zip":"02239","sq feet":"3,393 Sqft","bathrooms":"4 Ba","street address":"262 Upland Rd","sale price":1100000,"housing type":"Single Family","id":"a62xz7x2leay","lat":42.385392,"state":"MA"},"type":"Feature","geometry":{"type":"Point","coordinates":[-71.128063,42.385392]}},{"properties":{"lon":-71.111145,"city":"Cambridge","bedrooms":"2 Br","zip":"02138","sq feet":"2,050 Sqft","bathrooms":"3 Ba","street address":"46 Trowbridge St","sale price":1107000,"housing type":"Condo","id":"a62xz7r4cbnz","lat":42.372449,"state":"MA"},"type":"Feature","geometry":{"type":"Point","coordinates":[-71.111145,42.372449]}},{"properties":{"lon":-71.141732,"city":"Cambridge","bedrooms":"4 Br","zip":"02239","sq feet":"2,190 Sqft","bathrooms":"1.5 Ba","street address":"208 Lexington Ave","sale price":1125000,"housing type":"Single Family","id":"a62xz7sk5e1f","lat":42.3814,"state":"MA"},"type":"Feature","geometry":{"type":"Point","coordinates":[-71.141732,42.3814]}},{"properties":{"lon":-71.145976,"city":"Cambridge","bedrooms":"4 Br","zip":"02138","sq feet":"2,402 Sqft","bathrooms":"3.5 Ba","street address":"101 Larchwood Dr","sale price":1150000,"housing type":"Single Family","id":"a62xz7odvr9h","lat":42.378536,"state":"MA"},"type":"Feature","geometry":{"type":"Point","coordinates":[-71.145976,42.378536]}},{"properties":{"lon":-71.112222,"city":"Cambridge","bedrooms":"4 Br","zip":"02139","sq feet":"3,005 Sqft","bathrooms":"2.5 Ba","street address":"145 Magazine St","sale price":1179000,"housing type":"Single Family","id":"a62xz7ou3vcn","lat":42.358269,"state":"MA"},"type":"Feature","geometry":{"type":"Point","coordinates":[-71.112222,42.358269]}},{"properties":{"lon":-71.109198,"city":"Cambridge","bedrooms":"4 Br","zip":"02239","sq feet":"2,000 Sqft","bathrooms":"2.5 Ba","street address":"5 Shady Hill Sq","sale price":1195000,"housing type":"Condo","id":"a62xz7woek42","lat":42.37957,"state":"MA"},"type":"Feature","geometry":{"type":"Point","coordinates":[-71.109198,42.37957]}},{"properties":{"lon":-71.111426,"city":"Cambridge","bedrooms":"3 Br","zip":"02138","sq feet":"1,899 Sqft","bathrooms":"2.5 Ba","street address":"49 Trowbridge St","sale price":1225000,"housing type":"Condo","id":"a62xz82x9iy5","lat":42.372639,"state":"MA"},"type":"Feature","geometry":{"type":"Point","coordinates":[-71.111426,42.372639]}},{"properties":{"lon":-71.106417,"city":"Cambridge","bedrooms":"3 Br","zip":"02239","sq feet":"2,106 Sqft","bathrooms":"3.5 Ba","street address":"166 Hancock St","sale price":1250000,"housing type":"Condo","id":"a62xz81tcte5","lat":42.370454,"state":"MA"},"type":"Feature","geometry":{"type":"Point","coordinates":[-71.106417,42.370454]}},{"properties":{"lon":-71.106495,"city":"Cambridge","bedrooms":"3 Br","zip":"02239","sq feet":"2,106 Sqft","bathrooms":"3.5 Ba","street address":"160 Hancock St","sale price":1250000,"housing type":"Condo","id":"a62xz80ixylh","lat":42.370326,"state":"MA"},"type":"Feature","geometry":{"type":"Point","coordinates":[-71.106495,42.370326]}},{"properties":{"lon":-71.123493,"city":"Cambridge","bedrooms":"4 Br","zip":"02239","sq feet":"2,718 Sqft","bathrooms":"3.5 Ba","street address":"9 Russell St","sale price":1259000,"housing type":"Single Family","id":"a62xz7sijqzn","lat":42.392204,"state":"MA"},"type":"Feature","geometry":{"type":"Point","coordinates":[-71.123493,42.392204]}},{"properties":{"lon":-71.115665,"city":"Cambridge","bedrooms":"3 Br","zip":"02239","sq feet":"1,997 Sqft","bathrooms":"2.5 Ba","street address":"Wendell St","sale price":1295000,"housing type":"Condo","id":"a62xz80n4mm0","lat":42.38156,"state":"MA"},"type":"Feature","geometry":{"type":"Point","coordinates":[-71.115665,42.38156]}},{"properties":{"lon":-71.106469,"city":"Cambridge","bedrooms":"3 Br","zip":"02239","sq feet":"1,889 Sqft","bathrooms":"3.5 Ba","street address":"162 Hancock St","sale price":1350000,"housing type":"Condo","id":"a62xz7rgjgct","lat":42.370369,"state":"MA"},"type":"Feature","geometry":{"type":"Point","coordinates":[-71.106469,42.370369]}},{"properties":{"lon":-71.106443,"city":"Cambridge","bedrooms":"3 Br","zip":"02239","sq feet":"1,889 Sqft","bathrooms":"3.5 Ba","street address":"164 Hancock St","sale price":1350000,"housing type":"Condo","id":"a62xz7pesn0e","lat":42.370411,"state":"MA"},"type":"Feature","geometry":{"type":"Point","coordinates":[-71.106443,42.370411]}},{"properties":{"lon":-71.108321,"city":"Cambridge","bedrooms":"3 Br","zip":"02239","sq feet":"2,067 Sqft","bathrooms":"3.5 Ba","street address":"171 Hamilton St","sale price":1365000,"housing type":"Single Family","id":"a62xz82mzn6o","lat":42.359766,"state":"MA"},"type":"Feature","geometry":{"type":"Point","coordinates":[-71.108321,42.359766]}},{"properties":{"lon":-71.108321,"city":"Cambridge","bedrooms":"3 Br","zip":"02239","sq feet":"2,067 Sqft","bathrooms":"3.5 Ba","street address":"171 Hamilton St","sale price":1365000,"housing type":"Condo","id":"a62xz81p8nbl","lat":42.359766,"state":"MA"},"type":"Feature","geometry":{"type":"Point","coordinates":[-71.108321,42.359766]}},{"properties":{"lon":-71.108185,"city":"Cambridge","bedrooms":"3 Br","zip":"02239","sq feet":"2,343 Sqft","bathrooms":"3.5 Ba","street address":"209 Pearl St","sale price":1365000,"housing type":"Condo","id":"a62xz7qwsc4c","lat":42.359778,"state":"MA"},"type":"Feature","geometry":{"type":"Point","coordinates":[-71.108185,42.359778]}},{"properties":{"lon":-71.071834,"city":"Cambridge","bedrooms":"2 Br","zip":"02141","sq feet":"1,853 Sqft","bathrooms":"2 Ba","street address":"8 Museum Way","sale price":1375000,"housing type":"Condo","id":"a62xz815ktv2","lat":42.369068,"state":"MA"},"type":"Feature","geometry":{"type":"Point","coordinates":[-71.071834,42.369068]}},{"properties":{"lon":-71.113143,"city":"Cambridge","bedrooms":"5 Br","zip":"02239","sq feet":"2,780 Sqft","bathrooms":"4 Ba","street address":"100 Hammond St","sale price":1395000,"housing type":"Single Family","id":"a62xz7v5e9oc","lat":42.38127,"state":"MA"},"type":"Feature","geometry":{"type":"Point","coordinates":[-71.113143,42.38127]}},{"properties":{"lon":-71.12714,"city":"Cambridge","bedrooms":"3 Br","zip":"02138","sq feet":"2,444 Sqft","bathrooms":"3 Ba","street address":"10 Bond St","sale price":1400000,"housing type":"Single Family","id":"a62xz803wyvw","lat":42.380523,"state":"MA"},"type":"Feature","geometry":{"type":"Point","coordinates":[-71.12714,42.380523]}},{"properties":{"lon":-71.071834,"city":"Cambridge","bedrooms":"3 Br","zip":"02141","sq feet":"1,730 Sqft","bathrooms":"2 Ba","street address":"8 Museum Way","sale price":1450000,"housing type":"Condo","id":"a62xz7z7x162","lat":42.369068,"state":"MA"},"type":"Feature","geometry":{"type":"Point","coordinates":[-71.071834,42.369068]}},{"properties":{"lon":-71.127425,"city":"Cambridge","bedrooms":"7 Br","zip":"02239","sq feet":"4,158 Sqft","bathrooms":"4.5 Ba","street address":"10 Garden Ter","sale price":1495000,"housing type":"Single Family","id":"a62xz81e67f0","lat":42.382594,"state":"MA"},"type":"Feature","geometry":{"type":"Point","coordinates":[-71.127425,42.382594]}},{"properties":{"lon":-71.122362,"city":"Cambridge","bedrooms":"3 Br","zip":"02239","sq feet":"3,783 Sqft","bathrooms":"2.5 Ba","street address":"63 Regent St","sale price":1495000,"housing type":"Condo","id":"a62xz7uyvnim","lat":42.389832,"state":"MA"},"type":"Feature","geometry":{"type":"Point","coordinates":[-71.122362,42.389832]}},{"properties":{"lon":-71.105519,"city":"Cambridge","bedrooms":"N/A Br","zip":"02139","sq feet":"8,360 Sqft","bathrooms":"N/A Ba","street address":"Cambridge St","sale price":1502080,"housing type":"Single Family","id":"a62xz82y6om1","lat":42.374345,"state":"MA"},"type":"Feature","geometry":{"type":"Point","coordinates":[-71.105519,42.374345]}},{"properties":{"lon":-71.135203,"city":"Cambridge","bedrooms":"4 Br","zip":"02239","sq feet":"3,420 Sqft","bathrooms":"3.5 Ba","street address":"16 Channing St","sale price":1595000,"housing type":"Single Family","id":"a62xz81hgzpa","lat":42.375438,"state":"MA"},"type":"Feature","geometry":{"type":"Point","coordinates":[-71.135203,42.375438]}},{"properties":{"lon":-71.139951,"city":"Cambridge","bedrooms":"3 Br","zip":"02138","sq feet":"2,623 Sqft","bathrooms":"2.5 Ba","street address":"8 Gracewood Park","sale price":1650000,"housing type":"Single Family","id":"a62xz7yaki4g","lat":42.378019,"state":"MA"},"type":"Feature","geometry":{"type":"Point","coordinates":[-71.139951,42.378019]}},{"properties":{"lon":-71.117945,"city":"Cambridge","bedrooms":"4 Br","zip":"02239","sq feet":"3,254 Sqft","bathrooms":"3.5 Ba","street address":"9 Forest St","sale price":1675000,"housing type":"Condo","id":"a62xz7zvrfm2","lat":42.385389,"state":"MA"},"type":"Feature","geometry":{"type":"Point","coordinates":[-71.117945,42.385389]}},{"properties":{"lon":-71.071783,"city":"Cambridge","bedrooms":"3 Br","zip":"02141","sq feet":"1,842 Sqft","bathrooms":"3 Ba","street address":"10 Museum Way","sale price":1790000,"housing type":"Condo","id":"a62xz83c8rnc","lat":42.36912,"state":"MA"},"type":"Feature","geometry":{"type":"Point","coordinates":[-71.071783,42.36912]}},{"properties":{"lon":-71.122713,"city":"Cambridge","bedrooms":"5 Br","zip":"02138","sq feet":"3,738 Sqft","bathrooms":"3.5 Ba","street address":"19 Avon St","sale price":1995000,"housing type":"Single Family","id":"a62xz7xi6gcq","lat":42.382029,"state":"MA"},"type":"Feature","geometry":{"type":"Point","coordinates":[-71.122713,42.382029]}},{"properties":{"lon":-71.142975,"city":"Cambridge","bedrooms":"4 Br","zip":"02138","sq feet":"4,000 Sqft","bathrooms":"4.5 Ba","street address":"133 Larch Rd","sale price":1995000,"housing type":"Single Family","id":"a62xz7uxo44q","lat":42.379312,"state":"MA"},"type":"Feature","geometry":{"type":"Point","coordinates":[-71.142975,42.379312]}},{"properties":{"lon":-71.138986,"city":"Cambridge","bedrooms":"5 Br","zip":"02138","sq feet":"5 Sqft","bathrooms":"4 Ba","street address":"110 Coolidge Hl","sale price":1998000,"housing type":"Single Family","id":"a62xz81zeg08","lat":42.373047,"state":"MA"},"type":"Feature","geometry":{"type":"Point","coordinates":[-71.138986,42.373047]}},{"properties":{"lon":-71.135188,"city":"Cambridge","bedrooms":"6 Br","zip":"02138","sq feet":"4,039 Sqft","bathrooms":"4.5 Ba","street address":"14 Channing St","sale price":2100000,"housing type":"Single Family","id":"a62xz80cv54u","lat":42.375393,"state":"MA"},"type":"Feature","geometry":{"type":"Point","coordinates":[-71.135188,42.375393]}},{"properties":{"lon":-71.076019,"city":"Cambridge","bedrooms":"2 Br","zip":"02239","sq feet":"1,995 Sqft","bathrooms":"2 Ba","street address":"Cambridge Pkwy","sale price":2195000,"housing type":"Condo","id":"a62xz7u47wx2","lat":42.365126,"state":"MA"},"type":"Feature","geometry":{"type":"Point","coordinates":[-71.076019,42.365126]}},{"properties":{"lon":-71.131648,"city":"Cambridge","bedrooms":"4 Br","zip":"02138","sq feet":"4 Sqft","bathrooms":"4 Ba","street address":"10 Kenway St","sale price":2200000,"housing type":"Single Family","id":"a62xz7vtsuyx","lat":42.375691,"state":"MA"},"type":"Feature","geometry":{"type":"Point","coordinates":[-71.131648,42.375691]}},{"properties":{"lon":-71.121114,"city":"Cambridge","bedrooms":"5 Br","zip":"02239","sq feet":"3,278 Sqft","bathrooms":"3.5 Ba","street address":"11 Shepard St","sale price":2300000,"housing type":"Single Family","id":"a62xz7ud2f99","lat":42.381678,"state":"MA"},"type":"Feature","geometry":{"type":"Point","coordinates":[-71.121114,42.381678]}},{"properties":{"lon":-71.140776,"city":"Cambridge","bedrooms":"5 Br","zip":"02239","sq feet":"4,000 Sqft","bathrooms":"4.5 Ba","street address":"102 Lexington Ave","sale price":2595000,"housing type":"Single Family","id":"a62xz7xkwn3s","lat":42.378691,"state":"MA"},"type":"Feature","geometry":{"type":"Point","coordinates":[-71.140776,42.378691]}},{"properties":{"lon":-71.129123,"city":"Cambridge","bedrooms":"5 Br","zip":"02138","sq feet":"5 Sqft","bathrooms":"4 Ba","street address":"130 Brattle St","sale price":2625000,"housing type":"Single Family","id":"a62xz7qx76mz","lat":42.377452,"state":"MA"},"type":"Feature","geometry":{"type":"Point","coordinates":[-71.129123,42.377452]}},{"properties":{"lon":-71.129123,"city":"Cambridge","bedrooms":"5 Br","zip":"02239","sq feet":"5,545 Sqft","bathrooms":"4.5 Ba","street address":"130 Brattle St","sale price":2625000,"housing type":"Single Family","id":"a62xz7nrnaim","lat":42.377452,"state":"MA"},"type":"Feature","geometry":{"type":"Point","coordinates":[-71.129123,42.377452]}},{"properties":{"lon":-71.129123,"city":"Cambridge","bedrooms":"5 Br","zip":"02138","sq feet":"5 Sqft","bathrooms":"4 Ba","street address":"130 Brattle St","sale price":2625000,"housing type":"Condo","id":"a62xz7q750f8","lat":42.377452,"state":"MA"},"type":"Feature","geometry":{"type":"Point","coordinates":[-71.129123,42.377452]}},{"properties":{"lon":-71.139209,"city":"Cambridge","bedrooms":"4 Br","zip":"02138","sq feet":"3,792 Sqft","bathrooms":"4.5 Ba","street address":"97 Lake View Ave","sale price":2750000,"housing type":"Single Family","id":"a62xz7w5g4lu","lat":42.379127,"state":"MA"},"type":"Feature","geometry":{"type":"Point","coordinates":[-71.139209,42.379127]}},{"properties":{"lon":-71.141075,"city":"Cambridge","bedrooms":"5 Br","zip":"02138","sq feet":"5 Sqft","bathrooms":"4 Ba","street address":"33 Fresh Pond Pkwy","sale price":2850000,"housing type":"Single Family","id":"a62xz7tcn72o","lat":42.376923,"state":"MA"},"type":"Feature","geometry":{"type":"Point","coordinates":[-71.141075,42.376923]}},{"properties":{"lon":-71.137321,"city":"Cambridge","bedrooms":"6 Br","zip":"02138","sq feet":"5,363 Sqft","bathrooms":"5 Ba","street address":"26 Elmwood Ave","sale price":2895000,"housing type":"Single Family","id":"a62xz7z4o3l9","lat":42.375854,"state":"MA"},"type":"Feature","geometry":{"type":"Point","coordinates":[-71.137321,42.375854]}},{"properties":{"lon":-71.132626,"city":"Cambridge","bedrooms":"6 Br","zip":"02138","sq feet":"5,044 Sqft","bathrooms":"6.5 Ba","street address":"24 Highland St","sale price":2900000,"housing type":"Single Family","id":"a62xz7yteqpy","lat":42.379095,"state":"MA"},"type":"Feature","geometry":{"type":"Point","coordinates":[-71.132626,42.379095]}},{"properties":{"lon":-71.124203,"city":"Cambridge","bedrooms":"2 Br","zip":"02138","sq feet":"2,736 Sqft","bathrooms":"2.5 Ba","street address":"975 Memorial Dr","sale price":3275000,"housing type":"Condo","id":"a62xz7vddlwy","lat":42.371324,"state":"MA"},"type":"Feature","geometry":{"type":"Point","coordinates":[-71.124203,42.371324]}},{"properties":{"lon":-71.133687,"city":"Cambridge","bedrooms":"6 Br","zip":"02138","sq feet":"4,663 Sqft","bathrooms":"4.5 Ba","street address":"19 Appleton St","sale price":3350000,"housing type":"Single Family","id":"a62xz80yxkwz","lat":42.377938,"state":"MA"},"type":"Feature","geometry":{"type":"Point","coordinates":[-71.133687,42.377938]}},{"properties":{"lon":-71.132567,"city":"Cambridge","bedrooms":"5 Br","zip":"02239","sq feet":"4,452 Sqft","bathrooms":"3.5 Ba","street address":"45 Brewster St","sale price":3600000,"housing type":"Single Family","id":"a62xz8186vcc","lat":42.378591,"state":"MA"},"type":"Feature","geometry":{"type":"Point","coordinates":[-71.132567,42.378591]}},{"properties":{"lon":-71.124203,"city":"Cambridge","bedrooms":"3 Br","zip":"02138","sq feet":"2,274 Sqft","bathrooms":"3.5 Ba","street address":"975 Memorial Dr","sale price":4000000,"housing type":"Condo","id":"a62xz83rxwcn","lat":42.371324,"state":"MA"},"type":"Feature","geometry":{"type":"Point","coordinates":[-71.124203,42.371324]}},{"properties":{"lon":-71.124203,"city":"Cambridge","bedrooms":"3 Br","zip":"02138","sq feet":"4,015 Sqft","bathrooms":"3.5 Ba","street address":"975 Memorial Dr","sale price":4500000,"housing type":"Condo","id":"a62xz7sg90a2","lat":42.371324,"state":"MA"},"type":"Feature","geometry":{"type":"Point","coordinates":[-71.124203,42.371324]}}],"is_temporal":false,"author":{"url":"http://realestate.aol.com/Cambridge-MA-homes-for-sale","metadata":"","contact_name":"","contact_address":"","source":"AOL Real Estate","contact_phone":""},"source":"http://realestate.aol.com/Cambridge-MA-homes-for-sale","pagination":{"sort":null,"start":0,"total":359,"limit":1000000},"state":"complete","tags":"","published":"2014-08-10T12:53:59-04:00","id":60952}