{"type":"FeatureCollection","data_type":"Dataset","url_type":null,"permissions":[{"permissions":{"download":true,"view":true},"group_id":"everyone"}],"classification":null,"title":"Northeast Philadelphia","count":714,"stream_id":61012,"contributor":{"url":"http://geocommons.com/users/15335","name":"jeremypiv36"},"data_attributes":null,"calculation_params":null,"icon_link":null,"link":"http://geocommons.com/overlays/61012.json","extent":[-77.0164,39.6633,-74.8119,41.2449],"geometry_types":["point"],"unique_name":null,"name":"Northeast Philadelphia","feature_count":714,"description":"Customer Addresses","next_feature":null,"is_raster":false,"short_classification":"Y","stats":{"geo_score":{"max":0.902,"mean":0.786882352941175,"variance":0.0102024153122679,"stdev":0.101007006253368,"min":0.325,"median":0.829}},"features":[{"properties":{"zip":"19114","geo_score":0.854,"id":"a62z5kkrkjn7","geo_precision":"range","address":"10027 WESTBOURNE","state":"PA"},"type":"Feature","geometry":{"type":"Point","coordinates":[-74.997569,40.077012]}},{"properties":{"zip":"19114","geo_score":0.854,"id":"a62z5kmcetke","geo_precision":"range","address":"10027 WESTBOURNE","state":"PA"},"type":"Feature","geometry":{"type":"Point","coordinates":[-74.997569,40.077012]}},{"properties":{"zip":"19116","geo_score":0.829,"id":"a62z5kqg56xs","geo_precision":"range","address":"10030 VERREE","state":"PA"},"type":"Feature","geometry":{"type":"Point","coordinates":[-75.032341,40.105522]}},{"properties":{"zip":"19114","geo_score":0.434,"id":"a62z5krfa7q0","geo_precision":"street","address":"10101 DELAIR LANDING","state":"PA"},"type":"Feature","geometry":{"type":"Point","coordinates":[-75.017083,40.111019]}},{"properties":{"zip":"19116","geo_score":0.688,"id":"a62z5koxjbui","geo_precision":"street","address":"10102 B JAMISON","state":"PA"},"type":"Feature","geometry":{"type":"Point","coordinates":[-75.020614,40.100999]}},{"properties":{"zip":"19115","geo_score":0.659,"id":"a62z5kok14kj","geo_precision":"street","address":"1030 BLOOMFIELD","state":"PA"},"type":"Feature","geometry":{"type":"Point","coordinates":[-75.055807,40.088094]}},{"properties":{"zip":"19114","geo_score":0.74,"id":"a62z5kpllke3","geo_precision":"range","address":"10381 DECATUR","state":"PA"},"type":"Feature","geometry":{"type":"Point","coordinates":[-75.001349,40.085907]}},{"properties":{"zip":"19116","geo_score":0.585,"id":"a62z5ki4m16p","geo_precision":"zip","address":"10642 LOCKHART","state":"PA"},"type":"Feature","geometry":{"type":"Point","coordinates":[-75.014892,40.123443]}},{"properties":{"zip":"19154","geo_score":0.585,"id":"a62z5kl8wweb","geo_precision":"zip","address":"10760 DRUMONE","state":"PA"},"type":"Feature","geometry":{"type":"Point","coordinates":[-75.018265,40.084017]}},{"properties":{"zip":"19116","geo_score":0.837,"id":"a62z5kopzbd8","geo_precision":"range","address":"10794 HEATHER","state":"PA"},"type":"Feature","geometry":{"type":"Point","coordinates":[-75.028491,40.11391]}},{"properties":{"zip":"19116","geo_score":0.837,"id":"a62z5ko0s9jy","geo_precision":"range","address":"10835 RENNARD","state":"PA"},"type":"Feature","geometry":{"type":"Point","coordinates":[-75.037899,40.119699]}},{"properties":{"zip":"19154","geo_score":0.829,"id":"a62z5kr4u8id","geo_precision":"range","address":"10841 HARROW","state":"PA"},"type":"Feature","geometry":{"type":"Point","coordinates":[-74.991005,40.081891]}},{"properties":{"zip":"19116","geo_score":0.829,"id":"a62z5kmbdzk1","geo_precision":"range","address":"10900 BUSTLETON","state":"PA"},"type":"Feature","geometry":{"type":"Point","coordinates":[-75.024306,40.11118]}},{"properties":{"zip":"19154","geo_score":0.815,"id":"a62z5ks3rux4","geo_precision":"range","address":"10955 KESWICK","state":"PA"},"type":"Feature","geometry":{"type":"Point","coordinates":[-74.983863,40.081419]}},{"properties":{"zip":"18966","geo_score":0.849,"id":"a62z5kosur3w","geo_precision":"range","address":"110 PONDEROSA","state":"PA"},"type":"Feature","geometry":{"type":"Point","coordinates":[-74.957979,40.193151]}},{"properties":{"zip":"19115","geo_score":0.659,"id":"a62z5kjao6lh","geo_precision":"street","address":"1102 BLOOMFIELD","state":"PA"},"type":"Feature","geometry":{"type":"Point","coordinates":[-75.055807,40.088094]}},{"properties":{"zip":"18974","geo_score":0.837,"id":"a62z5krhyaoi","geo_precision":"range","address":"1105 BRENNAN","state":"PA"},"type":"Feature","geometry":{"type":"Point","coordinates":[-75.092743,40.220862]}},{"properties":{"zip":"18974","geo_score":0.837,"id":"a62z5knai02i","geo_precision":"range","address":"1105 BRENNAN","state":"PA"},"type":"Feature","geometry":{"type":"Point","coordinates":[-75.092743,40.220862]}},{"properties":{"zip":"19141","geo_score":0.798,"id":"a62z5kff1nb2","geo_precision":"range","address":"1117 WEST SOMMORVILLE","state":"PA"},"type":"Feature","geometry":{"type":"Point","coordinates":[-75.140759,40.034651]}},{"properties":{"zip":"19111","geo_score":0.854,"id":"a62z5kiw5hry","geo_precision":"range","address":"1120 WELLINGTON","state":"PA"},"type":"Feature","geometry":{"type":"Point","coordinates":[-75.074227,40.053773]}},{"properties":{"zip":"19111","geo_score":0.793,"id":"a62z5kqp06kv","geo_precision":"range","address":"1122 MAGEE","state":"PA"},"type":"Feature","geometry":{"type":"Point","coordinates":[-75.082001,40.045747]}},{"properties":{"zip":"19115","geo_score":0.849,"id":"a62z5kicpqnd","geo_precision":"range","address":"113 FLAGSTAFF","state":"PA"},"type":"Feature","geometry":{"type":"Point","coordinates":[-75.059777,40.101441]}},{"properties":{"zip":"19149","geo_score":0.829,"id":"a62z5krg3c5s","geo_precision":"range","address":"1130 ALCOTT","state":"PA"},"type":"Feature","geometry":{"type":"Point","coordinates":[-75.088306,40.035204]}},{"properties":{"zip":"19111","geo_score":0.829,"id":"a62z5kegykp3","geo_precision":"range","address":"1135 RIPLEY","state":"PA"},"type":"Feature","geometry":{"type":"Point","coordinates":[-75.072288,40.070031]}},{"properties":{"zip":"19027","geo_score":0.849,"id":"a62z5kdqzixf","geo_precision":"range","address":"1141 BROOKVIEW","state":"PA"},"type":"Feature","geometry":{"type":"Point","coordinates":[-75.119326,40.066725]}},{"properties":{"zip":"19114","geo_score":0.52,"id":"a62z5kpdf7cy","geo_precision":"street","address":"116 W GERMANTOWN","state":"PA"},"type":"Feature","geometry":{"type":"Point","coordinates":[-75.137666,39.965105]}},{"properties":{"zip":"19116","geo_score":0.805,"id":"a62z5kdof8a8","geo_precision":"range","address":"11623 KELVIN","state":"PA"},"type":"Feature","geometry":{"type":"Point","coordinates":[-75.01486,40.11482]}},{"properties":{"zip":"19038","geo_score":0.585,"id":"a62z5kg6wqdd","geo_precision":"zip","address":"118 MICHENER","state":"PA"},"type":"Feature","geometry":{"type":"Point","coordinates":[-75.144619,40.11011]}},{"properties":{"zip":"19116","geo_score":0.829,"id":"a62z5kpo3tm1","geo_precision":"range","address":"11910 BARLOW","state":"PA"},"type":"Feature","geometry":{"type":"Point","coordinates":[-75.012573,40.11699]}},{"properties":{"zip":"18974","geo_score":0.392,"id":"a62z5kr3qoq0","geo_precision":"street","address":"120 E","state":"PA"},"type":"Feature","geometry":{"type":"Point","coordinates":[-75.153967,40.3026]}},{"properties":{"zip":"18974","geo_score":0.392,"id":"a62z5keaylm5","geo_precision":"street","address":"120 E.","state":"PA"},"type":"Feature","geometry":{"type":"Point","coordinates":[-75.153967,40.3026]}},{"properties":{"zip":"19154","geo_score":0.844,"id":"a62z5krwfm31","geo_precision":"range","address":"12004 LAVENDER","state":"PA"},"type":"Feature","geometry":{"type":"Point","coordinates":[-74.980446,40.090995]}},{"properties":{"zip":"19115","geo_score":0.837,"id":"a62z5kgwzrp2","geo_precision":"range","address":"1204 FENWICK","state":"PA"},"type":"Feature","geometry":{"type":"Point","coordinates":[-75.035,40.098888]}},{"properties":{"zip":"19154","geo_score":0.829,"id":"a62z5khcb1c0","geo_precision":"range","address":"12050 Legion","state":"PA"},"type":"Feature","geometry":{"type":"Point","coordinates":[-74.979874,40.092178]}},{"properties":{"zip":"19001","geo_score":0.854,"id":"a62z5kqatu8h","geo_precision":"range","address":"1206 HUNTINGDON","state":"PA"},"type":"Feature","geometry":{"type":"Point","coordinates":[-75.116813,40.115563]}},{"properties":{"zip":"19115","geo_score":0.829,"id":"a62z5kfzpsvj","geo_precision":"range","address":"1215 SEROTA","state":"PA"},"type":"Feature","geometry":{"type":"Point","coordinates":[-75.033282,40.09467]}},{"properties":{"zip":"19111","geo_score":0.854,"id":"a62z5kpk97rc","geo_precision":"range","address":"1236 WELLINGTON","state":"PA"},"type":"Feature","geometry":{"type":"Point","coordinates":[-75.072217,40.05262]}},{"properties":{"zip":"19119","geo_score":0.844,"id":"a62z5ksi3p09","geo_precision":"range","address":"1246 EAST CARDEZA","state":"PA"},"type":"Feature","geometry":{"type":"Point","coordinates":[-75.171599,40.059711]}},{"properties":{"zip":"19154","geo_score":0.829,"id":"a62z5kixpssr","geo_precision":"range","address":"12524 TORREY","state":"PA"},"type":"Feature","geometry":{"type":"Point","coordinates":[-74.970578,40.097073]}},{"properties":{"zip":"19111","geo_score":0.829,"id":"a62z5kfcat95","geo_precision":"range","address":"1254 FULLER","state":"PA"},"type":"Feature","geometry":{"type":"Point","coordinates":[-75.068335,40.070199]}},{"properties":{"zip":"19154","geo_score":0.837,"id":"a62z5kq9k1f7","geo_precision":"range","address":"12583 CHILTON","state":"PA"},"type":"Feature","geometry":{"type":"Point","coordinates":[-74.974723,40.102193]}},{"properties":{"zip":"19120","geo_score":0.837,"id":"a62z5kdvi6o3","geo_precision":"range","address":"130 ROSEMAR","state":"PA"},"type":"Feature","geometry":{"type":"Point","coordinates":[-75.121164,40.043677]}},{"properties":{"zip":"19116","geo_score":0.857,"id":"a62z5kh6k6vr","geo_precision":"range","address":"13007 WORTHINGTON","state":"PA"},"type":"Feature","geometry":{"type":"Point","coordinates":[-75.006552,40.119182]}},{"properties":{"zip":"19114","geo_score":0.532,"id":"a62z5kr23ldt","geo_precision":"street","address":"13011 GASTON","state":"PA"},"type":"Feature","geometry":{"type":"Point","coordinates":[-74.99488,40.04896]}},{"properties":{"zip":"19116","geo_score":0.837,"id":"a62z5ktzapyr","geo_precision":"range","address":"13015 LINDSAY","state":"PA"},"type":"Feature","geometry":{"type":"Point","coordinates":[-75.011125,40.122132]}},{"properties":{"zip":"19116","geo_score":0.844,"id":"a62z5kg6yiwk","geo_precision":"range","address":"13073 CARDELLA","state":"PA"},"type":"Feature","geometry":{"type":"Point","coordinates":[-75.020867,40.128468]}},{"properties":{"zip":"19114","geo_score":0.557,"id":"a62z5kpf9moy","geo_precision":"street","address":"13103 FAIRFIELD","state":"PA"},"type":"Feature","geometry":{"type":"Point","coordinates":[-75.035035,40.072613]}},{"properties":{"zip":"19070","geo_score":0.835,"id":"a62z5kpj2y0y","geo_precision":"range","address":"1314 UNIVERSITY","state":"PA"},"type":"Feature","geometry":{"type":"Point","coordinates":[-75.332499,39.90288]}},{"properties":{"zip":"19040","geo_score":0.829,"id":"a62z5kprhx19","geo_precision":"range","address":"134 BREADY","state":"PA"},"type":"Feature","geometry":{"type":"Point","coordinates":[-75.099763,40.170109]}},{"properties":{"zip":"19014","geo_score":0.837,"id":"a62z5kj1i3fm","geo_precision":"range","address":"134 ROBERTS","state":"PA"},"type":"Feature","geometry":{"type":"Point","coordinates":[-75.416186,39.862527]}},{"properties":{"zip":"19116","geo_score":0.649,"id":"a62z5kn7f9c5","geo_precision":"street","address":"13451 PHILMONT","state":"PA"},"type":"Feature","geometry":{"type":"Point","coordinates":[-75.034894,40.119769]}},{"properties":{"zip":"19124","geo_score":0.844,"id":"a62z5kn3fbxs","geo_precision":"range","address":"1350 HARRISON","state":"PA"},"type":"Feature","geometry":{"type":"Point","coordinates":[-75.085573,40.020893]}},{"properties":{"zip":"19046","geo_score":0.854,"id":"a62z5km7h248","geo_precision":"range","address":"1358 WASHINGTON","state":"PA"},"type":"Feature","geometry":{"type":"Point","coordinates":[-75.101895,40.113048]}},{"properties":{"zip":"19140","geo_score":0.746,"id":"a62z5ko0hk5j","geo_precision":"range","address":"1364 HARRISON","state":"PA"},"type":"Feature","geometry":{"type":"Point","coordinates":[-75.085356,40.020732]}},{"properties":{"zip":"19096","geo_score":0.857,"id":"a62z5kq10246","geo_precision":"range","address":"1365 INDIAN CREEK","state":"PA"},"type":"Feature","geometry":{"type":"Point","coordinates":[-75.273881,39.986175]}},{"properties":{"zip":"19116","geo_score":0.823,"id":"a62z5kmqgl9s","geo_precision":"range","address":"14016 BARCALOW","state":"PA"},"type":"Feature","geometry":{"type":"Point","coordinates":[-75.014189,40.13182]}},{"properties":{"zip":"19007","geo_score":0.53,"id":"a62z5krpoza8","geo_precision":"street","address":"1405 VETERANS HWY","state":"PA"},"type":"Feature","geometry":{"type":"Point","coordinates":[-75.392192,39.917746]}},{"properties":{"zip":"19114","geo_score":0.585,"id":"a62z5kp0t4yn","geo_precision":"zip","address":"1405 VETERANS HWY","state":"PA"},"type":"Feature","geometry":{"type":"Point","coordinates":[-75.004337,40.054834]}},{"properties":{"zip":"19116","geo_score":0.805,"id":"a62z5kgzpszb","geo_precision":"range","address":"14051 KELVIN","state":"PA"},"type":"Feature","geometry":{"type":"Point","coordinates":[-75.005351,40.127083]}},{"properties":{"zip":"19006","geo_score":0.844,"id":"a62z5kfmybsv","geo_precision":"range","address":"1412 GLEN ECHO","state":"PA"},"type":"Feature","geometry":{"type":"Point","coordinates":[-75.035741,40.157081]}},{"properties":{"zip":"19001","geo_score":0.725,"id":"a62z5kgrx309","geo_precision":"street","address":"1422 GROVANIA","state":"PA"},"type":"Feature","geometry":{"type":"Point","coordinates":[-75.130119,40.123264]}},{"properties":{"zip":"19120","geo_score":0.463,"id":"a62z5kk2bew6","geo_precision":"street","address":"148 CAUNYTON","state":"PA"},"type":"Feature","geometry":{"type":"Point","coordinates":[-75.229674,40.029453]}},{"properties":{"zip":"19149","geo_score":0.805,"id":"a62z5kla63uw","geo_precision":"range","address":"1511 DEVERAUX","state":"PA"},"type":"Feature","geometry":{"type":"Point","coordinates":[-75.077512,40.035598]}},{"properties":{"zip":"19115","geo_score":0.732,"id":"a62z5korz3fp","geo_precision":"range","address":"15110 CARTER","state":"PA"},"type":"Feature","geometry":{"type":"Point","coordinates":[-74.989861,40.121932]}},{"properties":{"zip":"19116","geo_score":0.785,"id":"a62z5kgj5dr2","geo_precision":"range","address":"15110 INA","state":"PA"},"type":"Feature","geometry":{"type":"Point","coordinates":[-74.998002,40.124402]}},{"properties":{"zip":"19116","geo_score":0.837,"id":"a62z5kmfhtmr","geo_precision":"range","address":"15157 BEVERLY","state":"PA"},"type":"Feature","geometry":{"type":"Point","coordinates":[-74.994951,40.124088]}},{"properties":{"zip":"19115","geo_score":0.819,"id":"a62z5krgjyxg","geo_precision":"range","address":"1518 GREGG","state":"PA"},"type":"Feature","geometry":{"type":"Point","coordinates":[-75.045573,40.082475]}},{"properties":{"zip":"19116","geo_score":0.837,"id":"a62z5kgsr19c","geo_precision":"range","address":"15227 WAYSIDE","state":"PA"},"type":"Feature","geometry":{"type":"Point","coordinates":[-74.996216,40.127637]}},{"properties":{"zip":"19140","geo_score":0.476,"id":"a62z5knbu992","geo_precision":"street","address":"1524 W. BUTLER","state":"PA"},"type":"Feature","geometry":{"type":"Point","coordinates":[-75.135584,40.008865]}},{"properties":{"zip":"19122","geo_score":0.707,"id":"a62z5kgnk3ng","geo_precision":"range","address":"1530 N 4TH","state":"PA"},"type":"Feature","geometry":{"type":"Point","coordinates":[-75.14222,39.97423]}},{"properties":{"zip":"19121","geo_score":0.785,"id":"a62z5kefnfr2","geo_precision":"range","address":"1532 NATRONE","state":"PA"},"type":"Feature","geometry":{"type":"Point","coordinates":[-75.187967,39.980621]}},{"properties":{"zip":"19115","geo_score":0.829,"id":"a62z5kgsytmm","geo_precision":"range","address":"1547 STONEY","state":"PA"},"type":"Feature","geometry":{"type":"Point","coordinates":[-75.044011,40.083655]}},{"properties":{"zip":"19114","geo_score":0.844,"id":"a62z5kos8sc4","geo_precision":"range","address":"159 BENJAMIN","state":"PA"},"type":"Feature","geometry":{"type":"Point","coordinates":[-75.030112,40.074048]}},{"properties":{"zip":"19152","geo_score":0.844,"id":"a62z5kphirne","geo_precision":"range","address":"1600 STANWOOD","state":"PA"},"type":"Feature","geometry":{"type":"Point","coordinates":[-75.062174,40.067059]}},{"properties":{"zip":"19115","geo_score":0.829,"id":"a62z5kmqargm","geo_precision":"range","address":"1607 COLIMA","state":"PA"},"type":"Feature","geometry":{"type":"Point","coordinates":[-75.042877,40.078926]}},{"properties":{"zip":"19115","geo_score":0.819,"id":"a62z5kpde8s7","geo_precision":"range","address":"1614 GREGG","state":"PA"},"type":"Feature","geometry":{"type":"Point","coordinates":[-75.042561,40.07959]}},{"properties":{"zip":"19115","geo_score":0.819,"id":"a62z5kdlijm5","geo_precision":"range","address":"1615 GREGG","state":"PA"},"type":"Feature","geometry":{"type":"Point","coordinates":[-75.042561,40.07959]}},{"properties":{"zip":"19124","geo_score":0.837,"id":"a62z5knlcvo3","geo_precision":"range","address":"1622 WOMRATH","state":"PA"},"type":"Feature","geometry":{"type":"Point","coordinates":[-75.089293,40.008477]}},{"properties":{"zip":"19111","geo_score":0.819,"id":"a62z5kena9g1","geo_precision":"range","address":"1628 LONEY","state":"PA"},"type":"Feature","geometry":{"type":"Point","coordinates":[-75.064095,40.064291]}},{"properties":{"zip":"19121","geo_score":0.735,"id":"a62z5kj670ow","geo_precision":"range","address":"1635 N 33RD","state":"PA"},"type":"Feature","geometry":{"type":"Point","coordinates":[-75.188517,39.981998]}},{"properties":{"zip":"19055","geo_score":0.819,"id":"a62z5kqnejiz","geo_precision":"range","address":"17 JOLLY","state":"PA"},"type":"Feature","geometry":{"type":"Point","coordinates":[-74.833906,40.134181]}},{"properties":{"zip":"19114","geo_score":0.844,"id":"a62z5korh9a2","geo_precision":"range","address":"172 BENJAMIN","state":"PA"},"type":"Feature","geometry":{"type":"Point","coordinates":[-75.030013,40.074196]}},{"properties":{"zip":"19114","geo_score":0.844,"id":"a62z5kg3ru3b","geo_precision":"range","address":"172 BENJAMIN","state":"PA"},"type":"Feature","geometry":{"type":"Point","coordinates":[-75.030013,40.074196]}},{"properties":{"zip":"19152","geo_score":0.844,"id":"a62z5keyf9gv","geo_precision":"range","address":"1740 KENDRICK","state":"PA"},"type":"Feature","geometry":{"type":"Point","coordinates":[-75.054911,40.070859]}},{"properties":{"zip":"19116","geo_score":0.849,"id":"a62z5kn21klk","geo_precision":"range","address":"1760 TOMLINSON","state":"PA"},"type":"Feature","geometry":{"type":"Point","coordinates":[-75.014979,40.103927]}},{"properties":{"zip":"19057","geo_score":0.793,"id":"a62z5kr5siig","geo_precision":"range","address":"180 DEVON","state":"PA"},"type":"Feature","geometry":{"type":"Point","coordinates":[-74.871209,40.128269]}},{"properties":{"zip":"19115","geo_score":0.835,"id":"a62z5knqivk4","geo_precision":"range","address":"1801 WINCHESTER","state":"PA"},"type":"Feature","geometry":{"type":"Point","coordinates":[-75.04312,40.077166]}},{"properties":{"zip":"19152","geo_score":0.829,"id":"a62z5kegn28s","geo_precision":"range","address":"1807 ARNOLD","state":"PA"},"type":"Feature","geometry":{"type":"Point","coordinates":[-75.054075,40.069697]}},{"properties":{"zip":"19115","geo_score":0.793,"id":"a62z5khz82ht","geo_precision":"range","address":"1807 BEYER","state":"PA"},"type":"Feature","geometry":{"type":"Point","coordinates":[-75.034419,40.081987]}},{"properties":{"zip":"19152","geo_score":0.829,"id":"a62z5kgh2wqd","geo_precision":"range","address":"1824 BERGEN","state":"PA"},"type":"Feature","geometry":{"type":"Point","coordinates":[-75.052534,40.070244]}},{"properties":{"zip":"19132","geo_score":0.49,"id":"a62z5keni740","geo_precision":"street","address":"1832 N. 19ST","state":"PA"},"type":"Feature","geometry":{"type":"Point","coordinates":[-75.164183,39.987311]}},{"properties":{"zip":"19152","geo_score":0.837,"id":"a62z5ksh5caq","geo_precision":"range","address":"1836 STRAHLE","state":"PA"},"type":"Feature","geometry":{"type":"Point","coordinates":[-75.05469,40.068206]}},{"properties":{"zip":"19114","geo_score":0.624,"id":"a62z5khc7dbj","geo_precision":"street","address":"1865 WELSH","state":"PA"},"type":"Feature","geometry":{"type":"Point","coordinates":[-75.034737,40.0742]}},{"properties":{"zip":"19114","geo_score":0.624,"id":"a62z5ks2di09","geo_precision":"street","address":"1865 WELSH","state":"PA"},"type":"Feature","geometry":{"type":"Point","coordinates":[-75.034737,40.0742]}},{"properties":{"zip":"19115","geo_score":0.819,"id":"a62z5kkr8l5o","geo_precision":"range","address":"1865 WELSH","state":"PA"},"type":"Feature","geometry":{"type":"Point","coordinates":[-75.038034,40.083327]}},{"properties":{"zip":"19114","geo_score":0.624,"id":"a62z5kjk0hqg","geo_precision":"street","address":"1865 WELSH","state":"PA"},"type":"Feature","geometry":{"type":"Point","coordinates":[-75.034737,40.0742]}},{"properties":{"zip":"17517","geo_score":0.72,"id":"a62z5kk2up8u","geo_precision":"range","address":"19 SCENIC","state":"PA"},"type":"Feature","geometry":{"type":"Point","coordinates":[-76.079725,40.227528]}},{"properties":{"zip":"19115","geo_score":0.829,"id":"a62z5khavvyv","geo_precision":"range","address":"1900 NESTER","state":"PA"},"type":"Feature","geometry":{"type":"Point","coordinates":[-75.035384,40.080794]}},{"properties":{"zip":"19114","geo_score":0.545,"id":"a62z5kji1s0q","geo_precision":"street","address":"1902 LIBERTY","state":"PA"},"type":"Feature","geometry":{"type":"Point","coordinates":[-74.991744,40.124307]}},{"properties":{"zip":"19152","geo_score":0.829,"id":"a62z5kem79jq","geo_precision":"range","address":"1905 ARTHUR","state":"PA"},"type":"Feature","geometry":{"type":"Point","coordinates":[-75.055987,40.064505]}},{"properties":{"zip":"19152","geo_score":0.829,"id":"a62z5kp30vnt","geo_precision":"range","address":"1912 TUSTIN","state":"PA"},"type":"Feature","geometry":{"type":"Point","coordinates":[-75.049419,40.070879]}},{"properties":{"zip":"19152","geo_score":0.646,"id":"a62z5knqgry7","geo_precision":"street","address":"1915 BENSON","state":"PA"},"type":"Feature","geometry":{"type":"Point","coordinates":[-75.053722,40.066998]}},{"properties":{"zip":"19115","geo_score":0.837,"id":"a62z5kswwjao","geo_precision":"range","address":"1928 GOODNAW","state":"PA"},"type":"Feature","geometry":{"type":"Point","coordinates":[-75.035353,40.079958]}},{"properties":{"zip":"19115","geo_score":0.829,"id":"a62z5kjp6rde","geo_precision":"range","address":"1934 NESTER","state":"PA"},"type":"Feature","geometry":{"type":"Point","coordinates":[-75.034191,40.07995]}},{"properties":{"zip":"19114","geo_score":0.5,"id":"a62z5keg9bwo","geo_precision":"street","address":"195 LOUIS","state":"PA"},"type":"Feature","geometry":{"type":"Point","coordinates":[-75.154513,40.059785]}},{"properties":{"zip":"19115","geo_score":0.793,"id":"a62z5kq2ksyp","geo_precision":"range","address":"1953 BEYER","state":"PA"},"type":"Feature","geometry":{"type":"Point","coordinates":[-75.032845,40.079375]}},{"properties":{"zip":"19149","geo_score":0.829,"id":"a62z5kpu3h0f","geo_precision":"range","address":"1957 PRINCETON","state":"PA"},"type":"Feature","geometry":{"type":"Point","coordinates":[-75.064884,40.045683]}},{"properties":{"zip":"19115","geo_score":0.837,"id":"a62z5kf4p3xi","geo_precision":"range","address":"1970 GOODNAW","state":"PA"},"type":"Feature","geometry":{"type":"Point","coordinates":[-75.035006,40.078716]}},{"properties":{"zip":"19115","geo_score":0.829,"id":"a62z5klu9vcg","geo_precision":"range","address":"1986 AMBASADOR","state":"PA"},"type":"Feature","geometry":{"type":"Point","coordinates":[-75.038348,40.078981]}},{"properties":{"zip":"18956","geo_score":0.721,"id":"a62z5kt5o3u5","geo_precision":"range","address":"20 CAROLE","state":"PA"},"type":"Feature","geometry":{"type":"Point","coordinates":[-75.001916,40.204035]}},{"properties":{"zip":"19115","geo_score":0.835,"id":"a62z5ki2q8o1","geo_precision":"range","address":"2007 WINCHESTER","state":"PA"},"type":"Feature","geometry":{"type":"Point","coordinates":[-75.041835,40.075368]}},{"properties":{"zip":"19149","geo_score":0.829,"id":"a62z5koqj7a7","geo_precision":"range","address":"2008 LONGSHORE","state":"PA"},"type":"Feature","geometry":{"type":"Point","coordinates":[-75.065804,40.042466]}},{"properties":{"zip":"19121","geo_score":0.735,"id":"a62z5kt5ay89","geo_precision":"range","address":"2009 N 24TH","state":"PA"},"type":"Feature","geometry":{"type":"Point","coordinates":[-75.173088,39.985415]}},{"properties":{"zip":"19007","geo_score":0.844,"id":"a62z5kh9d6zi","geo_precision":"range","address":"201 MULBERRY","state":"PA"},"type":"Feature","geometry":{"type":"Point","coordinates":[-74.854851,40.096316]}},{"properties":{"zip":"19135","geo_score":0.837,"id":"a62z5keq251n","geo_precision":"range","address":"2010 ROSALIE","state":"PA"},"type":"Feature","geometry":{"type":"Point","coordinates":[-75.064547,40.0178]}},{"properties":{"zip":"19130","geo_score":0.857,"id":"a62z5khqyi2j","geo_precision":"range","address":"2035 MOUNT Vernon","state":"PA"},"type":"Feature","geometry":{"type":"Point","coordinates":[-75.171024,39.965742]}},{"properties":{"zip":"19115","geo_score":0.837,"id":"a62z5klcfyx3","geo_precision":"range","address":"2060 RED LION","state":"PA"},"type":"Feature","geometry":{"type":"Point","coordinates":[-75.020275,40.098402]}},{"properties":{"zip":"19114","geo_score":0.537,"id":"a62z5kk5vxr5","geo_precision":"street","address":"210 CARTER","state":"PA"},"type":"Feature","geometry":{"type":"Point","coordinates":[-74.992657,40.119442]}},{"properties":{"zip":"19152","geo_score":0.823,"id":"a62z5kpujxv1","geo_precision":"range","address":"2101 GLENDALE","state":"PA"},"type":"Feature","geometry":{"type":"Point","coordinates":[-75.059012,40.055648]}},{"properties":{"zip":"19115","geo_score":0.844,"id":"a62z5ke2gzbz","geo_precision":"range","address":"2101 MICHENER","state":"PA"},"type":"Feature","geometry":{"type":"Point","coordinates":[-75.032271,40.081259]}},{"properties":{"zip":"19115","geo_score":0.835,"id":"a62z5kl7etxy","geo_precision":"range","address":"2101 WINCHESTER","state":"PA"},"type":"Feature","geometry":{"type":"Point","coordinates":[-75.041324,40.074416]}},{"properties":{"zip":"18966","geo_score":0.902,"id":"a62z5ktg2sjj","geo_precision":"range","address":"2104 STURBRIDGE COMMON","state":"PA"},"type":"Feature","geometry":{"type":"Point","coordinates":[-74.945769,40.209424]}},{"properties":{"zip":"19149","geo_score":0.829,"id":"a62z5klfkdtu","geo_precision":"range","address":"2120 PRINCETON","state":"PA"},"type":"Feature","geometry":{"type":"Point","coordinates":[-75.061621,40.04389]}},{"properties":{"zip":"19149","geo_score":0.844,"id":"a62z5ke141la","geo_precision":"range","address":"2128 FANSHAWE","state":"PA"},"type":"Feature","geometry":{"type":"Point","coordinates":[-75.066958,40.038253]}},{"properties":{"zip":"19152","geo_score":0.837,"id":"a62z5kf6k4uz","geo_precision":"range","address":"2130 STRAHLE","state":"PA"},"type":"Feature","geometry":{"type":"Point","coordinates":[-75.050401,40.066035]}},{"properties":{"zip":"19152","geo_score":0.849,"id":"a62z5kt9eykt","geo_precision":"range","address":"2141 HOFFNAGLE","state":"PA"},"type":"Feature","geometry":{"type":"Point","coordinates":[-75.050685,40.064306]}},{"properties":{"zip":"19125","geo_score":0.482,"id":"a62z5ktgx5j5","geo_precision":"street","address":"2146 E. FIRTH","state":"PA"},"type":"Feature","geometry":{"type":"Point","coordinates":[-75.128147,39.986835]}},{"properties":{"zip":"19139","geo_score":0.482,"id":"a62z5krtdkl6","geo_precision":"street","address":"215 S. ITHAN","state":"PA"},"type":"Feature","geometry":{"type":"Point","coordinates":[-75.233552,39.961065]}},{"properties":{"zip":"19114","geo_score":0.537,"id":"a62z5kqed3dc","geo_precision":"street","address":"217 LOUISE","state":"PA"},"type":"Feature","geometry":{"type":"Point","coordinates":[-75.154513,40.059785]}},{"properties":{"zip":"19115","geo_score":0.837,"id":"a62z5khiidnd","geo_precision":"range","address":"2201 TREMONT","state":"PA"},"type":"Feature","geometry":{"type":"Point","coordinates":[-75.038995,40.074145]}},{"properties":{"zip":"19114","geo_score":0.74,"id":"a62z5kqptika","geo_precision":"range","address":"2201 TREMONT","state":"PA"},"type":"Feature","geometry":{"type":"Point","coordinates":[-75.038995,40.074145]}},{"properties":{"zip":"19115","geo_score":0.837,"id":"a62z5koz4wtl","geo_precision":"range","address":"2201 TREMONT","state":"PA"},"type":"Feature","geometry":{"type":"Point","coordinates":[-75.038995,40.074145]}},{"properties":{"zip":"19115","geo_score":0.837,"id":"a62z5kntgkcd","geo_precision":"range","address":"2201 TREMONT","state":"PA"},"type":"Feature","geometry":{"type":"Point","coordinates":[-75.038995,40.074145]}},{"properties":{"zip":"19115","geo_score":0.829,"id":"a62z5kk0o6on","geo_precision":"range","address":"2204 BERWYN","state":"PA"},"type":"Feature","geometry":{"type":"Point","coordinates":[-75.026106,40.086318]}},{"properties":{"zip":"19152","geo_score":0.849,"id":"a62z5kdzlwjg","geo_precision":"range","address":"2204 HOFFNAGLE","state":"PA"},"type":"Feature","geometry":{"type":"Point","coordinates":[-75.048829,40.063411]}},{"properties":{"zip":"19132","geo_score":0.849,"id":"a62z5kp3utb5","geo_precision":"range","address":"2212 N BANCROFT","state":"PA"},"type":"Feature","geometry":{"type":"Point","coordinates":[-75.159992,39.986972]}},{"properties":{"zip":"19125","geo_score":0.829,"id":"a62z5kfbsrnq","geo_precision":"range","address":"2212 RITTER","state":"PA"},"type":"Feature","geometry":{"type":"Point","coordinates":[-75.126837,39.976647]}},{"properties":{"zip":"19027","geo_score":0.829,"id":"a62z5kmxi4vb","geo_precision":"range","address":"228 OSWALD","state":"PA"},"type":"Feature","geometry":{"type":"Point","coordinates":[-75.09872,40.073904]}},{"properties":{"zip":"19114","geo_score":0.863,"id":"a62z5krbdbzl","geo_precision":"range","address":"23 BONNIE GELLMAN","state":"PA"},"type":"Feature","geometry":{"type":"Point","coordinates":[-75.030007,40.072933]}},{"properties":{"zip":"19152","geo_score":0.844,"id":"a62z5kg7qldm","geo_precision":"range","address":"2301 STANWOOD","state":"PA"},"type":"Feature","geometry":{"type":"Point","coordinates":[-75.049463,40.059962]}},{"properties":{"zip":"19115","geo_score":0.837,"id":"a62z5kh69t6f","geo_precision":"range","address":"2301 TREMONT","state":"PA"},"type":"Feature","geometry":{"type":"Point","coordinates":[-75.038057,40.073759]}},{"properties":{"zip":"19115","geo_score":0.837,"id":"a62z5km7cf7p","geo_precision":"range","address":"2301 TREMONT","state":"PA"},"type":"Feature","geometry":{"type":"Point","coordinates":[-75.038057,40.073759]}},{"properties":{"zip":"19115","geo_score":0.844,"id":"a62z5khxkfdk","geo_precision":"range","address":"2301 WOODWARD","state":"PA"},"type":"Feature","geometry":{"type":"Point","coordinates":[-75.039392,40.071919]}},{"properties":{"zip":"19152","geo_score":0.746,"id":"a62z5kr3o232","geo_precision":"range","address":"2301 WOODWARD","state":"PA"},"type":"Feature","geometry":{"type":"Point","coordinates":[-75.039392,40.071919]}},{"properties":{"zip":"19115","geo_score":0.844,"id":"a62z5kdqwiw2","geo_precision":"range","address":"2301 WOODWARD","state":"PA"},"type":"Feature","geometry":{"type":"Point","coordinates":[-75.039392,40.071919]}},{"properties":{"zip":"19152","geo_score":0.735,"id":"a62z5kenpadd","geo_precision":"range","address":"2304 VISTA","state":"PA"},"type":"Feature","geometry":{"type":"Point","coordinates":[-75.057577,40.050375]}},{"properties":{"zip":"19152","geo_score":0.829,"id":"a62z5ke44sjj","geo_precision":"range","address":"2307 BENSON","state":"PA"},"type":"Feature","geometry":{"type":"Point","coordinates":[-75.046455,40.063023]}},{"properties":{"zip":"19152","geo_score":0.829,"id":"a62z5ko9iy7m","geo_precision":"range","address":"2307 BENSON","state":"PA"},"type":"Feature","geometry":{"type":"Point","coordinates":[-75.046455,40.063023]}},{"properties":{"zip":"19125","geo_score":0.823,"id":"a62z5ku3r2fm","geo_precision":"range","address":"2349 FLETCHER","state":"PA"},"type":"Feature","geometry":{"type":"Point","coordinates":[-75.127144,39.977881]}},{"properties":{"zip":"19115","geo_score":0.837,"id":"a62z5kssrqr2","geo_precision":"range","address":"2350 TREMONT","state":"PA"},"type":"Feature","geometry":{"type":"Point","coordinates":[-75.037636,40.07357]}},{"properties":{"zip":"19115","geo_score":0.844,"id":"a62z5klfc4f4","geo_precision":"range","address":"2375 WOODWARD","state":"PA"},"type":"Feature","geometry":{"type":"Point","coordinates":[-75.039225,40.071765]}},{"properties":{"zip":"19114","geo_score":0.819,"id":"a62z5kox6y1v","geo_precision":"range","address":"2395 WELSH","state":"PA"},"type":"Feature","geometry":{"type":"Point","coordinates":[-75.034076,40.073201]}},{"properties":{"zip":"19114","geo_score":0.819,"id":"a62z5ktcrq0g","geo_precision":"range","address":"2401 WELSH","state":"PA"},"type":"Feature","geometry":{"type":"Point","coordinates":[-75.034055,40.07317]}},{"properties":{"zip":"19114","geo_score":0.819,"id":"a62z5klbbgq8","geo_precision":"range","address":"2401 WELSH","state":"PA"},"type":"Feature","geometry":{"type":"Point","coordinates":[-75.034055,40.07317]}},{"properties":{"zip":"19114","geo_score":0.819,"id":"a62z5kssmtha","geo_precision":"range","address":"2417 WELSH","state":"PA"},"type":"Feature","geometry":{"type":"Point","coordinates":[-75.034001,40.073088]}},{"properties":{"zip":"19114","geo_score":0.721,"id":"a62z5km87wlx","geo_precision":"street","address":"2426 GREGG","state":"PA"},"type":"Feature","geometry":{"type":"Point","coordinates":[-75.026319,40.074514]}},{"properties":{"zip":"19115","geo_score":0.837,"id":"a62z5ktaulfi","geo_precision":"range","address":"2427 TREMONT","state":"PA"},"type":"Feature","geometry":{"type":"Point","coordinates":[-75.037165,40.073289]}},{"properties":{"zip":"19111","geo_score":0.482,"id":"a62z5koh3lmi","geo_precision":"street","address":"248 E. BENNER","state":"PA"},"type":"Feature","geometry":{"type":"Point","coordinates":[-75.103572,40.048378]}},{"properties":{"zip":"19152","geo_score":0.837,"id":"a62z5kpo90p8","geo_precision":"range","address":"2509 MAXWELL","state":"PA"},"type":"Feature","geometry":{"type":"Point","coordinates":[-75.03308,40.067343]}},{"properties":{"zip":"19133","geo_score":0.844,"id":"a62z5kpoj7nw","geo_precision":"range","address":"2521 N SARTAIN","state":"PA"},"type":"Feature","geometry":{"type":"Point","coordinates":[-75.150869,39.990607]}},{"properties":{"zip":"19114","geo_score":0.721,"id":"a62z5kla5vxf","geo_precision":"street","address":"2525 WELSH","state":"PA"},"type":"Feature","geometry":{"type":"Point","coordinates":[-75.033626,40.072522]}},{"properties":{"zip":"19114","geo_score":0.721,"id":"a62z5kj5b8x1","geo_precision":"street","address":"2525 WELSH","state":"PA"},"type":"Feature","geometry":{"type":"Point","coordinates":[-75.033626,40.072522]}},{"properties":{"zip":"19114","geo_score":0.721,"id":"a62z5kewvru8","geo_precision":"street","address":"2525 WELSH","state":"PA"},"type":"Feature","geometry":{"type":"Point","coordinates":[-75.033626,40.072522]}},{"properties":{"zip":"19114","geo_score":0.721,"id":"a62z5kovcult","geo_precision":"street","address":"2525 WELSH","state":"PA"},"type":"Feature","geometry":{"type":"Point","coordinates":[-75.033626,40.072522]}},{"properties":{"zip":"19114","geo_score":0.721,"id":"a62z5kfbx3jt","geo_precision":"street","address":"2525 WELSH","state":"PA"},"type":"Feature","geometry":{"type":"Point","coordinates":[-75.033626,40.072522]}},{"properties":{"zip":"19152","geo_score":0.835,"id":"a62z5kg5bxz8","geo_precision":"range","address":"2525 WINCHESTER","state":"PA"},"type":"Feature","geometry":{"type":"Point","coordinates":[-75.039011,40.067819]}},{"properties":{"zip":"19132","geo_score":0.471,"id":"a62z5ki4w6ur","geo_precision":"street","address":"2528 N. CORLIES","state":"PA"},"type":"Feature","geometry":{"type":"Point","coordinates":[-75.181433,39.994243]}},{"properties":{"zip":"19133","geo_score":0.5,"id":"a62z5kf9hf8q","geo_precision":"street","address":"2543 N. 4TH","state":"PA"},"type":"Feature","geometry":{"type":"Point","coordinates":[-75.14002,39.98419]}},{"properties":{"zip":"19113","geo_score":0.325,"id":"a62z5knguzmj","geo_precision":"street","address":"2548 N. FAIRHILL","state":"PA"},"type":"Feature","geometry":{"type":"Point","coordinates":[-75.143363,39.982987]}},{"properties":{"zip":"19114","geo_score":0.721,"id":"a62z5ki3znz2","geo_precision":"range","address":"2550 WELSH","state":"PA"},"type":"Feature","geometry":{"type":"Point","coordinates":[-75.033544,40.072398]}},{"properties":{"zip":"19114","geo_score":0.819,"id":"a62z5ki8er8h","geo_precision":"range","address":"2555 WELSH","state":"PA"},"type":"Feature","geometry":{"type":"Point","coordinates":[-75.03353,40.072378]}},{"properties":{"zip":"19114","geo_score":0.819,"id":"a62z5kh4rai4","geo_precision":"range","address":"2555 WELSH","state":"PA"},"type":"Feature","geometry":{"type":"Point","coordinates":[-75.03353,40.072378]}},{"properties":{"zip":"19114","geo_score":0.819,"id":"a62z5kgsq3qr","geo_precision":"range","address":"2555 WELSH","state":"PA"},"type":"Feature","geometry":{"type":"Point","coordinates":[-75.03353,40.072378]}},{"properties":{"zip":"19114","geo_score":0.819,"id":"a62z5krlh6mv","geo_precision":"range","address":"2555 WELSH","state":"PA"},"type":"Feature","geometry":{"type":"Point","coordinates":[-75.03353,40.072378]}},{"properties":{"zip":"19114","geo_score":0.819,"id":"a62z5kjv7vro","geo_precision":"range","address":"2555 WELSH","state":"PA"},"type":"Feature","geometry":{"type":"Point","coordinates":[-75.03353,40.072378]}},{"properties":{"zip":"19114","geo_score":0.819,"id":"a62z5ktjbt9p","geo_precision":"range","address":"2555 WELSH","state":"PA"},"type":"Feature","geometry":{"type":"Point","coordinates":[-75.03353,40.072378]}},{"properties":{"zip":"19114","geo_score":0.819,"id":"a62z5kgrvwv5","geo_precision":"range","address":"2555 WELSH","state":"PA"},"type":"Feature","geometry":{"type":"Point","coordinates":[-75.03353,40.072378]}},{"properties":{"zip":"19114","geo_score":0.819,"id":"a62z5klb0mv8","geo_precision":"range","address":"2555 WELSH","state":"PA"},"type":"Feature","geometry":{"type":"Point","coordinates":[-75.03353,40.072378]}},{"properties":{"zip":"19114","geo_score":0.819,"id":"a62z5kpcd5q7","geo_precision":"range","address":"2555 WELSH","state":"PA"},"type":"Feature","geometry":{"type":"Point","coordinates":[-75.03353,40.072378]}},{"properties":{"zip":"19114","geo_score":0.819,"id":"a62z5ke5clm2","geo_precision":"range","address":"2555 WELSH","state":"PA"},"type":"Feature","geometry":{"type":"Point","coordinates":[-75.03353,40.072378]}},{"properties":{"zip":"19114","geo_score":0.819,"id":"a62z5kiela8b","geo_precision":"range","address":"2555 WELSH","state":"PA"},"type":"Feature","geometry":{"type":"Point","coordinates":[-75.03353,40.072378]}},{"properties":{"zip":"19027","geo_score":0.829,"id":"a62z5kqlft99","geo_precision":"range","address":"26 CARTER","state":"PA"},"type":"Feature","geometry":{"type":"Point","coordinates":[-75.115743,40.066491]}},{"properties":{"zip":"19720","geo_score":0.732,"id":"a62z5krf8zwd","geo_precision":"range","address":"260 CHRISTIAN","state":"PA"},"type":"Feature","geometry":{"type":"Point","coordinates":[-75.635143,39.663261]}},{"properties":{"zip":"19114","geo_score":0.74,"id":"a62z5kr2evj1","geo_precision":"range","address":"2600 TREMONT","state":"PA"},"type":"Feature","geometry":{"type":"Point","coordinates":[-75.035035,40.072613]}},{"properties":{"zip":"19114","geo_score":0.721,"id":"a62z5ksdox1v","geo_precision":"range","address":"2600 WELSH","state":"PA"},"type":"Feature","geometry":{"type":"Point","coordinates":[-75.032964,40.072151]}},{"properties":{"zip":"19152","geo_score":0.819,"id":"a62z5klmz0z2","geo_precision":"range","address":"2600 WELSH","state":"PA"},"type":"Feature","geometry":{"type":"Point","coordinates":[-75.032964,40.072151]}},{"properties":{"zip":"19114","geo_score":0.819,"id":"a62z5kofizgo","geo_precision":"range","address":"2607 WELSH","state":"PA"},"type":"Feature","geometry":{"type":"Point","coordinates":[-75.032949,40.07213]}},{"properties":{"zip":"19114","geo_score":0.819,"id":"a62z5koqy2sm","geo_precision":"range","address":"2607 WELSH","state":"PA"},"type":"Feature","geometry":{"type":"Point","coordinates":[-75.032949,40.07213]}},{"properties":{"zip":"19114","geo_score":0.819,"id":"a62z5kn762kk","geo_precision":"range","address":"2607 WELSH","state":"PA"},"type":"Feature","geometry":{"type":"Point","coordinates":[-75.032949,40.07213]}},{"properties":{"zip":"19114","geo_score":0.819,"id":"a62z5knx8ztq","geo_precision":"range","address":"2607 WELSH","state":"PA"},"type":"Feature","geometry":{"type":"Point","coordinates":[-75.032949,40.07213]}},{"properties":{"zip":"19114","geo_score":0.819,"id":"a62z5kiv68a2","geo_precision":"range","address":"2607 WELSH","state":"PA"},"type":"Feature","geometry":{"type":"Point","coordinates":[-75.032949,40.07213]}},{"properties":{"zip":"19114","geo_score":0.819,"id":"a62z5kix7bqf","geo_precision":"range","address":"2607 WELSH","state":"PA"},"type":"Feature","geometry":{"type":"Point","coordinates":[-75.032949,40.07213]}},{"properties":{"zip":"19114","geo_score":0.819,"id":"a62z5kfqaow9","geo_precision":"range","address":"2607 WELSH","state":"PA"},"type":"Feature","geometry":{"type":"Point","coordinates":[-75.032949,40.07213]}},{"properties":{"zip":"19114","geo_score":0.819,"id":"a62z5kqtpj1o","geo_precision":"range","address":"2607 WELSH","state":"PA"},"type":"Feature","geometry":{"type":"Point","coordinates":[-75.032949,40.07213]}},{"properties":{"zip":"19114","geo_score":0.819,"id":"a62z5krckgyk","geo_precision":"range","address":"2607 WELSH","state":"PA"},"type":"Feature","geometry":{"type":"Point","coordinates":[-75.032949,40.07213]}},{"properties":{"zip":"19114","geo_score":0.819,"id":"a62z5kesbchj","geo_precision":"range","address":"2607 WELSH","state":"PA"},"type":"Feature","geometry":{"type":"Point","coordinates":[-75.032949,40.07213]}},{"properties":{"zip":"19114","geo_score":0.819,"id":"a62z5kdoj561","geo_precision":"range","address":"2607 WELSH","state":"PA"},"type":"Feature","geometry":{"type":"Point","coordinates":[-75.032949,40.07213]}},{"properties":{"zip":"19114","geo_score":0.819,"id":"a62z5ksz0joi","geo_precision":"range","address":"2607 WELSH","state":"PA"},"type":"Feature","geometry":{"type":"Point","coordinates":[-75.032949,40.07213]}},{"properties":{"zip":"19114","geo_score":0.819,"id":"a62z5ki9sy04","geo_precision":"range","address":"2607 WELSH","state":"PA"},"type":"Feature","geometry":{"type":"Point","coordinates":[-75.032949,40.07213]}},{"properties":{"zip":"19114","geo_score":0.819,"id":"a62z5ktwpenf","geo_precision":"range","address":"2607 WELSH","state":"PA"},"type":"Feature","geometry":{"type":"Point","coordinates":[-75.032949,40.07213]}},{"properties":{"zip":"19114","geo_score":0.819,"id":"a62z5ksoccih","geo_precision":"range","address":"2607 WELSH","state":"PA"},"type":"Feature","geometry":{"type":"Point","coordinates":[-75.032949,40.07213]}},{"properties":{"zip":"19114","geo_score":0.819,"id":"a62z5kfezt71","geo_precision":"range","address":"2607 WELSH","state":"PA"},"type":"Feature","geometry":{"type":"Point","coordinates":[-75.032949,40.07213]}},{"properties":{"zip":"19114","geo_score":0.819,"id":"a62z5ksi5q9t","geo_precision":"range","address":"2607 WELSH","state":"PA"},"type":"Feature","geometry":{"type":"Point","coordinates":[-75.032949,40.07213]}},{"properties":{"zip":"19114","geo_score":0.819,"id":"a62z5key5qbq","geo_precision":"range","address":"2607 WELSH","state":"PA"},"type":"Feature","geometry":{"type":"Point","coordinates":[-75.032949,40.07213]}},{"properties":{"zip":"19114","geo_score":0.819,"id":"a62z5ku1u2ip","geo_precision":"range","address":"2607 WELSH","state":"PA"},"type":"Feature","geometry":{"type":"Point","coordinates":[-75.032949,40.07213]}},{"properties":{"zip":"19114","geo_score":0.819,"id":"a62z5knsw8ld","geo_precision":"range","address":"2607 WELSH","state":"PA"},"type":"Feature","geometry":{"type":"Point","coordinates":[-75.032949,40.07213]}},{"properties":{"zip":"19114","geo_score":0.819,"id":"a62z5ki7f2tl","geo_precision":"range","address":"2607 WELSH","state":"PA"},"type":"Feature","geometry":{"type":"Point","coordinates":[-75.032949,40.07213]}},{"properties":{"zip":"19114","geo_score":0.819,"id":"a62z5kq0cn83","geo_precision":"range","address":"2607 WELSH","state":"PA"},"type":"Feature","geometry":{"type":"Point","coordinates":[-75.032949,40.07213]}},{"properties":{"zip":"19114","geo_score":0.819,"id":"a62z5ki87lmr","geo_precision":"range","address":"2607 WELSH","state":"PA"},"type":"Feature","geometry":{"type":"Point","coordinates":[-75.032949,40.07213]}},{"properties":{"zip":"19114","geo_score":0.819,"id":"a62z5kiykxfj","geo_precision":"range","address":"2607 WELSH","state":"PA"},"type":"Feature","geometry":{"type":"Point","coordinates":[-75.032949,40.07213]}},{"properties":{"zip":"19114","geo_score":0.819,"id":"a62z5kih4xw6","geo_precision":"range","address":"2607 WELSH","state":"PA"},"type":"Feature","geometry":{"type":"Point","coordinates":[-75.032949,40.07213]}},{"properties":{"zip":"19114","geo_score":0.819,"id":"a62z5ktbbpus","geo_precision":"range","address":"2607 WELSH","state":"PA"},"type":"Feature","geometry":{"type":"Point","coordinates":[-75.032949,40.07213]}},{"properties":{"zip":"19114","geo_score":0.819,"id":"a62z5kf6760l","geo_precision":"range","address":"2607 WELSH","state":"PA"},"type":"Feature","geometry":{"type":"Point","coordinates":[-75.032949,40.07213]}},{"properties":{"zip":"19114","geo_score":0.819,"id":"a62z5khtjkb5","geo_precision":"range","address":"2607 WELSH","state":"PA"},"type":"Feature","geometry":{"type":"Point","coordinates":[-75.032949,40.07213]}},{"properties":{"zip":"19114","geo_score":0.819,"id":"a62z5kfwxfvj","geo_precision":"range","address":"2607 WELSH","state":"PA"},"type":"Feature","geometry":{"type":"Point","coordinates":[-75.032949,40.07213]}},{"properties":{"zip":"19114","geo_score":0.819,"id":"a62z5knsmk4o","geo_precision":"range","address":"2607 WELSH","state":"PA"},"type":"Feature","geometry":{"type":"Point","coordinates":[-75.032949,40.07213]}},{"properties":{"zip":"19152","geo_score":0.837,"id":"a62z5kp2c66t","geo_precision":"range","address":"2611 TREMONT","state":"PA"},"type":"Feature","geometry":{"type":"Point","coordinates":[-75.03373,40.07149]}},{"properties":{"zip":"19152","geo_score":0.837,"id":"a62z5ke5n2fp","geo_precision":"range","address":"2615 TREMONT","state":"PA"},"type":"Feature","geometry":{"type":"Point","coordinates":[-75.033678,40.071409]}},{"properties":{"zip":"19152","geo_score":0.837,"id":"a62z5kfr6mfo","geo_precision":"range","address":"2615 TREMONT","state":"PA"},"type":"Feature","geometry":{"type":"Point","coordinates":[-75.033678,40.071409]}},{"properties":{"zip":"19152","geo_score":0.837,"id":"a62z5kqukvul","geo_precision":"range","address":"2617 TREMONT","state":"PA"},"type":"Feature","geometry":{"type":"Point","coordinates":[-75.033651,40.071368]}},{"properties":{"zip":"19115","geo_score":0.732,"id":"a62z5krdwueq","geo_precision":"range","address":"2624 SPERRY","state":"PA"},"type":"Feature","geometry":{"type":"Point","coordinates":[-75.032282,40.064202]}},{"properties":{"zip":"19114","geo_score":0.721,"id":"a62z5kmzm3ea","geo_precision":"range","address":"2628 WELSH","state":"PA"},"type":"Feature","geometry":{"type":"Point","coordinates":[-75.032789,40.071898]}},{"properties":{"zip":"19152","geo_score":0.819,"id":"a62z5kpdvaex","geo_precision":"range","address":"2628 WELSH","state":"PA"},"type":"Feature","geometry":{"type":"Point","coordinates":[-75.032789,40.071898]}},{"properties":{"zip":"19152","geo_score":0.819,"id":"a62z5kqgltda","geo_precision":"range","address":"2630 WELSH","state":"PA"},"type":"Feature","geometry":{"type":"Point","coordinates":[-75.032777,40.071879]}},{"properties":{"zip":"19152","geo_score":0.819,"id":"a62z5kmooyuj","geo_precision":"range","address":"2630 WELSH","state":"PA"},"type":"Feature","geometry":{"type":"Point","coordinates":[-75.032777,40.071879]}},{"properties":{"zip":"19114","geo_score":0.721,"id":"a62z5kj3bhf3","geo_precision":"range","address":"2630 WELSH","state":"PA"},"type":"Feature","geometry":{"type":"Point","coordinates":[-75.032777,40.071879]}},{"properties":{"zip":"19152","geo_score":0.837,"id":"a62z5kocu1t2","geo_precision":"range","address":"2631 TREMONT","state":"PA"},"type":"Feature","geometry":{"type":"Point","coordinates":[-75.033356,40.07108]}},{"properties":{"zip":"19152","geo_score":0.837,"id":"a62z5kp6dfzi","geo_precision":"range","address":"2633 TREMONT","state":"PA"},"type":"Feature","geometry":{"type":"Point","coordinates":[-75.033333,40.071037]}},{"properties":{"zip":"19152","geo_score":0.829,"id":"a62z5kmxm81b","geo_precision":"range","address":"2635 SPERRY","state":"PA"},"type":"Feature","geometry":{"type":"Point","coordinates":[-75.032291,40.064165]}},{"properties":{"zip":"19152","geo_score":0.837,"id":"a62z5krd1gvr","geo_precision":"range","address":"2637 TREMONT","state":"PA"},"type":"Feature","geometry":{"type":"Point","coordinates":[-75.033288,40.070951]}},{"properties":{"zip":"19152","geo_score":0.837,"id":"a62z5kkwthft","geo_precision":"range","address":"2641 MAXWELL","state":"PA"},"type":"Feature","geometry":{"type":"Point","coordinates":[-75.029967,40.0655]}},{"properties":{"zip":"19152","geo_score":0.837,"id":"a62z5knom07r","geo_precision":"range","address":"2643 TREMONT","state":"PA"},"type":"Feature","geometry":{"type":"Point","coordinates":[-75.03322,40.070823]}},{"properties":{"zip":"19152","geo_score":0.837,"id":"a62z5kpzt7gn","geo_precision":"range","address":"2643 TREMONT","state":"PA"},"type":"Feature","geometry":{"type":"Point","coordinates":[-75.03322,40.070823]}},{"properties":{"zip":"19152","geo_score":0.837,"id":"a62z5kqsygb1","geo_precision":"range","address":"2649 TREMONT","state":"PA"},"type":"Feature","geometry":{"type":"Point","coordinates":[-75.033115,40.0707]}},{"properties":{"zip":"19120","geo_score":0.844,"id":"a62z5kjd5sq8","geo_precision":"range","address":"265 W ALBANUS","state":"PA"},"type":"Feature","geometry":{"type":"Point","coordinates":[-75.128847,40.026315]}},{"properties":{"zip":"19152","geo_score":0.819,"id":"a62z5kq75ens","geo_precision":"range","address":"2650 WELSH","state":"PA"},"type":"Feature","geometry":{"type":"Point","coordinates":[-75.029955,40.06845]}},{"properties":{"zip":"19114","geo_score":0.819,"id":"a62z5kt0uqar","geo_precision":"range","address":"2650 WELSH","state":"PA"},"type":"Feature","geometry":{"type":"Point","coordinates":[-75.031283,40.070198]}},{"properties":{"zip":"19152","geo_score":0.819,"id":"a62z5keo8b9x","geo_precision":"range","address":"2650 WELSH","state":"PA"},"type":"Feature","geometry":{"type":"Point","coordinates":[-75.029955,40.06845]}},{"properties":{"zip":"19152","geo_score":0.819,"id":"a62z5kqprxb4","geo_precision":"range","address":"2650 WELSH","state":"PA"},"type":"Feature","geometry":{"type":"Point","coordinates":[-75.029955,40.06845]}},{"properties":{"zip":"19152","geo_score":0.837,"id":"a62z5kr58er4","geo_precision":"range","address":"2651 TREMONT","state":"PA"},"type":"Feature","geometry":{"type":"Point","coordinates":[-75.03307,40.07062]}},{"properties":{"zip":"19132","geo_score":0.735,"id":"a62z5ksgvy7l","geo_precision":"range","address":"2652 N 17TH","state":"PA"},"type":"Feature","geometry":{"type":"Point","coordinates":[-75.159576,39.993795]}},{"properties":{"zip":"19114","geo_score":0.672,"id":"a62z5kodxctx","geo_precision":"street","address":"2654 WELSH","state":"PA"},"type":"Feature","geometry":{"type":"Point","coordinates":[-75.031283,40.070198]}},{"properties":{"zip":"19114","geo_score":0.837,"id":"a62z5kmtaujo","geo_precision":"range","address":"2661 WILLITS","state":"PA"},"type":"Feature","geometry":{"type":"Point","coordinates":[-75.028977,40.067627]}},{"properties":{"zip":"19114","geo_score":0.837,"id":"a62z5ksu8uoz","geo_precision":"range","address":"2661 WILLITS","state":"PA"},"type":"Feature","geometry":{"type":"Point","coordinates":[-75.028977,40.067627]}},{"properties":{"zip":"19114","geo_score":0.837,"id":"a62z5kohiap7","geo_precision":"range","address":"2661 WILLITS","state":"PA"},"type":"Feature","geometry":{"type":"Point","coordinates":[-75.028977,40.067627]}},{"properties":{"zip":"19152","geo_score":0.837,"id":"a62z5keqyszp","geo_precision":"range","address":"2663 TREMONT","state":"PA"},"type":"Feature","geometry":{"type":"Point","coordinates":[-75.032859,40.070131]}},{"properties":{"zip":"19152","geo_score":0.837,"id":"a62z5ktt2hcx","geo_precision":"range","address":"2663 TREMONT","state":"PA"},"type":"Feature","geometry":{"type":"Point","coordinates":[-75.032859,40.070131]}},{"properties":{"zip":"19114","geo_score":0.837,"id":"a62z5kj73m78","geo_precision":"range","address":"2665 WILLITS","state":"PA"},"type":"Feature","geometry":{"type":"Point","coordinates":[-75.028934,40.067594]}},{"properties":{"zip":"19114","geo_score":0.837,"id":"a62z5kfe874o","geo_precision":"range","address":"2665 WILLITS","state":"PA"},"type":"Feature","geometry":{"type":"Point","coordinates":[-75.028934,40.067594]}},{"properties":{"zip":"19114","geo_score":0.74,"id":"a62z5kliuf2z","geo_precision":"range","address":"2666 TREMONT","state":"PA"},"type":"Feature","geometry":{"type":"Point","coordinates":[-75.032743,40.069673]}},{"properties":{"zip":"19114","geo_score":0.819,"id":"a62z5khky3tq","geo_precision":"range","address":"2669 WELSH","state":"PA"},"type":"Feature","geometry":{"type":"Point","coordinates":[-75.032799,40.071912]}},{"properties":{"zip":"19114","geo_score":0.837,"id":"a62z5ke5ydr3","geo_precision":"range","address":"2669 WILLITS","state":"PA"},"type":"Feature","geometry":{"type":"Point","coordinates":[-75.028892,40.067561]}},{"properties":{"zip":"19114","geo_score":0.837,"id":"a62z5ko8z9qz","geo_precision":"range","address":"2669 WILLITS","state":"PA"},"type":"Feature","geometry":{"type":"Point","coordinates":[-75.028892,40.067561]}},{"properties":{"zip":"19114","geo_score":0.837,"id":"a62z5klg1awh","geo_precision":"range","address":"2669 WILLITS","state":"PA"},"type":"Feature","geometry":{"type":"Point","coordinates":[-75.028892,40.067561]}},{"properties":{"zip":"19152","geo_score":0.837,"id":"a62z5kpte1ya","geo_precision":"range","address":"2680 TREMONT","state":"PA"},"type":"Feature","geometry":{"type":"Point","coordinates":[-75.032687,40.06924]}},{"properties":{"zip":"19114","geo_score":0.721,"id":"a62z5kloob2q","geo_precision":"street","address":"2701 WELSH","state":"PA"},"type":"Feature","geometry":{"type":"Point","coordinates":[-75.032654,40.071807]}},{"properties":{"zip":"19114","geo_score":0.585,"id":"a62z5kebd6x2","geo_precision":"zip","address":"2702 RIVERHOUSE","state":"PA"},"type":"Feature","geometry":{"type":"Point","coordinates":[-75.004337,40.054834]}},{"properties":{"zip":"19114","geo_score":0.484,"id":"a62z5kssxfcd","geo_precision":"street","address":"2702 WILLIS","state":"PA"},"type":"Feature","geometry":{"type":"Point","coordinates":[-75.053968,40.031237]}},{"properties":{"zip":"19114","geo_score":0.627,"id":"a62z5kskyr9y","geo_precision":"street","address":"2704 WELSH","state":"PA"},"type":"Feature","geometry":{"type":"Point","coordinates":[-75.031283,40.070198]}},{"properties":{"zip":"19152","geo_score":0.829,"id":"a62z5kqcb2be","geo_precision":"range","address":"2705 TOLBUT","state":"PA"},"type":"Feature","geometry":{"type":"Point","coordinates":[-75.031507,40.061641]}},{"properties":{"zip":"19114","geo_score":0.707,"id":"a62z5kmk3rp2","geo_precision":"range","address":"2707 RUTH","state":"PA"},"type":"Feature","geometry":{"type":"Point","coordinates":[-75.123814,39.989954]}},{"properties":{"zip":"19114","geo_score":0.837,"id":"a62z5ksv1x2e","geo_precision":"range","address":"2707 WILLITS","state":"PA"},"type":"Feature","geometry":{"type":"Point","coordinates":[-75.028125,40.067213]}},{"properties":{"zip":"19114","geo_score":0.756,"id":"a62z5kfq2wza","geo_precision":"range","address":"2713 AXE FACTORY","state":"PA"},"type":"Feature","geometry":{"type":"Point","coordinates":[-75.033375,40.059964]}},{"properties":{"zip":"19152","geo_score":0.819,"id":"a62z5krx5iju","geo_precision":"range","address":"2714 WELSH","state":"PA"},"type":"Feature","geometry":{"type":"Point","coordinates":[-75.028503,40.066069]}},{"properties":{"zip":"19136","geo_score":0.837,"id":"a62z5kq3fwe0","geo_precision":"range","address":"2715 TREMONT","state":"PA"},"type":"Feature","geometry":{"type":"Point","coordinates":[-75.024068,40.063534]}},{"properties":{"zip":"19115","geo_score":0.561,"id":"a62z5kmkhu1w","geo_precision":"street","address":"2716 SPRINGHOUSE","state":"PA"},"type":"Feature","geometry":{"type":"Point","coordinates":[-75.055529,40.095172]}},{"properties":{"zip":"19152","geo_score":0.829,"id":"a62z5knuy1np","geo_precision":"range","address":"2716 TOLBUT","state":"PA"},"type":"Feature","geometry":{"type":"Point","coordinates":[-75.031598,40.061705]}},{"properties":{"zip":"19114","geo_score":0.494,"id":"a62z5khvn1wm","geo_precision":"street","address":"2719 MEYER","state":"PA"},"type":"Feature","geometry":{"type":"Point","coordinates":[-75.118198,39.981632]}},{"properties":{"zip":"19152","geo_score":0.829,"id":"a62z5km4z4dq","geo_precision":"range","address":"2720 TOLBUT","state":"PA"},"type":"Feature","geometry":{"type":"Point","coordinates":[-75.031489,40.061628]}},{"properties":{"zip":"19136","geo_score":0.837,"id":"a62z5kfpxv06","geo_precision":"range","address":"2720 TREMONT","state":"PA"},"type":"Feature","geometry":{"type":"Point","coordinates":[-75.023942,40.063474]}},{"properties":{"zip":"19152","geo_score":0.854,"id":"a62z5kmpnhvs","geo_precision":"range","address":"2721 AXE FACTORY","state":"PA"},"type":"Feature","geometry":{"type":"Point","coordinates":[-75.033047,40.059802]}},{"properties":{"zip":"19114","geo_score":0.837,"id":"a62z5kncnd2a","geo_precision":"range","address":"2729 WILLITS","state":"PA"},"type":"Feature","geometry":{"type":"Point","coordinates":[-75.027647,40.066845]}},{"properties":{"zip":"19152","geo_score":0.648,"id":"a62z5krwyzms","geo_precision":"street","address":"2734 TREMONT","state":"PA"},"type":"Feature","geometry":{"type":"Point","coordinates":[-75.032712,40.068681]}},{"properties":{"zip":"19114","geo_score":0.715,"id":"a62z5klzdkt7","geo_precision":"street","address":"2739 WILLITS","state":"PA"},"type":"Feature","geometry":{"type":"Point","coordinates":[-75.025341,40.06558]}},{"properties":{"zip":"19152","geo_score":0.854,"id":"a62z5kdt1xpd","geo_precision":"range","address":"2740 AXE FACTORY","state":"PA"},"type":"Feature","geometry":{"type":"Point","coordinates":[-75.031894,40.059207]}},{"properties":{"zip":"19134","geo_score":0.5,"id":"a62z5kq5hpcr","geo_precision":"street","address":"2740 E. ANN","state":"PA"},"type":"Feature","geometry":{"type":"Point","coordinates":[-75.114257,39.989951]}},{"properties":{"zip":"19152","geo_score":0.849,"id":"a62z5klkkzxc","geo_precision":"range","address":"2740 NORTHVIEW","state":"PA"},"type":"Feature","geometry":{"type":"Point","coordinates":[-75.027574,40.066056]}},{"properties":{"zip":"19152","geo_score":0.585,"id":"a62z5kswnxa5","geo_precision":"zip","address":"2740 NORTNVIEW","state":"PA"},"type":"Feature","geometry":{"type":"Point","coordinates":[-75.086818,40.014011]}},{"properties":{"zip":"19152","geo_score":0.819,"id":"a62z5kr677zq","geo_precision":"range","address":"2750 MOWER","state":"PA"},"type":"Feature","geometry":{"type":"Point","coordinates":[-75.031893,40.060086]}},{"properties":{"zip":"19152","geo_score":0.819,"id":"a62z5kmxn90w","geo_precision":"range","address":"2757 WELSH","state":"PA"},"type":"Feature","geometry":{"type":"Point","coordinates":[-75.028496,40.065984]}},{"properties":{"zip":"19152","geo_score":0.819,"id":"a62z5kejvh3n","geo_precision":"range","address":"2771 MOWER","state":"PA"},"type":"Feature","geometry":{"type":"Point","coordinates":[-75.031285,40.059728]}},{"properties":{"zip":"19136","geo_score":0.837,"id":"a62z5ku1tve9","geo_precision":"range","address":"2772 MAXWELL","state":"PA"},"type":"Feature","geometry":{"type":"Point","coordinates":[-75.024305,40.061786]}},{"properties":{"zip":"19152","geo_score":0.819,"id":"a62z5kqw3wri","geo_precision":"range","address":"2777 WELSH","state":"PA"},"type":"Feature","geometry":{"type":"Point","coordinates":[-75.028459,40.065471]}},{"properties":{"zip":"19152","geo_score":0.829,"id":"a62z5kob4jxl","geo_precision":"range","address":"2780 TOLBUT","state":"PA"},"type":"Feature","geometry":{"type":"Point","coordinates":[-75.029259,40.060662]}},{"properties":{"zip":"19152","geo_score":0.819,"id":"a62z5kkflcs3","geo_precision":"range","address":"2785 WELSH","state":"PA"},"type":"Feature","geometry":{"type":"Point","coordinates":[-75.028444,40.065266]}},{"properties":{"zip":"19152","geo_score":0.854,"id":"a62z5kel0h2s","geo_precision":"range","address":"2800 AXE FACTORY","state":"PA"},"type":"Feature","geometry":{"type":"Point","coordinates":[-75.029862,40.058125]}},{"properties":{"zip":"19114","geo_score":0.625,"id":"a62z5knpzw3g","geo_precision":"street","address":"2800 WELSH","state":"PA"},"type":"Feature","geometry":{"type":"Point","coordinates":[-75.031283,40.070198]}},{"properties":{"zip":"19114","geo_score":0.625,"id":"a62z5ksi1nvr","geo_precision":"street","address":"2800 WELSH","state":"PA"},"type":"Feature","geometry":{"type":"Point","coordinates":[-75.031283,40.070198]}},{"properties":{"zip":"19152","geo_score":0.854,"id":"a62z5kejx3v6","geo_precision":"range","address":"2801 WALNUT HILL","state":"PA"},"type":"Feature","geometry":{"type":"Point","coordinates":[-75.029125,40.062181]}},{"properties":{"zip":"19114","geo_score":0.854,"id":"a62z5klm1bdq","geo_precision":"range","address":"2810 WOODBRIDGE","state":"PA"},"type":"Feature","geometry":{"type":"Point","coordinates":[-75.018614,40.066324]}},{"properties":{"zip":"19136","geo_score":0.837,"id":"a62z5kon1gxe","geo_precision":"range","address":"2813 MAXWELL","state":"PA"},"type":"Feature","geometry":{"type":"Point","coordinates":[-75.024022,40.060821]}},{"properties":{"zip":"19136","geo_score":0.837,"id":"a62z5kpo2e4o","geo_precision":"range","address":"2813 TREMONT","state":"PA"},"type":"Feature","geometry":{"type":"Point","coordinates":[-75.022442,40.062058]}},{"properties":{"zip":"19152","geo_score":0.545,"id":"a62z5km1y8y7","geo_precision":"street","address":"2816 SHIRLEY","state":"PA"},"type":"Feature","geometry":{"type":"Point","coordinates":[-75.168313,39.968402]}},{"properties":{"zip":"19152","geo_score":0.837,"id":"a62z5kj6artv","geo_precision":"range","address":"2817 SHIPLEY","state":"PA"},"type":"Feature","geometry":{"type":"Point","coordinates":[-75.027904,40.064911]}},{"properties":{"zip":"19152","geo_score":0.854,"id":"a62z5kq8qe5k","geo_precision":"range","address":"2817A WALNUT HILL","state":"PA"},"type":"Feature","geometry":{"type":"Point","coordinates":[-75.029094,40.061736]}},{"properties":{"zip":"19152","geo_score":0.819,"id":"a62z5kiyq32k","geo_precision":"range","address":"2818 WELSH","state":"PA"},"type":"Feature","geometry":{"type":"Point","coordinates":[-75.02818,40.06248]}},{"properties":{"zip":"19152","geo_score":0.837,"id":"a62z5kmdpqg7","geo_precision":"range","address":"2819 SEBRING","state":"PA"},"type":"Feature","geometry":{"type":"Point","coordinates":[-75.025562,40.063108]}},{"properties":{"zip":"19149","geo_score":0.844,"id":"a62z5kr5zaiu","geo_precision":"range","address":"2824 BRIGHTON","state":"PA"},"type":"Feature","geometry":{"type":"Point","coordinates":[-75.056261,40.039999]}},{"properties":{"zip":"19152","geo_score":0.819,"id":"a62z5keo5a7g","geo_precision":"range","address":"2825 CHASE","state":"PA"},"type":"Feature","geometry":{"type":"Point","coordinates":[-75.027234,40.063404]}},{"properties":{"zip":"19152","geo_score":0.837,"id":"a62z5kprqi45","geo_precision":"range","address":"2825 MICHAEL","state":"PA"},"type":"Feature","geometry":{"type":"Point","coordinates":[-75.027124,40.063412]}},{"properties":{"zip":"19152","geo_score":0.819,"id":"a62z5kszjutz","geo_precision":"range","address":"2828 CHASE","state":"PA"},"type":"Feature","geometry":{"type":"Point","coordinates":[-75.027232,40.063367]}},{"properties":{"zip":"19114","geo_score":0.854,"id":"a62z5kl3pxp4","geo_precision":"range","address":"2834 WOODBRIDGE","state":"PA"},"type":"Feature","geometry":{"type":"Point","coordinates":[-75.018243,40.066124]}},{"properties":{"zip":"19152","geo_score":0.819,"id":"a62z5kg1mxa6","geo_precision":"range","address":"2838 CHASE","state":"PA"},"type":"Feature","geometry":{"type":"Point","coordinates":[-75.027225,40.063274]}},{"properties":{"zip":"19136","geo_score":0.837,"id":"a62z5kehqkrm","geo_precision":"range","address":"2839 TREMONT","state":"PA"},"type":"Feature","geometry":{"type":"Point","coordinates":[-75.02212,40.061303]}},{"properties":{"zip":"19152","geo_score":0.819,"id":"a62z5kkqw0sv","geo_precision":"range","address":"2847 WELSH","state":"PA"},"type":"Feature","geometry":{"type":"Point","coordinates":[-75.028211,40.062962]}},{"properties":{"zip":"19152","geo_score":0.805,"id":"a62z5kgxbpt3","geo_precision":"range","address":"2849 SEBRANG","state":"PA"},"type":"Feature","geometry":{"type":"Point","coordinates":[-75.025539,40.062395]}},{"properties":{"zip":"19116","geo_score":0.844,"id":"a62z5kn6ejhb","geo_precision":"range","address":"285 RIDGEWAY","state":"PA"},"type":"Feature","geometry":{"type":"Point","coordinates":[-75.033898,40.115666]}},{"properties":{"zip":"19114","geo_score":0.625,"id":"a62z5kmf2xcm","geo_precision":"street","address":"2852 WELSH","state":"PA"},"type":"Feature","geometry":{"type":"Point","coordinates":[-75.031283,40.070198]}},{"properties":{"zip":"19152","geo_score":0.819,"id":"a62z5ko7c013","geo_precision":"range","address":"2853 WELSH","state":"PA"},"type":"Feature","geometry":{"type":"Point","coordinates":[-75.028185,40.062567]}},{"properties":{"zip":"19152","geo_score":0.837,"id":"a62z5kilnsbp","geo_precision":"range","address":"2859 SEBRING","state":"PA"},"type":"Feature","geometry":{"type":"Point","coordinates":[-75.025536,40.062129]}},{"properties":{"zip":"19152","geo_score":0.837,"id":"a62z5ke4omxi","geo_precision":"range","address":"2859 SHIPLEY","state":"PA"},"type":"Feature","geometry":{"type":"Point","coordinates":[-75.026324,40.06405]}},{"properties":{"zip":"19152","geo_score":0.854,"id":"a62z5kln03s0","geo_precision":"range","address":"2868 WALNUT HILL","state":"PA"},"type":"Feature","geometry":{"type":"Point","coordinates":[-75.029135,40.059395]}},{"properties":{"zip":"19114","geo_score":0.625,"id":"a62z5kel312u","geo_precision":"street","address":"2868 WELSH","state":"PA"},"type":"Feature","geometry":{"type":"Point","coordinates":[-75.031283,40.070198]}},{"properties":{"zip":"19152","geo_score":0.854,"id":"a62z5khqrdso","geo_precision":"range","address":"2873 WALNUT HILL","state":"PA"},"type":"Feature","geometry":{"type":"Point","coordinates":[-75.029045,40.059571]}},{"properties":{"zip":"19152","geo_score":0.854,"id":"a62z5kta6j6p","geo_precision":"range","address":"2875 WALNUT HILL","state":"PA"},"type":"Feature","geometry":{"type":"Point","coordinates":[-75.029108,40.059459]}},{"properties":{"zip":"19114","geo_score":0.819,"id":"a62z5kg521rq","geo_precision":"range","address":"2879 ANGUS","state":"PA"},"type":"Feature","geometry":{"type":"Point","coordinates":[-75.017037,40.06539]}},{"properties":{"zip":"19152","geo_score":0.585,"id":"a62z5kj8ki8t","geo_precision":"zip","address":"2881 STANFORD","state":"PA"},"type":"Feature","geometry":{"type":"Point","coordinates":[-75.086818,40.014011]}},{"properties":{"zip":"19114","geo_score":0.625,"id":"a62z5ksrgspb","geo_precision":"street","address":"2901 WELSH","state":"PA"},"type":"Feature","geometry":{"type":"Point","coordinates":[-75.032654,40.071807]}},{"properties":{"zip":"19152","geo_score":0.819,"id":"a62z5khijfys","geo_precision":"range","address":"2901 WELSH","state":"PA"},"type":"Feature","geometry":{"type":"Point","coordinates":[-75.027962,40.060122]}},{"properties":{"zip":"19149","geo_score":0.829,"id":"a62z5kmahz9v","geo_precision":"range","address":"2905 LEVICK","state":"PA"},"type":"Feature","geometry":{"type":"Point","coordinates":[-75.06315,40.031518]}},{"properties":{"zip":"19154","geo_score":0.829,"id":"a62z5kn13o5p","geo_precision":"range","address":"2924 SECANE","state":"PA"},"type":"Feature","geometry":{"type":"Point","coordinates":[-74.977521,40.099896]}},{"properties":{"zip":"19152","geo_score":0.815,"id":"a62z5kq2m6a4","geo_precision":"range","address":"2925 TEESEDALE","state":"PA"},"type":"Feature","geometry":{"type":"Point","coordinates":[-75.051284,40.043713]}},{"properties":{"zip":"19114","geo_score":0.625,"id":"a62z5kp3ktxi","geo_precision":"street","address":"2935 WELSH","state":"PA"},"type":"Feature","geometry":{"type":"Point","coordinates":[-75.032654,40.071807]}},{"properties":{"zip":"19136","geo_score":0.805,"id":"a62z5kihn2pw","geo_precision":"range","address":"2942 JOEY","state":"PA"},"type":"Feature","geometry":{"type":"Point","coordinates":[-75.026734,40.057021]}},{"properties":{"zip":"19136","geo_score":0.805,"id":"a62z5ku1aytp","geo_precision":"range","address":"2947 JOEY","state":"PA"},"type":"Feature","geometry":{"type":"Point","coordinates":[-75.026656,40.057022]}},{"properties":{"zip":"19136","geo_score":0.837,"id":"a62z5kpwhq7k","geo_precision":"range","address":"2954 WILLITS","state":"PA"},"type":"Feature","geometry":{"type":"Point","coordinates":[-75.019215,40.060312]}},{"properties":{"zip":"19111","geo_score":0.844,"id":"a62z5kjx27rz","geo_precision":"range","address":"301 PASSMORE","state":"PA"},"type":"Feature","geometry":{"type":"Point","coordinates":[-75.098233,40.052593]}},{"properties":{"zip":"19154","geo_score":0.829,"id":"a62z5klpl7ef","geo_precision":"range","address":"3024 SECANE","state":"PA"},"type":"Feature","geometry":{"type":"Point","coordinates":[-74.978744,40.102745]}},{"properties":{"zip":"19426","geo_score":0.434,"id":"a62z5klqw0ar","geo_precision":"street","address":"3030 GREENES","state":"PA"},"type":"Feature","geometry":{"type":"Point","coordinates":[-75.287717,40.157199]}},{"properties":{"zip":"19136","geo_score":0.624,"id":"a62z5knkw9ts","geo_precision":"street","address":"3030 HOLME","state":"PA"},"type":"Feature","geometry":{"type":"Point","coordinates":[-75.019027,40.056169]}},{"properties":{"zip":"19136","geo_score":0.835,"id":"a62z5ktxe8ub","geo_precision":"range","address":"3035 WINCHESTER","state":"PA"},"type":"Feature","geometry":{"type":"Point","coordinates":[-75.034473,40.051533]}},{"properties":{"zip":"19114","geo_score":0.752,"id":"a62z5km6vb1e","geo_precision":"range","address":"3046 FAIRFIELD","state":"PA"},"type":"Feature","geometry":{"type":"Point","coordinates":[-75.018808,40.057318]}},{"properties":{"zip":"19040","geo_score":0.857,"id":"a62z5krzpsx0","geo_precision":"range","address":"306 HIDDEN CREEK","state":"PA"},"type":"Feature","geometry":{"type":"Point","coordinates":[-75.12493,40.197132]}},{"properties":{"zip":"19020","geo_score":0.837,"id":"a62z5kmxmr7t","geo_precision":"range","address":"3060 BRISTOL","state":"PA"},"type":"Feature","geometry":{"type":"Point","coordinates":[-74.937636,40.134332]}},{"properties":{"zip":"19114","geo_score":0.793,"id":"a62z5km7bcal","geo_precision":"range","address":"3100 GRANT","state":"PA"},"type":"Feature","geometry":{"type":"Point","coordinates":[-75.010835,40.070861]}},{"properties":{"zip":"19136","geo_score":0.829,"id":"a62z5kpzq6k2","geo_precision":"range","address":"3105 DRAPER","state":"PA"},"type":"Feature","geometry":{"type":"Point","coordinates":[-75.024965,40.054834]}},{"properties":{"zip":"19134","geo_score":0.805,"id":"a62z5kmhh1jc","geo_precision":"range","address":"3108 GAUL","state":"PA"},"type":"Feature","geometry":{"type":"Point","coordinates":[-75.107324,39.985919]}},{"properties":{"zip":"19136","geo_score":0.829,"id":"a62z5kf2y6nl","geo_precision":"range","address":"3111 DRAPER","state":"PA"},"type":"Feature","geometry":{"type":"Point","coordinates":[-75.024753,40.054479]}},{"properties":{"zip":"19136","geo_score":0.829,"id":"a62z5khncbp0","geo_precision":"range","address":"3127 DRAPER","state":"PA"},"type":"Feature","geometry":{"type":"Point","coordinates":[-75.025197,40.053632]}},{"properties":{"zip":"19149","geo_score":0.829,"id":"a62z5kkeebeu","geo_precision":"range","address":"3136 LEVICK","state":"PA"},"type":"Feature","geometry":{"type":"Point","coordinates":[-75.059578,40.02942]}},{"properties":{"zip":"19406","geo_score":0.547,"id":"a62z5ke0mn5d","geo_precision":"street","address":"314 HUNTINGDON PIKE","state":"PA"},"type":"Feature","geometry":{"type":"Point","coordinates":[-75.313549,40.217808]}},{"properties":{"zip":"19134","geo_score":0.805,"id":"a62z5kfq3ak4","geo_precision":"range","address":"3144 GAUL","state":"PA"},"type":"Feature","geometry":{"type":"Point","coordinates":[-75.106426,39.986405]}},{"properties":{"zip":"19115","geo_score":0.464,"id":"a62z5kmse0gq","geo_precision":"street","address":"317 PAR","state":"PA"},"type":"Feature","geometry":{"type":"Point","coordinates":[-75.082241,40.012395]}},{"properties":{"zip":"19114","geo_score":0.863,"id":"a62z5kpi8dbj","geo_precision":"range","address":"32 BONNIE GELLMAN","state":"PA"},"type":"Feature","geometry":{"type":"Point","coordinates":[-75.030346,40.07314]}},{"properties":{"zip":"19057","geo_score":0.829,"id":"a62z5kqw3g8v","geo_precision":"range","address":"32 INWOOD","state":"PA"},"type":"Feature","geometry":{"type":"Point","coordinates":[-74.868145,40.142179]}},{"properties":{"zip":"19057","geo_score":0.829,"id":"a62z5keqc2nv","geo_precision":"range","address":"32 INWOOD","state":"PA"},"type":"Feature","geometry":{"type":"Point","coordinates":[-74.868145,40.142179]}},{"properties":{"zip":"19114","geo_score":0.849,"id":"a62z5kf8l269","geo_precision":"range","address":"3213 BROOKDALE","state":"PA"},"type":"Feature","geometry":{"type":"Point","coordinates":[-75.010643,40.066952]}},{"properties":{"zip":"19114","geo_score":0.557,"id":"a62z5kpo1vw3","geo_precision":"street","address":"3213 ELLINGTON","state":"PA"},"type":"Feature","geometry":{"type":"Point","coordinates":[-75.208503,40.000266]}},{"properties":{"zip":"19136","geo_score":0.829,"id":"a62z5kgjtrqn","geo_precision":"range","address":"3217 FULLER","state":"PA"},"type":"Feature","geometry":{"type":"Point","coordinates":[-75.030154,40.048203]}},{"properties":{"zip":"19006","geo_score":0.823,"id":"a62z5kowufy1","geo_precision":"range","address":"3221 PHILMONT","state":"PA"},"type":"Feature","geometry":{"type":"Point","coordinates":[-75.033714,40.126898]}},{"properties":{"zip":"19136","geo_score":0.844,"id":"a62z5kjkwaak","geo_precision":"range","address":"3240 GUILFORD","state":"PA"},"type":"Feature","geometry":{"type":"Point","coordinates":[-75.044816,40.040678]}},{"properties":{"zip":"19128","geo_score":0.857,"id":"a62z5kes6qe4","geo_precision":"range","address":"325 CINNAMINSON","state":"PA"},"type":"Feature","geometry":{"type":"Point","coordinates":[-75.22895,40.03818]}},{"properties":{"zip":"19132","geo_score":0.756,"id":"a62z5kt663x9","geo_precision":"range","address":"3252 WELLINGTON","state":"PA"},"type":"Feature","geometry":{"type":"Point","coordinates":[-75.047834,40.038876]}},{"properties":{"zip":"19114","geo_score":0.471,"id":"a62z5ktpy625","geo_precision":"street","address":"3302 S. KESWICK","state":"PA"},"type":"Feature","geometry":{"type":"Point","coordinates":[-74.990495,40.073381]}},{"properties":{"zip":"19114","geo_score":0.844,"id":"a62z5kszgjyq","geo_precision":"range","address":"3304 PRIMROSE","state":"PA"},"type":"Feature","geometry":{"type":"Point","coordinates":[-75.006904,40.067539]}},{"properties":{"zip":"19111","geo_score":0.746,"id":"a62z5kka79m1","geo_precision":"range","address":"3304 PRIMROSE","state":"PA"},"type":"Feature","geometry":{"type":"Point","coordinates":[-75.006904,40.067539]}},{"properties":{"zip":"19114","geo_score":0.793,"id":"a62z5kkshwa4","geo_precision":"range","address":"3309 HOLME","state":"PA"},"type":"Feature","geometry":{"type":"Point","coordinates":[-75.011044,40.056757]}},{"properties":{"zip":"19114","geo_score":0.471,"id":"a62z5kh2m3s9","geo_precision":"street","address":"3310 S. KESWICK","state":"PA"},"type":"Feature","geometry":{"type":"Point","coordinates":[-74.990495,40.073381]}},{"properties":{"zip":"19116","geo_score":0.805,"id":"a62z5kn4lqd7","geo_precision":"range","address":"332 AVON","state":"PA"},"type":"Feature","geometry":{"type":"Point","coordinates":[-75.032132,40.11625]}},{"properties":{"zip":"19114","geo_score":0.815,"id":"a62z5krxuvs5","geo_precision":"range","address":"3321 MORRELL","state":"PA"},"type":"Feature","geometry":{"type":"Point","coordinates":[-74.991441,40.076362]}},{"properties":{"zip":"19154","geo_score":0.861,"id":"a62z5kt0fvgc","geo_precision":"range","address":"3336 MORNING GLORY","state":"PA"},"type":"Feature","geometry":{"type":"Point","coordinates":[-74.978367,40.096961]}},{"properties":{"zip":"19149","geo_score":0.793,"id":"a62z5kec8j3n","geo_precision":"range","address":"3349 TYSON","state":"PA"},"type":"Feature","geometry":{"type":"Point","coordinates":[-75.049156,40.034939]}},{"properties":{"zip":"19114","geo_score":0.793,"id":"a62z5kthvd9v","geo_precision":"range","address":"3353 HOLME","state":"PA"},"type":"Feature","geometry":{"type":"Point","coordinates":[-75.009652,40.057338]}},{"properties":{"zip":"19114","geo_score":0.844,"id":"a62z5kfevxlb","geo_precision":"range","address":"3382 S KESWICK","state":"PA"},"type":"Feature","geometry":{"type":"Point","coordinates":[-74.990576,40.074102]}},{"properties":{"zip":"19053","geo_score":0.837,"id":"a62z5kismac8","geo_precision":"range","address":"340 ANDREWS","state":"PA"},"type":"Feature","geometry":{"type":"Point","coordinates":[-74.979091,40.155931]}},{"properties":{"zip":"18966","geo_score":0.861,"id":"a62z5kjqpt5p","geo_precision":"range","address":"340 INDEPENDENCE","state":"PA"},"type":"Feature","geometry":{"type":"Point","coordinates":[-74.964815,40.208779]}},{"properties":{"zip":"19114","geo_score":0.837,"id":"a62z5kgpnzzj","geo_precision":"range","address":"3400 RED LION","state":"PA"},"type":"Feature","geometry":{"type":"Point","coordinates":[-74.987568,40.075824]}},{"properties":{"zip":"19114","geo_score":0.837,"id":"a62z5kr2y1lx","geo_precision":"range","address":"3400 RED LION","state":"PA"},"type":"Feature","geometry":{"type":"Point","coordinates":[-74.987568,40.075824]}},{"properties":{"zip":"19114","geo_score":0.844,"id":"a62z5kmerq9y","geo_precision":"range","address":"3403 KIRKWOOD","state":"PA"},"type":"Feature","geometry":{"type":"Point","coordinates":[-75.007226,40.064808]}},{"properties":{"zip":"19114","geo_score":0.844,"id":"a62z5krct0ui","geo_precision":"range","address":"3413 KIRKWOOD","state":"PA"},"type":"Feature","geometry":{"type":"Point","coordinates":[-75.007226,40.064279]}},{"properties":{"zip":"19114","geo_score":0.805,"id":"a62z5koaqdfe","geo_precision":"range","address":"3418 AUBREY","state":"PA"},"type":"Feature","geometry":{"type":"Point","coordinates":[-75.006738,40.063871]}},{"properties":{"zip":"19114","geo_score":0.746,"id":"a62z5kim55uq","geo_precision":"range","address":"342 CHESTNUT","state":"PA"},"type":"Feature","geometry":{"type":"Point","coordinates":[-75.146531,39.948722]}},{"properties":{"zip":"19154","geo_score":0.585,"id":"a62z5kjtu6ff","geo_precision":"zip","address":"3422 BROOKSVIEW","state":"PA"},"type":"Feature","geometry":{"type":"Point","coordinates":[-75.018265,40.084017]}},{"properties":{"zip":"19114","geo_score":0.793,"id":"a62z5kmub0mj","geo_precision":"range","address":"3422 GRANT","state":"PA"},"type":"Feature","geometry":{"type":"Point","coordinates":[-75.005209,40.067634]}},{"properties":{"zip":"19114","geo_score":0.844,"id":"a62z5kq23nu3","geo_precision":"range","address":"3440 PRIMROSE","state":"PA"},"type":"Feature","geometry":{"type":"Point","coordinates":[-75.004036,40.066214]}},{"properties":{"zip":"19134","geo_score":0.829,"id":"a62z5kolxfn2","geo_precision":"range","address":"3441 JASPER","state":"PA"},"type":"Feature","geometry":{"type":"Point","coordinates":[-75.106789,39.998034]}},{"properties":{"zip":"19114","geo_score":0.837,"id":"a62z5krljdr2","geo_precision":"range","address":"3457 HOLYOKE","state":"PA"},"type":"Feature","geometry":{"type":"Point","coordinates":[-75.004757,40.064654]}},{"properties":{"zip":"19134","geo_score":0.829,"id":"a62z5kkudb31","geo_precision":"range","address":"3490 WEIKEL","state":"PA"},"type":"Feature","geometry":{"type":"Point","coordinates":[-75.101382,39.993684]}},{"properties":{"zip":"19004","geo_score":0.823,"id":"a62z5kq7dabf","geo_precision":"range","address":"35 BRYN MAWR","state":"PA"},"type":"Feature","geometry":{"type":"Point","coordinates":[-75.23265,40.001373]}},{"properties":{"zip":"19149","geo_score":0.849,"id":"a62z5klx4kd2","geo_precision":"range","address":"3505 ENGLEWOOD","state":"PA"},"type":"Feature","geometry":{"type":"Point","coordinates":[-75.043164,40.03717]}},{"properties":{"zip":"19149","geo_score":0.849,"id":"a62z5kjxchfi","geo_precision":"range","address":"3505 ENGLEWOOD","state":"PA"},"type":"Feature","geometry":{"type":"Point","coordinates":[-75.043164,40.03717]}},{"properties":{"zip":"19114","geo_score":0.854,"id":"a62z5koydgkl","geo_precision":"range","address":"3518 GLOUCESTER","state":"PA"},"type":"Feature","geometry":{"type":"Point","coordinates":[-74.986752,40.070725]}},{"properties":{"zip":"19114","geo_score":0.815,"id":"a62z5ke51ojt","geo_precision":"range","address":"3521 MORRELL","state":"PA"},"type":"Feature","geometry":{"type":"Point","coordinates":[-74.98768,40.071286]}},{"properties":{"zip":"19136","geo_score":0.844,"id":"a62z5kflbn4l","geo_precision":"range","address":"3523 STANWOOD","state":"PA"},"type":"Feature","geometry":{"type":"Point","coordinates":[-75.025108,40.044819]}},{"properties":{"zip":"19114","geo_score":0.854,"id":"a62z5kst00le","geo_precision":"range","address":"3528 GLOUCESTER","state":"PA"},"type":"Feature","geometry":{"type":"Point","coordinates":[-74.98683,40.070484]}},{"properties":{"zip":"19114","geo_score":0.805,"id":"a62z5kjs51o6","geo_precision":"range","address":"3532 W CROWN","state":"PA"},"type":"Feature","geometry":{"type":"Point","coordinates":[-74.989757,40.07142]}},{"properties":{"zip":"19114","geo_score":0.49,"id":"a62z5kmvla2u","geo_precision":"street","address":"3537 E. CROWN","state":"PA"},"type":"Feature","geometry":{"type":"Point","coordinates":[-75.005096,40.058595]}},{"properties":{"zip":"19111","geo_score":0.837,"id":"a62z5kl8zrsp","geo_precision":"range","address":"354 STEVENS","state":"PA"},"type":"Feature","geometry":{"type":"Point","coordinates":[-75.100742,40.047956]}},{"properties":{"zip":"19114","geo_score":0.854,"id":"a62z5kdw856g","geo_precision":"range","address":"3554 GLOUCESTER","state":"PA"},"type":"Feature","geometry":{"type":"Point","coordinates":[-74.986519,40.069915]}},{"properties":{"zip":"19134","geo_score":0.829,"id":"a62z5kp3gqrn","geo_precision":"range","address":"3570 JASPER","state":"PA"},"type":"Feature","geometry":{"type":"Point","coordinates":[-75.103557,39.999705]}},{"properties":{"zip":"19114","geo_score":0.849,"id":"a62z5kjmf22j","geo_precision":"range","address":"3582 CHURCHILL","state":"PA"},"type":"Feature","geometry":{"type":"Point","coordinates":[-74.990633,40.071852]}},{"properties":{"zip":"19087","geo_score":0.72,"id":"a62z5kpgwatl","geo_precision":"range","address":"360 OLD EAGLE","state":"PA"},"type":"Feature","geometry":{"type":"Point","coordinates":[-75.39613,40.047432]}},{"properties":{"zip":"19114","geo_score":0.74,"id":"a62z5kszr8uw","geo_precision":"street","address":"3600 RED LION","state":"PA"},"type":"Feature","geometry":{"type":"Point","coordinates":[-74.984631,40.074335]}},{"properties":{"zip":"19114","geo_score":0.74,"id":"a62z5kt8me7n","geo_precision":"street","address":"3600 RED LION","state":"PA"},"type":"Feature","geometry":{"type":"Point","coordinates":[-74.984631,40.074335]}},{"properties":{"zip":"19114","geo_score":0.829,"id":"a62z5knapux0","geo_precision":"range","address":"3608 AVALON","state":"PA"},"type":"Feature","geometry":{"type":"Point","coordinates":[-74.998952,40.074721]}},{"properties":{"zip":"19114","geo_score":0.805,"id":"a62z5ktcsweq","geo_precision":"range","address":"3645 W CROWN","state":"PA"},"type":"Feature","geometry":{"type":"Point","coordinates":[-74.990384,40.068484]}},{"properties":{"zip":"19053","geo_score":0.522,"id":"a62z5knr6a7i","geo_precision":"street","address":"37 SUNRISE","state":"PA"},"type":"Feature","geometry":{"type":"Point","coordinates":[-74.887323,40.103361]}},{"properties":{"zip":"19136","geo_score":0.815,"id":"a62z5kmi3b68","geo_precision":"range","address":"3701 PHESANT","state":"PA"},"type":"Feature","geometry":{"type":"Point","coordinates":[-75.015425,40.056191]}},{"properties":{"zip":"19129","geo_score":0.837,"id":"a62z5ki85ai2","geo_precision":"range","address":"3731 STANTON","state":"PA"},"type":"Feature","geometry":{"type":"Point","coordinates":[-75.194804,40.010046]}},{"properties":{"zip":"19136","geo_score":0.837,"id":"a62z5kphl8rl","geo_precision":"range","address":"3806 AMHERST","state":"PA"},"type":"Feature","geometry":{"type":"Point","coordinates":[-75.012804,40.053359]}},{"properties":{"zip":"19114","geo_score":0.805,"id":"a62z5ksjcw90","geo_precision":"range","address":"3812 LINDEN","state":"PA"},"type":"Feature","geometry":{"type":"Point","coordinates":[-75.006955,40.056418]}},{"properties":{"zip":"19114","geo_score":0.837,"id":"a62z5kt0chx6","geo_precision":"range","address":"3815 RED LION","state":"PA"},"type":"Feature","geometry":{"type":"Point","coordinates":[-74.984223,40.074035]}},{"properties":{"zip":"19114","geo_score":0.837,"id":"a62z5ko3b11w","geo_precision":"range","address":"3815 RED LION","state":"PA"},"type":"Feature","geometry":{"type":"Point","coordinates":[-74.984223,40.074035]}},{"properties":{"zip":"19114","geo_score":0.823,"id":"a62z5kse13li","geo_precision":"range","address":"3827 ARENDELL","state":"PA"},"type":"Feature","geometry":{"type":"Point","coordinates":[-75.005835,40.058058]}},{"properties":{"zip":"19154","geo_score":0.849,"id":"a62z5ksrwc9m","geo_precision":"range","address":"3850 WOODHAVEN","state":"PA"},"type":"Feature","geometry":{"type":"Point","coordinates":[-74.974352,40.088869]}},{"properties":{"zip":"19114","geo_score":0.805,"id":"a62z5kk23yig","geo_precision":"range","address":"3882 LINDEN","state":"PA"},"type":"Feature","geometry":{"type":"Point","coordinates":[-75.006409,40.055789]}},{"properties":{"zip":"19124","geo_score":0.837,"id":"a62z5kgqi2l8","geo_precision":"range","address":"3917 ARCADIA","state":"PA"},"type":"Feature","geometry":{"type":"Point","coordinates":[-75.093833,40.003556]}},{"properties":{"zip":"19114","geo_score":0.863,"id":"a62z5khpw2b8","geo_precision":"range","address":"40 BONNIE GELLMAN","state":"PA"},"type":"Feature","geometry":{"type":"Point","coordinates":[-75.030714,40.073316]}},{"properties":{"zip":"19056","geo_score":0.829,"id":"a62z5kkmgc4u","geo_precision":"range","address":"4000 GROVELAND","state":"PA"},"type":"Feature","geometry":{"type":"Point","coordinates":[-74.895186,40.124566]}},{"properties":{"zip":"19129","geo_score":0.721,"id":"a62z5klpcu3p","geo_precision":"street","address":"4000 GYPSY","state":"PA"},"type":"Feature","geometry":{"type":"Point","coordinates":[-75.199615,40.016089]}},{"properties":{"zip":"19135","geo_score":0.837,"id":"a62z5kpvtuya","geo_precision":"range","address":"4004 CRESTON","state":"PA"},"type":"Feature","geometry":{"type":"Point","coordinates":[-75.065854,40.026137]}},{"properties":{"zip":"19136","geo_score":0.829,"id":"a62z5kkolqtm","geo_precision":"range","address":"4004 PLACID","state":"PA"},"type":"Feature","geometry":{"type":"Point","coordinates":[-75.010125,40.050581]}},{"properties":{"zip":"19803","geo_score":0.752,"id":"a62z5korgf91","geo_precision":"range","address":"4007 CONCORD PK","state":"PA"},"type":"Feature","geometry":{"type":"Point","coordinates":[-75.549785,39.807769]}},{"properties":{"zip":"19136","geo_score":0.805,"id":"a62z5kg83b7o","geo_precision":"range","address":"4040 BLEIGH","state":"PA"},"type":"Feature","geometry":{"type":"Point","coordinates":[-75.037656,40.037348]}},{"properties":{"zip":"19136","geo_score":0.805,"id":"a62z5kj2v03t","geo_precision":"range","address":"4040 BLEIGH","state":"PA"},"type":"Feature","geometry":{"type":"Point","coordinates":[-75.037656,40.037348]}},{"properties":{"zip":"19023","geo_score":0.844,"id":"a62z5kj9wu4p","geo_precision":"range","address":"409 CHESTNUT","state":"PA"},"type":"Feature","geometry":{"type":"Point","coordinates":[-75.253273,39.915953]}},{"properties":{"zip":"19135","geo_score":0.837,"id":"a62z5kercmad","geo_precision":"range","address":"4116 BARNETT","state":"PA"},"type":"Feature","geometry":{"type":"Point","coordinates":[-75.057907,40.027408]}},{"properties":{"zip":"19136","geo_score":0.819,"id":"a62z5kf4mybb","geo_precision":"range","address":"4127 RHAWN","state":"PA"},"type":"Feature","geometry":{"type":"Point","coordinates":[-75.027866,40.0407]}},{"properties":{"zip":"19114","geo_score":0.819,"id":"a62z5kostazr","geo_precision":"range","address":"4221 LYMAN","state":"PA"},"type":"Feature","geometry":{"type":"Point","coordinates":[-74.982622,40.062395]}},{"properties":{"zip":"19114","geo_score":0.844,"id":"a62z5klewjid","geo_precision":"range","address":"4237 CARTERET","state":"PA"},"type":"Feature","geometry":{"type":"Point","coordinates":[-74.984418,40.060848]}},{"properties":{"zip":"19066","geo_score":0.666,"id":"a62z5kseqj6i","geo_precision":"street","address":"4260 LEVERING MILL","state":"PA"},"type":"Feature","geometry":{"type":"Point","coordinates":[-75.242494,40.0115]}},{"properties":{"zip":"19136","geo_score":0.849,"id":"a62z5ko7px4g","geo_precision":"range","address":"4314 BLAKISTON","state":"PA"},"type":"Feature","geometry":{"type":"Point","coordinates":[-75.016251,40.043792]}},{"properties":{"zip":"19124","geo_score":0.837,"id":"a62z5kp21t8g","geo_precision":"range","address":"4319 PILLING","state":"PA"},"type":"Feature","geometry":{"type":"Point","coordinates":[-75.09275,40.014492]}},{"properties":{"zip":"19104","geo_score":0.902,"id":"a62z5khq2k63","geo_precision":"range","address":"4321 Sansom St","state":"PA"},"type":"Feature","geometry":{"type":"Point","coordinates":[-75.208803,39.955668]}},{"properties":{"zip":"19144","geo_score":0.837,"id":"a62z5kp4bc3x","geo_precision":"range","address":"440 E WALNUT","state":"PA"},"type":"Feature","geometry":{"type":"Point","coordinates":[-75.172513,40.046932]}},{"properties":{"zip":"19114","geo_score":0.793,"id":"a62z5kn0fqz6","geo_precision":"range","address":"4400 GRANT","state":"PA"},"type":"Feature","geometry":{"type":"Point","coordinates":[-74.989845,40.059712]}},{"properties":{"zip":"19121","geo_score":0.679,"id":"a62z5kkezxdl","geo_precision":"range","address":"4414 MOLTA","state":"PA"},"type":"Feature","geometry":{"type":"Point","coordinates":[-75.10832,40.014999]}},{"properties":{"zip":"19135","geo_score":0.815,"id":"a62z5kdt0p5o","geo_precision":"range","address":"4515 COTTMAN","state":"PA"},"type":"Feature","geometry":{"type":"Point","coordinates":[-75.036677,40.031888]}},{"properties":{"zip":"19438","geo_score":0.857,"id":"a62z5ktdtoqg","geo_precision":"range","address":"453 SCHOOLHOUSE","state":"PA"},"type":"Feature","geometry":{"type":"Point","coordinates":[-75.36811,40.290732]}},{"properties":{"zip":"19136","geo_score":0.829,"id":"a62z5kdljxw6","geo_precision":"range","address":"4546 ALDINE","state":"PA"},"type":"Feature","geometry":{"type":"Point","coordinates":[-75.035054,40.032346]}},{"properties":{"zip":"19136","geo_score":0.829,"id":"a62z5kh934bb","geo_precision":"range","address":"4549 ALDINE","state":"PA"},"type":"Feature","geometry":{"type":"Point","coordinates":[-75.035035,40.032318]}},{"properties":{"zip":"18940","geo_score":0.638,"id":"a62z5kgxt699","geo_precision":"range","address":"46 BRECKNOCK","state":"PA"},"type":"Feature","geometry":{"type":"Point","coordinates":[-75.039742,40.231913]}},{"properties":{"zip":"19020","geo_score":0.854,"id":"a62z5kntcjzu","geo_precision":"range","address":"4602 WELLINGTON","state":"PA"},"type":"Feature","geometry":{"type":"Point","coordinates":[-74.927404,40.133134]}},{"properties":{"zip":"19124","geo_score":0.805,"id":"a62z5kmhdjsu","geo_precision":"range","address":"4630 PENN","state":"PA"},"type":"Feature","geometry":{"type":"Point","coordinates":[-75.086638,40.0165]}},{"properties":{"zip":"19114","geo_score":0.642,"id":"a62z5kf7zc13","geo_precision":"street","address":"4656 MELROSE","state":"PA"},"type":"Feature","geometry":{"type":"Point","coordinates":[-74.9941,40.045297]}},{"properties":{"zip":"18944","geo_score":0.844,"id":"a62z5kfjjm5s","geo_precision":"range","address":"468 LONGLEAF","state":"PA"},"type":"Feature","geometry":{"type":"Point","coordinates":[-75.283218,40.346376]}},{"properties":{"zip":"19114","geo_score":0.805,"id":"a62z5kf8w1ot","geo_precision":"range","address":"4719 AUBREY","state":"PA"},"type":"Feature","geometry":{"type":"Point","coordinates":[-74.995054,40.053334]}},{"properties":{"zip":"19136","geo_score":0.805,"id":"a62z5kttgkua","geo_precision":"range","address":"4741 HARTEL","state":"PA"},"type":"Feature","geometry":{"type":"Point","coordinates":[-75.027062,40.033603]}},{"properties":{"zip":"19114","geo_score":0.863,"id":"a62z5kkuqkux","geo_precision":"range","address":"48 BONNIE GELLMAN","state":"PA"},"type":"Feature","geometry":{"type":"Point","coordinates":[-75.031343,40.07363]}},{"properties":{"zip":"19127","geo_score":0.805,"id":"a62z5kqsyoso","geo_precision":"range","address":"4823 OGLE","state":"PA"},"type":"Feature","geometry":{"type":"Point","coordinates":[-75.232068,40.033083]}},{"properties":{"zip":"19120","geo_score":0.707,"id":"a62z5kfsb6mq","geo_precision":"range","address":"4824 A","state":"PA"},"type":"Feature","geometry":{"type":"Point","coordinates":[-75.121932,40.023627]}},{"properties":{"zip":"19120","geo_score":0.468,"id":"a62z5klhgl7f","geo_precision":"street","address":"4835 N. LEITHGOW","state":"PA"},"type":"Feature","geometry":{"type":"Point","coordinates":[-75.128233,40.040894]}},{"properties":{"zip":"19114","geo_score":0.829,"id":"a62z5krfie96","geo_precision":"range","address":"4961 FITLER","state":"PA"},"type":"Feature","geometry":{"type":"Point","coordinates":[-74.985042,40.052287]}},{"properties":{"zip":"19124","geo_score":0.837,"id":"a62z5khediu9","geo_precision":"range","address":"4963 PENNWAY","state":"PA"},"type":"Feature","geometry":{"type":"Point","coordinates":[-75.109294,40.024002]}},{"properties":{"zip":"19120","geo_score":0.707,"id":"a62z5kqx2z2q","geo_precision":"range","address":"4991 N 2ND","state":"PA"},"type":"Feature","geometry":{"type":"Point","coordinates":[-75.127773,40.02694]}},{"properties":{"zip":"19114","geo_score":0.61,"id":"a62z5kkxku9v","geo_precision":"range","address":"5024 D N.","state":"PA"},"type":"Feature","geometry":{"type":"Point","coordinates":[-75.115811,40.025359]}},{"properties":{"zip":"19114","geo_score":0.471,"id":"a62z5ks6t7vb","geo_precision":"street","address":"5025 S. CONVENT","state":"PA"},"type":"Feature","geometry":{"type":"Point","coordinates":[-74.987997,40.049609]}},{"properties":{"zip":"19030","geo_score":0.805,"id":"a62z5kkb5lus","geo_precision":"range","address":"508 QUEEN ANN","state":"PA"},"type":"Feature","geometry":{"type":"Point","coordinates":[-74.843358,40.170898]}},{"properties":{"zip":"19124","geo_score":0.837,"id":"a62z5kjtpfij","geo_precision":"range","address":"5121 COTTAGE","state":"PA"},"type":"Feature","geometry":{"type":"Point","coordinates":[-75.072564,40.016787]}},{"properties":{"zip":"19020","geo_score":0.837,"id":"a62z5kilyknp","geo_precision":"range","address":"520 WINDSOR","state":"PA"},"type":"Feature","geometry":{"type":"Point","coordinates":[-74.977386,40.057425]}},{"properties":{"zip":"19124","geo_score":0.837,"id":"a62z5ki4jdka","geo_precision":"range","address":"5243 COTTAGE","state":"PA"},"type":"Feature","geometry":{"type":"Point","coordinates":[-75.070983,40.017207]}},{"properties":{"zip":"19120","geo_score":0.844,"id":"a62z5kgikceo","geo_precision":"range","address":"5252 N MASCHER","state":"PA"},"type":"Feature","geometry":{"type":"Point","coordinates":[-75.124564,40.030223]}},{"properties":{"zip":"19120","geo_score":0.5,"id":"a62z5ki7sfk6","geo_precision":"street","address":"5304 N. 2ND","state":"PA"},"type":"Feature","geometry":{"type":"Point","coordinates":[-75.128328,40.022036]}},{"properties":{"zip":"19136","geo_score":0.642,"id":"a62z5kmo7xgb","geo_precision":"street","address":"5327 CHARLES","state":"PA"},"type":"Feature","geometry":{"type":"Point","coordinates":[-75.029563,40.040057]}},{"properties":{"zip":"19141","geo_score":0.805,"id":"a62z5klbhewz","geo_precision":"range","address":"5400 OGONTZ","state":"PA"},"type":"Feature","geometry":{"type":"Point","coordinates":[-75.150269,40.035402]}},{"properties":{"zip":"19144","geo_score":0.49,"id":"a62z5kki6sp8","geo_precision":"street","address":"547 E. PENN","state":"PA"},"type":"Feature","geometry":{"type":"Point","coordinates":[-75.169764,40.031971]}},{"properties":{"zip":"19004","geo_score":0.49,"id":"a62z5kkujjvm","geo_precision":"street","address":"555 E. CITY","state":"PA"},"type":"Feature","geometry":{"type":"Point","coordinates":[-75.226413,40.001238]}},{"properties":{"zip":"19124","geo_score":0.829,"id":"a62z5knrvv1c","geo_precision":"range","address":"5649 MIRIAM","state":"PA"},"type":"Feature","geometry":{"type":"Point","coordinates":[-75.088457,40.031097]}},{"properties":{"zip":"19149","geo_score":0.805,"id":"a62z5kn0qdtb","geo_precision":"range","address":"5818 CASTOR","state":"PA"},"type":"Feature","geometry":{"type":"Point","coordinates":[-75.084147,40.032358]}},{"properties":{"zip":"19114","geo_score":0.717,"id":"a62z5kr8cic3","geo_precision":"range","address":"5903 ELMWOOD","state":"PA"},"type":"Feature","geometry":{"type":"Point","coordinates":[-75.2223,39.927762]}},{"properties":{"zip":"19120","geo_score":0.837,"id":"a62z5kibysfm","geo_precision":"range","address":"5934 COLGATE","state":"PA"},"type":"Feature","geometry":{"type":"Point","coordinates":[-75.101231,40.043797]}},{"properties":{"zip":"19116","geo_score":0.74,"id":"a62z5kg674a9","geo_precision":"range","address":"600 RED LION","state":"PA"},"type":"Feature","geometry":{"type":"Point","coordinates":[-75.047986,40.112247]}},{"properties":{"zip":"19144","geo_score":0.844,"id":"a62z5kgiezt5","geo_precision":"range","address":"6022 MAGNOLIA","state":"PA"},"type":"Feature","geometry":{"type":"Point","coordinates":[-75.17218,40.045233]}},{"properties":{"zip":"19020","geo_score":0.777,"id":"a62z5krmzda1","geo_precision":"range","address":"6031 EDGE","state":"PA"},"type":"Feature","geometry":{"type":"Point","coordinates":[-74.911758,40.132943]}},{"properties":{"zip":"19120","geo_score":0.5,"id":"a62z5kp5rxqe","geo_precision":"street","address":"6041 N. 3RD","state":"PA"},"type":"Feature","geometry":{"type":"Point","coordinates":[-75.130555,40.022895]}},{"properties":{"zip":"19111","geo_score":0.844,"id":"a62z5kfx7t3a","geo_precision":"range","address":"6106 PALMETTO","state":"PA"},"type":"Feature","geometry":{"type":"Point","coordinates":[-75.098118,40.045355]}},{"properties":{"zip":"19135","geo_score":0.837,"id":"a62z5kpeo6fg","geo_precision":"range","address":"6129 MARSDEN","state":"PA"},"type":"Feature","geometry":{"type":"Point","coordinates":[-75.057684,40.019333]}},{"properties":{"zip":"19116","geo_score":0.476,"id":"a62z5kia6f30","geo_precision":"street","address":"613 E. EDISON","state":"PA"},"type":"Feature","geometry":{"type":"Point","coordinates":[-75.01142,40.130385]}},{"properties":{"zip":"19135","geo_score":0.837,"id":"a62z5kq784h4","geo_precision":"range","address":"6132 MARSDEN","state":"PA"},"type":"Feature","geometry":{"type":"Point","coordinates":[-75.057623,40.019374]}},{"properties":{"zip":"19111","geo_score":0.837,"id":"a62z5kprsh7g","geo_precision":"range","address":"6228 TROTTER","state":"PA"},"type":"Feature","geometry":{"type":"Point","coordinates":[-75.085079,40.040402]}},{"properties":{"zip":"19135","geo_score":0.837,"id":"a62z5koxsgh3","geo_precision":"range","address":"6242 MARSDEN","state":"PA"},"type":"Feature","geometry":{"type":"Point","coordinates":[-75.055166,40.020613]}},{"properties":{"zip":"19144","geo_score":0.663,"id":"a62z5kqnmz6t","geo_precision":"street","address":"633 RITTENHOUSE","state":"PA"},"type":"Feature","geometry":{"type":"Point","coordinates":[-75.179707,40.034577]}},{"properties":{"zip":"19111","geo_score":0.844,"id":"a62z5kpxe11e","geo_precision":"range","address":"6330 ELMHURST","state":"PA"},"type":"Feature","geometry":{"type":"Point","coordinates":[-75.08545,40.042557]}},{"properties":{"zip":"19149","geo_score":0.844,"id":"a62z5khp8q4o","geo_precision":"range","address":"6336 EASTWOOD","state":"PA"},"type":"Feature","geometry":{"type":"Point","coordinates":[-75.072629,40.035519]}},{"properties":{"zip":"19111","geo_score":0.829,"id":"a62z5kdxnxvp","geo_precision":"range","address":"6403 OAKLEY","state":"PA"},"type":"Feature","geometry":{"type":"Point","coordinates":[-75.097189,40.050547]}},{"properties":{"zip":"19111","geo_score":0.844,"id":"a62z5kggnkqk","geo_precision":"range","address":"6430 PALMETTO","state":"PA"},"type":"Feature","geometry":{"type":"Point","coordinates":[-75.094309,40.049487]}},{"properties":{"zip":"19111","geo_score":0.829,"id":"a62z5klxite3","geo_precision":"range","address":"6433 RISING SUN","state":"PA"},"type":"Feature","geometry":{"type":"Point","coordinates":[-75.094559,40.0507]}},{"properties":{"zip":"19119","geo_score":0.829,"id":"a62z5kfkzd1d","geo_precision":"range","address":"6439 GREENE","state":"PA"},"type":"Feature","geometry":{"type":"Point","coordinates":[-75.18791,40.041418]}},{"properties":{"zip":"19126","geo_score":0.49,"id":"a62z5kfz4y7n","geo_precision":"street","address":"6443 N. 16TH","state":"PA"},"type":"Feature","geometry":{"type":"Point","coordinates":[-75.145096,40.052498]}},{"properties":{"zip":"19120","geo_score":0.837,"id":"a62z5kjirscu","geo_precision":"range","address":"649 E SANGER","state":"PA"},"type":"Feature","geometry":{"type":"Point","coordinates":[-75.101721,40.039483]}},{"properties":{"zip":"19135","geo_score":0.819,"id":"a62z5kt9h2yl","geo_precision":"range","address":"6545 TULIP","state":"PA"},"type":"Feature","geometry":{"type":"Point","coordinates":[-75.047678,40.020801]}},{"properties":{"zip":"19149","geo_score":0.829,"id":"a62z5ktkl23a","geo_precision":"range","address":"6640 REVERE","state":"PA"},"type":"Feature","geometry":{"type":"Point","coordinates":[-75.061993,40.035374]}},{"properties":{"zip":"19149","geo_score":0.849,"id":"a62z5kfbexmb","geo_precision":"range","address":"6717 SYLVESTER","state":"PA"},"type":"Feature","geometry":{"type":"Point","coordinates":[-75.069261,40.040901]}},{"properties":{"zip":"19135","geo_score":0.829,"id":"a62z5kf4738b","geo_precision":"range","address":"6728 DITMAN","state":"PA"},"type":"Feature","geometry":{"type":"Point","coordinates":[-75.04708,40.025567]}},{"properties":{"zip":"17701","geo_score":0.819,"id":"a62z5kiszy8l","geo_precision":"range","address":"676 GREEN","state":"PA"},"type":"Feature","geometry":{"type":"Point","coordinates":[-77.016362,41.244902]}},{"properties":{"zip":"19149","geo_score":0.849,"id":"a62z5kfnk033","geo_precision":"range","address":"6826 SYLVESTER","state":"PA"},"type":"Feature","geometry":{"type":"Point","coordinates":[-75.067997,40.042275]}},{"properties":{"zip":"19111","geo_score":0.805,"id":"a62z5koyxc44","geo_precision":"range","address":"6906 OXFORD","state":"PA"},"type":"Feature","geometry":{"type":"Point","coordinates":[-75.085846,40.054432]}},{"properties":{"zip":"19111","geo_score":0.844,"id":"a62z5koocd2o","geo_precision":"range","address":"704 CHANDLER","state":"PA"},"type":"Feature","geometry":{"type":"Point","coordinates":[-75.082366,40.071659]}},{"properties":{"zip":"19146","geo_score":0.74,"id":"a62z5kefgm8w","geo_precision":"range","address":"7047 CALVERT","state":"PA"},"type":"Feature","geometry":{"type":"Point","coordinates":[-75.059038,40.041773]}},{"properties":{"zip":"19115","geo_score":0.585,"id":"a62z5kowh4rd","geo_precision":"zip","address":"709 STRAFFORD","state":"PA"},"type":"Feature","geometry":{"type":"Point","coordinates":[-75.03156,40.082611]}},{"properties":{"zip":"19034","geo_score":0.785,"id":"a62z5ktvy32i","geo_precision":"range","address":"7111 SHEAFF FORT","state":"PA"},"type":"Feature","geometry":{"type":"Point","coordinates":[-75.227349,40.136077]}},{"properties":{"zip":"19149","geo_score":0.819,"id":"a62z5kqexx6t","geo_precision":"range","address":"7115 AKRON","state":"PA"},"type":"Feature","geometry":{"type":"Point","coordinates":[-75.063056,40.044995]}},{"properties":{"zip":"19067","geo_score":0.829,"id":"a62z5ks3hzmu","geo_precision":"range","address":"712 BIG OAK","state":"PA"},"type":"Feature","geometry":{"type":"Point","coordinates":[-74.811921,40.209721]}},{"properties":{"zip":"19111","geo_score":0.823,"id":"a62z5kh5rxgp","geo_precision":"range","address":"7128 WHITAKER","state":"PA"},"type":"Feature","geometry":{"type":"Point","coordinates":[-75.079478,40.054457]}},{"properties":{"zip":"19111","geo_score":0.844,"id":"a62z5kl7ys5u","geo_precision":"range","address":"713 BRIGHTON","state":"PA"},"type":"Feature","geometry":{"type":"Point","coordinates":[-75.084061,40.055473]}},{"properties":{"zip":"19135","geo_score":0.837,"id":"a62z5kkmfnjh","geo_precision":"range","address":"7143 MARSDEN","state":"PA"},"type":"Feature","geometry":{"type":"Point","coordinates":[-75.038181,40.029364]}},{"properties":{"zip":"19013","geo_score":0.735,"id":"a62z5klvv8ov","geo_precision":"range","address":"716 W 10TH","state":"PA"},"type":"Feature","geometry":{"type":"Point","coordinates":[-75.372211,39.849218]}},{"properties":{"zip":"19116","geo_score":0.829,"id":"a62z5kfkwzch","geo_precision":"range","address":"718 SELMER","state":"PA"},"type":"Feature","geometry":{"type":"Point","coordinates":[-75.029351,40.110307]}},{"properties":{"zip":"19136","geo_score":0.732,"id":"a62z5kgxgryn","geo_precision":"range","address":"7217 ALGARD","state":"PA"},"type":"Feature","geometry":{"type":"Point","coordinates":[-75.039638,40.033112]}},{"properties":{"zip":"19111","geo_score":0.829,"id":"a62z5krwloly","geo_precision":"range","address":"722 BERGEN","state":"PA"},"type":"Feature","geometry":{"type":"Point","coordinates":[-75.07144,40.08107]}},{"properties":{"zip":"19149","geo_score":0.829,"id":"a62z5kh2mk7q","geo_precision":"range","address":"7226 SOUDER","state":"PA"},"type":"Feature","geometry":{"type":"Point","coordinates":[-75.064273,40.047898]}},{"properties":{"zip":"19149","geo_score":0.837,"id":"a62z5kr4egqs","geo_precision":"range","address":"7269 HANFORD","state":"PA"},"type":"Feature","geometry":{"type":"Point","coordinates":[-75.058579,40.045892]}},{"properties":{"zip":"19152","geo_score":0.829,"id":"a62z5kirbk8z","geo_precision":"range","address":"7401 REVERE","state":"PA"},"type":"Feature","geometry":{"type":"Point","coordinates":[-75.05108,40.045285]}},{"properties":{"zip":"19153","geo_score":0.732,"id":"a62z5kim3re0","geo_precision":"range","address":"7401 REVERE","state":"PA"},"type":"Feature","geometry":{"type":"Point","coordinates":[-75.05108,40.045285]}},{"properties":{"zip":"19150","geo_score":0.805,"id":"a62z5kn3c1or","geo_precision":"range","address":"7510 OGONTZ","state":"PA"},"type":"Feature","geometry":{"type":"Point","coordinates":[-75.156939,40.069242]}},{"properties":{"zip":"19152","geo_score":0.495,"id":"a62z5ke3j213","geo_precision":"street","address":"75240 ROOSEVELT","state":"PA"},"type":"Feature","geometry":{"type":"Point","coordinates":[-75.016517,40.09303]}},{"properties":{"zip":"19119","geo_score":0.819,"id":"a62z5knjieuv","geo_precision":"range","address":"7525 DEVON","state":"PA"},"type":"Feature","geometry":{"type":"Point","coordinates":[-75.192235,40.065766]}},{"properties":{"zip":"19152","geo_score":0.812,"id":"a62z5ktormo6","geo_precision":"range","address":"7526 ROOSEVELT","state":"PA"},"type":"Feature","geometry":{"type":"Point","coordinates":[-75.0516,40.049032]}},{"properties":{"zip":"19111","geo_score":0.823,"id":"a62z5kdt63o8","geo_precision":"range","address":"7613 WHITAKER","state":"PA"},"type":"Feature","geometry":{"type":"Point","coordinates":[-75.072701,40.061651]}},{"properties":{"zip":"19111","geo_score":0.829,"id":"a62z5kqqeemb","geo_precision":"range","address":"7620 DORCAS","state":"PA"},"type":"Feature","geometry":{"type":"Point","coordinates":[-75.069917,40.060331]}},{"properties":{"zip":"19111","geo_score":0.844,"id":"a62z5kiesepj","geo_precision":"range","address":"7647 FILLMORE","state":"PA"},"type":"Feature","geometry":{"type":"Point","coordinates":[-75.092909,40.07268]}},{"properties":{"zip":"19152","geo_score":0.829,"id":"a62z5koz1snd","geo_precision":"range","address":"7701 BUSTLETON","state":"PA"},"type":"Feature","geometry":{"type":"Point","coordinates":[-75.054947,40.053506]}},{"properties":{"zip":"19152","geo_score":0.849,"id":"a62z5kmxzyd8","geo_precision":"range","address":"7710 FAIRFIELD","state":"PA"},"type":"Feature","geometry":{"type":"Point","coordinates":[-75.049315,40.051838]}},{"properties":{"zip":"19111","geo_score":0.815,"id":"a62z5kolbyw8","geo_precision":"range","address":"7719 FILMORE","state":"PA"},"type":"Feature","geometry":{"type":"Point","coordinates":[-75.091384,40.074127]}},{"properties":{"zip":"19027","geo_score":0.823,"id":"a62z5kqjhy3n","geo_precision":"range","address":"7741 ALBRIGHT","state":"PA"},"type":"Feature","geometry":{"type":"Point","coordinates":[-75.122002,40.066994]}},{"properties":{"zip":"19111","geo_score":0.793,"id":"a62z5klrkwnt","geo_precision":"range","address":"7820 ALGON","state":"PA"},"type":"Feature","geometry":{"type":"Point","coordinates":[-75.066523,40.062438]}},{"properties":{"zip":"19136","geo_score":0.837,"id":"a62z5kh6ni38","geo_precision":"range","address":"7822 COTTAGE","state":"PA"},"type":"Feature","geometry":{"type":"Point","coordinates":[-75.028942,40.03704]}},{"properties":{"zip":"19027","geo_score":0.837,"id":"a62z5krwltvr","geo_precision":"range","address":"7900 OLD YORK","state":"PA"},"type":"Feature","geometry":{"type":"Point","coordinates":[-75.131627,40.073153]}},{"properties":{"zip":"19111","geo_score":0.837,"id":"a62z5kkh1wxk","geo_precision":"range","address":"7913 BINGHAM","state":"PA"},"type":"Feature","geometry":{"type":"Point","coordinates":[-75.075877,40.067183]}},{"properties":{"zip":"19150","geo_score":0.805,"id":"a62z5ktxycv4","geo_precision":"range","address":"7931 LOWBER","state":"PA"},"type":"Feature","geometry":{"type":"Point","coordinates":[-75.171523,40.067804]}},{"properties":{"zip":"19111","geo_score":0.829,"id":"a62z5ktoo3eb","geo_precision":"range","address":"7934 DORCAS","state":"PA"},"type":"Feature","geometry":{"type":"Point","coordinates":[-75.065311,40.065402]}},{"properties":{"zip":"19150","geo_score":0.829,"id":"a62z5knzl7jk","geo_precision":"range","address":"8014 RODNEY","state":"PA"},"type":"Feature","geometry":{"type":"Point","coordinates":[-75.173643,40.068039]}},{"properties":{"zip":"19136","geo_score":0.829,"id":"a62z5kgirs6v","geo_precision":"range","address":"8025 NARVON","state":"PA"},"type":"Feature","geometry":{"type":"Point","coordinates":[-75.033046,40.055269]}},{"properties":{"zip":"19116","geo_score":0.849,"id":"a62z5ktd0s3e","geo_precision":"range","address":"804 TOMLINSON","state":"PA"},"type":"Feature","geometry":{"type":"Point","coordinates":[-75.022248,40.112441]}},{"properties":{"zip":"19136","geo_score":0.844,"id":"a62z5klfj0wb","geo_precision":"range","address":"8048 FAIRVIEW","state":"PA"},"type":"Feature","geometry":{"type":"Point","coordinates":[-75.02855,40.045848]}},{"properties":{"zip":"19116","geo_score":0.844,"id":"a62z5kj34mkb","geo_precision":"range","address":"809 PIERMONT","state":"PA"},"type":"Feature","geometry":{"type":"Point","coordinates":[-75.021721,40.113033]}},{"properties":{"zip":"19116","geo_score":0.829,"id":"a62z5kqdycfd","geo_precision":"range","address":"810 REGINA","state":"PA"},"type":"Feature","geometry":{"type":"Point","coordinates":[-75.018078,40.116026]}},{"properties":{"zip":"19152","geo_score":0.829,"id":"a62z5kpp9fcn","geo_precision":"range","address":"8102 REVERE","state":"PA"},"type":"Feature","geometry":{"type":"Point","coordinates":[-75.042544,40.055369]}},{"properties":{"zip":"19152","geo_score":0.829,"id":"a62z5kfzt6cw","geo_precision":"range","address":"8136 FARNESWORTH","state":"PA"},"type":"Feature","geometry":{"type":"Point","coordinates":[-75.042871,40.056478]}},{"properties":{"zip":"18976","geo_score":0.415,"id":"a62z5krn48ph","geo_precision":"street","address":"814 PURPLE MARTIN","state":"PA"},"type":"Feature","geometry":{"type":"Point","coordinates":[-74.979725,40.183087]}},{"properties":{"zip":"19136","geo_score":0.805,"id":"a62z5khnj1q7","geo_precision":"range","address":"8142 MORO","state":"PA"},"type":"Feature","geometry":{"type":"Point","coordinates":[-75.02721,40.043753]}},{"properties":{"zip":"19152","geo_score":0.812,"id":"a62z5keid2rh","geo_precision":"range","address":"8212 ROOSEVELT","state":"PA"},"type":"Feature","geometry":{"type":"Point","coordinates":[-75.044386,40.05955]}},{"properties":{"zip":"19152","geo_score":0.812,"id":"a62z5kemk96p","geo_precision":"range","address":"8212 ROOSEVELT","state":"PA"},"type":"Feature","geometry":{"type":"Point","coordinates":[-75.044386,40.05955]}},{"properties":{"zip":"19136","geo_score":0.829,"id":"a62z5ki1749j","geo_precision":"range","address":"8216 FRANKFORD","state":"PA"},"type":"Feature","geometry":{"type":"Point","coordinates":[-75.02364,40.043064]}},{"properties":{"zip":"19123","geo_score":0.837,"id":"a62z5ks1fiqz","geo_precision":"range","address":"834 HOFFMAN","state":"PA"},"type":"Feature","geometry":{"type":"Point","coordinates":[-75.148334,39.965178]}},{"properties":{"zip":"19111","geo_score":0.829,"id":"a62z5kqzyufp","geo_precision":"range","address":"8341 JEANES","state":"PA"},"type":"Feature","geometry":{"type":"Point","coordinates":[-75.078674,40.080766]}},{"properties":{"zip":"19111","geo_score":0.829,"id":"a62z5km62hxm","geo_precision":"range","address":"839 LONGSHORE","state":"PA"},"type":"Feature","geometry":{"type":"Point","coordinates":[-75.083596,40.052299]}},{"properties":{"zip":"19152","geo_score":0.829,"id":"a62z5kn8c7q2","geo_precision":"range","address":"8410 BUSTLETON","state":"PA"},"type":"Feature","geometry":{"type":"Point","coordinates":[-75.05064,40.069795]}},{"properties":{"zip":"19136","geo_score":0.835,"id":"a62z5kotqn9g","geo_precision":"range","address":"8445 TORRESDALE","state":"PA"},"type":"Feature","geometry":{"type":"Point","coordinates":[-75.014709,40.040807]}},{"properties":{"zip":"19116","geo_score":0.477,"id":"a62z5kot7sq1","geo_precision":"street","address":"853 WELSTON","state":"PA"},"type":"Feature","geometry":{"type":"Point","coordinates":[-75.153438,40.055707]}},{"properties":{"zip":"19152","geo_score":0.829,"id":"a62z5kgshlwg","geo_precision":"range","address":"8541 TOLBUT","state":"PA"},"type":"Feature","geometry":{"type":"Point","coordinates":[-75.046126,40.071452]}},{"properties":{"zip":"19152","geo_score":0.805,"id":"a62z5kkt8a1z","geo_precision":"range","address":"8556 CASTOR","state":"PA"},"type":"Feature","geometry":{"type":"Point","coordinates":[-75.046871,40.072318]}},{"properties":{"zip":"19002","geo_score":0.829,"id":"a62z5kfwkxik","geo_precision":"range","address":"860 WRIGHT","state":"PA"},"type":"Feature","geometry":{"type":"Point","coordinates":[-75.180844,40.170371]}},{"properties":{"zip":"19136","geo_score":0.849,"id":"a62z5kl9jan2","geo_precision":"range","address":"8612 GILLESPIE","state":"PA"},"type":"Feature","geometry":{"type":"Point","coordinates":[-75.014162,40.045732]}},{"properties":{"zip":"19136","geo_score":0.819,"id":"a62z5kjnpad9","geo_precision":"range","address":"8628 PERCH","state":"PA"},"type":"Feature","geometry":{"type":"Point","coordinates":[-75.018647,40.053676]}},{"properties":{"zip":"19320","geo_score":0.585,"id":"a62z5kg6dahn","geo_precision":"zip","address":"87 NARRAGANSETT","state":"PA"},"type":"Feature","geometry":{"type":"Point","coordinates":[-75.81939,39.950107]}},{"properties":{"zip":"19152","geo_score":0.819,"id":"a62z5ki5mfzi","geo_precision":"range","address":"8720 MACON","state":"PA"},"type":"Feature","geometry":{"type":"Point","coordinates":[-75.033285,40.064003]}},{"properties":{"zip":"19136","geo_score":0.837,"id":"a62z5kmbr3tj","geo_precision":"range","address":"8734 MARSDEN","state":"PA"},"type":"Feature","geometry":{"type":"Point","coordinates":[-75.009222,40.045206]}},{"properties":{"zip":"19136","geo_score":0.837,"id":"a62z5kgqzwzo","geo_precision":"range","address":"8737 COTTAGE","state":"PA"},"type":"Feature","geometry":{"type":"Point","coordinates":[-75.012955,40.047512]}},{"properties":{"zip":"19114","geo_score":0.863,"id":"a62z5kp7frkg","geo_precision":"range","address":"88 BONNIE GELLMAN","state":"PA"},"type":"Feature","geometry":{"type":"Point","coordinates":[-75.031229,40.072481]}},{"properties":{"zip":"19152","geo_score":0.837,"id":"a62z5kmfo26a","geo_precision":"range","address":"8801 CALVERT","state":"PA"},"type":"Feature","geometry":{"type":"Point","coordinates":[-75.03857,40.067715]}},{"properties":{"zip":"19152","geo_score":0.835,"id":"a62z5km3sqx6","geo_precision":"range","address":"8803 MANCHESTER","state":"PA"},"type":"Feature","geometry":{"type":"Point","coordinates":[-75.031621,40.062657]}},{"properties":{"zip":"19115","geo_score":0.812,"id":"a62z5kig97sp","geo_precision":"range","address":"8804 ROOSEVELT","state":"PA"},"type":"Feature","geometry":{"type":"Point","coordinates":[-75.040215,40.068855]}},{"properties":{"zip":"19114","geo_score":0.635,"id":"a62z5ke7mciv","geo_precision":"street","address":"8805 DEWEES","state":"PA"},"type":"Feature","geometry":{"type":"Point","coordinates":[-75.029612,40.068124]}},{"properties":{"zip":"19152","geo_score":0.793,"id":"a62z5kmmpbdj","geo_precision":"range","address":"8806 BROUS","state":"PA"},"type":"Feature","geometry":{"type":"Point","coordinates":[-75.036296,40.066538]}},{"properties":{"zip":"19152","geo_score":0.793,"id":"a62z5km8nswu","geo_precision":"range","address":"8806 BROUS","state":"PA"},"type":"Feature","geometry":{"type":"Point","coordinates":[-75.036296,40.066538]}},{"properties":{"zip":"19152","geo_score":0.829,"id":"a62z5ki8ik7r","geo_precision":"range","address":"8806 LISTER","state":"PA"},"type":"Feature","geometry":{"type":"Point","coordinates":[-75.035571,40.066106]}},{"properties":{"zip":"19152","geo_score":0.861,"id":"a62z5kecqd0o","geo_precision":"range","address":"8808 BROCKLEHURST","state":"PA"},"type":"Feature","geometry":{"type":"Point","coordinates":[-75.034675,40.065847]}},{"properties":{"zip":"19152","geo_score":0.793,"id":"a62z5ki0x0kn","geo_precision":"range","address":"8810 BROUS","state":"PA"},"type":"Feature","geometry":{"type":"Point","coordinates":[-75.036224,40.066601]}},{"properties":{"zip":"19152","geo_score":0.861,"id":"a62z5kdu39xn","geo_precision":"range","address":"8812 BROCKLEHURST","state":"PA"},"type":"Feature","geometry":{"type":"Point","coordinates":[-75.034574,40.065981]}},{"properties":{"zip":"19152","geo_score":0.819,"id":"a62z5ktblssn","geo_precision":"range","address":"8812 MACON","state":"PA"},"type":"Feature","geometry":{"type":"Point","coordinates":[-75.033565,40.065455]}},{"properties":{"zip":"19115","geo_score":0.812,"id":"a62z5ktdc4z4","geo_precision":"range","address":"8812 ROOSEVELT","state":"PA"},"type":"Feature","geometry":{"type":"Point","coordinates":[-75.040116,40.069074]}},{"properties":{"zip":"19152","geo_score":0.585,"id":"a62z5kdu8ykb","geo_precision":"zip","address":"8814 BROOKLEHURST","state":"PA"},"type":"Feature","geometry":{"type":"Point","coordinates":[-75.086818,40.014011]}},{"properties":{"zip":"19152","geo_score":0.793,"id":"a62z5kt9on98","geo_precision":"range","address":"8815 BROUS","state":"PA"},"type":"Feature","geometry":{"type":"Point","coordinates":[-75.036176,40.066665]}},{"properties":{"zip":"19152","geo_score":0.484,"id":"a62z5ki1zy48","geo_precision":"street","address":"8816 MALON","state":"PA"},"type":"Feature","geometry":{"type":"Point","coordinates":[-75.216334,39.96373]}},{"properties":{"zip":"19152","geo_score":0.835,"id":"a62z5khd2kf0","geo_precision":"range","address":"8816 MANCHESTER","state":"PA"},"type":"Feature","geometry":{"type":"Point","coordinates":[-75.031617,40.063045]}},{"properties":{"zip":"19152","geo_score":0.829,"id":"a62z5knfvi2l","geo_precision":"range","address":"8819 DEWEES","state":"PA"},"type":"Feature","geometry":{"type":"Point","coordinates":[-75.032688,40.065382]}},{"properties":{"zip":"19152","geo_score":0.837,"id":"a62z5km7hfde","geo_precision":"range","address":"8822 CALVERT","state":"PA"},"type":"Feature","geometry":{"type":"Point","coordinates":[-75.037867,40.068466]}},{"properties":{"zip":"19152","geo_score":0.829,"id":"a62z5kj7lwtp","geo_precision":"range","address":"8824 DEWEES","state":"PA"},"type":"Feature","geometry":{"type":"Point","coordinates":[-75.032596,40.065432]}},{"properties":{"zip":"19152","geo_score":0.844,"id":"a62z5klcc3wl","geo_precision":"range","address":"8824 HARGRAVE","state":"PA"},"type":"Feature","geometry":{"type":"Point","coordinates":[-75.030814,40.06277]}},{"properties":{"zip":"19152","geo_score":0.835,"id":"a62z5krl9zdv","geo_precision":"range","address":"8826 MANCHESTER","state":"PA"},"type":"Feature","geometry":{"type":"Point","coordinates":[-75.031436,40.063287]}},{"properties":{"zip":"19152","geo_score":0.819,"id":"a62z5kjkqpyc","geo_precision":"range","address":"8833 MACON","state":"PA"},"type":"Feature","geometry":{"type":"Point","coordinates":[-75.03343,40.065846]}},{"properties":{"zip":"19152","geo_score":0.837,"id":"a62z5kp0y8kg","geo_precision":"range","address":"8837 DANBURY","state":"PA"},"type":"Feature","geometry":{"type":"Point","coordinates":[-75.031698,40.065003]}},{"properties":{"zip":"19152","geo_score":0.844,"id":"a62z5kj3wmvt","geo_precision":"range","address":"8837 HARGRAVE","state":"PA"},"type":"Feature","geometry":{"type":"Point","coordinates":[-75.030665,40.062984]}},{"properties":{"zip":"19152","geo_score":0.829,"id":"a62z5ktu8cs3","geo_precision":"range","address":"8841 LISTER","state":"PA"},"type":"Feature","geometry":{"type":"Point","coordinates":[-75.035211,40.066585]}},{"properties":{"zip":"19152","geo_score":0.829,"id":"a62z5kfxndr8","geo_precision":"range","address":"8842 REVERE","state":"PA"},"type":"Feature","geometry":{"type":"Point","coordinates":[-75.036419,40.067614]}},{"properties":{"zip":"19115","geo_score":0.812,"id":"a62z5kkum2ov","geo_precision":"range","address":"8844 ROOSEVELT","state":"PA"},"type":"Feature","geometry":{"type":"Point","coordinates":[-75.039515,40.069929]}},{"properties":{"zip":"19115","geo_score":0.844,"id":"a62z5kfhl2va","geo_precision":"range","address":"8847 BRADFORD","state":"PA"},"type":"Feature","geometry":{"type":"Point","coordinates":[-75.040411,40.070578]}},{"properties":{"zip":"19115","geo_score":0.844,"id":"a62z5kqbh2gf","geo_precision":"range","address":"8847 BRADFORD","state":"PA"},"type":"Feature","geometry":{"type":"Point","coordinates":[-75.040411,40.070578]}},{"properties":{"zip":"19115","geo_score":0.844,"id":"a62z5klbjk13","geo_precision":"range","address":"8850 BRADFORD","state":"PA"},"type":"Feature","geometry":{"type":"Point","coordinates":[-75.040345,40.070669]}},{"properties":{"zip":"19152","geo_score":0.849,"id":"a62z5knnnr1w","geo_precision":"range","address":"8854 FAIRFIELD","state":"PA"},"type":"Feature","geometry":{"type":"Point","coordinates":[-75.038016,40.069527]}},{"properties":{"zip":"19152","geo_score":0.844,"id":"a62z5kg7spqf","geo_precision":"range","address":"8854 HARGRAVE","state":"PA"},"type":"Feature","geometry":{"type":"Point","coordinates":[-75.030442,40.063305]}},{"properties":{"zip":"19152","geo_score":0.837,"id":"a62z5kre6ndk","geo_precision":"range","address":"8905 CALVERT","state":"PA"},"type":"Feature","geometry":{"type":"Point","coordinates":[-75.03605,40.069758]}},{"properties":{"zip":"19152","geo_score":0.849,"id":"a62z5kife6lk","geo_precision":"range","address":"8906 BLUE GRASS","state":"PA"},"type":"Feature","geometry":{"type":"Point","coordinates":[-75.035557,40.069175]}},{"properties":{"zip":"19152","geo_score":0.837,"id":"a62z5knfb6sc","geo_precision":"range","address":"8906 MAXWELL","state":"PA"},"type":"Feature","geometry":{"type":"Point","coordinates":[-75.030024,40.065906]}},{"properties":{"zip":"19152","geo_score":0.837,"id":"a62z5ki2ylmu","geo_precision":"range","address":"8911 MAXWELL","state":"PA"},"type":"Feature","geometry":{"type":"Point","coordinates":[-75.030009,40.066004]}},{"properties":{"zip":"19152","geo_score":0.793,"id":"a62z5khoddqe","geo_precision":"range","address":"8913 BROUS","state":"PA"},"type":"Feature","geometry":{"type":"Point","coordinates":[-75.034487,40.067928]}},{"properties":{"zip":"19152","geo_score":0.829,"id":"a62z5ksmcqb4","geo_precision":"range","address":"8913 BROUSE","state":"PA"},"type":"Feature","geometry":{"type":"Point","coordinates":[-75.034487,40.067928]}},{"properties":{"zip":"19152","geo_score":0.849,"id":"a62z5ke8vsbd","geo_precision":"range","address":"8916 BLUE GRASS","state":"PA"},"type":"Feature","geometry":{"type":"Point","coordinates":[-75.035307,40.069292]}},{"properties":{"zip":"19114","geo_score":0.655,"id":"a62z5kot1lap","geo_precision":"street","address":"8919 BLUE GRASS","state":"PA"},"type":"Feature","geometry":{"type":"Point","coordinates":[-75.031283,40.070198]}},{"properties":{"zip":"19152","geo_score":0.837,"id":"a62z5kgn26c8","geo_precision":"range","address":"8920 LEONARD","state":"PA"},"type":"Feature","geometry":{"type":"Point","coordinates":[-75.035955,40.070848]}},{"properties":{"zip":"19152","geo_score":0.642,"id":"a62z5kq6d9gd","geo_precision":"street","address":"89210 MAXWELL","state":"PA"},"type":"Feature","geometry":{"type":"Point","coordinates":[-75.030073,40.066576]}},{"properties":{"zip":"19152","geo_score":0.837,"id":"a62z5kj2c6pr","geo_precision":"range","address":"8922 CALVERT","state":"PA"},"type":"Feature","geometry":{"type":"Point","coordinates":[-75.035516,40.069982]}},{"properties":{"zip":"19152","geo_score":0.849,"id":"a62z5ksy3rv5","geo_precision":"range","address":"8922 FAIRFIELD","state":"PA"},"type":"Feature","geometry":{"type":"Point","coordinates":[-75.036844,40.070791]}},{"properties":{"zip":"19152","geo_score":0.837,"id":"a62z5kdki4mq","geo_precision":"range","address":"8923 LEONARD","state":"PA"},"type":"Feature","geometry":{"type":"Point","coordinates":[-75.035892,40.070827]}},{"properties":{"zip":"19152","geo_score":0.837,"id":"a62z5kkxwik2","geo_precision":"range","address":"8923 LEONARD","state":"PA"},"type":"Feature","geometry":{"type":"Point","coordinates":[-75.035892,40.070827]}},{"properties":{"zip":"19152","geo_score":0.837,"id":"a62z5kqxzjxe","geo_precision":"range","address":"8924 LEONARD","state":"PA"},"type":"Feature","geometry":{"type":"Point","coordinates":[-75.035846,40.070816]}},{"properties":{"zip":"19152","geo_score":0.837,"id":"a62z5kls2o5n","geo_precision":"range","address":"8924 MAXWELL","state":"PA"},"type":"Feature","geometry":{"type":"Point","coordinates":[-75.029822,40.066428]}},{"properties":{"zip":"19152","geo_score":0.837,"id":"a62z5kldbg3n","geo_precision":"range","address":"8926 LEONARD","state":"PA"},"type":"Feature","geometry":{"type":"Point","coordinates":[-75.035777,40.07081]}},{"properties":{"zip":"19152","geo_score":0.837,"id":"a62z5kqzt1od","geo_precision":"range","address":"8927 LEONARD","state":"PA"},"type":"Feature","geometry":{"type":"Point","coordinates":[-75.035777,40.07081]}},{"properties":{"zip":"19114","geo_score":0.655,"id":"a62z5khe5kay","geo_precision":"street","address":"8937 BLUEGRASS","state":"PA"},"type":"Feature","geometry":{"type":"Point","coordinates":[-75.031283,40.070198]}},{"properties":{"zip":"19114","geo_score":0.655,"id":"a62z5ktjjtgd","geo_precision":"street","address":"8939 BLUE GRASS","state":"PA"},"type":"Feature","geometry":{"type":"Point","coordinates":[-75.031283,40.070198]}},{"properties":{"zip":"19114","geo_score":0.655,"id":"a62z5ke2nagf","geo_precision":"street","address":"8942 BLUE GRASS","state":"PA"},"type":"Feature","geometry":{"type":"Point","coordinates":[-75.031283,40.070198]}},{"properties":{"zip":"19152","geo_score":0.837,"id":"a62z5kol4ubo","geo_precision":"range","address":"8942 LEONARD","state":"PA"},"type":"Feature","geometry":{"type":"Point","coordinates":[-75.035375,40.070958]}},{"properties":{"zip":"19152","geo_score":0.849,"id":"a62z5kj497fu","geo_precision":"range","address":"8944 FAIRFIELD","state":"PA"},"type":"Feature","geometry":{"type":"Point","coordinates":[-75.036632,40.071077]}},{"properties":{"zip":"19152","geo_score":0.837,"id":"a62z5kne5ij4","geo_precision":"range","address":"8944 LEONARD","state":"PA"},"type":"Feature","geometry":{"type":"Point","coordinates":[-75.035335,40.070984]}},{"properties":{"zip":"19152","geo_score":0.849,"id":"a62z5knjcli6","geo_precision":"range","address":"8955 FAIRFIELD","state":"PA"},"type":"Feature","geometry":{"type":"Point","coordinates":[-75.035922,40.071854]}},{"properties":{"zip":"19152","geo_score":0.849,"id":"a62z5ko6a9e1","geo_precision":"range","address":"8955 FAIRFIELD","state":"PA"},"type":"Feature","geometry":{"type":"Point","coordinates":[-75.035922,40.071854]}},{"properties":{"zip":"19152","geo_score":0.793,"id":"a62z5kg50sti","geo_precision":"range","address":"9004 BROUS","state":"PA"},"type":"Feature","geometry":{"type":"Point","coordinates":[-75.032829,40.067966]}},{"properties":{"zip":"19152","geo_score":0.793,"id":"a62z5kj7uofw","geo_precision":"range","address":"9010 BROUS","state":"PA"},"type":"Feature","geometry":{"type":"Point","coordinates":[-75.032686,40.067924]}},{"properties":{"zip":"19152","geo_score":0.844,"id":"a62z5kl8drwt","geo_precision":"range","address":"9023 EASTVIEW","state":"PA"},"type":"Feature","geometry":{"type":"Point","coordinates":[-75.026524,40.065242]}},{"properties":{"zip":"19114","geo_score":0.65,"id":"a62z5kscyv2u","geo_precision":"street","address":"9032 CLOVERLY","state":"PA"},"type":"Feature","geometry":{"type":"Point","coordinates":[-75.015485,40.062466]}},{"properties":{"zip":"19152","geo_score":0.829,"id":"a62z5kppjtry","geo_precision":"range","address":"9034 BROUSE","state":"PA"},"type":"Feature","geometry":{"type":"Point","coordinates":[-75.032156,40.067694]}},{"properties":{"zip":"19136","geo_score":0.829,"id":"a62z5kkx53e7","geo_precision":"range","address":"9047 ASHTON","state":"PA"},"type":"Feature","geometry":{"type":"Point","coordinates":[-75.022698,40.062417]}},{"properties":{"zip":"19152","geo_score":0.829,"id":"a62z5kgehsw2","geo_precision":"range","address":"9051 REVERE","state":"PA"},"type":"Feature","geometry":{"type":"Point","coordinates":[-75.031496,40.068157]}},{"properties":{"zip":"19152","geo_score":0.829,"id":"a62z5knfl9gc","geo_precision":"range","address":"9051 REVERE","state":"PA"},"type":"Feature","geometry":{"type":"Point","coordinates":[-75.031496,40.068157]}},{"properties":{"zip":"19152","geo_score":0.829,"id":"a62z5kjcaq7w","geo_precision":"range","address":"9052 REVERE","state":"PA"},"type":"Feature","geometry":{"type":"Point","coordinates":[-75.03146,40.06813]}},{"properties":{"zip":"19152","geo_score":0.829,"id":"a62z5krfiepe","geo_precision":"range","address":"9055 REVERE","state":"PA"},"type":"Feature","geometry":{"type":"Point","coordinates":[-75.031424,40.068103]}},{"properties":{"zip":"19136","geo_score":0.815,"id":"a62z5km4ipul","geo_precision":"range","address":"9061 CONVENT","state":"PA"},"type":"Feature","geometry":{"type":"Point","coordinates":[-75.01919,40.059121]}},{"properties":{"zip":"19136","geo_score":0.844,"id":"a62z5klfkxk1","geo_precision":"range","address":"9080 WESLEYAN","state":"PA"},"type":"Feature","geometry":{"type":"Point","coordinates":[-75.017934,40.059244]}},{"properties":{"zip":"19115","geo_score":0.585,"id":"a62z5knp4hoz","geo_precision":"zip","address":"9101 OLD BUSTLETON","state":"PA"},"type":"Feature","geometry":{"type":"Point","coordinates":[-75.03156,40.082611]}},{"properties":{"zip":"19115","geo_score":0.844,"id":"a62z5kn4rar2","geo_precision":"range","address":"9109 DIPLOMAT","state":"PA"},"type":"Feature","geometry":{"type":"Point","coordinates":[-75.039172,40.078673]}},{"properties":{"zip":"19115","geo_score":0.837,"id":"a62z5kjij6r0","geo_precision":"range","address":"9111 BICKLEY","state":"PA"},"type":"Feature","geometry":{"type":"Point","coordinates":[-75.039196,40.076041]}},{"properties":{"zip":"19115","geo_score":0.837,"id":"a62z5ki3iqmb","geo_precision":"range","address":"9114 BICKLEY","state":"PA"},"type":"Feature","geometry":{"type":"Point","coordinates":[-75.039084,40.075955]}},{"properties":{"zip":"19115","geo_score":0.844,"id":"a62z5kn4xpa1","geo_precision":"range","address":"9114 DIPLOMAT","state":"PA"},"type":"Feature","geometry":{"type":"Point","coordinates":[-75.039143,40.078649]}},{"properties":{"zip":"19115","geo_score":0.48,"id":"a62z5kso7mqo","geo_precision":"street","address":"9119 WOODEN BRIDGE","state":"PA"},"type":"Feature","geometry":{"type":"Point","coordinates":[-75.017575,40.092754]}},{"properties":{"zip":"19020","geo_score":0.805,"id":"a62z5kdp4ohf","geo_precision":"range","address":"912 MILL","state":"PA"},"type":"Feature","geometry":{"type":"Point","coordinates":[-74.980343,40.064386]}},{"properties":{"zip":"19115","geo_score":0.366,"id":"a62z5kfutwwe","geo_precision":"street","address":"9128 OLD NEW","state":"PA"},"type":"Feature","geometry":{"type":"Point","coordinates":[-75.231129,39.964817]}},{"properties":{"zip":"19115","geo_score":0.854,"id":"a62z5kfto0jv","geo_precision":"range","address":"9132 OLD NEWTOWN","state":"PA"},"type":"Feature","geometry":{"type":"Point","coordinates":[-75.03956,40.076316]}},{"properties":{"zip":"19114","geo_score":0.849,"id":"a62z5kqusck3","geo_precision":"range","address":"9135 DONALDSON","state":"PA"},"type":"Feature","geometry":{"type":"Point","coordinates":[-75.029196,40.070451]}},{"properties":{"zip":"19152","geo_score":0.793,"id":"a62z5kglclrw","geo_precision":"range","address":"9139 REVER","state":"PA"},"type":"Feature","geometry":{"type":"Point","coordinates":[-75.029786,40.067119]}},{"properties":{"zip":"19115","geo_score":0.837,"id":"a62z5klurx5x","geo_precision":"range","address":"9155 BICKLEY","state":"PA"},"type":"Feature","geometry":{"type":"Point","coordinates":[-75.03696,40.075223]}},{"properties":{"zip":"19124","geo_score":0.819,"id":"a62z5klx2jva","geo_precision":"range","address":"916 PRATT","state":"PA"},"type":"Feature","geometry":{"type":"Point","coordinates":[-75.092641,40.030609]}},{"properties":{"zip":"19114","geo_score":0.819,"id":"a62z5kqwzxua","geo_precision":"range","address":"9162 ELLIE","state":"PA"},"type":"Feature","geometry":{"type":"Point","coordinates":[-75.0066,40.054089]}},{"properties":{"zip":"19114","geo_score":0.74,"id":"a62z5kmi9nj8","geo_precision":"street","address":"9181 ACADEMY","state":"PA"},"type":"Feature","geometry":{"type":"Point","coordinates":[-75.008873,40.058648]}},{"properties":{"zip":"19114","geo_score":0.849,"id":"a62z5khw29gz","geo_precision":"range","address":"9200 BLUE GRASS","state":"PA"},"type":"Feature","geometry":{"type":"Point","coordinates":[-75.030041,40.071734]}},{"properties":{"zip":"19115","geo_score":0.585,"id":"a62z5kew8oig","geo_precision":"zip","address":"9200 BUSTLEON","state":"PA"},"type":"Feature","geometry":{"type":"Point","coordinates":[-75.03156,40.082611]}},{"properties":{"zip":"19114","geo_score":0.849,"id":"a62z5kp5c18d","geo_precision":"range","address":"9201 BLUE GRASS","state":"PA"},"type":"Feature","geometry":{"type":"Point","coordinates":[-75.030041,40.071734]}},{"properties":{"zip":"19114","geo_score":0.849,"id":"a62z5ktt9xjz","geo_precision":"range","address":"9207 BLUE GRASS","state":"PA"},"type":"Feature","geometry":{"type":"Point","coordinates":[-75.029771,40.071796]}},{"properties":{"zip":"19152","geo_score":0.74,"id":"a62z5kjjjt6s","geo_precision":"range","address":"9208 PILGRIM","state":"PA"},"type":"Feature","geometry":{"type":"Point","coordinates":[-75.014386,40.05854]}},{"properties":{"zip":"19114","geo_score":0.837,"id":"a62z5kj3v4zq","geo_precision":"range","address":"9208 PILGRIM","state":"PA"},"type":"Feature","geometry":{"type":"Point","coordinates":[-75.014386,40.05854]}},{"properties":{"zip":"19114","geo_score":0.849,"id":"a62z5kj4sw1c","geo_precision":"range","address":"9209 BLUE GRASS","state":"PA"},"type":"Feature","geometry":{"type":"Point","coordinates":[-75.029748,40.071827]}},{"properties":{"zip":"19114","geo_score":0.837,"id":"a62z5kndfqd4","geo_precision":"range","address":"9210 PILGRIM","state":"PA"},"type":"Feature","geometry":{"type":"Point","coordinates":[-75.014365,40.058565]}},{"properties":{"zip":"19114","geo_score":0.849,"id":"a62z5ksi04jc","geo_precision":"range","address":"9213 BLUE GRASS","state":"PA"},"type":"Feature","geometry":{"type":"Point","coordinates":[-75.029701,40.071891]}},{"properties":{"zip":"19114","geo_score":0.849,"id":"a62z5ko7tckd","geo_precision":"range","address":"9213 BLUE GRASS","state":"PA"},"type":"Feature","geometry":{"type":"Point","coordinates":[-75.029701,40.071891]}},{"properties":{"zip":"19114","geo_score":0.849,"id":"a62z5kp8djr1","geo_precision":"range","address":"9213 BLUE GRASS","state":"PA"},"type":"Feature","geometry":{"type":"Point","coordinates":[-75.029701,40.071891]}},{"properties":{"zip":"19114","geo_score":0.849,"id":"a62z5kigyc3m","geo_precision":"range","address":"9213 BLUEGRASS","state":"PA"},"type":"Feature","geometry":{"type":"Point","coordinates":[-75.029701,40.071891]}},{"properties":{"zip":"19114","geo_score":0.837,"id":"a62z5kfxu072","geo_precision":"range","address":"9214 PURITAN","state":"PA"},"type":"Feature","geometry":{"type":"Point","coordinates":[-75.013962,40.059913]}},{"properties":{"zip":"19115","geo_score":0.815,"id":"a62z5kfjjgk2","geo_precision":"range","address":"9215B JAMISON","state":"PA"},"type":"Feature","geometry":{"type":"Point","coordinates":[-75.044656,40.081759]}},{"properties":{"zip":"19114","geo_score":0.849,"id":"a62z5kgovf6g","geo_precision":"range","address":"9217 BLUE GRASS","state":"PA"},"type":"Feature","geometry":{"type":"Point","coordinates":[-75.029654,40.071954]}},{"properties":{"zip":"19114","geo_score":0.837,"id":"a62z5kqyyy14","geo_precision":"range","address":"9217 PILGRIM","state":"PA"},"type":"Feature","geometry":{"type":"Point","coordinates":[-75.014262,40.058643]}},{"properties":{"zip":"19114","geo_score":0.849,"id":"a62z5kl4rzfb","geo_precision":"range","address":"9219 BLUE GRASS","state":"PA"},"type":"Feature","geometry":{"type":"Point","coordinates":[-75.02963,40.071986]}},{"properties":{"zip":"19114","geo_score":0.849,"id":"a62z5kghambw","geo_precision":"range","address":"9219 BLUE GRASS","state":"PA"},"type":"Feature","geometry":{"type":"Point","coordinates":[-75.02963,40.071986]}},{"properties":{"zip":"19114","geo_score":0.849,"id":"a62z5ktv1ba2","geo_precision":"range","address":"9219 BLUE GRASS","state":"PA"},"type":"Feature","geometry":{"type":"Point","coordinates":[-75.02963,40.071986]}},{"properties":{"zip":"19114","geo_score":0.849,"id":"a62z5kqwbo8l","geo_precision":"range","address":"9221 BLUE GRASS","state":"PA"},"type":"Feature","geometry":{"type":"Point","coordinates":[-75.029607,40.072017]}},{"properties":{"zip":"19114","geo_score":0.844,"id":"a62z5kpgfhse","geo_precision":"range","address":"9221 GLENLOCH","state":"PA"},"type":"Feature","geometry":{"type":"Point","coordinates":[-75.001453,40.052295]}},{"properties":{"zip":"19114","geo_score":0.849,"id":"a62z5kfcb6w5","geo_precision":"range","address":"9225 GILLESPIE","state":"PA"},"type":"Feature","geometry":{"type":"Point","coordinates":[-75.002606,40.053425]}},{"properties":{"zip":"19114","geo_score":0.849,"id":"a62z5kjtsr93","geo_precision":"range","address":"9228 BLUE GRASS","state":"PA"},"type":"Feature","geometry":{"type":"Point","coordinates":[-75.029513,40.072144]}},{"properties":{"zip":"19114","geo_score":0.849,"id":"a62z5kg49vua","geo_precision":"range","address":"9228 BLUE GRASS","state":"PA"},"type":"Feature","geometry":{"type":"Point","coordinates":[-75.029513,40.072144]}},{"properties":{"zip":"19114","geo_score":0.849,"id":"a62z5kq35hf4","geo_precision":"range","address":"9228 BLUE GRASS","state":"PA"},"type":"Feature","geometry":{"type":"Point","coordinates":[-75.029513,40.072144]}},{"properties":{"zip":"19114","geo_score":0.849,"id":"a62z5kinmi7q","geo_precision":"range","address":"9228 BLUE GRASS","state":"PA"},"type":"Feature","geometry":{"type":"Point","coordinates":[-75.029513,40.072144]}},{"properties":{"zip":"19115","geo_score":0.837,"id":"a62z5km2fil8","geo_precision":"range","address":"9230 BURBANK","state":"PA"},"type":"Feature","geometry":{"type":"Point","coordinates":[-75.062875,40.100103]}},{"properties":{"zip":"19114","geo_score":0.849,"id":"a62z5khlgb1k","geo_precision":"range","address":"9233 BLUE GRASS","state":"PA"},"type":"Feature","geometry":{"type":"Point","coordinates":[-75.029465,40.072208]}},{"properties":{"zip":"19114","geo_score":0.849,"id":"a62z5knlolsc","geo_precision":"range","address":"9233 BLUE GRASS","state":"PA"},"type":"Feature","geometry":{"type":"Point","coordinates":[-75.029465,40.072208]}},{"properties":{"zip":"19114","geo_score":0.849,"id":"a62z5kms2j4o","geo_precision":"range","address":"9234 ANNAPOLIS","state":"PA"},"type":"Feature","geometry":{"type":"Point","coordinates":[-75.01215,40.059165]}},{"properties":{"zip":"19115","geo_score":0.815,"id":"a62z5kmk2mio","geo_precision":"range","address":"9238B JAMISON","state":"PA"},"type":"Feature","geometry":{"type":"Point","coordinates":[-75.044353,40.08203]}},{"properties":{"zip":"19111","geo_score":0.805,"id":"a62z5ktk09mf","geo_precision":"range","address":"924 NAPFLE","state":"PA"},"type":"Feature","geometry":{"type":"Point","coordinates":[-75.080577,40.067695]}},{"properties":{"zip":"19114","geo_score":0.849,"id":"a62z5kkfn30r","geo_precision":"range","address":"9241 BLUE GRASS","state":"PA"},"type":"Feature","geometry":{"type":"Point","coordinates":[-75.029371,40.072334]}},{"properties":{"zip":"19114","geo_score":0.849,"id":"a62z5kp9xsqq","geo_precision":"range","address":"9243 BLUE GRASS","state":"PA"},"type":"Feature","geometry":{"type":"Point","coordinates":[-75.029348,40.072366]}},{"properties":{"zip":"19114","geo_score":0.849,"id":"a62z5ke1kais","geo_precision":"range","address":"9246 ANNAPOLIS","state":"PA"},"type":"Feature","geometry":{"type":"Point","coordinates":[-75.012135,40.059738]}},{"properties":{"zip":"19114","geo_score":0.849,"id":"a62z5khspjik","geo_precision":"range","address":"9246 ANNAPOLIS","state":"PA"},"type":"Feature","geometry":{"type":"Point","coordinates":[-75.012135,40.059738]}},{"properties":{"zip":"19114","geo_score":0.382,"id":"a62z5kknij4t","geo_precision":"street","address":"9246 WOODEN BRIDGE","state":"PA"},"type":"Feature","geometry":{"type":"Point","coordinates":[-75.017575,40.092754]}},{"properties":{"zip":"19114","geo_score":0.829,"id":"a62z5kiq9jet","geo_precision":"range","address":"9301 TREATY","state":"PA"},"type":"Feature","geometry":{"type":"Point","coordinates":[-75.011867,40.06232]}},{"properties":{"zip":"19114","geo_score":0.844,"id":"a62z5kk62pbf","geo_precision":"range","address":"9322 CLOVERLY","state":"PA"},"type":"Feature","geometry":{"type":"Point","coordinates":[-75.015494,40.06306]}},{"properties":{"zip":"19114","geo_score":0.844,"id":"a62z5ks5nvn7","geo_precision":"range","address":"9326 CLOVERLY","state":"PA"},"type":"Feature","geometry":{"type":"Point","coordinates":[-75.015428,40.063158]}},{"properties":{"zip":"19114","geo_score":0.849,"id":"a62z5keclt93","geo_precision":"range","address":"9334 GILLESPIE","state":"PA"},"type":"Feature","geometry":{"type":"Point","coordinates":[-75.000639,40.054766]}},{"properties":{"zip":"19115","geo_score":0.819,"id":"a62z5klu9ut8","geo_precision":"range","address":"9337 BANES","state":"PA"},"type":"Feature","geometry":{"type":"Point","coordinates":[-75.040536,40.083897]}},{"properties":{"zip":"19115","geo_score":0.805,"id":"a62z5klgen3e","geo_precision":"range","address":"9338 NEIL","state":"PA"},"type":"Feature","geometry":{"type":"Point","coordinates":[-75.043393,40.085158]}},{"properties":{"zip":"19114","geo_score":0.849,"id":"a62z5kikofw3","geo_precision":"range","address":"9353 ANNAPOLIS","state":"PA"},"type":"Feature","geometry":{"type":"Point","coordinates":[-75.01306,40.066557]}},{"properties":{"zip":"19114","geo_score":0.829,"id":"a62z5kj649w9","geo_precision":"range","address":"9400 ASHTON","state":"PA"},"type":"Feature","geometry":{"type":"Point","coordinates":[-75.016137,40.069012]}},{"properties":{"zip":"19114","geo_score":0.829,"id":"a62z5ktspixi","geo_precision":"range","address":"9400 ASHTON","state":"PA"},"type":"Feature","geometry":{"type":"Point","coordinates":[-75.016137,40.069012]}},{"properties":{"zip":"19114","geo_score":0.829,"id":"a62z5kflg4hz","geo_precision":"range","address":"9401 ASHTON","state":"PA"},"type":"Feature","geometry":{"type":"Point","coordinates":[-75.016137,40.069012]}},{"properties":{"zip":"19114","geo_score":0.715,"id":"a62z5knee2zo","geo_precision":"street","address":"9417 ACADEMY","state":"PA"},"type":"Feature","geometry":{"type":"Point","coordinates":[-75.007269,40.069161]}},{"properties":{"zip":"19114","geo_score":0.844,"id":"a62z5kjup64s","geo_precision":"range","address":"9429 KIRKWOOD","state":"PA"},"type":"Feature","geometry":{"type":"Point","coordinates":[-75.007197,40.065435]}},{"properties":{"zip":"19114","geo_score":0.849,"id":"a62z5kk62mbn","geo_precision":"range","address":"9437 FAIRGREEN","state":"PA"},"type":"Feature","geometry":{"type":"Point","coordinates":[-75.016947,40.066902]}},{"properties":{"zip":"19114","geo_score":0.829,"id":"a62z5kizr611","geo_precision":"range","address":"9439 ASHTON","state":"PA"},"type":"Feature","geometry":{"type":"Point","coordinates":[-75.015896,40.069303]}},{"properties":{"zip":"19114","geo_score":0.829,"id":"a62z5kk1xdvy","geo_precision":"range","address":"9439 ASHTON","state":"PA"},"type":"Feature","geometry":{"type":"Point","coordinates":[-75.015896,40.069303]}},{"properties":{"zip":"19114","geo_score":0.854,"id":"a62z5kspfrc9","geo_precision":"range","address":"9440 WOODBRIDGE","state":"PA"},"type":"Feature","geometry":{"type":"Point","coordinates":[-75.015891,40.066877]}},{"properties":{"zip":"19114","geo_score":0.844,"id":"a62z5kkbob3g","geo_precision":"range","address":"9442 KIRKWOOD","state":"PA"},"type":"Feature","geometry":{"type":"Point","coordinates":[-75.007152,40.065694]}},{"properties":{"zip":"19114","geo_score":0.844,"id":"a62z5ko174gr","geo_precision":"range","address":"9450 LANSFORD","state":"PA"},"type":"Feature","geometry":{"type":"Point","coordinates":[-75.008106,40.066179]}},{"properties":{"zip":"19114","geo_score":0.854,"id":"a62z5krn6u66","geo_precision":"range","address":"9455 WOODBRIDGE","state":"PA"},"type":"Feature","geometry":{"type":"Point","coordinates":[-75.015266,40.067592]}},{"properties":{"zip":"19114","geo_score":0.854,"id":"a62z5ko1o6sa","geo_precision":"range","address":"9479 WOODBRIDGE","state":"PA"},"type":"Feature","geometry":{"type":"Point","coordinates":[-75.015109,40.067939]}},{"properties":{"zip":"19115","geo_score":0.659,"id":"a62z5kfx5nek","geo_precision":"range","address":"9507 NORTHEAST","state":"PA"},"type":"Feature","geometry":{"type":"Point","coordinates":[-75.043394,40.088649]}},{"properties":{"zip":"19114","geo_score":0.819,"id":"a62z5kinqjeo","geo_precision":"range","address":"9583 JAMES","state":"PA"},"type":"Feature","geometry":{"type":"Point","coordinates":[-74.984539,40.053659]}},{"properties":{"zip":"19115","geo_score":0.805,"id":"a62z5kdycjze","geo_precision":"range","address":"9587 WALLEY","state":"PA"},"type":"Feature","geometry":{"type":"Point","coordinates":[-75.041464,40.093109]}},{"properties":{"zip":"19124","geo_score":0.829,"id":"a62z5kgsu9pf","geo_precision":"range","address":"959 ANCHOR","state":"PA"},"type":"Feature","geometry":{"type":"Point","coordinates":[-75.088178,40.033198]}},{"properties":{"zip":"19114","geo_score":0.793,"id":"a62z5kkgfabd","geo_precision":"range","address":"9601 ASHTAN","state":"PA"},"type":"Feature","geometry":{"type":"Point","coordinates":[-75.014959,40.070549]}},{"properties":{"zip":"19114","geo_score":0.829,"id":"a62z5kdmlpxg","geo_precision":"range","address":"9601 ASHTON","state":"PA"},"type":"Feature","geometry":{"type":"Point","coordinates":[-75.014959,40.070549]}},{"properties":{"zip":"19114","geo_score":0.829,"id":"a62z5kg2fk8u","geo_precision":"range","address":"9601 ASHTON","state":"PA"},"type":"Feature","geometry":{"type":"Point","coordinates":[-75.014959,40.070549]}},{"properties":{"zip":"19114","geo_score":0.829,"id":"a62z5kky9wje","geo_precision":"range","address":"9601 ASHTON","state":"PA"},"type":"Feature","geometry":{"type":"Point","coordinates":[-75.014959,40.070549]}},{"properties":{"zip":"19114","geo_score":0.829,"id":"a62z5kjx2x5s","geo_precision":"range","address":"9601 ASHTON","state":"PA"},"type":"Feature","geometry":{"type":"Point","coordinates":[-75.014959,40.070549]}},{"properties":{"zip":"19115","geo_score":0.819,"id":"a62z5ks7o5ua","geo_precision":"range","address":"9653 EVANS","state":"PA"},"type":"Feature","geometry":{"type":"Point","coordinates":[-75.02774,40.084685]}},{"properties":{"zip":"19115","geo_score":0.829,"id":"a62z5kk2g6by","geo_precision":"range","address":"9713 JEANES","state":"PA"},"type":"Feature","geometry":{"type":"Point","coordinates":[-75.048767,40.102238]}},{"properties":{"zip":"19115","geo_score":0.829,"id":"a62z5keqyg3b","geo_precision":"range","address":"9718 CHAPEL","state":"PA"},"type":"Feature","geometry":{"type":"Point","coordinates":[-75.040824,40.095026]}},{"properties":{"zip":"19115","geo_score":0.819,"id":"a62z5kkz7jz2","geo_precision":"range","address":"9743 SUSAN","state":"PA"},"type":"Feature","geometry":{"type":"Point","coordinates":[-75.042259,40.096917]}},{"properties":{"zip":"19115","geo_score":0.844,"id":"a62z5kgeyu3p","geo_precision":"range","address":"9789 HILSPACH","state":"PA"},"type":"Feature","geometry":{"type":"Point","coordinates":[-75.02385,40.087869]}},{"properties":{"zip":"19115","geo_score":0.823,"id":"a62z5kms9aps","geo_precision":"range","address":"9801 HALDEMAN","state":"PA"},"type":"Feature","geometry":{"type":"Point","coordinates":[-75.030928,40.094051]}},{"properties":{"zip":"19115","geo_score":0.585,"id":"a62z5ktxzxdj","geo_precision":"zip","address":"9806 BUSTLETON","state":"PA"},"type":"Feature","geometry":{"type":"Point","coordinates":[-75.03156,40.082611]}},{"properties":{"zip":"19115","geo_score":0.819,"id":"a62z5kf4vwgx","geo_precision":"range","address":"9813 CLARK","state":"PA"},"type":"Feature","geometry":{"type":"Point","coordinates":[-75.026077,40.091447]}},{"properties":{"zip":"19115","geo_score":0.829,"id":"a62z5kpw0593","geo_precision":"range","address":"9847 COWDEN","state":"PA"},"type":"Feature","geometry":{"type":"Point","coordinates":[-75.025362,40.092162]}},{"properties":{"zip":"19115","geo_score":0.819,"id":"a62z5ksaklz0","geo_precision":"range","address":"9904 SANDY","state":"PA"},"type":"Feature","geometry":{"type":"Point","coordinates":[-75.022647,40.092378]}},{"properties":{"zip":"19115","geo_score":0.819,"id":"a62z5kqghxf1","geo_precision":"range","address":"9956 SANDY","state":"PA"},"type":"Feature","geometry":{"type":"Point","coordinates":[-75.020206,40.093966]}},{"properties":{"zip":"19115","geo_score":0.819,"id":"a62z5kdvnrjy","geo_precision":"range","address":"9985 HARDY","state":"PA"},"type":"Feature","geometry":{"type":"Point","coordinates":[-75.019916,40.095644]}},{"properties":{"zip":"19114","geo_score":0.655,"id":"a62z5kh1d21e","geo_precision":"street","address":"BLUE GRASS SHOPPING","state":"PA"},"type":"Feature","geometry":{"type":"Point","coordinates":[-75.031283,40.070198]}}],"is_temporal":false,"author":{"url":"","metadata":"","contact_name":"","contact_address":"","source":"","contact_phone":""},"source":"","pagination":{"sort":null,"start":0,"total":714,"limit":1000000},"state":"complete","tags":"","published":"2014-08-10T12:59:17-04:00","id":61012}