{"type":"FeatureCollection","data_type":"Dataset","url_type":null,"permissions":[{"permissions":{"download":true,"view":true},"group_id":"everyone"}],"classification":null,"title":"Sales Offices","count":33,"stream_id":61160,"contributor":{"url":"http://geocommons.com/users/1252","name":"eHaggis"},"data_attributes":null,"calculation_params":null,"icon_link":null,"link":"http://geocommons.com/overlays/61160.json","extent":[-89.4168,39.1834,-70.2715,44.2984],"geometry_types":["area"],"unique_name":null,"name":"Sales Offices","feature_count":33,"description":"","next_feature":null,"is_raster":false,"short_classification":"Y","stats":{"zipcode":{"max":54911,"mean":20522.1818181818,"variance":340538276.840909,"stdev":18453.6792223369,"min":1105,"median":14203},"bg_long":{"max":-70.356268,"mean":-77.2996298272727,"variance":33.9451738467473,"stdev":5.82624869420687,"min":-89.380698,"median":-75.6135763},"bg_lat":{"max":44.291108,"mean":41.6513700515152,"variance":1.67519092131849,"stdev":1.29429166779304,"min":39.208538,"median":41.4162602},"id":{"max":35,"mean":18.030303030303,"variance":111.155303030303,"stdev":10.5430215322887,"min":1,"median":18}},"features":[{"properties":{"zipastext":"11747","city":"Melville","sales_office_c":"Melville, NY","region":"Mid-Atlantic","zipcode":11747,"bg_long":-73.411528,"bg_lat":40.7950469,"id":"a6ffwqmy59ce","address":"201 Old Country Rd","state":"NY"},"type":"Feature","geometry":{"type":"Polygon","coordinates":[[[-73.3669900042268,40.76910160271],[-73.4028809906613,40.7595306729942],[-73.4384301581774,40.751327018952],[-73.4442410797906,40.7824325405286],[-73.4486847257302,40.8049925891446],[-73.4213392122562,40.8200326215552],[-73.3669900042268,40.76910160271]]]}},{"properties":{"zipastext":"18106","city":"Allentown","sales_office_c":"Allentown, PA","region":"Mid-Atlantic","zipcode":18106,"bg_long":-75.6135763,"bg_lat":40.585894,"id":"a6ffwqmb18k1","address":"7150 Windsor Drive","state":"PA"},"type":"Feature","geometry":{"type":"Polygon","coordinates":[[[-75.6243621414991,40.5800757408216],[-75.6305148820307,40.5940903164769],[-75.5956493523515,40.5913557651295],[-75.5515547118748,40.5670866219214],[-75.541300144322,40.5547811408582],[-75.5908638874935,40.5520465895108],[-75.6076130144963,40.5547811408582],[-75.6243621414991,40.5800757408216]]]}},{"properties":{"zipastext":"01752","city":"Marlborough","sales_office_c":"Marlborough, MA","region":"New England","zipcode":1752,"bg_long":-71.5903515,"bg_lat":42.3189028,"id":"a6ffwqi9wgc1","address":"225 Cedar Hill St","state":"MA"},"type":"Feature","geometry":{"type":"Polygon","coordinates":[[[-71.4804913934446,42.3308722409894],[-71.5854298014008,42.3110467437208],[-71.6247389770196,42.3503559193396],[-71.6042298419141,42.3664214085055],[-71.4757059285867,42.3807778030793],[-71.4828841258736,42.353090470687],[-71.4804913934446,42.3308722409894]]]}},{"properties":{"zipastext":"01803","city":"Burlington","sales_office_c":"Danvers, MA 1","region":"New England","zipcode":1803,"bg_long":-71.1894801,"bg_lat":42.4858852,"id":"a6ffwqd9i9yk","address":"5 Wall Street","state":"MA"},"type":"Feature","geometry":{"type":"Polygon","coordinates":[[[-71.2036180695212,42.4672579894406],[-71.240534512711,42.4898180380566],[-71.2323308586688,42.5062253461409],[-71.2056689830317,42.5448508839228],[-71.1697779965972,42.5154544569384],[-71.2036180695212,42.4672579894406]]]}},{"properties":{"zipastext":"46805","city":"Fort Wayne","sales_office_c":"Fort Wayne, IN 1","region":"Mid-West","zipcode":46805,"bg_long":-85.1071557,"bg_lat":41.1117319,"id":"a6ffwqez3c54","address":"2730 East Coliseum Blvd.","state":"IN"},"type":"Feature","geometry":{"type":"Polygon","coordinates":[[[-85.1163316872158,41.1143387103183],[-85.0876188980682,41.0791313617206],[-85.1262444358501,41.0822077319865],[-85.1426517439345,41.084258645497],[-85.1491463033845,41.118098718421],[-85.1163316872158,41.1143387103183]]]}},{"properties":{"zipastext":"02865","city":"Lincoln","sales_office_c":"Lincoln, RI 1","region":"Mid-Atlantic","zipcode":2865,"bg_long":-71.4662115,"bg_lat":41.9481254,"id":"a6ffwqewpxll","address":"20 Albion Road","state":"RI"},"type":"Feature","geometry":{"type":"Polygon","coordinates":[[[-71.4220403583941,41.8786458119144],[-71.4678440934629,41.8735185281381],[-71.4910877799158,41.9432495874966],[-71.4876695907315,41.9630750847652],[-71.4521204232154,41.9531623361309],[-71.3946948449202,41.8977876713462],[-71.4052912313913,41.8861658281198],[-71.4220403583941,41.8786458119144]]]}},{"properties":{"zipastext":"10019","city":"New York City","sales_office_c":"New York City, NY 6","region":"Mid-Atlantic","zipcode":10019,"bg_long":-73.993907,"bg_lat":40.751841,"id":"a6ffwqgdawn8","address":"One Penn Plaza","state":"NY"},"type":"Feature","geometry":{"type":"Polygon","coordinates":[[[-73.9730349465926,40.7643161378521],[-73.9767949546953,40.7588470351573],[-73.9812386006348,40.7585052162389],[-74.0014059168218,40.7612397675863],[-74.0031150114139,40.760214310831],[-73.9938859006165,40.7732034297311],[-73.9815804195532,40.7680761459548],[-73.9730349465926,40.7643161378521]]]}},{"properties":{"zipastext":"06473","city":"North Haven","sales_office_c":"North Haven, CT 1","region":"Mid-Atlantic","zipcode":6473,"bg_long":-72.8407146,"bg_lat":41.4162602,"id":"a6ffwqmgyf7c","address":"528 Washington Avenue","state":"CT"},"type":"Feature","geometry":{"type":"Polygon","coordinates":[[[-72.8176870023194,41.3399391964782],[-72.8887853373516,41.3324191802728],[-72.9062181021912,41.3710447180547],[-72.851185256325,41.4342812179632],[-72.8176870023194,41.3997575072024],[-72.8176870023194,41.3399391964782]]]}},{"properties":{"zipastext":"44311","city":"Akron","sales_office_c":"Akron, OH","region":"Mid-West","zipcode":44311,"bg_long":-81.524669,"bg_lat":41.071712,"id":"a6ffwqno24ic","address":"One GOJO Plaza","state":"OH"},"type":"Feature","geometry":{"type":"Polygon","coordinates":[[[-81.5436403518479,41.0596476833705],[-81.5415894383374,41.0620404157994],[-81.5244984924162,41.0760549914548],[-81.518687570803,41.075371353618],[-81.5166366572924,41.0743458968627],[-81.5145857437819,41.0736622590259],[-81.5043311762291,41.0712695265969],[-81.5053566329844,41.0545203995941],[-81.5436403518479,41.0596476833705]]]}},{"properties":{"zipastext":"15222","city":"Pittsburgh","sales_office_c":"Pittsburgh, PA 1","region":"Mid-West","zipcode":15222,"bg_long":-79.9933976,"bg_lat":40.4475255,"id":"a6ffwql7lew6","address":"Center City Tower","state":"PA"},"type":"Feature","geometry":{"type":"Polygon","coordinates":[[[-80.013658872982,40.440955441023],[-79.9808442568133,40.4590718436995],[-79.9733242406079,40.4573627491073],[-80.0126334162267,40.4406136221046],[-80.013658872982,40.440955441023]]]}},{"properties":{"zipastext":"54911","city":"Appleton","sales_office_c":"Appleton, WI 1","region":"Mid-West","zipcode":54911,"bg_long":-88.37441,"bg_lat":44.291108,"id":"a6ffwqp30q4u","address":"3100 North Ballard Road","state":"WI"},"type":"Feature","geometry":{"type":"Polygon","coordinates":[[[-88.354724120365,44.2768473435774],[-88.4152260689261,44.2532618382061],[-88.4152260689261,44.2983819354381],[-88.3331895285043,44.2976982976012],[-88.343444096057,44.2771891624958],[-88.354724120365,44.2768473435774]]]}},{"properties":{"zipastext":"04074","city":"Scarborough","sales_office_c":"Portland, ME 2","region":"New England","zipcode":4074,"bg_long":-70.356268,"bg_lat":43.6148278,"id":"a6ffwqnwj9zw","address":"381 Payne Road","state":"ME"},"type":"Feature","geometry":{"type":"Polygon","coordinates":[[[-70.4786201435438,43.6208968391217],[-70.4687073949095,43.6314932255928],[-70.3907726815088,43.6574714633931],[-70.3760744680166,43.6475587147588],[-70.2810488086947,43.596969514832],[-70.2714778789789,43.563129441908],[-70.3531726004822,43.5354421095157],[-70.3835944842219,43.5504821419263],[-70.4786201435438,43.6208968391217]]]}},{"properties":{"zipastext":"02169","city":"Quincy","sales_office_c":"Quincy, MA 2","region":"New England","zipcode":2169,"bg_long":-71.0288132,"bg_lat":42.2336673,"id":"a6ffwqo6gbcu","address":"2 Batterymarch Park","state":"MA"},"type":"Feature","geometry":{"type":"Polygon","coordinates":[[[-71.0655232264779,42.2057665168462],[-71.0313413346355,42.2590902681204],[-70.9964758049562,42.2659266464888],[-70.9540902590716,42.2802830410627],[-70.9718648428297,42.2372138573412],[-71.0484322805567,42.2074756114383],[-71.0655232264779,42.2057665168462]]]}},{"properties":{"zipastext":"12205","city":"Albany","sales_office_c":"Albany, NY","region":"Mid-West","zipcode":12205,"bg_long":-73.867795,"bg_lat":42.712193,"id":"a6ffwqgoomi0","address":"2 Pine West Plaza","state":"NY"},"type":"Feature","geometry":{"type":"Polygon","coordinates":[[[-73.8694638143101,42.7143930674612],[-73.890314768334,42.7496004160588],[-73.8619437981048,42.7619058971221],[-73.8134055116886,42.7390040295877],[-73.79358001442,42.726356729606],[-73.771019965804,42.6805529945372],[-73.8304964576098,42.6942257512741],[-73.8694638143101,42.7143930674612]]]}},{"properties":{"zipastext":"10573","city":"Rye Brook","sales_office_c":"Rye Brook, NY 1","region":"Mid-Atlantic","zipcode":10573,"bg_long":-73.6879259,"bg_lat":41.0514776,"id":"a6ffwqpvpl50","address":"3 International Drive, Building 3","state":"NY"},"type":"Feature","geometry":{"type":"Polygon","coordinates":[[[-73.6947943469955,41.0596476833705],[-73.6544597146214,41.0114512158727],[-73.6575360848872,40.989916624012],[-73.663005187582,40.9868402537461],[-73.6941107091586,41.0083748456069],[-73.6947943469955,41.0596476833705]]]}},{"properties":{"zipastext":"14203","city":"Buffalo","sales_office_c":"Buffalo, NY","region":"Mid-West","zipcode":14203,"bg_long":-78.875427,"bg_lat":42.882393,"id":"a6ffwqrp4yk6","address":"295 Main Street","state":"NY"},"type":"Feature","geometry":{"type":"Polygon","coordinates":[[[-78.8675400395062,42.8627424780572],[-78.8648054881588,42.8548806429334],[-78.8545509206061,42.8336878699912],[-78.8870237178564,42.8777825104678],[-78.8685654962615,42.902051653676],[-78.8627545746483,42.902051653676],[-78.8675400395062,42.8627424780572]]]}},{"properties":{"zipastext":"01105","city":"Building 111-3 (West Entrance)","sales_office_c":"Springfield, MA 1","region":"New England","zipcode":1105,"bg_long":-72.5766759,"bg_lat":42.1014803,"id":"a6ffwqp5ded3","address":"STCC Technology Park, One Federal St","state":"MA"},"type":"Feature","geometry":{"type":"Polygon","coordinates":[[[-72.5886683269753,42.0929662737663],[-72.5992647134465,42.1015117467269],[-72.5965301620991,42.1035626602374],[-72.5917446972411,42.1076644872585],[-72.567475554033,42.1250972520982],[-72.5640573648488,42.0970681007874],[-72.5818319486068,42.0755335089267],[-72.5838828621174,42.0762171467635],[-72.5886683269753,42.0929662737663]]]}},{"properties":{"zipastext":"19428","city":"Conshohocken","sales_office_c":"Conshohocken, PA","region":"Mid-Atlantic","zipcode":19428,"bg_long":-75.2903795,"bg_lat":40.0798775,"id":"a6ffwqemm6mw","address":"555 North Lane","state":"PA"},"type":"Feature","geometry":{"type":"Polygon","coordinates":[[[-75.2801504906461,40.0929837820673],[-75.2630595447249,40.0547000632038],[-75.2640850014802,40.0536746064486],[-75.3047614527726,40.0618782604907],[-75.3396269824519,40.0588018902249],[-75.3488560932493,40.0676891821039],[-75.3249287689596,40.10323834962],[-75.3122814689779,40.1052892631306],[-75.2801504906461,40.0929837820673]]]}},{"properties":{"zipastext":"01803","city":"Burlington","sales_office_c":"Waltham, MA 1","region":"New England","zipcode":1803,"bg_long":-71.1894801,"bg_lat":42.4858852,"id":"a6ffwqnebloj","address":"5 Wall Street","state":"MA"},"type":"Feature","geometry":{"type":"Polygon","coordinates":[[[-71.2036180695212,42.4672579894406],[-71.240534512711,42.4898180380566],[-71.2323308586688,42.5062253461409],[-71.2056689830317,42.5448508839228],[-71.1697779965972,42.5154544569384],[-71.2036180695212,42.4672579894406]]]}},{"properties":{"zipastext":"45403","city":"Dayton","sales_office_c":"Dayton, OH","region":"Mid-West","zipcode":45403,"bg_long":-84.1946455,"bg_lat":39.7621361,"id":"a6ffwqo2re9e","address":"111 West First Street","state":"OH"},"type":"Feature","geometry":{"type":"Polygon","coordinates":[[[-84.123347729194,39.7573176041749],[-84.1284750129704,39.7480884933775],[-84.1770132993866,39.7580012420118],[-84.1599223534654,39.7747503690146],[-84.1424895886258,39.7798776527909],[-84.123347729194,39.7573176041749]]]}},{"properties":{"zipastext":"21090","city":"Linthicum Heights","sales_office_c":"Baltimore, MD 1","region":"Mid-Atlantic","zipcode":21090,"bg_long":-76.688113,"bg_lat":39.208538,"id":"a6ffwqbyltux","address":"1306 Concourse Drive","state":"MD"},"type":"Feature","geometry":{"type":"Polygon","coordinates":[[[-76.6939135372479,39.2189528076571],[-76.6399061481368,39.2244219103519],[-76.641615242729,39.205963688757],[-76.6539207237922,39.1902400185095],[-76.6925462615742,39.183403640141],[-76.6939135372479,39.2189528076571]]]}},{"properties":{"zipastext":"49546","city":"Grand Rapids","sales_office_c":"Grand Rapids, MI","region":"Mid-West","zipcode":49546,"bg_long":-85.543752,"bg_lat":42.916089,"id":"a6ffwqg747l2","address":"2610 Horizon Drive SE","state":"MI"},"type":"Feature","geometry":{"type":"Polygon","coordinates":[[[-85.4738742758873,42.8863279834285],[-85.608209110828,42.9129898590655],[-85.5904345270699,42.9704154373608],[-85.560696281167,42.9646045157476],[-85.4827615677664,42.9495644833369],[-85.4738742758873,42.8863279834285]]]}},{"properties":{"zipastext":"46240","city":"Indianapolis","sales_office_c":"Indianapolis, IN","region":"Mid-West","zipcode":46240,"bg_long":-86.10731,"bg_lat":39.9218509,"id":"a6ffwqhxxs4d","address":"9190 Priority Way West Drive","state":"IN"},"type":"Feature","geometry":{"type":"Polygon","coordinates":[[[-86.1578539316538,39.883106966155],[-86.1578539316538,39.9268597877132],[-86.0751337533952,39.9268597877132],[-86.098377439848,39.883106966155],[-86.1578539316538,39.883106966155]]]}},{"properties":{"zipastext":"53713","city":"Madison","sales_office_c":"Madison, WI","region":"Mid-West","zipcode":53713,"bg_long":-89.380698,"bg_lat":43.036899,"id":"a6ffwqd6ilho","address":"2424 Rimrock Road","state":"WI"},"type":"Feature","geometry":{"type":"Polygon","coordinates":[[[-89.3639914662618,43.0472662742546],[-89.3277000448317,43.0417675740379],[-89.4167789883419,43.0593634147313],[-89.3777382168035,43.0555143245796],[-89.3639914662618,43.0472662742546]]]}},{"properties":{"zipastext":"53226","city":"Milwaukee","sales_office_c":"Milwaukee, WI","region":"Mid-West","zipcode":53226,"bg_long":-88.0431165,"bg_lat":43.0446351,"id":"a6ffwqcqg8jj","address":"10101 Innovation Drive","state":"WI"},"type":"Feature","geometry":{"type":"Polygon","coordinates":[[[-88.0170070289621,43.0312592048402],[-88.066912591052,43.0309173859218],[-88.066912591052,43.036728307535],[-88.066912591052,43.0599719939879],[-88.0665707721336,43.0671501912748],[-88.0173488478805,43.0674920101932],[-88.0170070289621,43.0312592048402]]]}},{"properties":{"zipastext":"14604","city":"Rochester","sales_office_c":"Rochester, NY","region":"Mid-West","zipcode":14604,"bg_long":-77.602054,"bg_lat":43.154863,"id":"a6ffwqo1g4z4","address":"100 Chestnut St","state":"NY"},"type":"Feature","geometry":{"type":"Polygon","coordinates":[[[-77.5990500332347,43.1587576614124],[-77.6072536872768,43.1512376452071],[-77.6093046007874,43.1512376452071],[-77.61306460889,43.1604667560045],[-77.5990500332347,43.1587576614124]]]}},{"properties":{"zipastext":"13202","city":"Syracuse","sales_office_c":"Syracuse, NY","region":"Mid-West","zipcode":13202,"bg_long":-76.1523779,"bg_lat":43.048702,"id":"a6ffwqqagq7d","address":"110 W Fayette St","state":"NY"},"type":"Feature","geometry":{"type":"Polygon","coordinates":[[[-76.1538396461379,43.0316010237587],[-76.1569160164037,43.0336519372692],[-76.1517887326273,43.0538192534562],[-76.1422178029115,43.0507428831904],[-76.1432432596667,43.0346773940245],[-76.1538396461379,43.0316010237587]]]}},{"properties":{"zipastext":"11415","city":"Kew Gardens","sales_office_c":"Kew Gardens, NY","region":"Mid-Atlantic","zipcode":11415,"bg_long":-73.8307887,"bg_lat":40.713751,"id":"a6ffwqh37yh4","address":"80-02 Kew Gardens","state":"NY"},"type":"Feature","geometry":{"type":"Polygon","coordinates":[[[-73.8260528116703,40.7154360325175],[-73.818532795465,40.7055232838832],[-73.8373328359783,40.7079160163121],[-73.8414346629994,40.7089414730674],[-73.8260528116703,40.7154360325175]]]}},{"properties":{"zipastext":"03110","city":"Bedford","sales_office_c":"Bedford, NH 1","region":"New England","zipcode":3110,"bg_long":-71.4770137,"bg_lat":42.9488721,"id":"a6ffwqnyaa5c","address":"160 South River Rd.","state":"NH"},"type":"Feature","geometry":{"type":"Polygon","coordinates":[[[-71.4524622421339,42.910938945555],[-71.5700479500717,42.8962407320627],[-71.6090153067721,42.9406771914579],[-71.6008116527299,42.9728081697897],[-71.5044187177343,42.9820372805872],[-71.4753641096683,42.9663136103397],[-71.4524622421339,42.910938945555]]]}},{"properties":{"zipastext":"07071","city":"Lyndhurst","sales_office_c":"Lyndhurst, NJ 1","region":"Mid-Atlantic","zipcode":7071,"bg_long":-74.0969122,"bg_lat":40.8006908,"id":"a6ffwqohe7ha","address":"160 Chubb Avenue","state":"NJ"},"type":"Feature","geometry":{"type":"Polygon","coordinates":[[[-74.1398425787835,40.805334408063],[-74.1398425787835,40.805334408063],[-74.1299298301492,40.8200326215552],[-74.124118908536,40.8224253539842],[-74.0947224815516,40.8049925891446],[-74.0831006383251,40.7861925486312],[-74.0902788356121,40.7619234054231],[-74.1114716085543,40.7766216189154],[-74.1398425787835,40.805334408063]]]}},{"properties":{"zipastext":"17101","city":"Harrisburg","sales_office_c":"Harrisburg, PA","region":"Mid-Atlantic","zipcode":17101,"bg_long":-76.878406,"bg_lat":40.259958,"id":"a6ffwqk9m26q","address":"301 Chestnut Street","state":"PA"},"type":"Feature","geometry":{"type":"Polygon","coordinates":[[[-76.8743939261757,40.2645768791162],[-76.8808884856258,40.256373225074],[-76.8911430531785,40.2645768791162],[-76.8808884856258,40.2707296196478],[-76.8743939261757,40.2645768791162]]]}},{"properties":{"zipastext":"18706","city":"Wilkes Barre","sales_office_c":"Wilkes Barre, PA","region":"Mid-Atlantic","zipcode":18706,"bg_long":-75.9667559,"bg_lat":41.1895951,"id":"a6ffwqeqqqqs","address":"1090 Hanover Street","state":"PA"},"type":"Feature","geometry":{"type":"Polygon","coordinates":[[[-75.9255046086306,41.2401280722983],[-75.8150970979797,41.2332916939299],[-75.8496208087405,41.1891970534532],[-75.987032013947,41.1666370048372],[-75.984639281518,41.2127825588244],[-75.9255046086306,41.2401280722983]]]}},{"properties":{"zipastext":"43231","city":"Columbus","sales_office_c":"Columbus, OH 2","region":"Mid-West","zipcode":43231,"bg_long":-82.947675,"bg_lat":40.102797,"id":"a6ffwqkf2pvv","address":"2550 Corporate Exchange Drive","state":"OH"},"type":"Feature","geometry":{"type":"Polygon","coordinates":[[[-82.9242469633625,40.0581182523881],[-82.9276651525468,40.0584600713065],[-82.9529597525102,40.0594855280618],[-82.9491997444075,40.1107583658254],[-82.9194614985046,40.0813619388409],[-82.9242469633625,40.0581182523881]]]}}],"is_temporal":false,"author":{"url":"","metadata":"","contact_name":"","contact_address":"","source":"","contact_phone":""},"source":"","pagination":{"sort":null,"start":0,"total":33,"limit":1000000},"state":"complete","tags":"","published":"2014-08-10T13:05:06-04:00","id":61160}