{"type":"FeatureCollection","data_type":"Dataset","url_type":null,"permissions":[{"permissions":{"download":true,"view":true},"group_id":"everyone"}],"classification":null,"title":"Search Foreclosures Nationwide","count":19,"stream_id":61436,"contributor":{"url":"http://geocommons.com/users/15430","name":"foreclosurevault"},"data_attributes":null,"calculation_params":null,"icon_link":null,"link":"http://geocommons.com/overlays/61436.json","extent":[-122.435,32.2216,-73.0487,40.8636],"geometry_types":["point"],"unique_name":null,"name":"Search Foreclosures Nationwide","feature_count":19,"description":"Foreclosure Vault is the only resource you need to take advantage of amazing foreclosure deals.  We have the largest live database of homes for sale, short-sales, foreclosures, and rent to owns, all of which are updated daily. You will not find a better source of foreclosures or quality homes anywhere else on the web.  \n\nStart your FREE FORECLOSURES SEARCH now (No credit card required).\n\nBuy low and sell high is the cardinal rule in real estate. Foreclosures are priced low for a reason; they need to be sold quickly. By having timely, accurate information, you will be able to purchase homes for cents on the dollar. With low prices and numerous government programs that encourage home ownership, there has never been a better time to become a homeowner. \n\nFor investors, foreclosures provide greater rates of  return on investment (ROI) than traditional real estate investments. For renters, it's time to stop paying someone else's mortgage.","next_feature":null,"is_raster":false,"short_classification":"Y","stats":{"geo_score":{"max":1.0,"mean":0.888578947368421,"variance":0.0216831461988304,"stdev":0.147251981986085,"min":0.571,"median":0.967}},"features":[{"properties":{"city":"Bakersfield","name":"Bakersfield Condos Real Estate Foreclosures for Sale","zip":"93301","geo_score":0.595,"id":"a631kazurmqa","geo_precision":"street","address":"1201 24th Street, Bakersfield, CA","state":"ca"},"type":"Feature","geometry":{"type":"Point","coordinates":[-119.026944,35.368552]}},{"properties":{"city":"Charlotte","name":"Charlotte Condos Real Estate Foreclosures for Sale","zip":"28203","geo_score":0.924,"id":"a631kbb5kffq","geo_precision":"range","address":"1800 Camden Road","state":"nc"},"type":"Feature","geometry":{"type":"Point","coordinates":[-80.858829,35.212576]}},{"properties":{"city":"Fresno","name":"Fresno Condos Real Estate Foreclosures for Sale","zip":"93701","geo_score":0.695,"id":"a631kb78683t","geo_precision":"range","address":"438 E SHAW","state":"ca"},"type":"Feature","geometry":{"type":"Point","coordinates":[-119.780569,36.808538]}},{"properties":{"city":"Irvine","name":"Irvine Condos Real Estate Foreclosures for Sale","zip":"92606","geo_score":1.0,"id":"a631kaxzt5op","geo_precision":"range","address":"3972 Barranca Parkway","state":"ca"},"type":"Feature","geometry":{"type":"Point","coordinates":[-117.809123,33.684539]}},{"properties":{"city":"Las Vegas","name":"Las Vegas Condos Real Estate Foreclosures for Sale","zip":"89119","geo_score":1.0,"id":"a631kazuzis2","geo_precision":"range","address":"1350 East Flamingo Road","state":"nv"},"type":"Feature","geometry":{"type":"Point","coordinates":[-115.135907,36.114568]}},{"properties":{"city":"Long Beach","name":"Long Beach Condos Real Estate Foreclosures for Sale","zip":"90802","geo_score":1.0,"id":"a631kb6h9t0q","geo_precision":"range","address":"65 PINE AVE","state":"ca"},"type":"Feature","geometry":{"type":"Point","coordinates":[-118.192384,33.767915]}},{"properties":{"city":"Long Island","name":"Long Island Condos Real Estate Foreclosures for Sale","zip":"11784","geo_score":0.815,"id":"a631kb664uy3","geo_precision":"range","address":"1070 Middle Country Road","state":"ca"},"type":"Feature","geometry":{"type":"Point","coordinates":[-73.048743,40.863638]}},{"properties":{"city":"Norfolk","name":"Norfolk Condos Real Estate Foreclosures for Sale","zip":"23505","geo_score":0.806,"id":"a631kbbnwmeh","geo_precision":"street","address":"7870 Tidewater Drive","state":"va"},"type":"Feature","geometry":{"type":"Point","coordinates":[-76.253599,36.91786]}},{"properties":{"city":"Phoenix","name":"Phoenix Condos Real Estate Foreclosures for Sale","zip":"85004","geo_score":0.571,"id":"a631kaz9y1dg","geo_precision":"street","address":"2 North Central Avenue, , AZ 85004","state":"az"},"type":"Feature","geometry":{"type":"Point","coordinates":[-112.0738,33.448251]}},{"properties":{"city":"Raleigh","name":"Raleigh Condos Real Estate Foreclosures for Sale","zip":"27601","geo_score":0.878,"id":"a631kb0b7lp7","geo_precision":"range","address":"324 South Wilmington Street","state":"nc"},"type":"Feature","geometry":{"type":"Point","coordinates":[-78.638305,35.776581]}},{"properties":{"city":"Richmond","name":"Richmond Condos Real Estate Foreclosures for Sale","zip":"23221","geo_score":1.0,"id":"a631kb3gd4yd","geo_precision":"range","address":"3126 West Cary Street","state":"va"},"type":"Feature","geometry":{"type":"Point","coordinates":[-77.481176,37.553345]}},{"properties":{"city":"Riverside","name":"Riverside Condos Real Estate Foreclosures for Sale","zip":"92506","geo_score":1.0,"id":"a631kb96cpmm","geo_precision":"range","address":"6185 MAGNOLIA AVE","state":"ca"},"type":"Feature","geometry":{"type":"Point","coordinates":[-117.39325,33.95852]}},{"properties":{"city":"Sacramento","name":"Sacramento Condos Real Estate Foreclosures for Sale","zip":"95814","geo_score":1.0,"id":"a631kayxbeaq","geo_precision":"range","address":"915 L STREET","state":"ca"},"type":"Feature","geometry":{"type":"Point","coordinates":[-121.495614,38.578414]}},{"properties":{"city":"Salt Lake City","name":"Salt Lake City Condos Real Estate Foreclosures for Sale","zip":"84102","geo_score":1.0,"id":"a631kb9v00nb","geo_precision":"range","address":"358 South 700 East","state":"ut"},"type":"Feature","geometry":{"type":"Point","coordinates":[-111.871059,40.761488]}},{"properties":{"city":"San Francisco","name":"San Francisco Condos Real Estate Foreclosures for Sale","zip":"94114","geo_score":1.0,"id":"a631kb49q5xe","geo_precision":"range","address":"2370 Market Street","state":"ca"},"type":"Feature","geometry":{"type":"Point","coordinates":[-122.434588,37.763114]}},{"properties":{"city":"San Jose","name":"San Jose San Jose Condos Real Estate Foreclosures for Sale","zip":"95113","geo_score":0.707,"id":"a631kayo2bsk","geo_precision":"range","address":"88 S 3rd St","state":"ca"},"type":"Feature","geometry":{"type":"Point","coordinates":[-121.887238,37.335512]}},{"properties":{"city":"Santa Ana","name":"Santa Ana Condos Real Estate Foreclosures for Sale","zip":"92706","geo_score":1.0,"id":"a631kbaeeoml","geo_precision":"range","address":"1800 North Bristol Street","state":"ca"},"type":"Feature","geometry":{"type":"Point","coordinates":[-117.884986,33.761261]}},{"properties":{"city":"Tuscon","name":"Tuscon Condos Real Estate Foreclosures for Sale","zip":"85716","geo_score":0.967,"id":"a631kb2ykvd4","geo_precision":"range","address":"3849 East Broadway Boulevard","state":"az"},"type":"Feature","geometry":{"type":"Point","coordinates":[-110.91072,32.221573]}},{"properties":{"city":"Virginia Beach","name":"Virginia Beach Condos Real Estate Foreclosures for Sale","zip":"23451","geo_score":0.925,"id":"a631kax9468k","geo_precision":"range","address":"576 N BIRDNECK RD","state":"va"},"type":"Feature","geometry":{"type":"Point","coordinates":[-75.994292,36.851761]}}],"is_temporal":false,"author":{"url":"http://foreclosurevault.net/","metadata":"","contact_name":"","contact_address":"","source":"http://foreclosurevault.net/","contact_phone":""},"source":"http://foreclosurevault.net/","pagination":{"sort":null,"start":0,"total":19,"limit":1000000},"state":"complete","tags":"bank,buy,cheap,foreclosure,foreclosures,home,homes,owned,reo,sale,short","published":"2010-08-19T16:00:00Z","id":61436}