{"type":"FeatureCollection","data_type":"Dataset","url_type":null,"permissions":[{"permissions":{"download":true,"edit":true,"view":true},"group_id":13923},{"permissions":{"download":true,"view":true},"group_id":"everyone"}],"classification":null,"title":"Hotels in the DC area by # of Rooms","count":152,"stream_id":61872,"contributor":{"url":"http://geocommons.com/users/695","name":"Bill"},"data_attributes":null,"calculation_params":null,"icon_link":null,"link":"http://geocommons.com/overlays/61872.json","extent":[-77.0848,38.8593,-76.9672,38.977],"geometry_types":["point"],"unique_name":null,"name":"Hotels in the DC area by # of Rooms","feature_count":152,"description":"bbbb &amp; more","next_feature":null,"is_raster":false,"short_classification":"Y","stats":{"latitude":{"max":38.9769980950608,"mean":38.9072339396885,"variance":0.00025881150836194,"stdev":0.0160876197233133,"min":38.8593317352834,"median":38.9050899470392},"hotel number of rooms":{"max":1334,"mean":173.032894736842,"variance":48016.5353346113,"stdev":219.126756318372,"min":0,"median":132},"longitude":{"max":-76.9672014240324,"mean":-77.0332772963152,"variance":0.00049658294645275,"stdev":0.0222841411423629,"min":-77.0848196170753,"median":-77.0361302007855}},"features":[{"properties":{"name":"A CAPITOL PLACE BED &amp; BREAKFAST","zip":"20003","latitude":38.8883656108464,"web url":null,"gis sequential identifier":"Htl_9","hotel number of rooms":5,"longitude":-76.9899771792954,"id":"a6739qtqn4eh","phone number":"202-543-1020","address":"134 12TH STREET SE"},"type":"Feature","geometry":{"type":"Point","coordinates":[-76.9899771792954,38.8883656108464]}},{"properties":{"name":"ADAMS INN","zip":"20009","latitude":38.9245345430288,"web url":"http://www.adamsinn.com/","gis sequential identifier":"Htl_96","hotel number of rooms":26,"longitude":-77.0415920020218,"id":"a6739qtsy5n0","phone number":"202-745-3600","address":"1744 LANIER PLACE NW"},"type":"Feature","geometry":{"type":"Point","coordinates":[-77.0415920020218,38.9245345430288]}},{"properties":{"name":"ALLEN LEE HOTEL","zip":"20037","latitude":38.8971604453385,"web url":"http://www.allenleehotel.com/","gis sequential identifier":"Htl_33","hotel number of rooms":87,"longitude":-77.0496630942474,"id":"a6739qngmixq","phone number":"202-331-1224","address":"2224 F STREET NW"},"type":"Feature","geometry":{"type":"Point","coordinates":[-77.0496630942474,38.8971604453385]}},{"properties":{"name":"AMERICAN GUEST HOUSE","zip":"20009","latitude":38.9176566449242,"web url":"http://www.americanguesthouse.com","gis sequential identifier":"Htl_152","hotel number of rooms":0,"longitude":-77.0459777371115,"id":"a6739qtcz0wi","phone number":"703-768-0335","address":"2005 COLUMBIA ROAD NW"},"type":"Feature","geometry":{"type":"Point","coordinates":[-77.0459777371115,38.9176566449242]}},{"properties":{"name":"BEST WESTERN CAPITOL SKYLINE","zip":"20024","latitude":38.8788957273939,"web url":"http://www.bestwestern.com/","gis sequential identifier":"Htl_34","hotel number of rooms":203,"longitude":-77.010015382408,"id":"a6739qhx5kso","phone number":"202-488-7500","address":"10 I STREET SW"},"type":"Feature","geometry":{"type":"Point","coordinates":[-77.010015382408,38.8788957273939]}},{"properties":{"name":"BEST WESTERN DOWNTOWN","zip":"20001","latitude":38.8989801921526,"web url":"http://www.bestwestern.com/","gis sequential identifier":"Htl_97","hotel number of rooms":0,"longitude":-77.01548397791,"id":"a6739qq32o4r","phone number":"202-842-4466","address":"724 3RD STREET NW"},"type":"Feature","geometry":{"type":"Point","coordinates":[-77.01548397791,38.8989801921526]}},{"properties":{"name":"BEST WESTERN NEW HAMPSHIRE SUITES HOTEL","zip":"20037","latitude":38.9043029869725,"web url":"http://www.bestwesternwashingtondc.com/","gis sequential identifier":"Htl_35","hotel number of rooms":76,"longitude":-77.0479517613347,"id":"a6739qt37rgu","phone number":"202-457-0565","address":"1121 NEW HAMPSHIRE AVENUE NW"},"type":"Feature","geometry":{"type":"Point","coordinates":[-77.0479517613347,38.9043029869725]}},{"properties":{"name":"BOCA RESORTS","zip":"20006","latitude":38.902853021087,"web url":"http://www.bocaresort.com/","gis sequential identifier":"Htl_115","hotel number of rooms":0,"longitude":-77.0400047704954,"id":"a6739qjbnmjg","phone number":"202-530-4400","address":"1000 CONNECTICUT AVENUE NW"},"type":"Feature","geometry":{"type":"Point","coordinates":[-77.0400047704954,38.902853021087]}},{"properties":{"name":"BOWEN RESORT TOURIST","zip":"20020","latitude":38.8593317352834,"web url":null,"gis sequential identifier":"Htl_116","hotel number of rooms":0,"longitude":-76.9926141779372,"id":"a6739ql0l8un","phone number":"202-610-3400","address":"2606 BOWEN ROAD SE"},"type":"Feature","geometry":{"type":"Point","coordinates":[-76.9926141779372,38.8593317352834]}},{"properties":{"name":"BRAXTON HOTEL","zip":"20005","latitude":38.9079867483233,"web url":"http://www.braxtonhotel.com/","gis sequential identifier":"Htl_22","hotel number of rooms":58,"longitude":-77.0332401940083,"id":"a6739qvwrdyc","phone number":"202-232-7800","address":"1440 RHODE ISLAND AVENUE NW"},"type":"Feature","geometry":{"type":"Point","coordinates":[-77.0332401940083,38.9079867483233]}},{"properties":{"name":"BRICKSKELLER INN","zip":"20037","latitude":38.9102953030816,"web url":"http://www.thebrickskeller.com/","gis sequential identifier":"Htl_114","hotel number of rooms":41,"longitude":-77.0484777467017,"id":"a6739qqlfnw1","phone number":"202-293-1885","address":"1523 22ND STREET NW"},"type":"Feature","geometry":{"type":"Point","coordinates":[-77.0484777467017,38.9102953030816]}},{"properties":{"name":"BRIDGESTREET AMBASSADOR HOUSE","zip":"20036","latitude":38.909416657077,"web url":null,"gis sequential identifier":"Htl_25","hotel number of rooms":0,"longitude":-77.0406068499238,"id":"a6739qvqgq3p","phone number":"202-518-1030","address":"1750 P STREET NW"},"type":"Feature","geometry":{"type":"Point","coordinates":[-77.0406068499238,38.909416657077]}},{"properties":{"name":"BRIDGESTREET WESTBROOK","zip":"20037","latitude":38.9074240591022,"web url":null,"gis sequential identifier":"Htl_24","hotel number of rooms":0,"longitude":-77.0495845771096,"id":"a6739qkm42ho","phone number":"202-456-3084","address":"2201 N STREET NW"},"type":"Feature","geometry":{"type":"Point","coordinates":[-77.0495845771096,38.9074240591022]}},{"properties":{"name":"BUDGET MOTOR INN","zip":"20002","latitude":38.9166548754547,"web url":null,"gis sequential identifier":"Htl_117","hotel number of rooms":0,"longitude":-76.9804711776754,"id":"a6739qt321fy","phone number":"202-529-3900","address":"1615 NEW YORK AVENUE NE"},"type":"Feature","geometry":{"type":"Point","coordinates":[-76.9804711776754,38.9166548754547]}},{"properties":{"name":"BULL MOOSE BED AND BREAKFAST","zip":"20002","latitude":38.8910780097903,"web url":null,"gis sequential identifier":"Htl_118","hotel number of rooms":10,"longitude":-76.9992604436455,"id":"a6739qtp6lpo","phone number":"202-547-1050","address":"101 5TH STREET NE"},"type":"Feature","geometry":{"type":"Point","coordinates":[-76.9992604436455,38.8910780097903]}},{"properties":{"name":"CAPITAL HILTON","zip":"20036","latitude":38.9031218925952,"web url":"http://www.hilton.com/","gis sequential identifier":"Htl_37","hotel number of rooms":544,"longitude":-77.0359327602095,"id":"a6739qowqw9n","phone number":"202-543-6000","address":"1001 16TH STREET NW"},"type":"Feature","geometry":{"type":"Point","coordinates":[-77.0359327602095,38.9031218925952]}},{"properties":{"name":"CAPITOL HILL SUITES","zip":"20003","latitude":38.8862313749834,"web url":"http://www.capitolhillsuites.com/","gis sequential identifier":"Htl_99","hotel number of rooms":152,"longitude":-77.0030743214881,"id":"a6739qhd7yl6","phone number":"202-543-6000","address":"200 C STREET SE"},"type":"Feature","geometry":{"type":"Point","coordinates":[-77.0030743214881,38.8862313749834]}},{"properties":{"name":"CARLYLE SUITES HOTEL","zip":"20009","latitude":38.9133396382049,"web url":"http://www.carlylesuites.com/","gis sequential identifier":"Htl_100","hotel number of rooms":170,"longitude":-77.0394710379232,"id":"a6739quzysx8","phone number":"202-234-3200","address":"1731 NEW HAMPSHIRE AVENUE NW"},"type":"Feature","geometry":{"type":"Point","coordinates":[-77.0394710379232,38.9133396382049]}},{"properties":{"name":"CENTER CITY TRAVELODGE HOTEL","zip":"20005","latitude":38.9059047001585,"web url":"http://www.travelodge.com/","gis sequential identifier":"Htl_38","hotel number of rooms":0,"longitude":-77.0293494045545,"id":"a6739qw8apqo","phone number":"202-682-5300","address":"1201 13TH STREET NW"},"type":"Feature","geometry":{"type":"Point","coordinates":[-77.0293494045545,38.9059047001585]}},{"properties":{"name":"CHANNEL INN HOTEL","zip":"20024","latitude":38.8776318499733,"web url":"http://www.channelinn.com/","gis sequential identifier":"Htl_101","hotel number of rooms":100,"longitude":-77.0228277713203,"id":"a6739qqg6pv7","phone number":"202-554-2400","address":"650 WATER STREET SW"},"type":"Feature","geometry":{"type":"Point","coordinates":[-77.0228277713203,38.8776318499733]}},{"properties":{"name":"CLUB QUARTERS","zip":"20006","latitude":38.901075596676,"web url":"http://www.clubquarters.com/","gis sequential identifier":"Htl_28","hotel number of rooms":160,"longitude":-77.039164860136,"id":"a6739qthdkqc","phone number":"202-463-6400","address":"839 17TH STREET NW"},"type":"Feature","geometry":{"type":"Point","coordinates":[-77.039164860136,38.901075596676]}},{"properties":{"name":"CONFERENCE RESORTS","zip":"20018","latitude":38.9231969037925,"web url":null,"gis sequential identifier":"Htl_119","hotel number of rooms":0,"longitude":-76.9672014240324,"id":"a6739qjqnenv","phone number":"202-832-2828","address":"2535 BLADENSBURG ROAD NE"},"type":"Feature","geometry":{"type":"Point","coordinates":[-76.9672014240324,38.9231969037925]}},{"properties":{"name":"CORPORATE SUITES OF WASHINGTON","zip":"20010","latitude":38.9364279620498,"web url":null,"gis sequential identifier":"Htl_12","hotel number of rooms":0,"longitude":-77.0372628165931,"id":"a6739qrcbb1g","phone number":"202-483-0100","address":"3636 16TH STREET NW"},"type":"Feature","geometry":{"type":"Point","coordinates":[-77.0372628165931,38.9364279620498]}},{"properties":{"name":"COTTAGE ON 16TH","zip":"20012","latitude":38.9769980950608,"web url":"http:/www.cottageon16th.com/","gis sequential identifier":"Htl_13","hotel number of rooms":2,"longitude":-77.0355957503951,"id":"a6739qvbtvke","phone number":"202-623-1909","address":"7129 16TH STREET NW"},"type":"Feature","geometry":{"type":"Point","coordinates":[-77.0355957503951,38.9769980950608]}},{"properties":{"name":"COURTYARD CONVENTION CENTER","zip":"20004","latitude":38.8970659539152,"web url":"http://www.courtyard.com/","gis sequential identifier":"Htl_39","hotel number of rooms":188,"longitude":-77.0243262533853,"id":"a6739qptwa9u","phone number":"202-638-4600","address":"900 F STREET NW"},"type":"Feature","geometry":{"type":"Point","coordinates":[-77.0243262533853,38.8970659539152]}},{"properties":{"name":"COURTYARD EMBASSY ROW","zip":"20036","latitude":38.9066661745942,"web url":"http://www.courtyard.com/","gis sequential identifier":"Htl_121","hotel number of rooms":156,"longitude":-77.0369713730628,"id":"a6739qqjdcf8","phone number":"202-293-8000","address":"1600 RHODE ISLAND AVENUE NW"},"type":"Feature","geometry":{"type":"Point","coordinates":[-77.0369713730628,38.9066661745942]}},{"properties":{"name":"COURTYARD NORTHWEST","zip":"20009","latitude":38.9160288644816,"web url":"http://www.courtyard.com/","gis sequential identifier":"Htl_120","hotel number of rooms":147,"longitude":-77.0468725229134,"id":"a6739qidqodn","phone number":"202-293-8000","address":"1900 CONNECTICUT AVENUE NW"},"type":"Feature","geometry":{"type":"Point","coordinates":[-77.0468725229134,38.9160288644816]}},{"properties":{"name":"CROWNE PLAZA WASHINGTON","zip":"20005","latitude":38.9029195594423,"web url":"http://www. crowneplaza.com/","gis sequential identifier":"Htl_40","hotel number of rooms":318,"longitude":-77.0315875042708,"id":"a6739qj83cyg","phone number":"202-682-0111","address":"1001 14TH STREET NW"},"type":"Feature","geometry":{"type":"Point","coordinates":[-77.0315875042708,38.9029195594423]}},{"properties":{"name":"DAYS INN CONNECTICUT AVE","zip":"20008","latitude":38.9469492446163,"web url":"http://www.daysinn.com/","gis sequential identifier":"Htl_103","hotel number of rooms":155,"longitude":-77.0656065539737,"id":"a6739qxcobbx","phone number":"202-244-5600","address":"4400 CONNECTICUT AVENUE NW"},"type":"Feature","geometry":{"type":"Point","coordinates":[-77.0656065539737,38.9469492446163]}},{"properties":{"name":"DAYS INN GATEWAY","zip":"20002","latitude":38.9179768530971,"web url":"http://www.daysinn.com/","gis sequential identifier":"Htl_31","hotel number of rooms":193,"longitude":-76.9705995029069,"id":"a6739qtd786s","phone number":"202-832-5800","address":"2700 NEW YORK AVENUE NE"},"type":"Feature","geometry":{"type":"Point","coordinates":[-76.9705995029069,38.9179768530971]}},{"properties":{"name":"DOOLITTLE GUEST HOUSE","zip":"20003","latitude":38.890128525399,"web url":"http://www.doolittlehouse.com/","gis sequential identifier":"Htl_7","hotel number of rooms":3,"longitude":-76.9990135537638,"id":"a6739qqbk1d0","phone number":"202-546-0552","address":"506 EAST CAPITOL STREET NE"},"type":"Feature","geometry":{"type":"Point","coordinates":[-76.9990135537638,38.890128525399]}},{"properties":{"name":"DOUBLETREE GUEST SUITES","zip":"20037","latitude":38.8998474138344,"web url":"http://www.doubletree.com/","gis sequential identifier":"Htl_104","hotel number of rooms":105,"longitude":-77.0522464680098,"id":"a6739qjgmnh5","phone number":"202-785-2000","address":"801 NEW HAMPSHIRE AVENUE NW"},"type":"Feature","geometry":{"type":"Point","coordinates":[-77.0522464680098,38.8998474138344]}},{"properties":{"name":"DOUBLETREE HOTLEL WASHINGTON","zip":"20005","latitude":38.9079355445053,"web url":"http://www.doubletree.com/","gis sequential identifier":"Htl_105","hotel number of rooms":220,"longitude":-77.0355073263538,"id":"a6739qlmxuyr","phone number":"202-232-7000","address":"1515 RHODE ISLAND AVENUE NW"},"type":"Feature","geometry":{"type":"Point","coordinates":[-77.0355073263538,38.9079355445053]}},{"properties":{"name":"DOWNTOWN MOTEL","zip":"20002","latitude":38.9101692249264,"web url":"www.downtownmotel.net/","gis sequential identifier":"Htl_122","hotel number of rooms":0,"longitude":-76.9978979955087,"id":"a6739qvsp133","phone number":"202-544-2000","address":"1345 4TH STREET NE"},"type":"Feature","geometry":{"type":"Point","coordinates":[-76.9978979955087,38.9101692249264]}},{"properties":{"name":"DYNASTY INN","zip":"20018","latitude":38.9303466921037,"web url":null,"gis sequential identifier":"Htl_150","hotel number of rooms":0,"longitude":-76.9728823581368,"id":"a6739qo1kylu","phone number":"202-832-0600","address":"2365 RHODE ISLAND AVENUE NE"},"type":"Feature","geometry":{"type":"Point","coordinates":[-76.9728823581368,38.9303466921037]}},{"properties":{"name":"EMBASSY INN","zip":"20009","latitude":38.912231366901,"web url":"http://www.windsorembassyinns.com/","gis sequential identifier":"Htl_123","hotel number of rooms":38,"longitude":-77.036049999405,"id":"a6739qko21go","phone number":"202-234-7800","address":"1627 16TH STREET NW"},"type":"Feature","geometry":{"type":"Point","coordinates":[-77.036049999405,38.912231366901]}},{"properties":{"name":"EMBASSY SUITES CHEVY CHASE PAVILLION","zip":"20015","latitude":38.9603775333995,"web url":"http://www.embassysuitesdcmetro.com/chevychase/","gis sequential identifier":"Htl_107","hotel number of rooms":198,"longitude":-77.0848196170753,"id":"a6739qrrzc6v","phone number":"202-363-9300","address":"4300 MILITARY ROAD NW"},"type":"Feature","geometry":{"type":"Point","coordinates":[-77.0848196170753,38.9603775333995]}},{"properties":{"name":"EMBASSY SUITES DOWNTOWN","zip":"20037","latitude":38.906849205318,"web url":"http://www.embassysuitesdcmetro.com/downtown/","gis sequential identifier":"Htl_43","hotel number of rooms":318,"longitude":-77.0494453647005,"id":"a6739qng93bi","phone number":"202-857-3388","address":"1250 22ND STREET NW"},"type":"Feature","geometry":{"type":"Point","coordinates":[-77.0494453647005,38.906849205318]}},{"properties":{"name":"FOUR POINTS SHERATON","zip":"20005","latitude":38.9029156780458,"web url":"http://www.starwood.com/sheraton/index.html","gis sequential identifier":"Htl_41","hotel number of rooms":256,"longitude":-77.0284632344249,"id":"a6739qoe3xeb","phone number":"202-289-7600","address":"1201 K STREET NW"},"type":"Feature","geometry":{"type":"Point","coordinates":[-77.0284632344249,38.9029156780458]}},{"properties":{"name":"FOUR SEASONS HOTEL","zip":"20007","latitude":38.9046911174966,"web url":"http://www.fourseasons.com/","gis sequential identifier":"Htl_44","hotel number of rooms":196,"longitude":-77.0572436665771,"id":"a6739qss1h3y","phone number":"202-342-0444","address":"2800 PENNSYLVANIA AVENUE NW"},"type":"Feature","geometry":{"type":"Point","coordinates":[-77.0572436665771,38.9046911174966]}},{"properties":{"name":"FOUR SEASONS HOTELS &amp; RESORTS-WASHINGTON","zip":"20007","latitude":38.9031302335354,"web url":"http://www.fourseasons.com/","gis sequential identifier":"Htl_15","hotel number of rooms":0,"longitude":-77.0595985346055,"id":"a6739qs5ozw1","phone number":"202-333-7141","address":"1025 THOMAS JEFFERSON STREET NW"},"type":"Feature","geometry":{"type":"Point","coordinates":[-77.0595985346055,38.9031302335354]}},{"properties":{"name":"FOUR SEVENTEEN VICTORIAN TOWNHOUSE","zip":"20003","latitude":38.888509994409,"web url":null,"gis sequential identifier":"Htl_6","hotel number of rooms":0,"longitude":-76.9997256731968,"id":"a6739qmf11te","phone number":"202-543-5131","address":"417 A STREET SE"},"type":"Feature","geometry":{"type":"Point","coordinates":[-76.9997256731968,38.888509994409]}},{"properties":{"name":"GALLAUDET UNIVERSITY KELLOGG CONFERENCE","zip":"20002","latitude":38.9057756736263,"web url":"http://www.gukcc.com/","gis sequential identifier":"Htl_45","hotel number of rooms":93,"longitude":-76.9949297208314,"id":"a6739qua213g","phone number":"202-651-6000","address":"800 FLORIDA AVENUE NE"},"type":"Feature","geometry":{"type":"Point","coordinates":[-76.9949297208314,38.9057756736263]}},{"properties":{"name":"GALLERY INN","zip":"20009","latitude":38.9158881632707,"web url":null,"gis sequential identifier":"Htl_125","hotel number of rooms":0,"longitude":-77.0431056762691,"id":"a6739qm8lmek","phone number":"202-234-8788","address":"1850 FLORIDA AVENUE NW"},"type":"Feature","geometry":{"type":"Point","coordinates":[-77.0431056762691,38.9158881632707]}},{"properties":{"name":"GEORGE WASHINGTON UNIVERSITY INN","zip":"20037","latitude":38.9002252106119,"web url":"http://www.gwuinn.com/","gis sequential identifier":"Htl_108","hotel number of rooms":95,"longitude":-77.0526784769703,"id":"a6739qsmjgkd","phone number":"202-337-6620","address":"824 NEW HAMPSHIRE AVENUE NW"},"type":"Feature","geometry":{"type":"Point","coordinates":[-77.0526784769703,38.9002252106119]}},{"properties":{"name":"GEORGETOWN HILL INN","zip":"20007","latitude":38.9154407507284,"web url":"http://www.crshotels-georgetownhillinn.com/","gis sequential identifier":"Htl_149","hotel number of rooms":0,"longitude":-77.067800778225,"id":"a6739qhbo2mv","phone number":"202-298-6020","address":"1832 WISCONSIN AVENUE NW"},"type":"Feature","geometry":{"type":"Point","coordinates":[-77.067800778225,38.9154407507284]}},{"properties":{"name":"GEORGETOWN INN","zip":"20007","latitude":38.9072055044718,"web url":"http://www.georgetowninn.com/","gis sequential identifier":"Htl_109","hotel number of rooms":96,"longitude":-77.0635626208079,"id":"a6739qu5kfev","phone number":"202-333-8900","address":"1310 WISCONSIN AVENUE NW"},"type":"Feature","geometry":{"type":"Point","coordinates":[-77.0635626208079,38.9072055044718]}},{"properties":{"name":"GEORGETOWN SUITES","zip":"20007","latitude":38.90436137616,"web url":"http://www.georgetownsuites.com/","gis sequential identifier":"Htl_47","hotel number of rooms":0,"longitude":-77.058945759335,"id":"a6739qtc8t9f","phone number":"202-298-7800","address":"1111 30TH STREET NW"},"type":"Feature","geometry":{"type":"Point","coordinates":[-77.058945759335,38.90436137616]}},{"properties":{"name":"GEORGETOWN SUITES HARBOR BUILDING","zip":"20007","latitude":38.9029219562039,"web url":"http://www.georgetownsuites.com/","gis sequential identifier":"Htl_16","hotel number of rooms":200,"longitude":-77.0583576453937,"id":"a6739qh8nafe","phone number":"800-348-7203","address":"1000 29TH STREET NW"},"type":"Feature","geometry":{"type":"Point","coordinates":[-77.0583576453937,38.9029219562039]}},{"properties":{"name":"GEORGETOWN UNIVERSITY CONFERENCE CENTER","zip":"20057","latitude":38.9114991324731,"web url":"http://auxsrvcs.georgetown.edu/confctrinfo.html","gis sequential identifier":"Htl_110","hotel number of rooms":146,"longitude":-77.0752711824161,"id":"a6739qurxcj8","phone number":"202-687-3200","address":"3800 RESERVOIR ROAD NW"},"type":"Feature","geometry":{"type":"Point","coordinates":[-77.0752711824161,38.9114991324731]}},{"properties":{"name":"GOVERNORS HOUSE HOTEL","zip":"20036","latitude":38.9070489534432,"web url":"http://www.capitalhotelswdc.com/GovernorsHouseWDC_com/","gis sequential identifier":"Htl_48","hotel number of rooms":199,"longitude":-77.0380496794064,"id":"a6739qrdmesj","phone number":"202-296-2100","address":"1615 RHODE ISLAND AVENUE NW"},"type":"Feature","geometry":{"type":"Point","coordinates":[-77.0380496794064,38.9070489534432]}},{"properties":{"name":"GRAND HYATT WASHINGTON","zip":"20001","latitude":38.8993402753192,"web url":"http://grandwashington.hyatt.com/","gis sequential identifier":"Htl_49","hotel number of rooms":888,"longitude":-77.0264877382422,"id":"a6739qkz1tgp","phone number":"202-582-1234","address":"1000 H STREET NW"},"type":"Feature","geometry":{"type":"Point","coordinates":[-77.0264877382422,38.8993402753192]}},{"properties":{"name":"HAMPTON INN","zip":"20001","latitude":38.901779737598,"web url":"http://hamptoninn.hilton.com/","gis sequential identifier":"Htl_126","hotel number of rooms":228,"longitude":-77.019649949247,"id":"a6739qmtls9e","phone number":"202-842-2500","address":"901 6TH STREET NW"},"type":"Feature","geometry":{"type":"Point","coordinates":[-77.019649949247,38.901779737598]}},{"properties":{"name":"HAY-ADAMS HOTEL","zip":"20006","latitude":38.9005252747975,"web url":"http://www.hayadams.com/","gis sequential identifier":"Htl_50","hotel number of rooms":145,"longitude":-77.0369567773311,"id":"a6739qtu5z6r","phone number":"202-638-6600","address":"800 16TH STREET NW"},"type":"Feature","geometry":{"type":"Point","coordinates":[-77.0369567773311,38.9005252747975]}},{"properties":{"name":"HENLEY PARK HOTEL","zip":"20001","latitude":38.9031469306373,"web url":"http://www.henleypark.com/","gis sequential identifier":"Htl_111","hotel number of rooms":96,"longitude":-77.0257081975127,"id":"a6739qtnh1dl","phone number":"202-638-5200","address":"926 MASSACHUSETTS AVENUE NW"},"type":"Feature","geometry":{"type":"Point","coordinates":[-77.0257081975127,38.9031469306373]}},{"properties":{"name":"HEREFORD HOUSE","zip":"20003","latitude":38.88362896964,"web url":null,"gis sequential identifier":"Htl_10","hotel number of rooms":0,"longitude":-76.9981791939629,"id":"a6739qoiqx66","phone number":"202-543-0102","address":"604 SOUTH CAROLINA AVENUE SE"},"type":"Feature","geometry":{"type":"Point","coordinates":[-76.9981791939629,38.88362896964]}},{"properties":{"name":"HILTON - WASHINGTON DC","zip":"20009","latitude":38.9164639810704,"web url":"http://www.hilton.com/","gis sequential identifier":"Htl_143","hotel number of rooms":1118,"longitude":-77.0452368110909,"id":"a6739qli1bre","phone number":"202-483-3000","address":"1919 CONNECTICUT AVENUE NW"},"type":"Feature","geometry":{"type":"Point","coordinates":[-77.0452368110909,38.9164639810704]}},{"properties":{"name":"HILTON GARDEN INN","zip":"20005","latitude":38.9005863032703,"web url":"http://www.hiltongardeninn.com/","gis sequential identifier":"Htl_113","hotel number of rooms":300,"longitude":-77.031594310315,"id":"a6739qjdyqq5","phone number":"202-783-7800","address":"815 14TH STREET NW"},"type":"Feature","geometry":{"type":"Point","coordinates":[-77.031594310315,38.9005863032703]}},{"properties":{"name":"HILTON WASHINGTON EMBASSY ROW","zip":"20036","latitude":38.910816941638,"web url":"http://www.hilton.com/","gis sequential identifier":"Htl_112","hotel number of rooms":193,"longitude":-77.0456563783673,"id":"a6739qlz36t1","phone number":"202-265-1600","address":"2015 MASSACHUSETTS AVENUE NW"},"type":"Feature","geometry":{"type":"Point","coordinates":[-77.0456563783673,38.910816941638]}},{"properties":{"name":"HOLIDAY INN - DOWNTOWN","zip":"20005","latitude":38.9050899470392,"web url":"http://holidayinnwashingtondc.com/hotels/wassm.html","gis sequential identifier":"Htl_36","hotel number of rooms":0,"longitude":-77.0315681743352,"id":"a6739qx6u9ln","phone number":"202-737-1200","address":"1155 14TH STREET NW"},"type":"Feature","geometry":{"type":"Point","coordinates":[-77.0315681743352,38.9050899470392]}},{"properties":{"name":"HOLIDAY INN CAPITOL AT SMITHSONIAN","zip":"20024","latitude":38.8856330513261,"web url":"http://holidayinnwashingtondc.com/hotels/wassm.html","gis sequential identifier":"Htl_51","hotel number of rooms":529,"longitude":-77.0196264846685,"id":"a6739qidvwi9","phone number":"202-479-4000","address":"550 C STREET SW"},"type":"Feature","geometry":{"type":"Point","coordinates":[-77.0196264846685,38.8856330513261]}},{"properties":{"name":"HOLIDAY INN CENTRAL","zip":"20005","latitude":38.9081156930713,"web url":"http://holidayinnwashingtondc.com/hotels/wasct.html","gis sequential identifier":"Htl_52","hotel number of rooms":212,"longitude":-77.0349708328529,"id":"a6739qs91ykt","phone number":"202-483-2000","address":"1501 RHODE ISLAND AVENUE NW"},"type":"Feature","geometry":{"type":"Point","coordinates":[-77.0349708328529,38.9081156930713]}},{"properties":{"name":"HOLIDAY INN GEORGETOWN","zip":"20007","latitude":38.9174605729359,"web url":"http://holidayinnwashingtondc.com/hotels/wasgt.html","gis sequential identifier":"Htl_53","hotel number of rooms":296,"longitude":-77.0683956470252,"id":"a6739qqxwbbl","phone number":"202-338-4600","address":"2101 WISCONSIN AVENUE NW"},"type":"Feature","geometry":{"type":"Point","coordinates":[-77.0683956470252,38.9174605729359]}},{"properties":{"name":"HOLIDAY INN ON THE HILL","zip":"20001","latitude":38.8953896497989,"web url":"http://holidayinnwashingtondc.com/hotels/wasch.html","gis sequential identifier":"Htl_54","hotel number of rooms":343,"longitude":-77.0106837539387,"id":"a6739qidu8ba","phone number":"202-638-1616","address":"415 NEW JERSEY AVENUE NW"},"type":"Feature","geometry":{"type":"Point","coordinates":[-77.0106837539387,38.8953896497989]}},{"properties":{"name":"HOMEWOOD SUITES - THOMAS CIRCLE","zip":"20005","latitude":38.9066741971747,"web url":"http://www.homewood-suites.com/","gis sequential identifier":"Htl_26","hotel number of rooms":175,"longitude":-77.0335786430771,"id":"a6739qh60xs0","phone number":"202-265-8000","address":"1475 MASSACHUSETTS AVENUE NW"},"type":"Feature","geometry":{"type":"Point","coordinates":[-77.0335786430771,38.9066741971747]}},{"properties":{"name":"HOSTELLING INTERNATIONAL","zip":"20001","latitude":38.9029102262217,"web url":"http://www.hiayh.org/","gis sequential identifier":"Htl_20","hotel number of rooms":38,"longitude":-77.0267553760092,"id":"a6739qu2zx6s","phone number":"202-737-2333","address":"1009 11TH STREET NW"},"type":"Feature","geometry":{"type":"Point","coordinates":[-77.0267553760092,38.9029102262217]}},{"properties":{"name":"HOTEL GEORGE","zip":"20001","latitude":38.8963955922618,"web url":"http://www.hotelgeorge.com/","gis sequential identifier":"Htl_55","hotel number of rooms":139,"longitude":-77.0099075200272,"id":"a6739qw337ej","phone number":"202-347-4200","address":"15 E STREET NW"},"type":"Feature","geometry":{"type":"Point","coordinates":[-77.0099075200272,38.8963955922618]}},{"properties":{"name":"HOTEL HARRINGTON","zip":"20004","latitude":38.8959639337752,"web url":"http://www.hotel-harrington.com/","gis sequential identifier":"Htl_56","hotel number of rooms":260,"longitude":-77.0273017123298,"id":"a6739qj3exka","phone number":"202-628-8140","address":"436 11TH STREET NW"},"type":"Feature","geometry":{"type":"Point","coordinates":[-77.0273017123298,38.8959639337752]}},{"properties":{"name":"HOTEL HELIX","zip":"20005","latitude":38.9080805017876,"web url":"http://www.hotelhelix.com/","gis sequential identifier":"Htl_127","hotel number of rooms":178,"longitude":-77.0330050359081,"id":"a6739qqliy3v","phone number":"202-462-9001","address":"1430 RHODE ISLAND AVENUE NW"},"type":"Feature","geometry":{"type":"Point","coordinates":[-77.0330050359081,38.9080805017876]}},{"properties":{"name":"HOTEL LOMBARDY","zip":"20006","latitude":38.9015239358102,"web url":"http://www.hotellombardy.com/hl/Default.htm","gis sequential identifier":"Htl_57","hotel number of rooms":132,"longitude":-77.0459437113063,"id":"a6739qr9qzjx","phone number":"202-828-2600","address":"2019 PENNSYLVANIA AVENUE NW"},"type":"Feature","geometry":{"type":"Point","coordinates":[-77.0459437113063,38.9015239358102]}},{"properties":{"name":"HOTEL MADERA","zip":"20036","latitude":38.9075945775522,"web url":"http://www.hotelmadera.com","gis sequential identifier":"Htl_102","hotel number of rooms":82,"longitude":-77.0456950407067,"id":"a6739qiyy8th","phone number":"202-296-7600","address":"1310 NEW HAMPSHIRE AVENUE NW"},"type":"Feature","geometry":{"type":"Point","coordinates":[-77.0456950407067,38.9075945775522]}},{"properties":{"name":"HOTEL MONACO","zip":"20436","latitude":38.8969884947295,"web url":"http://www.monaco-dc.com/","gis sequential identifier":"Htl_23","hotel number of rooms":184,"longitude":-77.0224633495922,"id":"a6739qkecg1s","phone number":"202-628-7177","address":"700 F STREET NW"},"type":"Feature","geometry":{"type":"Point","coordinates":[-77.0224633495922,38.8969884947295]}},{"properties":{"name":"HOTEL PALOMAR WASHINGTON DC","zip":"20037","latitude":38.9098132530868,"web url":"http://www.radisson.com/washingtondc","gis sequential identifier":"Htl_74","hotel number of rooms":301,"longitude":-77.0474131050218,"id":"a6739qoq2ytw","phone number":"202-293-3100","address":"2121 P STREET NW"},"type":"Feature","geometry":{"type":"Point","coordinates":[-77.0474131050218,38.9098132530868]}},{"properties":{"name":"HOTEL ROUGE","zip":"20036","latitude":38.9082660499326,"web url":"http://www.rougehotel.com/","gis sequential identifier":"Htl_73","hotel number of rooms":137,"longitude":-77.0361302007855,"id":"a6739qrc91bg","phone number":"202-232-8000","address":"1315 16TH STREET NW"},"type":"Feature","geometry":{"type":"Point","coordinates":[-77.0361302007855,38.9082660499326]}},{"properties":{"name":"HOTEL SOFITEL","zip":"20005","latitude":38.900505637205,"web url":"http://www.sofitel.com/","gis sequential identifier":"Htl_129","hotel number of rooms":237,"longitude":-77.0339878903874,"id":"a6739qlr7sg0","phone number":"202-737-8800","address":"806 15TH STREET NW"},"type":"Feature","geometry":{"type":"Point","coordinates":[-77.0339878903874,38.900505637205]}},{"properties":{"name":"HOTEL WASHINGTON","zip":"20004","latitude":38.896954983694,"web url":"http://www.hotelwashington.com/","gis sequential identifier":"Htl_58","hotel number of rooms":341,"longitude":-77.0333907929413,"id":"a6739qht5hz1","phone number":"202-638-5900","address":"515 15TH STREET NW"},"type":"Feature","geometry":{"type":"Point","coordinates":[-77.0333907929413,38.896954983694]}},{"properties":{"name":"HOWARD JOHNSON EXPRESS INN","zip":"20002","latitude":38.9123244966935,"web url":"http://www.hojo.com/","gis sequential identifier":"Htl_29","hotel number of rooms":49,"longitude":-76.9956064230378,"id":"a6739qt9ml00","phone number":"800-406-1411","address":"600 NEW YORK AVENUE NE"},"type":"Feature","geometry":{"type":"Point","coordinates":[-76.9956064230378,38.9123244966935]}},{"properties":{"name":"HYATT REGENCY WASHINGTON","zip":"20001","latitude":38.8953676617696,"web url":"http://washingtonregency.hyatt.com/","gis sequential identifier":"Htl_59","hotel number of rooms":834,"longitude":-77.0117033530989,"id":"a6739qvo3h3m","phone number":"202-737-1234","address":"400 NEW JERSEY AVENUE NW"},"type":"Feature","geometry":{"type":"Point","coordinates":[-77.0117033530989,38.8953676617696]}},{"properties":{"name":"INDEPENDENCE HOUSE BED &amp; BREAKFAST","zip":"20003","latitude":38.8877887811906,"web url":null,"gis sequential identifier":"Htl_8","hotel number of rooms":1,"longitude":-76.9991845199522,"id":"a6739qssdc8e","phone number":"202-544-6011","address":"504 INDEPENDENCE AVENUE SE"},"type":"Feature","geometry":{"type":"Point","coordinates":[-76.9991845199522,38.8877887811906]}},{"properties":{"name":"INN AT DUPONT CIRCLE","zip":"20036","latitude":38.9077420629109,"web url":"www.bbonline.com/dc/innatdupontcircle/","gis sequential identifier":"Htl_3","hotel number of rooms":6,"longitude":-77.0436942890985,"id":"a6739qvc4k3u","phone number":"202-467-6777","address":"1312 19TH STREET NW"},"type":"Feature","geometry":{"type":"Point","coordinates":[-77.0436942890985,38.9077420629109]}},{"properties":{"name":"INTERNATIONAL GUEST HOUSE","zip":"20011","latitude":38.9564224247758,"web url":null,"gis sequential identifier":"Htl_14","hotel number of rooms":12,"longitude":-77.0353884175338,"id":"a6739qif7xz3","phone number":"202-726-5808","address":"1441 KENNEDY STREET NW"},"type":"Feature","geometry":{"type":"Point","coordinates":[-77.0353884175338,38.9564224247758]}},{"properties":{"name":"JEFFERSON HOTEL","zip":"20036","latitude":38.9059379445969,"web url":"http://www.thejeffersonwashingtondc.com/","gis sequential identifier":"Htl_130","hotel number of rooms":132,"longitude":-77.0369557771207,"id":"a6739qvc1aq2","phone number":"202-347-2200","address":"1200 16TH STREET NW"},"type":"Feature","geometry":{"type":"Point","coordinates":[-77.0369557771207,38.9059379445969]}},{"properties":{"name":"JURYS NORMANDY INN","zip":"20008","latitude":38.9172899432873,"web url":"http://www.jurysdoyle.com/frusa_index.htm","gis sequential identifier":"Htl_67","hotel number of rooms":75,"longitude":-77.0475356917677,"id":"a6739qwghbj7","phone number":"202-483-1350","address":"2118 WYOMING AVENUE NW"},"type":"Feature","geometry":{"type":"Point","coordinates":[-77.0475356917677,38.9172899432873]}},{"properties":{"name":"JURYS WASHINGTON HOTEL","zip":"20036","latitude":38.9104698329756,"web url":"http://www.jurysdoyle.com/frusa_index.htm","gis sequential identifier":"Htl_42","hotel number of rooms":314,"longitude":-77.0430926012206,"id":"a6739qqkmmgt","phone number":"202-332-9300","address":"1500 NEW HAMPSHIRE AVENUE NW"},"type":"Feature","geometry":{"type":"Point","coordinates":[-77.0430926012206,38.9104698329756]}},{"properties":{"name":"JW MARRIOTT","zip":"20004","latitude":38.8963673872331,"web url":"http://www.marriott.com/","gis sequential identifier":"Htl_60","hotel number of rooms":772,"longitude":-77.0313718034527,"id":"a6739qus8g0d","phone number":"202-393-2000","address":"1331 PENNSYLVANIA AVENUE NW"},"type":"Feature","geometry":{"type":"Point","coordinates":[-77.0313718034527,38.8963673872331]}},{"properties":{"name":"KALORaMA GUEST HOUSE","zip":"20009","latitude":38.9211864603455,"web url":"http://www.virtualcities.com/","gis sequential identifier":"Htl_131","hotel number of rooms":19,"longitude":-77.0451252920037,"id":"a6739qx13tuv","phone number":"202-667-6369","address":"1854 MINTWOOD PLACE NW"},"type":"Feature","geometry":{"type":"Point","coordinates":[-77.0451252920037,38.9211864603455]}},{"properties":{"name":"KIMPTON HOTEL","zip":"20004","latitude":38.8951556790378,"web url":"http://www.kimptonhotels.com/","gis sequential identifier":"Htl_132","hotel number of rooms":0,"longitude":-77.0274048038824,"id":"a6739qquop29","phone number":"202-756-3604","address":"1101 PENNSYLVANIA AVENUE NW"},"type":"Feature","geometry":{"type":"Point","coordinates":[-77.0274048038824,38.8951556790378]}},{"properties":{"name":"KIRK'S MOTEL","zip":"20018","latitude":38.9300895203573,"web url":null,"gis sequential identifier":"Htl_151","hotel number of rooms":0,"longitude":-76.9734353968555,"id":"a6739qokd9hf","phone number":"202-832-1829","address":"2385 RHODE ISLAND AVENUE NE"},"type":"Feature","geometry":{"type":"Point","coordinates":[-76.9734353968555,38.9300895203573]}},{"properties":{"name":"LATHAM HOTEL","zip":"20007","latitude":38.9050495762623,"web url":"http://www.thelatham.com/","gis sequential identifier":"Htl_61","hotel number of rooms":143,"longitude":-77.0595536763733,"id":"a6739ql19l1s","phone number":"202-726-5000","address":"3000 M STREET NW"},"type":"Feature","geometry":{"type":"Point","coordinates":[-77.0595536763733,38.9050495762623]}},{"properties":{"name":"LINCOLN SUITES DOWNTOWN","zip":"20036","latitude":38.9037956582543,"web url":"http://www.lincolnhotels.com/","gis sequential identifier":"Htl_62","hotel number of rooms":99,"longitude":-77.013150913373,"id":"a6739quu6ceh","phone number":"202-223-4320","address":"1823 L STREET NW"},"type":"Feature","geometry":{"type":"Point","coordinates":[-77.013150913373,38.9037956582543]}},{"properties":{"name":"LOEWS L'ENFANT PLAZA HOTEL","zip":"20024","latitude":38.8838985121001,"web url":"http://www.loewshotels.com/hotels/washington_lenfant/default.asp","gis sequential identifier":"Htl_63","hotel number of rooms":370,"longitude":-77.0239717436463,"id":"a6739qr6ry14","phone number":"202-484-1000","address":"470 LENFANT PLAZA SW"},"type":"Feature","geometry":{"type":"Point","coordinates":[-77.0239717436463,38.8838985121001]}},{"properties":{"name":"M STREET HOTEL","zip":"20037","latitude":38.9047317636904,"web url":"http://www.wyndham.com/","gis sequential identifier":"Htl_94","hotel number of rooms":352,"longitude":-77.0475620248933,"id":"a6739qqbmes6","phone number":"202-775-0800","address":"1143 NEW HAMPSHIRE AVENUE NW"},"type":"Feature","geometry":{"type":"Point","coordinates":[-77.0475620248933,38.9047317636904]}},{"properties":{"name":"MADISON HOTEL","zip":"20005","latitude":38.9053689564718,"web url":"www.themadisondc.com","gis sequential identifier":"Htl_139","hotel number of rooms":353,"longitude":-77.0340599585469,"id":"a6739qkunflq","phone number":"202-785-1255","address":"1177 15TH STREET NW"},"type":"Feature","geometry":{"type":"Point","coordinates":[-77.0340599585469,38.9053689564718]}},{"properties":{"name":"MAISON ORLEANS BED &amp; BREAKFAST","zip":"20003","latitude":38.8837723049123,"web url":null,"gis sequential identifier":"Htl_11","hotel number of rooms":3,"longitude":-76.9992644380636,"id":"a6739qpugd6f","phone number":"202-544-3694","address":"414 5TH STREET SE"},"type":"Feature","geometry":{"type":"Point","coordinates":[-76.9992644380636,38.8837723049123]}},{"properties":{"name":"MANDARIN ORIENTAL","zip":"20024","latitude":38.8836017731937,"web url":"http://www.mandarinoriental.com/washington/","gis sequential identifier":"Htl_128","hotel number of rooms":400,"longitude":-77.0304488725956,"id":"a6739qrbclmg","phone number":"202-554-8588","address":"1330 MARYLAND AVENUE SW"},"type":"Feature","geometry":{"type":"Point","coordinates":[-77.0304488725956,38.8836017731937]}},{"properties":{"name":"MARRIOTT AT METRO CENTER","zip":"20005","latitude":38.8993605128784,"web url":"http://www.marriotthotels.com/","gis sequential identifier":"Htl_64","hotel number of rooms":453,"longitude":-77.0277856934101,"id":"a6739qupet36","phone number":"202-737-2200","address":"775 12TH STREET NW"},"type":"Feature","geometry":{"type":"Point","coordinates":[-77.0277856934101,38.8993605128784]}},{"properties":{"name":"MARRIOTT WARDMAN PARK HOTEL","zip":"20008","latitude":38.9249569645514,"web url":"http://marriotthotels.com/WASDT/\nhttp://marriotthotels.com/WASDT/\nhttp://marriotthotels.com/WASDT/","gis sequential identifier":"Htl_146","hotel number of rooms":1334,"longitude":-77.0532991907232,"id":"a6739qr1eclp","phone number":"202-234-0015","address":"2600 WOODLEY ROAD NW"},"type":"Feature","geometry":{"type":"Point","coordinates":[-77.0532991907232,38.9249569645514]}},{"properties":{"name":"MELROSE HOTEL","zip":"20037","latitude":38.9030119461731,"web url":"http://www.melrosehotel.com/","gis sequential identifier":"Htl_140","hotel number of rooms":239,"longitude":-77.052677998668,"id":"a6739qoaschr","phone number":"202-955-6400","address":"2430 PENNSYLVANIA AVENUE NW"},"type":"Feature","geometry":{"type":"Point","coordinates":[-77.052677998668,38.9030119461731]}},{"properties":{"name":"MILLENNIUM HOTELS &amp; RESORTS","zip":"20037","latitude":38.9050046325555,"web url":null,"gis sequential identifier":"Htl_4","hotel number of rooms":0,"longitude":-77.0505515621175,"id":"a6739qpksrl3","phone number":"202-973-8111","address":"2300 M STREET NW"},"type":"Feature","geometry":{"type":"Point","coordinates":[-77.0505515621175,38.9050046325555]}},{"properties":{"name":"MONTICELLO HOTEL","zip":"20007","latitude":38.9047885064999,"web url":"http://www.monticellohotel.com/home.htm","gis sequential identifier":"Htl_46","hotel number of rooms":47,"longitude":-77.0599211172329,"id":"a6739qkj60pb","phone number":"202-337-0900","address":"1075 THOMAS JEFFERSON STREET NW"},"type":"Feature","geometry":{"type":"Point","coordinates":[-77.0599211172329,38.9047885064999]}},{"properties":{"name":"MORRISON-CLARK INN","zip":"20001","latitude":38.9043976931674,"web url":"http://www.hotellombardy.com/mci/index.htm","gis sequential identifier":"Htl_66","hotel number of rooms":54,"longitude":-77.0267216931009,"id":"a6739qo3kgyr","phone number":"202-898-1200","address":"1015 L STREET NW"},"type":"Feature","geometry":{"type":"Point","coordinates":[-77.0267216931009,38.9043976931674]}},{"properties":{"name":"MOTEL 6 WASHINGTON DC","zip":"20012","latitude":38.9720656444211,"web url":"http://www.motel6.com","gis sequential identifier":"Htl_32","hotel number of rooms":73,"longitude":-77.0267911493124,"id":"a6739qvxdmch","phone number":"202-722-1600","address":"6711 GEORGIA AVENUE NW"},"type":"Feature","geometry":{"type":"Point","coordinates":[-77.0267911493124,38.9720656444211]}},{"properties":{"name":"OMNI SHOREHAM","zip":"20008","latitude":38.9226255340674,"web url":"http://www.omnihotels.com/","gis sequential identifier":"Htl_68","hotel number of rooms":836,"longitude":-77.0536643917295,"id":"a6739qkpkkja","phone number":"202-234-0700","address":"2500 CALVERT STREET NW"},"type":"Feature","geometry":{"type":"Point","coordinates":[-77.0536643917295,38.9226255340674]}},{"properties":{"name":"ONE WASHINGTON CIRCLE","zip":"20037","latitude":38.9033711419651,"web url":"http://www.thecirclehotel.com/","gis sequential identifier":"Htl_69","hotel number of rooms":151,"longitude":-77.0497257537531,"id":"a6739qtvmkhh","phone number":"202-872-1680","address":"1 WASHINGTON CIRCLE NW"},"type":"Feature","geometry":{"type":"Point","coordinates":[-77.0497257537531,38.9033711419651]}},{"properties":{"name":"PARK HYATT WASHINGTON","zip":"20037","latitude":38.9058956954169,"web url":"http://parkwashington.hyatt.com/","gis sequential identifier":"Htl_70","hotel number of rooms":223,"longitude":-77.0510652406887,"id":"a6739qo248hn","phone number":"202-789-1234","address":"1201 24TH STREET NW"},"type":"Feature","geometry":{"type":"Point","coordinates":[-77.0510652406887,38.9058956954169]}},{"properties":{"name":"PHOENIX PARK HOTEL","zip":"20001","latitude":38.8970845875531,"web url":"http://www.phoenixparkhotel.com/","gis sequential identifier":"Htl_71","hotel number of rooms":150,"longitude":-77.0094780928032,"id":"a6739qtrjeb2","phone number":"202-638-6900","address":"520 NORTH CAPITOL STREET NW"},"type":"Feature","geometry":{"type":"Point","coordinates":[-77.0094780928032,38.8970845875531]}},{"properties":{"name":"PREMIER HOTEL","zip":"20037","latitude":38.9002832506655,"web url":"http://www.hojo.com/","gis sequential identifier":"Htl_72","hotel number of rooms":192,"longitude":-77.0553494979032,"id":"a6739qjgdpz4","phone number":"202-965-2700","address":"2601 VIRGINIA AVENUE NW"},"type":"Feature","geometry":{"type":"Point","coordinates":[-77.0553494979032,38.9002832506655]}},{"properties":{"name":"RAMADA LIMITED","zip":"20002","latitude":38.9174248230036,"web url":"http://www.ramada.com/","gis sequential identifier":"Htl_75","hotel number of rooms":0,"longitude":-76.9799715588063,"id":"a6739qwevj7n","phone number":"202-832-3200","address":"1600 NEW YORK AVENUE NE"},"type":"Feature","geometry":{"type":"Point","coordinates":[-76.9799715588063,38.9174248230036]}},{"properties":{"name":"RED ROOF INN DOWNTOWN DC","zip":"20001","latitude":38.8996560837833,"web url":"http://www.redroof.com/","gis sequential identifier":"Htl_76","hotel number of rooms":197,"longitude":-77.0192507212694,"id":"a6739qtiy1h1","phone number":"202-289-5959","address":"500 H STREET NW"},"type":"Feature","geometry":{"type":"Point","coordinates":[-77.0192507212694,38.8996560837833]}},{"properties":{"name":"REMINGTON EXECUTIVE SUITES","zip":"20037","latitude":38.8980719964054,"web url":"www.remington-dc.com/","gis sequential identifier":"Htl_5","hotel number of rooms":0,"longitude":-77.0511368770224,"id":"a6739qw2pub4","phone number":"202-223-4512","address":"601 24TH STREET NW"},"type":"Feature","geometry":{"type":"Point","coordinates":[-77.0511368770224,38.8980719964054]}},{"properties":{"name":"RENAISSANCE MAYFLOWER HOTEL","zip":"20036","latitude":38.9044419173435,"web url":"http://www.renaissancehotels.com/","gis sequential identifier":"Htl_77","hotel number of rooms":660,"longitude":-77.039466575459,"id":"a6739qsumdih","phone number":"202-347-3000","address":"1127 CONNECTICUT AVENUE NW"},"type":"Feature","geometry":{"type":"Point","coordinates":[-77.039466575459,38.9044419173435]}},{"properties":{"name":"RENAISSANCE WASHINGTON DC","zip":"20001","latitude":38.9016735509542,"web url":"http://www.renaissancehotels.com/","gis sequential identifier":"Htl_78","hotel number of rooms":807,"longitude":-77.0234392107045,"id":"a6739qqq9dfz","phone number":"202-898-9000","address":"999 9TH STREET NW"},"type":"Feature","geometry":{"type":"Point","coordinates":[-77.0234392107045,38.9016735509542]}},{"properties":{"name":"RESIDENCE AT POTOMAC PLACE","zip":"20024","latitude":38.8810406001205,"web url":"http://www.potomacplacecondo.com/","gis sequential identifier":"Htl_141","hotel number of rooms":0,"longitude":-77.0165676045103,"id":"a6739ql6s0m1","phone number":"202-484-1270","address":"350 G STREET SW"},"type":"Feature","geometry":{"type":"Point","coordinates":[-77.0165676045103,38.8810406001205]}},{"properties":{"name":"RESIDENCE INN - DUPONT CIRCLE","zip":"20037","latitude":38.9094098965222,"web url":"http://www.residenceinn.com/","gis sequential identifier":"Htl_27","hotel number of rooms":107,"longitude":-77.047321636844,"id":"a6739quokr1h","phone number":"202-466-6800","address":"2120 P STREET NW"},"type":"Feature","geometry":{"type":"Point","coordinates":[-77.047321636844,38.9094098965222]}},{"properties":{"name":"RESIDENCE INN - THOMAS CIRCLE","zip":"20005","latitude":38.9043234063845,"web url":"http://www.residenceinn.com/","gis sequential identifier":"Htl_79","hotel number of rooms":202,"longitude":-77.0323006114855,"id":"a6739qivg9ag","phone number":"202-898-1100","address":"1199 VERMONT AVENUE NW"},"type":"Feature","geometry":{"type":"Point","coordinates":[-77.0323006114855,38.9043234063845]}},{"properties":{"name":"RESIDENCE INN CAPITOL","zip":"20024","latitude":38.8836136641808,"web url":"http://marriott.com/property/propertypage/WASCP","gis sequential identifier":"Htl_133","hotel number of rooms":223,"longitude":-77.0159303782832,"id":"a6739qkugu9i","phone number":"202-484-8280","address":"333 E STREET SW"},"type":"Feature","geometry":{"type":"Point","coordinates":[-77.0159303782832,38.8836136641808]}},{"properties":{"name":"RITZ CARLTON","zip":"20037","latitude":38.9049809552438,"web url":"http://www.ritz-carlton.com/","gis sequential identifier":"Htl_134","hotel number of rooms":0,"longitude":-77.0492284764954,"id":"a6739qkzi2st","phone number":"202-835-0500","address":"2200 M STREET NW"},"type":"Feature","geometry":{"type":"Point","coordinates":[-77.0492284764954,38.9049809552438]}},{"properties":{"name":"RITZ CARLTON GEORGETOWN","zip":"20007","latitude":38.9032387670824,"web url":"http://www.ritzcarlton.com/hotels/georgetown/","gis sequential identifier":"Htl_145","hotel number of rooms":86,"longitude":-77.0613716269514,"id":"a6739qqgi15i","phone number":"202-912-4100","address":"3100 SOUTH STREET NW"},"type":"Feature","geometry":{"type":"Point","coordinates":[-77.0613716269514,38.9032387670824]}},{"properties":{"name":"RITZ-CARLTON","zip":"20037","latitude":38.9045184393605,"web url":"http://www.ritz-carlton.com/","gis sequential identifier":"Htl_21","hotel number of rooms":300,"longitude":-77.0491021469929,"id":"a6739qtxjf7o","phone number":"202-835-0500","address":"1150 22ND STREET NW"},"type":"Feature","geometry":{"type":"Point","coordinates":[-77.0491021469929,38.9045184393605]}},{"properties":{"name":"RIVER INN","zip":"20037","latitude":38.9014235724481,"web url":"http://www.theriverinn.com/","gis sequential identifier":"Htl_80","hotel number of rooms":126,"longitude":-77.0537118476725,"id":"a6739qs8llml","phone number":"202-337-7600","address":"924 25TH STREET NW"},"type":"Feature","geometry":{"type":"Point","coordinates":[-77.0537118476725,38.9014235724481]}},{"properties":{"name":"SAINT GREGORY","zip":"20036","latitude":38.9059048948566,"web url":"http://www.capitalhotelswdc.com/StGregoryHotelWDC_com/","gis sequential identifier":"Htl_18","hotel number of rooms":154,"longitude":-77.0462819187163,"id":"a6739qv05g5d","phone number":"202-530-3600","address":"2033 M STREET NW"},"type":"Feature","geometry":{"type":"Point","coordinates":[-77.0462819187163,38.9059048948566]}},{"properties":{"name":"SAMARITAN INN","zip":"20009","latitude":38.9232671307832,"web url":"http://www.samaritaninns.org/home.html","gis sequential identifier":"Htl_135","hotel number of rooms":0,"longitude":-77.0316289220795,"id":"a6739qkgzeet","phone number":"202-667-8831","address":"2523 14TH STREET NW"},"type":"Feature","geometry":{"type":"Point","coordinates":[-77.0316289220795,38.9232671307832]}},{"properties":{"name":"SAMARITAN INN","zip":"20009","latitude":38.9248260782322,"web url":"http://www.samaritaninns.org/home.html","gis sequential identifier":"Htl_136","hotel number of rooms":0,"longitude":-77.0380801593825,"id":"a6739qnqd2f6","phone number":"202-745-9698","address":"2600 MOTZART PLACE NW"},"type":"Feature","geometry":{"type":"Point","coordinates":[-77.0380801593825,38.9248260782322]}},{"properties":{"name":"SAVOY SUITES GEORGETOWN","zip":"20007","latitude":38.9233072276726,"web url":"http://www.savoysuites.com/","gis sequential identifier":"Htl_81","hotel number of rooms":150,"longitude":-77.0727546864336,"id":"a6739qwzb3ze","phone number":"202-337-9700","address":"2505 WISCONSIN AVENUE NW"},"type":"Feature","geometry":{"type":"Point","coordinates":[-77.0727546864336,38.9233072276726]}},{"properties":{"name":"ST REGIS","zip":"20006","latitude":38.9021042583718,"web url":"http://www.stregis.com/","gis sequential identifier":"Htl_82","hotel number of rooms":193,"longitude":-77.0360964139118,"id":"a6739qjl5dnr","phone number":"202-638-2626","address":"923 16TH STREET NW"},"type":"Feature","geometry":{"type":"Point","coordinates":[-77.0360964139118,38.9021042583718]}},{"properties":{"name":"STARWOOD HOTEL","zip":"20005","latitude":38.9029968216232,"web url":null,"gis sequential identifier":"Htl_137","hotel number of rooms":0,"longitude":-77.0342498560756,"id":"a6739qtkpevn","phone number":"202-638-0281","address":"1015 15TH STREET NW"},"type":"Feature","geometry":{"type":"Point","coordinates":[-77.0342498560756,38.9029968216232]}},{"properties":{"name":"STATE PLAZA HOTEL","zip":"20037","latitude":38.8963817606434,"web url":"http://www.hotellombardy.com/sp/index.htm","gis sequential identifier":"Htl_83","hotel number of rooms":225,"longitude":-77.0475008947723,"id":"a6739qj0k1cc","phone number":"202-861-8200","address":"2117 E STREET NW"},"type":"Feature","geometry":{"type":"Point","coordinates":[-77.0475008947723,38.8963817606434]}},{"properties":{"name":"SUMMERFIELD SUITES","zip":"20036","latitude":38.9068508651413,"web url":"http://www.embassysuites.com/","gis sequential identifier":"Htl_106","hotel number of rooms":0,"longitude":-77.045354077868,"id":"a6739qv2gti4","phone number":"202-659-9000","address":"2000 N STREET NW"},"type":"Feature","geometry":{"type":"Point","coordinates":[-77.045354077868,38.9068508651413]}},{"properties":{"name":"SWANN HOUSE LLC","zip":"20009","latitude":38.9145583502058,"web url":"http://www.swannhouse.com/","gis sequential identifier":"Htl_84","hotel number of rooms":12,"longitude":-77.039280420626,"id":"a6739qiy7o3u","phone number":"202-265-4414","address":"1808 NEW HAMPSHIRE AVENUE NW"},"type":"Feature","geometry":{"type":"Point","coordinates":[-77.039280420626,38.9145583502058]}},{"properties":{"name":"SWISS INN","zip":"20005","latitude":38.9041242473242,"web url":"http://www.theswissinn.com/","gis sequential identifier":"Htl_138","hotel number of rooms":8,"longitude":-77.0284278619298,"id":"a6739qulbqrm","phone number":"202-371-1816","address":"1204 MASSACHUSETTS AVENUE NW"},"type":"Feature","geometry":{"type":"Point","coordinates":[-77.0284278619298,38.9041242473242]}},{"properties":{"name":"TABARD INN","zip":"20036","latitude":38.9074544014006,"web url":"http://www.tabardinn.com/","gis sequential identifier":"Htl_19","hotel number of rooms":40,"longitude":-77.0399909852596,"id":"a6739qun555z","phone number":"202-785-1277","address":"1739 N STREET NW"},"type":"Feature","geometry":{"type":"Point","coordinates":[-77.0399909852596,38.9074544014006]}},{"properties":{"name":"THE CHURCHILL HOTEL","zip":"20009","latitude":38.916374118568,"web url":"http://www.thechurchillhotel.com/","gis sequential identifier":"Htl_17","hotel number of rooms":145,"longitude":-77.0469604995267,"id":"a6739qjkzrvj","phone number":"202-797-2000","address":"1914 CONNECTICUT AVENUE NW"},"type":"Feature","geometry":{"type":"Point","coordinates":[-77.0469604995267,38.916374118568]}},{"properties":{"name":"THE DUPONT AT THE CIRCLE","zip":"20009","latitude":38.9113576402744,"web url":"http://www.dupontatthecircle.com/","gis sequential identifier":"Htl_2","hotel number of rooms":8,"longitude":-77.043725213863,"id":"a6739qk3ilyx","phone number":"202-332-5251","address":"1604 19TH STREET NW"},"type":"Feature","geometry":{"type":"Point","coordinates":[-77.043725213863,38.9113576402744]}},{"properties":{"name":"THE FAIRMONT","zip":"20037","latitude":38.9055494627555,"web url":"http://www.fairmont.com/washington/","gis sequential identifier":"Htl_124","hotel number of rooms":415,"longitude":-77.0517741472393,"id":"a6739qm37ago","phone number":"800-257-7544","address":"2401 M STREET NW"},"type":"Feature","geometry":{"type":"Point","coordinates":[-77.0517741472393,38.9055494627555]}},{"properties":{"name":"THE MANSION ON O STREET","zip":"20036","latitude":38.9083626226434,"web url":null,"gis sequential identifier":"Htl_153","hotel number of rooms":23,"longitude":-77.0458740836758,"id":"a6739qo9atuu","phone number":"202-496-2020","address":"2020 O STREET NW"},"type":"Feature","geometry":{"type":"Point","coordinates":[-77.0458740836758,38.9083626226434]}},{"properties":{"name":"THE WATERGATE HOTEL","zip":"20037","latitude":38.8993348070962,"web url":"http://www.watergatehotel.com/","gis sequential identifier":"Htl_147","hotel number of rooms":250,"longitude":-77.0558193385308,"id":"a6739qr5xkhp","phone number":"800-289-1555","address":"2650 VIRGINIA AVENUE NW"},"type":"Feature","geometry":{"type":"Point","coordinates":[-77.0558193385308,38.8993348070962]}},{"properties":{"name":"TOPAZ HOTEL","zip":"20036","latitude":38.9074190047055,"web url":"http://topazhotel.com/","gis sequential identifier":"Htl_98","hotel number of rooms":99,"longitude":-77.0397089564603,"id":"a6739qkb9jqq","phone number":"202-393-3000","address":"1733 N STREET NW"},"type":"Feature","geometry":{"type":"Point","coordinates":[-77.0397089564603,38.9074190047055]}},{"properties":{"name":"TRAVEL LODGE GATEWAY","zip":"20002","latitude":38.91648568908,"web url":"http://www.travelodge.com/","gis sequential identifier":"Htl_142","hotel number of rooms":150,"longitude":-76.9727679189776,"id":"a6739qv2ycj1","phone number":"202-832-8600","address":"1917 BLADENSBURG ROAD NE"},"type":"Feature","geometry":{"type":"Point","coordinates":[-76.9727679189776,38.91648568908]}},{"properties":{"name":"WALTER REED INN","zip":"20012","latitude":38.9733669504813,"web url":"http://www.wramc.amedd.army.mil/welcome/housing.htm","gis sequential identifier":"Htl_85","hotel number of rooms":0,"longitude":-77.026498751774,"id":"a6739qvzm678","phone number":"202-782-7096","address":"6825 GEORGIA AVENUE NW"},"type":"Feature","geometry":{"type":"Point","coordinates":[-77.026498751774,38.9733669504813]}},{"properties":{"name":"WASHINGTON COURT HOTEL","zip":"20001","latitude":38.8968092393399,"web url":"http://www.washingtoncourthotel.com/","gis sequential identifier":"Htl_86","hotel number of rooms":264,"longitude":-77.0110985018157,"id":"a6739qkqkrd4","phone number":"202-628-2100","address":"525 NEW JERSEY AVENUE NW"},"type":"Feature","geometry":{"type":"Point","coordinates":[-77.0110985018157,38.8968092393399]}},{"properties":{"name":"WASHINGTON MARRIOTT","zip":"20037","latitude":38.9060748877,"web url":"http://www.marriott.com/","gis sequential identifier":"Htl_87","hotel number of rooms":417,"longitude":-77.0484899815552,"id":"a6739qv5u31d","phone number":"202-872-1500","address":"1221 22ND STREET NW"},"type":"Feature","geometry":{"type":"Point","coordinates":[-77.0484899815552,38.9060748877]}},{"properties":{"name":"WASHINGTON PLAZA","zip":"20005","latitude":38.9062520030576,"web url":"http://www.hotellombardy.com/wp/index.htm","gis sequential identifier":"Htl_88","hotel number of rooms":340,"longitude":-77.0309738969999,"id":"a6739qpgi6b2","phone number":"202-842-1300","address":"10 THOMAS CIRCLE NW"},"type":"Feature","geometry":{"type":"Point","coordinates":[-77.0309738969999,38.9062520030576]}},{"properties":{"name":"WASHINGTON SUITES GEORGETOWN","zip":"20037","latitude":38.9034336261695,"web url":"http://WashingtonSuitesHotel.com\nhttp://WashingtonSuitesHotel.com","gis sequential identifier":"Htl_144","hotel number of rooms":124,"longitude":-77.0536700131291,"id":"a6739quvbvu5","phone number":"202-338-8060","address":"2500 PENNSYLVANIA AVENUE NW"},"type":"Feature","geometry":{"type":"Point","coordinates":[-77.0536700131291,38.9034336261695]}},{"properties":{"name":"WASHINGTON SUPER 8 MOTEL","zip":"20002","latitude":38.9109499559736,"web url":"http://www.super8.com","gis sequential identifier":"Htl_30","hotel number of rooms":78,"longitude":-76.9969122759876,"id":"a6739qolwqhm","phone number":"800-800-8000","address":"501 NEW YORK AVENUE NE"},"type":"Feature","geometry":{"type":"Point","coordinates":[-76.9969122759876,38.9109499559736]}},{"properties":{"name":"WESTIN EMBASSY ROW","zip":"20008","latitude":38.9104894871077,"web url":"http://www.westin.com/","gis sequential identifier":"Htl_89","hotel number of rooms":206,"longitude":-77.0470224606905,"id":"a6739ql03dax","phone number":"202-293-2100","address":"2100 MASSACHUSETTS AVENUE NW"},"type":"Feature","geometry":{"type":"Point","coordinates":[-77.0470224606905,38.9104894871077]}},{"properties":{"name":"WESTIN GRAND","zip":"20037","latitude":38.9049716959814,"web url":"http://www.westin.com/","gis sequential identifier":"Htl_90","hotel number of rooms":263,"longitude":-77.0510946698777,"id":"a6739qvdkyvz","phone number":"202-429-0100","address":"2350 M STREET NW"},"type":"Feature","geometry":{"type":"Point","coordinates":[-77.0510946698777,38.9049716959814]}},{"properties":{"name":"WILLARD INTER-CONTINENTAL","zip":"20004","latitude":38.8964922480691,"web url":"http://hotels.washington.interconti.com/","gis sequential identifier":"Htl_91","hotel number of rooms":341,"longitude":-77.0323447900544,"id":"a6739qh5iab0","phone number":"202-628-9100","address":"1401 PENNSYLVANIA AVENUE NW"},"type":"Feature","geometry":{"type":"Point","coordinates":[-77.0323447900544,38.8964922480691]}},{"properties":{"name":"WILLIAM LEWIS HOUSE BED &amp; BREAKFAST","zip":"20009","latitude":38.9127933662321,"web url":null,"gis sequential identifier":"Htl_1","hotel number of rooms":0,"longitude":-77.0301139283531,"id":"a6739qqi47t5","phone number":"202-462-7574","address":"1309 R STREET NW"},"type":"Feature","geometry":{"type":"Point","coordinates":[-77.0301139283531,38.9127933662321]}},{"properties":{"name":"WINDSOR INN","zip":"20009","latitude":38.915286624805,"web url":"http://www.windsorembassyinns.com/","gis sequential identifier":"Htl_148","hotel number of rooms":36,"longitude":-77.0369458621146,"id":"a6739qvpb04x","phone number":"202-667-0300","address":"1842 16TH STREET NW"},"type":"Feature","geometry":{"type":"Point","coordinates":[-77.0369458621146,38.915286624805]}},{"properties":{"name":"WINDSOR PARK HOTEL","zip":"20008","latitude":38.9181513537083,"web url":"http://www.windsorparkhotel.com/","gis sequential identifier":"Htl_92","hotel number of rooms":43,"longitude":-77.0485489296504,"id":"a6739qqg34pr","phone number":"202-483-7700","address":"2116 KALORAMA ROAD NW"},"type":"Feature","geometry":{"type":"Point","coordinates":[-77.0485489296504,38.9181513537083]}},{"properties":{"name":"WOODLEY PARK GUEST HOUSE","zip":"20008","latitude":38.9258684968615,"web url":"http://www.woodleyparkguesthouse.com/","gis sequential identifier":"Htl_93","hotel number of rooms":17,"longitude":-77.0537349886239,"id":"a6739qjwfnc2","phone number":"202-667-0218","address":"2647 WOODLEY ROAD NW"},"type":"Feature","geometry":{"type":"Point","coordinates":[-77.0537349886239,38.9258684968615]}},{"properties":{"name":"WYNDHAM WASHINGTON DC","zip":"20005","latitude":38.9053158072448,"web url":"http://www.wyndham.com/","gis sequential identifier":"Htl_95","hotel number of rooms":400,"longitude":-77.033436096123,"id":"a6739qojf3ra","phone number":"202-429-1700","address":"1400 M STREET NW"},"type":"Feature","geometry":{"type":"Point","coordinates":[-77.033436096123,38.9053158072448]}}],"is_temporal":false,"author":{"url":"","metadata":"","contact_name":"","contact_address":"","source":"","contact_phone":""},"source":"","pagination":{"sort":null,"start":0,"total":152,"limit":1000000},"state":"complete","tags":"dc,hotels","published":"2014-08-10T13:54:08-04:00","id":61872}