{"type":"FeatureCollection","data_type":"Dataset","url_type":null,"permissions":[{"permissions":{"download":true,"view":true},"group_id":"everyone"}],"classification":null,"title":"Rec Center","count":11,"stream_id":61904,"contributor":{"url":"http://geocommons.com/users/9129","name":"abotello"},"data_attributes":null,"calculation_params":null,"icon_link":null,"link":"http://geocommons.com/overlays/61904.json","extent":[-99.5185,27.4437,-99.4592,27.55],"geometry_types":["point"],"unique_name":null,"name":"Rec Center","feature_count":11,"description":"","next_feature":null,"is_raster":false,"short_classification":"Y","stats":{"PARK_ID":{"max":59,"mean":34.3636363636364,"variance":151.254545454545,"stdev":12.2985586738668,"min":11,"median":32},"OBJECTID":{"max":11,"mean":6.0,"variance":11.0,"stdev":3.3166247903554,"min":1,"median":6}},"features":[{"properties":{"Name":"N. E. Hillside Recreation Center","Phone":"956-795-3045","URL":"HTTP:\\\\WWW.CITYOFLAREDO.COM\\MAPS\\IMAGES\\GIS_IMAGES\\HILLSIDE.JPG","PARK_ID":59,"Supervisor":"Veronica Lopez","OBJECTID":1,"id":"a649vu2ulxfr","Address":"320 Wyoming"},"type":"Feature","geometry":{"type":"Point","coordinates":[-99.4821717510625,27.5499979250351]}},{"properties":{"Name":"Lamar Bruni Vergara Inner City Tech Rec","Phone":"956-794-1760","URL":"HTTP:\\\\WWW.CITYOFLAREDO.COM\\MAPS\\IMAGES\\GIS_IMAGES\\INNER_CITY.JPG","PARK_ID":40,"Supervisor":null,"OBJECTID":2,"id":"a649vtvna3jr","Address":"202 W. Plum"},"type":"Feature","geometry":{"type":"Point","coordinates":[-99.4976432525986,27.5245775187087]}},{"properties":{"Name":"K. Tarver Recreation Center","Phone":"956-795-3055","URL":"HTTP:\\\\WWW.CITYOFLAREDO.COM\\MAPS\\IMAGES\\GIS_IMAGES\\TARVER.JPG","PARK_ID":44,"Supervisor":"Maria Harrison","OBJECTID":3,"id":"a649vu1wup5w","Address":"2902 Tilden"},"type":"Feature","geometry":{"type":"Point","coordinates":[-99.488011427153,27.5225768158901]}},{"properties":{"Name":"Cigarroa Recreation Center","Phone":"956-795-3050","URL":"HTTP:\\\\WWW.CITYOFLAREDO.COM\\MAPS\\IMAGES\\GIS_IMAGES\\CIGARROA.JPG","PARK_ID":32,"Supervisor":"Herlinda Rodriguez","OBJECTID":4,"id":"a649vtxrb57y","Address":"2201 Zacatecas"},"type":"Feature","geometry":{"type":"Point","coordinates":[-99.4730943761376,27.4746445925135]}},{"properties":{"Name":"East Hachar Recreation Center","Phone":"956-795-2359","URL":"HTTP:\\\\WWW.CITYOFLAREDO.COM\\MAPS\\IMAGES\\GIS_IMAGES\\EAST_HACHAR.JPG","PARK_ID":25,"Supervisor":"Marina Garcia","OBJECTID":5,"id":"a649vtv3mc7r","Address":"1102 N. Smith"},"type":"Feature","geometry":{"type":"Point","coordinates":[-99.4642891841443,27.5059650030385]}},{"properties":{"Name":"Farias Recreation Center","Phone":"956-795-3040","URL":"HTTP:\\\\WWW.CITYOFLAREDO.COM\\MAPS\\IMAGES\\GIS_IMAGES\\FARIAS.JPG","PARK_ID":30,"Supervisor":"Juan Munoz","OBJECTID":6,"id":"a649vu7tmqmm","Address":"4418 Old Santa Maria Rd"},"type":"Feature","geometry":{"type":"Point","coordinates":[-99.5109110701371,27.5397934047001]}},{"properties":{"Name":"La Ladrillera Senior Activity Center","Phone":"956-727-8239","URL":"HTTP:\\\\WWW.CITYOFLAREDO.COM\\MAPS\\IMAGES\\GIS_IMAGES\\LADRILLERA.JPG","PARK_ID":43,"Supervisor":"Gerardo Rodriguez","OBJECTID":7,"id":"a649vtuavbmr","Address":"1900 Pinder"},"type":"Feature","geometry":{"type":"Point","coordinates":[-99.5185195876728,27.5178686758237]}},{"properties":{"Name":"El Eden Recreation Center","Phone":"956-794-1769","URL":null,"PARK_ID":29,"Supervisor":"Jesus Mendoza","OBJECTID":8,"id":"a649vu33cbux","Address":"4735 Loma Vista"},"type":"Feature","geometry":{"type":"Point","coordinates":[-99.4692466333757,27.4436585712203]}},{"properties":{"Name":"LILIA PEREZ SENIOR CENTER","Phone":"724-7050","URL":null,"PARK_ID":30,"Supervisor":null,"OBJECTID":9,"id":"a649vtzetwop","Address":"4420 OLD SANTA MARIA RD"},"type":"Feature","geometry":{"type":"Point","coordinates":[-99.5108679974725,27.5400206269969]}},{"properties":{"Name":"Canizalez Boxing Gym","Phone":"795-2370","URL":null,"PARK_ID":11,"Supervisor":null,"OBJECTID":10,"id":"a649vu270uys","Address":"1610 Guadalupe St"},"type":"Feature","geometry":{"type":"Point","coordinates":[-99.4797771257821,27.5067780541595]}},{"properties":{"Name":"Haynes Recreation Center","Phone":null,"URL":null,"PARK_ID":35,"Supervisor":null,"OBJECTID":11,"id":"a649vu8ao46m","Address":null},"type":"Feature","geometry":{"type":"Point","coordinates":[-99.4591916600784,27.5145458251495]}}],"is_temporal":false,"author":{"url":"","metadata":"","contact_name":"","contact_address":"","source":"","contact_phone":""},"source":"","pagination":{"sort":null,"start":0,"total":11,"limit":1000000},"state":"complete","tags":"","published":"2014-08-10T13:55:31-04:00","id":61904}