{"type":"FeatureCollection","data_type":"Dataset","url_type":null,"permissions":[{"permissions":{"download":true,"view":true},"group_id":"everyone"}],"classification":null,"title":"Kentucky State Police Sex Offender Registry - Louisville Query","count":101,"stream_id":62672,"contributor":{"url":"http://geocommons.com/users/6","name":"seagor"},"data_attributes":null,"calculation_params":null,"icon_link":null,"link":"http://geocommons.com/overlays/62672.json","extent":[-85.79,38.2347,-85.7407,38.2653],"geometry_types":["point"],"unique_name":null,"name":"Kentucky State Police Sex Offender Registry - Louisville Query","feature_count":101,"description":"This website is provided as a result of recent changes in KRS Chapter 17, Kentucky's version of &quot;Megan's Law&quot;. The Kentucky State Police is now providing sex/criminal offender registration information to the public through this website. The intent of this site is public safety and awareness. This database is made available to alert possible victims of potential danger, not to punish or embarrass offenders.\n\nConvicted sex/criminal offenders have always lived in our communities, only in recent years have laws been passed which have required these offenders to register with authorities. Unfortunately, many convicted offenders do re-offend. There is an overriding public interest and need to ensure the safety of the public by providing registered offender information. It is important to note that not all criminal offenses require registration with the state police, only those covered by the statute. ","next_feature":null,"is_raster":false,"short_classification":"Y","stats":{"latitude":{"max":38.265301,"mean":38.253160980198,"variance":3.84966117396072e-05,"stdev":0.0062045637831847,"min":38.234741,"median":38.256001},"category":{"max":2,"mean":1.14851485148515,"variance":0.147722772277227,"stdev":0.384347202770135,"min":0,"median":1},"id":{"max":40460,"mean":12270.5841584158,"variance":161032094.365347,"stdev":12689.8421725941,"min":0,"median":5920},"longitude":{"max":-85.740654,"mean":-85.773345990099,"variance":0.000204907252409901,"stdev":0.0143145818105141,"min":-85.789978,"median":-85.781113},"distance":{"max":1.45681,"mean":0.922634257425742,"variance":0.096550222866693,"stdev":0.310725317389319,"min":0.0,"median":0.94733}},"features":[{"properties":{"permalink":"http://www.yourmapper.com/map/110/sex-offenders/all-registered-sex-offenders-in-the-state-of-kentu.htm","detaillink":"http://www.yourmapper.com/","imagepath":null,"city":null,"name":"Center of Your Search","latitude":38.254845,"zip":null,"address2":null,"category":0,"date":null,"url":null,"id":"a62aa49xlfd6","description":"&lt;strong&gt;Sex Offenders&lt;/strong&gt;&lt;br&gt;All registered sex offenders in the state of Kentucky&lt;br&gt;&lt;em&gt;Center&lt;/em&gt;: Frankfort  KY&lt;br&gt;&lt;em&gt;Coverage Area&lt;/em&gt;: Kentucky&lt;br&gt;&lt;em&gt;Update Frequency&lt;/em&gt;: Weekly&lt;br&gt;&lt;em&gt;Last Updated&lt;/em&gt;: 2010-08-02 19:21:19&lt;br&gt;&lt;a href=\"http://www.yourmapper.com/map/110/sex-offenders/all-registered-sex-offenders-in-the-state-of-kentu.htm\"&gt;Map Permalink&lt;/a&gt;&lt;br&gt;&lt;em&gt;Powered by&lt;/em&gt;: &lt;a href=\"http://www.yourmapper.com/\" target=\"power\"&gt;Your Mapper&lt;/a&gt;","longitude":-85.766373,"address":null,"distance":0.0,"state":null,"location":null},"type":"Feature","geometry":{"type":"Point","coordinates":[-85.766373,38.254845]}},{"properties":{"permalink":"http://www.yourmapper.com/details/110/10271/darrell-lee-booker.htm","detaillink":"http://kspsor.state.ky.us/sor/servlet/SOR?id=10271","imagepath":"http://kspsor.state.ky.us/sor/photos/thumbs/10271.jpg","city":"louisville","name":"DARRELL LEE BOOKER","latitude":38.261589,"zip":"40203","address2":null,"category":1,"date":null,"url":null,"id":"a62aa4lbsv3g","description":"Date of Birth:&lt;br&gt; 1959-03-06","longitude":-85.780693,"address":"223 n 19th st","distance":0.91124,"state":"KY","location":null},"type":"Feature","geometry":{"type":"Point","coordinates":[-85.780693,38.261589]}},{"properties":{"permalink":"http://www.yourmapper.com/details/110/10654/william-s-jr-moore.htm","detaillink":"http://kspsor.state.ky.us/sor/servlet/SOR?id=10654","imagepath":"http://kspsor.state.ky.us/sor/photos/thumbs/10654.jpg","city":"louisville","name":"WILLIAM S JR MOORE","latitude":38.256706,"zip":"40203","address2":null,"category":1,"date":null,"url":null,"id":"a62aa4l3vnnv","description":"Date of Birth:&lt;br&gt; 1980-02-07","longitude":-85.783569,"address":"1934 w jefferson st","distance":0.94733,"state":"KY","location":null},"type":"Feature","geometry":{"type":"Point","coordinates":[-85.783569,38.256706]}},{"properties":{"permalink":"http://www.yourmapper.com/details/110/10659/eric-mandrell-lawrence.htm","detaillink":"http://kspsor.state.ky.us/sor/servlet/SOR?id=10659","imagepath":"http://kspsor.state.ky.us/sor/photos/thumbs/10659.jpg","city":"louisville","name":"ERIC MANDRELL LAWRENCE","latitude":38.247288,"zip":"40210","address2":null,"category":1,"date":null,"url":null,"id":"a62aa4dsnpta","description":"Date of Birth:&lt;br&gt; 1982-12-15","longitude":-85.777161,"address":"1517 anderson st","distance":0.78897,"state":"KY","location":null},"type":"Feature","geometry":{"type":"Point","coordinates":[-85.777161,38.247288]}},{"properties":{"permalink":"http://www.yourmapper.com/details/110/1114/james-f-bates.htm","detaillink":"http://kspsor.state.ky.us/sor/servlet/SOR?id=1114","imagepath":"http://kspsor.state.ky.us/sor/photos/thumbs/1114.jpg","city":"louisville","name":"JAMES F BATES","latitude":38.239731,"zip":"40203","address2":null,"category":1,"date":null,"url":null,"id":"a62aa4kiz2za","description":"Date of Birth:&lt;br&gt; 1950-01-22","longitude":-85.755974,"address":"963 s 2nd st 10","distance":1.19393,"state":"KY","location":null},"type":"Feature","geometry":{"type":"Point","coordinates":[-85.755974,38.239731]}},{"properties":{"permalink":"http://www.yourmapper.com/details/110/11311/daniel-lee-phillips.htm","detaillink":"http://kspsor.state.ky.us/sor/servlet/SOR?id=11311","imagepath":"http://kspsor.state.ky.us/sor/photos/thumbs/11311.jpg","city":"louisville","name":"DANIEL LEE PHILLIPS","latitude":38.256706,"zip":"40203","address2":null,"category":1,"date":null,"url":null,"id":"a62aa4j3d861","description":"Date of Birth:&lt;br&gt; 1987-12-10","longitude":-85.783569,"address":"1934 w jefferson st","distance":0.94733,"state":"KY","location":null},"type":"Feature","geometry":{"type":"Point","coordinates":[-85.783569,38.256706]}},{"properties":{"permalink":"http://www.yourmapper.com/details/110/1282/rodney-eugene-johnson.htm","detaillink":"http://kspsor.state.ky.us/sor/servlet/SOR?id=1282","imagepath":"http://kspsor.state.ky.us/sor/photos/thumbs/1282.jpg","city":"louisville","name":"RODNEY EUGENE JOHNSON","latitude":38.24995,"zip":"40203","address2":null,"category":1,"date":null,"url":null,"id":"a62aa4gdx2um","description":"Date of Birth:&lt;br&gt; 1963-01-20","longitude":-85.785286,"address":"655 s 20th st","distance":1.08679,"state":"KY","location":null},"type":"Feature","geometry":{"type":"Point","coordinates":[-85.785286,38.24995]}},{"properties":{"permalink":"http://www.yourmapper.com/details/110/1320/todd-lawrence-hazelip.htm","detaillink":"http://kspsor.state.ky.us/sor/servlet/SOR?id=1320","imagepath":"http://kspsor.state.ky.us/sor/photos/thumbs/1320.jpg","city":"louisville","name":"TODD LAWRENCE HAZELIP","latitude":38.256001,"zip":"40203","address2":null,"category":1,"date":null,"url":null,"id":"a62aa4fw5ptj","description":"Date of Birth:&lt;br&gt; 1971-05-20","longitude":-85.767487,"address":"1020 w market st","distance":0.10071,"state":"KY","location":null},"type":"Feature","geometry":{"type":"Point","coordinates":[-85.767487,38.256001]}},{"properties":{"permalink":"http://www.yourmapper.com/details/110/13371/alexander-joseph-luft.htm","detaillink":"http://kspsor.state.ky.us/sor/servlet/SOR?id=13371","imagepath":"http://kspsor.state.ky.us/sor/photos/thumbs/13371.jpg","city":"louisville","name":"ALEXANDER JOSEPH LUFT","latitude":38.250092,"zip":"40211","address2":null,"category":1,"date":null,"url":null,"id":"a62aa4c4j63q","description":"Date of Birth:&lt;br&gt; 1956-02-21","longitude":-85.789421,"address":"659 s 23rd st","distance":1.30052,"state":"KY","location":null},"type":"Feature","geometry":{"type":"Point","coordinates":[-85.789421,38.250092]}},{"properties":{"permalink":"http://www.yourmapper.com/details/110/1466/roy-antonio-peden.htm","detaillink":"http://kspsor.state.ky.us/sor/servlet/SOR?id=1466","imagepath":"http://kspsor.state.ky.us/sor/photos/thumbs/1466.jpg","city":"louisville","name":"ROY ANTONIO PEDEN","latitude":38.254002,"zip":"40202","address2":null,"category":2,"date":null,"url":null,"id":"a62aa4e8on7a","description":"Date of Birth:&lt;br&gt; 1962-06-04","longitude":-85.75,"address":"0 metro dept of corr","distance":0.89546,"state":"KY","location":null},"type":"Feature","geometry":{"type":"Point","coordinates":[-85.75,38.254002]}},{"properties":{"permalink":"http://www.yourmapper.com/details/110/1586/cara-michelle-spencer.htm","detaillink":"http://kspsor.state.ky.us/sor/servlet/SOR?id=1586","imagepath":"http://kspsor.state.ky.us/sor/photos/thumbs/1586.jpg","city":"louisville","name":"CARA MICHELLE SPENCER","latitude":38.256523,"zip":"40203","address2":null,"category":1,"date":null,"url":null,"id":"a62aa4gzy7vj","description":"Date of Birth:&lt;br&gt; 1968-09-24","longitude":-85.782295,"address":"1922 west jefferson st apt 2","distance":0.87672,"state":"KY","location":null},"type":"Feature","geometry":{"type":"Point","coordinates":[-85.782295,38.256523]}},{"properties":{"permalink":"http://www.yourmapper.com/details/110/1629/pleaz-lee-wagers.htm","detaillink":"http://kspsor.state.ky.us/sor/servlet/SOR?id=1629","imagepath":"http://kspsor.state.ky.us/sor/photos/thumbs/1629.jpg","city":"louisville","name":"PLEAZ LEE WAGERS","latitude":38.256706,"zip":"40203","address2":null,"category":1,"date":null,"url":null,"id":"a62aa4hrw76o","description":"Date of Birth:&lt;br&gt; 1967-05-18","longitude":-85.783569,"address":"1934 w jefferson st","distance":0.94733,"state":"KY","location":null},"type":"Feature","geometry":{"type":"Point","coordinates":[-85.783569,38.256706]}},{"properties":{"permalink":"http://www.yourmapper.com/details/110/16292/robert-lee-woolsey.htm","detaillink":"http://kspsor.state.ky.us/sor/servlet/SOR?id=16292","imagepath":"http://kspsor.state.ky.us/sor/photos/thumbs/16292.jpg","city":"louisville","name":"ROBERT LEE WOOLSEY","latitude":38.252701,"zip":"40212","address2":null,"category":2,"date":null,"url":null,"id":"a62aa4p1nc3q","description":"Date of Birth:&lt;br&gt; 1957-03-29","longitude":-85.750298,"address":"0metro corrections","distance":0.88988,"state":"KY","location":null},"type":"Feature","geometry":{"type":"Point","coordinates":[-85.750298,38.252701]}},{"properties":{"permalink":"http://www.yourmapper.com/details/110/1642/james-bradley-deaver.htm","detaillink":"http://kspsor.state.ky.us/sor/servlet/SOR?id=1642","imagepath":"http://kspsor.state.ky.us/sor/photos/thumbs/1642.jpg","city":"louisville","name":"JAMES BRADLEY DEAVER","latitude":38.256542,"zip":"40202","address2":null,"category":1,"date":null,"url":null,"id":"a62aa4mk1jqi","description":"Date of Birth:&lt;br&gt; 1968-05-17","longitude":-85.782494,"address":"1936 w jefferson st","distance":0.88762,"state":"KY","location":null},"type":"Feature","geometry":{"type":"Point","coordinates":[-85.782494,38.256542]}},{"properties":{"permalink":"http://www.yourmapper.com/details/110/1652/timothy-wayne-withrow.htm","detaillink":"http://kspsor.state.ky.us/sor/servlet/SOR?id=1652","imagepath":"http://kspsor.state.ky.us/sor/photos/thumbs/1652.jpg","city":"louisville","name":"TIMOTHY WAYNE WITHROW","latitude":38.25769,"zip":"40203","address2":null,"category":1,"date":null,"url":null,"id":"a62aa4mm31cy","description":"Date of Birth:&lt;br&gt; 1965-02-03","longitude":-85.780258,"address":"1808 w market street","distance":0.78313,"state":"KY","location":null},"type":"Feature","geometry":{"type":"Point","coordinates":[-85.780258,38.25769]}},{"properties":{"permalink":"http://www.yourmapper.com/details/110/16552/sam-s-glover.htm","detaillink":"http://kspsor.state.ky.us/sor/servlet/SOR?id=16552","imagepath":"http://kspsor.state.ky.us/sor/photos/thumbs/16552.jpg","city":"louisville","name":"SAM S GLOVER","latitude":38.256664,"zip":"40203","address2":null,"category":1,"date":null,"url":null,"id":"a62aa4ea1vbi","description":"Date of Birth:&lt;br&gt; 1974-12-17","longitude":-85.783684,"address":"1936 west jefferson","distance":0.95313,"state":"KY","location":null},"type":"Feature","geometry":{"type":"Point","coordinates":[-85.783684,38.256664]}},{"properties":{"permalink":"http://www.yourmapper.com/details/110/1803/michael-anthony-nicklen.htm","detaillink":"http://kspsor.state.ky.us/sor/servlet/SOR?id=1803","imagepath":"http://kspsor.state.ky.us/sor/photos/thumbs/1803.jpg","city":"louisville","name":"MICHAEL ANTHONY NICKLEN","latitude":38.256542,"zip":"40203","address2":null,"category":1,"date":null,"url":null,"id":"a62aa4fcr2s5","description":"Date of Birth:&lt;br&gt; 1951-04-04","longitude":-85.782494,"address":"1936 w jefferson st","distance":0.88762,"state":"KY","location":null},"type":"Feature","geometry":{"type":"Point","coordinates":[-85.782494,38.256542]}},{"properties":{"permalink":"http://www.yourmapper.com/details/110/18472/ronald-l-duncan.htm","detaillink":"http://kspsor.state.ky.us/sor/servlet/SOR?id=18472","imagepath":"http://kspsor.state.ky.us/sor/photos/thumbs/18472.jpg","city":"louisville","name":"RONALD L DUNCAN","latitude":38.256542,"zip":"40203","address2":null,"category":1,"date":null,"url":null,"id":"a62aa4l1p4sb","description":"Date of Birth:&lt;br&gt; 1967-09-20","longitude":-85.782494,"address":"1936 w jefferson st","distance":0.88762,"state":"KY","location":null},"type":"Feature","geometry":{"type":"Point","coordinates":[-85.782494,38.256542]}},{"properties":{"permalink":"http://www.yourmapper.com/details/110/18754/paul-alvie-spicer.htm","detaillink":"http://kspsor.state.ky.us/sor/servlet/SOR?id=18754","imagepath":"http://kspsor.state.ky.us/sor/photos/thumbs/18754.jpg","city":"louisville","name":"PAUL ALVIE SPICER","latitude":38.254002,"zip":"40202","address2":null,"category":2,"date":null,"url":null,"id":"a62aa4j6tipo","description":"Date of Birth:&lt;br&gt; 1983-03-02","longitude":-85.75,"address":"0 metro dept of corr","distance":0.89546,"state":"KY","location":null},"type":"Feature","geometry":{"type":"Point","coordinates":[-85.75,38.254002]}},{"properties":{"permalink":"http://www.yourmapper.com/details/110/1923/lebron-thomas-iii-jackson.htm","detaillink":"http://kspsor.state.ky.us/sor/servlet/SOR?id=1923","imagepath":"http://kspsor.state.ky.us/sor/photos/thumbs/1923.jpg","city":"louisville","name":"LEBRON THOMAS III JACKSON","latitude":38.256664,"zip":"40203","address2":null,"category":1,"date":null,"url":null,"id":"a62aa4ocjyv7","description":"Date of Birth:&lt;br&gt; 1977-10-02","longitude":-85.783684,"address":"1936 west jefferson","distance":0.95313,"state":"KY","location":null},"type":"Feature","geometry":{"type":"Point","coordinates":[-85.783684,38.256664]}},{"properties":{"permalink":"http://www.yourmapper.com/details/110/19839/carl-d-spencer.htm","detaillink":"http://kspsor.state.ky.us/sor/servlet/SOR?id=19839","imagepath":"http://kspsor.state.ky.us/sor/photos/thumbs/19839.jpg","city":"louisville","name":"CARL D SPENCER","latitude":38.262383,"zip":"40203","address2":null,"category":1,"date":null,"url":null,"id":"a62aa4ftdoyy","description":"Date of Birth:&lt;br&gt; 1974-04-04","longitude":-85.780991,"address":"308 north 19th street","distance":0.95432,"state":"KY","location":null},"type":"Feature","geometry":{"type":"Point","coordinates":[-85.780991,38.262383]}},{"properties":{"permalink":"http://www.yourmapper.com/details/110/19857/david-thomas-hickey.htm","detaillink":"http://kspsor.state.ky.us/sor/servlet/SOR?id=19857","imagepath":"http://kspsor.state.ky.us/sor/photos/thumbs/19857.jpg","city":"louisville","name":"DAVID THOMAS HICKEY","latitude":38.256706,"zip":"40203","address2":null,"category":1,"date":null,"url":null,"id":"a62aa4kxiyxu","description":"Date of Birth:&lt;br&gt; 1956-10-02","longitude":-85.783569,"address":"1934 west jefferson","distance":0.94733,"state":"KY","location":null},"type":"Feature","geometry":{"type":"Point","coordinates":[-85.783569,38.256706]}},{"properties":{"permalink":"http://www.yourmapper.com/details/110/2112/michael-juan-martinez.htm","detaillink":"http://kspsor.state.ky.us/sor/servlet/SOR?id=2112","imagepath":"http://kspsor.state.ky.us/sor/photos/thumbs/2112.jpg","city":"louisville","name":"MICHAEL JUAN MARTINEZ","latitude":38.264889,"zip":"40212","address2":null,"category":1,"date":null,"url":null,"id":"a62aa4ivr3dz","description":"Date of Birth:&lt;br&gt; 1974-09-20","longitude":-85.789413,"address":"2423 slevin st","distance":1.43808,"state":"KY","location":null},"type":"Feature","geometry":{"type":"Point","coordinates":[-85.789413,38.264889]}},{"properties":{"permalink":"http://www.yourmapper.com/details/110/2135/bryant-brown.htm","detaillink":"http://kspsor.state.ky.us/sor/servlet/SOR?id=2135","imagepath":"http://kspsor.state.ky.us/sor/photos/thumbs/2135.jpg","city":"louisville","name":"BRYANT BROWN","latitude":38.254002,"zip":"40202","address2":null,"category":2,"date":null,"url":null,"id":"a62aa4doel0b","description":"Date of Birth:&lt;br&gt; 1962-04-01","longitude":-85.75,"address":"0 metro dept of corr","distance":0.89546,"state":"KY","location":null},"type":"Feature","geometry":{"type":"Point","coordinates":[-85.75,38.254002]}},{"properties":{"permalink":"http://www.yourmapper.com/details/110/21657/david-johnson-southard.htm","detaillink":"http://kspsor.state.ky.us/sor/servlet/SOR?id=21657","imagepath":"http://kspsor.state.ky.us/sor/photos/thumbs/21657.jpg","city":"louisville","name":"DAVID JOHNSON SOUTHARD","latitude":38.250092,"zip":"40211","address2":null,"category":1,"date":null,"url":null,"id":"a62aa4k416qy","description":"Date of Birth:&lt;br&gt; 1974-05-21","longitude":-85.789421,"address":"659 s 23rd st","distance":1.30052,"state":"KY","location":null},"type":"Feature","geometry":{"type":"Point","coordinates":[-85.789421,38.250092]}},{"properties":{"permalink":"http://www.yourmapper.com/details/110/21857/david-oliver-hintz.htm","detaillink":"http://kspsor.state.ky.us/sor/servlet/SOR?id=21857","imagepath":"http://kspsor.state.ky.us/sor/photos/thumbs/21857.jpg","city":"louisville","name":"DAVID OLIVER HINTZ","latitude":38.252552,"zip":"40202","address2":null,"category":2,"date":null,"url":null,"id":"a62aa4clxk0u","description":"Date of Birth:&lt;br&gt; 1938-04-03","longitude":-85.751404,"address":"0 metro dept corrections","distance":0.83233,"state":"KY","location":null},"type":"Feature","geometry":{"type":"Point","coordinates":[-85.751404,38.252552]}},{"properties":{"permalink":"http://www.yourmapper.com/details/110/2375/kenneth-m-mcbride.htm","detaillink":"http://kspsor.state.ky.us/sor/servlet/SOR?id=2375","imagepath":"http://kspsor.state.ky.us/sor/photos/thumbs/2375.jpg","city":"louisville","name":"KENNETH M MCBRIDE","latitude":38.256542,"zip":"40203","address2":null,"category":1,"date":null,"url":null,"id":"a62aa4piefc4","description":"Date of Birth:&lt;br&gt; 1970-08-27","longitude":-85.782494,"address":"1936 w jefferson st","distance":0.88762,"state":"KY","location":null},"type":"Feature","geometry":{"type":"Point","coordinates":[-85.782494,38.256542]}},{"properties":{"permalink":"http://www.yourmapper.com/details/110/23818/robert-ray-duncan.htm","detaillink":"http://kspsor.state.ky.us/sor/servlet/SOR?id=23818","imagepath":"http://kspsor.state.ky.us/sor/photos/thumbs/23818.jpg","city":"louisville","name":"ROBERT RAY DUNCAN","latitude":38.24892,"zip":"40203","address2":null,"category":1,"date":null,"url":null,"id":"a62aa4j3lbat","description":"Date of Birth:&lt;br&gt; 1967-07-27","longitude":-85.78035,"address":"1729 west broadway 2","distance":0.86682,"state":"KY","location":null},"type":"Feature","geometry":{"type":"Point","coordinates":[-85.78035,38.24892]}},{"properties":{"permalink":"http://www.yourmapper.com/details/110/2384/paul-martin-bush.htm","detaillink":"http://kspsor.state.ky.us/sor/servlet/SOR?id=2384","imagepath":"http://kspsor.state.ky.us/sor/photos/thumbs/2384.jpg","city":"louisville","name":"PAUL MARTIN BUSH","latitude":38.254002,"zip":"40202","address2":null,"category":2,"date":null,"url":null,"id":"a62aa49tm065","description":"Date of Birth:&lt;br&gt; 1966-02-08","longitude":-85.75,"address":"0 metro dept of corr","distance":0.89546,"state":"KY","location":null},"type":"Feature","geometry":{"type":"Point","coordinates":[-85.75,38.254002]}},{"properties":{"permalink":"http://www.yourmapper.com/details/110/2511/william-lee-baxter.htm","detaillink":"http://kspsor.state.ky.us/sor/servlet/SOR?id=2511","imagepath":"http://kspsor.state.ky.us/sor/photos/thumbs/2511.jpg","city":"louisville","name":"WILLIAM LEE BAXTER","latitude":38.254002,"zip":"40202","address2":null,"category":2,"date":null,"url":null,"id":"a62aa4oz3wwz","description":"Date of Birth:&lt;br&gt; 1957-09-26","longitude":-85.75,"address":"0 metro dept of corr","distance":0.89546,"state":"KY","location":null},"type":"Feature","geometry":{"type":"Point","coordinates":[-85.75,38.254002]}},{"properties":{"permalink":"http://www.yourmapper.com/details/110/25137/terry-jones.htm","detaillink":"http://kspsor.state.ky.us/sor/servlet/SOR?id=25137","imagepath":"http://kspsor.state.ky.us/sor/photos/thumbs/25137.jpg","city":"louisville","name":"TERRY JONES","latitude":38.256706,"zip":"40203","address2":null,"category":1,"date":null,"url":null,"id":"a62aa4ixhpi6","description":"Date of Birth:&lt;br&gt; 1982-11-10","longitude":-85.783569,"address":"1934 west jefferson","distance":0.94733,"state":"KY","location":null},"type":"Feature","geometry":{"type":"Point","coordinates":[-85.783569,38.256706]}},{"properties":{"permalink":"http://www.yourmapper.com/details/110/26358/robert-nathan-watson.htm","detaillink":"http://kspsor.state.ky.us/sor/servlet/SOR?id=26358","imagepath":"http://kspsor.state.ky.us/sor/photos/thumbs/26358.jpg","city":"louisville","name":"ROBERT NATHAN WATSON","latitude":38.253334,"zip":"40203","address2":null,"category":1,"date":null,"url":null,"id":"a62aa4h50h7p","description":"Date of Birth:&lt;br&gt; 1983-12-12","longitude":-85.764015,"address":"400 s 8th st apt 309","distance":0.16608,"state":"KY","location":null},"type":"Feature","geometry":{"type":"Point","coordinates":[-85.764015,38.253334]}},{"properties":{"permalink":"http://www.yourmapper.com/details/110/2686/james-earl-gholston.htm","detaillink":"http://kspsor.state.ky.us/sor/servlet/SOR?id=2686","imagepath":"http://kspsor.state.ky.us/sor/photos/thumbs/2686.jpg","city":"louisville","name":"JAMES EARL GHOLSTON","latitude":38.256706,"zip":"40203","address2":null,"category":1,"date":null,"url":null,"id":"a62aa4dncx2u","description":"Date of Birth:&lt;br&gt; 1962-06-21","longitude":-85.783569,"address":"1934 west jefferson apth","distance":0.94733,"state":"KY","location":null},"type":"Feature","geometry":{"type":"Point","coordinates":[-85.783569,38.256706]}},{"properties":{"permalink":"http://www.yourmapper.com/details/110/26978/byron-steward-hamilton.htm","detaillink":"http://kspsor.state.ky.us/sor/servlet/SOR?id=26978","imagepath":"http://kspsor.state.ky.us/sor/photos/thumbs/26978.jpg","city":"louisville","name":"BYRON STEWARD HAMILTON","latitude":38.237804,"zip":"40210","address2":null,"category":1,"date":null,"url":null,"id":"a62aa4fy0rce","description":"Date of Birth:&lt;br&gt; 1956-01-19","longitude":-85.781113,"address":"1601 hale street","distance":1.43168,"state":"KY","location":null},"type":"Feature","geometry":{"type":"Point","coordinates":[-85.781113,38.237804]}},{"properties":{"permalink":"http://www.yourmapper.com/details/110/27278/grant-bol.htm","detaillink":"http://kspsor.state.ky.us/sor/servlet/SOR?id=27278","imagepath":"http://kspsor.state.ky.us/sor/photos/thumbs/27278.jpg","city":"louisville","name":"GRANT BOL","latitude":38.256706,"zip":"40203","address2":null,"category":1,"date":null,"url":null,"id":"a62aa4cvvrew","description":"Date of Birth:&lt;br&gt; 1961-05-19","longitude":-85.783569,"address":"1934 west jefferson","distance":0.94733,"state":"KY","location":null},"type":"Feature","geometry":{"type":"Point","coordinates":[-85.783569,38.256706]}},{"properties":{"permalink":"http://www.yourmapper.com/details/110/27579/donald-james-allyn-baum.htm","detaillink":"http://kspsor.state.ky.us/sor/servlet/SOR?id=27579","imagepath":"http://kspsor.state.ky.us/sor/photos/thumbs/27579.jpg","city":"louisville","name":"DONALD JAMES ALLYN BAUM","latitude":38.25634,"zip":"40202","address2":null,"category":1,"date":null,"url":null,"id":"a62aa4pr5jmh","description":"Date of Birth:&lt;br&gt; 1969-09-13","longitude":-85.767601,"address":"1020 west market street","distance":0.12364,"state":"KY","location":null},"type":"Feature","geometry":{"type":"Point","coordinates":[-85.767601,38.25634]}},{"properties":{"permalink":"http://www.yourmapper.com/details/110/2834/roderick-sloan.htm","detaillink":"http://kspsor.state.ky.us/sor/servlet/SOR?id=2834","imagepath":"http://kspsor.state.ky.us/sor/photos/thumbs/2834.jpg","city":"louisville","name":"RODERICK SLOAN","latitude":38.243958,"zip":"40203","address2":null,"category":1,"date":null,"url":null,"id":"a62aa4fugfhg","description":"Date of Birth:&lt;br&gt; 1953-11-26","longitude":-85.755569,"address":"201 york st 608","distance":0.95926,"state":"KY","location":null},"type":"Feature","geometry":{"type":"Point","coordinates":[-85.755569,38.243958]}},{"properties":{"permalink":"http://www.yourmapper.com/details/110/2881/howard-michael-west.htm","detaillink":"http://kspsor.state.ky.us/sor/servlet/SOR?id=2881","imagepath":"http://kspsor.state.ky.us/sor/photos/thumbs/2881.jpg","city":"louisville","name":"HOWARD MICHAEL WEST","latitude":38.265301,"zip":"40203","address2":null,"category":1,"date":null,"url":null,"id":"a62aa4pkx0mk","description":"Date of Birth:&lt;br&gt; 1972-12-29","longitude":-85.779068,"address":"1846 portland ave","distance":1.00396,"state":"KY","location":null},"type":"Feature","geometry":{"type":"Point","coordinates":[-85.779068,38.265301]}},{"properties":{"permalink":"http://www.yourmapper.com/details/110/2952/londean-turner.htm","detaillink":"http://kspsor.state.ky.us/sor/servlet/SOR?id=2952","imagepath":"http://kspsor.state.ky.us/sor/photos/thumbs/2952.jpg","city":"louisville","name":"LONDEAN TURNER","latitude":38.256001,"zip":"40203","address2":null,"category":1,"date":null,"url":null,"id":"a62aa4godtin","description":"Date of Birth:&lt;br&gt; 1952-09-18","longitude":-85.767487,"address":"1020 w market st","distance":0.10071,"state":"KY","location":null},"type":"Feature","geometry":{"type":"Point","coordinates":[-85.767487,38.256001]}},{"properties":{"permalink":"http://www.yourmapper.com/details/110/2990/james-derrick-hodge.htm","detaillink":"http://kspsor.state.ky.us/sor/servlet/SOR?id=2990","imagepath":"http://kspsor.state.ky.us/sor/photos/thumbs/2990.jpg","city":"louisville","name":"JAMES DERRICK HODGE","latitude":38.256706,"zip":"40203","address2":null,"category":1,"date":null,"url":null,"id":"a62aa4jwh2nx","description":"Date of Birth:&lt;br&gt; 1976-06-20","longitude":-85.783569,"address":"1934 west jefferson st","distance":0.94733,"state":"KY","location":null},"type":"Feature","geometry":{"type":"Point","coordinates":[-85.783569,38.256706]}},{"properties":{"permalink":"http://www.yourmapper.com/details/110/3168/craig-anson-dunn.htm","detaillink":"http://kspsor.state.ky.us/sor/servlet/SOR?id=3168","imagepath":"http://kspsor.state.ky.us/sor/photos/thumbs/3168.jpg","city":"louisville","name":"CRAIG ANSON DUNN","latitude":38.254002,"zip":"40202","address2":null,"category":2,"date":null,"url":null,"id":"a62aa4hhb4au","description":"Date of Birth:&lt;br&gt; 1956-11-16","longitude":-85.75,"address":"0 metro dept of corr","distance":0.89546,"state":"KY","location":null},"type":"Feature","geometry":{"type":"Point","coordinates":[-85.75,38.254002]}},{"properties":{"permalink":"http://www.yourmapper.com/details/110/32039/charles-ray-bumpus.htm","detaillink":"http://kspsor.state.ky.us/sor/servlet/SOR?id=32039","imagepath":"http://kspsor.state.ky.us/sor/photos/thumbs/32039.jpg","city":"louisville","name":"CHARLES RAY BUMPUS","latitude":38.256542,"zip":"40203","address2":null,"category":1,"date":null,"url":null,"id":"a62aa4klrche","description":"Date of Birth:&lt;br&gt; 1963-02-15","longitude":-85.782494,"address":"1936 w jefferson st","distance":0.88762,"state":"KY","location":null},"type":"Feature","geometry":{"type":"Point","coordinates":[-85.782494,38.256542]}},{"properties":{"permalink":"http://www.yourmapper.com/details/110/3230/john-kevin-dunn.htm","detaillink":"http://kspsor.state.ky.us/sor/servlet/SOR?id=3230","imagepath":"http://kspsor.state.ky.us/sor/photos/thumbs/3230.jpg","city":"louisville","name":"JOHN KEVIN DUNN","latitude":38.254002,"zip":"40202","address2":null,"category":2,"date":null,"url":null,"id":"a62aa4gisbp2","description":"Date of Birth:&lt;br&gt; 1972-06-10","longitude":-85.75,"address":"0 metro dept of corr","distance":0.89546,"state":"KY","location":null},"type":"Feature","geometry":{"type":"Point","coordinates":[-85.75,38.254002]}},{"properties":{"permalink":"http://www.yourmapper.com/details/110/3257/james-eugene-jr-bonds.htm","detaillink":"http://kspsor.state.ky.us/sor/servlet/SOR?id=3257","imagepath":"http://kspsor.state.ky.us/sor/photos/thumbs/3257.jpg","city":"louisville","name":"JAMES EUGENE JR BONDS","latitude":38.254002,"zip":"40202","address2":null,"category":2,"date":null,"url":null,"id":"a62aa4je6fn9","description":"Date of Birth:&lt;br&gt; 1972-01-23","longitude":-85.75,"address":"0 metro dept of corr","distance":0.89546,"state":"KY","location":null},"type":"Feature","geometry":{"type":"Point","coordinates":[-85.75,38.254002]}},{"properties":{"permalink":"http://www.yourmapper.com/details/110/3329/keith-mikulka.htm","detaillink":"http://kspsor.state.ky.us/sor/servlet/SOR?id=3329","imagepath":"http://kspsor.state.ky.us/sor/photos/thumbs/3329.jpg","city":"louisville","name":"KEITH MIKULKA","latitude":38.237026,"zip":"40203","address2":null,"category":1,"date":null,"url":null,"id":"a62aa4lgc4ff","description":"Date of Birth:&lt;br&gt; 1965-11-13","longitude":-85.766541,"address":"1125 s 8th st 2","distance":1.23839,"state":"KY","location":null},"type":"Feature","geometry":{"type":"Point","coordinates":[-85.766541,38.237026]}},{"properties":{"permalink":"http://www.yourmapper.com/details/110/33379/craig-andrew-armstrong.htm","detaillink":"http://kspsor.state.ky.us/sor/servlet/SOR?id=33379","imagepath":"http://kspsor.state.ky.us/sor/photos/thumbs/33379.jpg","city":"louisville","name":"CRAIG ANDREW ARMSTRONG","latitude":38.256542,"zip":"40203","address2":null,"category":1,"date":null,"url":null,"id":"a62aa4ahzxqv","description":"Date of Birth:&lt;br&gt; 1985-11-07","longitude":-85.782494,"address":"1936 west jefferson street","distance":0.88762,"state":"KY","location":null},"type":"Feature","geometry":{"type":"Point","coordinates":[-85.782494,38.256542]}},{"properties":{"permalink":"http://www.yourmapper.com/details/110/33460/annamay-lynn-verschueren.htm","detaillink":"http://kspsor.state.ky.us/sor/servlet/SOR?id=33460","imagepath":"http://kspsor.state.ky.us/sor/photos/thumbs/33460.jpg","city":"louisville","name":"ANNA-MAY LYNN VERSCHUEREN","latitude":38.250481,"zip":"40211","address2":null,"category":1,"date":null,"url":null,"id":"a62aa4kn32rz","description":"Date of Birth:&lt;br&gt; 1987-04-29","longitude":-85.789978,"address":"648 s 23rd st","distance":1.32348,"state":"KY","location":null},"type":"Feature","geometry":{"type":"Point","coordinates":[-85.789978,38.250481]}},{"properties":{"permalink":"http://www.yourmapper.com/details/110/3376/danny-s-kuhl.htm","detaillink":"http://kspsor.state.ky.us/sor/servlet/SOR?id=3376","imagepath":"http://kspsor.state.ky.us/sor/photos/thumbs/3376.jpg","city":"louisville","name":"DANNY S KUHL","latitude":38.252129,"zip":"40211","address2":null,"category":1,"date":null,"url":null,"id":"a62aa4kv1cie","description":"Date of Birth:&lt;br&gt; 1960-04-18","longitude":-85.78804,"address":"2208 w chestnut 2","distance":1.19745,"state":"KY","location":null},"type":"Feature","geometry":{"type":"Point","coordinates":[-85.78804,38.252129]}},{"properties":{"permalink":"http://www.yourmapper.com/details/110/3405/geoffrey-justin-ryder.htm","detaillink":"http://kspsor.state.ky.us/sor/servlet/SOR?id=3405","imagepath":"http://kspsor.state.ky.us/sor/photos/thumbs/3405.jpg","city":"louisville","name":"GEOFFREY JUSTIN RYDER","latitude":38.256706,"zip":"40203","address2":null,"category":1,"date":null,"url":null,"id":"a62aa4axjasr","description":"Date of Birth:&lt;br&gt; 1983-05-04","longitude":-85.783569,"address":"1934 west jefferson st","distance":0.94733,"state":"KY","location":null},"type":"Feature","geometry":{"type":"Point","coordinates":[-85.783569,38.256706]}},{"properties":{"permalink":"http://www.yourmapper.com/details/110/3459/melvin-shafton-jr-warren.htm","detaillink":"http://kspsor.state.ky.us/sor/servlet/SOR?id=3459","imagepath":"http://kspsor.state.ky.us/sor/photos/thumbs/3459.jpg","city":"louisville","name":"MELVIN SHAFTON JR WARREN","latitude":38.256706,"zip":"40203","address2":null,"category":1,"date":null,"url":null,"id":"a62aa4p0z103","description":"Date of Birth:&lt;br&gt; 1968-12-07","longitude":-85.783569,"address":"1934 w jefferson st","distance":0.94733,"state":"KY","location":null},"type":"Feature","geometry":{"type":"Point","coordinates":[-85.783569,38.256706]}},{"properties":{"permalink":"http://www.yourmapper.com/details/110/35040/donald-lewis-mitchell.htm","detaillink":"http://kspsor.state.ky.us/sor/servlet/SOR?id=35040","imagepath":"http://kspsor.state.ky.us/sor/photos/thumbs/35040.jpg","city":"louisville","name":"DONALD LEWIS MITCHELL","latitude":38.256542,"zip":"40203","address2":null,"category":1,"date":null,"url":null,"id":"a62aa4b1pq9n","description":"Date of Birth:&lt;br&gt; 1951-07-30","longitude":-85.782494,"address":"1936 w jefferson st","distance":0.88762,"state":"KY","location":null},"type":"Feature","geometry":{"type":"Point","coordinates":[-85.782494,38.256542]}},{"properties":{"permalink":"http://www.yourmapper.com/details/110/3505/kenneth-r-hancock.htm","detaillink":"http://kspsor.state.ky.us/sor/servlet/SOR?id=3505","imagepath":"http://kspsor.state.ky.us/sor/photos/thumbs/3505.jpg","city":"louisville","name":"KENNETH R HANCOCK","latitude":38.25634,"zip":"40203","address2":null,"category":1,"date":null,"url":null,"id":"a62aa49vqeht","description":"Date of Birth:&lt;br&gt; 1956-07-09","longitude":-85.767601,"address":"1020 w market","distance":0.12364,"state":"KY","location":null},"type":"Feature","geometry":{"type":"Point","coordinates":[-85.767601,38.25634]}},{"properties":{"permalink":"http://www.yourmapper.com/details/110/36259/keith-carney.htm","detaillink":"http://kspsor.state.ky.us/sor/servlet/SOR?id=36259","imagepath":"http://kspsor.state.ky.us/sor/photos/thumbs/36259.jpg","city":"louisville","name":"KEITH CARNEY","latitude":38.234741,"zip":"40203","address2":null,"category":1,"date":null,"url":null,"id":"a62aa4clkpv8","description":"Date of Birth:&lt;br&gt; 1964-03-06","longitude":-85.76358,"address":"1219 south 6th street a4","distance":1.40545,"state":"KY","location":null},"type":"Feature","geometry":{"type":"Point","coordinates":[-85.76358,38.234741]}},{"properties":{"permalink":"http://www.yourmapper.com/details/110/3626/timothy-alan-turner.htm","detaillink":"http://kspsor.state.ky.us/sor/servlet/SOR?id=3626","imagepath":"http://kspsor.state.ky.us/sor/photos/thumbs/3626.jpg","city":"louisville","name":"TIMOTHY ALAN TURNER","latitude":38.254002,"zip":"40202","address2":null,"category":2,"date":null,"url":null,"id":"a62aa4lv3jd5","description":"Date of Birth:&lt;br&gt; 1964-07-01","longitude":-85.75,"address":"0 metro dept of corr","distance":0.89546,"state":"KY","location":null},"type":"Feature","geometry":{"type":"Point","coordinates":[-85.75,38.254002]}},{"properties":{"permalink":"http://www.yourmapper.com/details/110/3636/kermit-lamont-holland.htm","detaillink":"http://kspsor.state.ky.us/sor/servlet/SOR?id=3636","imagepath":"http://kspsor.state.ky.us/sor/photos/thumbs/3636.jpg","city":"louisville","name":"KERMIT LAMONT HOLLAND","latitude":38.256695,"zip":"40203","address2":null,"category":1,"date":null,"url":null,"id":"a62aa4edea69","description":"Date of Birth:&lt;br&gt; 1961-07-14","longitude":-85.783592,"address":"1936 west jefferson st 1","distance":0.94846,"state":"KY","location":null},"type":"Feature","geometry":{"type":"Point","coordinates":[-85.783592,38.256695]}},{"properties":{"permalink":"http://www.yourmapper.com/details/110/36859/eddie-l-rainbolt.htm","detaillink":"http://kspsor.state.ky.us/sor/servlet/SOR?id=36859","imagepath":"http://kspsor.state.ky.us/sor/photos/thumbs/36859.jpg","city":"louisville","name":"EDDIE L RAINBOLT","latitude":38.250271,"zip":"40211","address2":null,"category":1,"date":null,"url":null,"id":"a62aa4mqda87","description":"Date of Birth:&lt;br&gt; 1964-08-28","longitude":-85.78952,"address":"659 s 23rd street","distance":1.30266,"state":"KY","location":null},"type":"Feature","geometry":{"type":"Point","coordinates":[-85.78952,38.250271]}},{"properties":{"permalink":"http://www.yourmapper.com/details/110/36880/vincentdavid-cruz-crisostomo.htm","detaillink":"http://kspsor.state.ky.us/sor/servlet/SOR?id=36880","imagepath":"http://kspsor.state.ky.us/sor/photos/thumbs/36880.jpg","city":"louisville","name":"VINCENT-DAVID CRUZ CRISOSTOMO","latitude":38.252316,"zip":"40202","address2":null,"category":1,"date":null,"url":null,"id":"a62aa4hwrjus","description":"Date of Birth:&lt;br&gt; 1985-04-01","longitude":-85.744049,"address":"506 e jefferson st 301","distance":1.23094,"state":"KY","location":null},"type":"Feature","geometry":{"type":"Point","coordinates":[-85.744049,38.252316]}},{"properties":{"permalink":"http://www.yourmapper.com/details/110/3725/andre-lin-watkins.htm","detaillink":"http://kspsor.state.ky.us/sor/servlet/SOR?id=3725","imagepath":"http://kspsor.state.ky.us/sor/photos/thumbs/3725.jpg","city":"louisville","name":"ANDRE LIN WATKINS","latitude":38.247162,"zip":"40210","address2":null,"category":1,"date":null,"url":null,"id":"a62aa4mqe83p","description":"Date of Birth:&lt;br&gt; 1960-08-13","longitude":-85.779823,"address":"733 s 17th st","distance":0.90773,"state":"KY","location":null},"type":"Feature","geometry":{"type":"Point","coordinates":[-85.779823,38.247162]}},{"properties":{"permalink":"http://www.yourmapper.com/details/110/37619/anthony-mcgee.htm","detaillink":"http://kspsor.state.ky.us/sor/servlet/SOR?id=37619","imagepath":"http://kspsor.state.ky.us/sor/photos/thumbs/37619.jpg","city":"louisville","name":"ANTHONY MCGEE","latitude":38.250271,"zip":"40211","address2":null,"category":1,"date":null,"url":null,"id":"a62aa4bl0otu","description":"Date of Birth:&lt;br&gt; 1966-06-03","longitude":-85.78952,"address":"659 s 23rd street","distance":1.30266,"state":"KY","location":null},"type":"Feature","geometry":{"type":"Point","coordinates":[-85.78952,38.250271]}},{"properties":{"permalink":"http://www.yourmapper.com/details/110/37659/james-ray-borel.htm","detaillink":"http://kspsor.state.ky.us/sor/servlet/SOR?id=37659","imagepath":"http://kspsor.state.ky.us/sor/photos/thumbs/37659.jpg","city":"louisville","name":"JAMES RAY BOREL","latitude":38.256664,"zip":"40203","address2":null,"category":1,"date":null,"url":null,"id":"a62aa4jexpa8","description":"Date of Birth:&lt;br&gt; 1963-10-24","longitude":-85.783684,"address":"1936 w jefferson","distance":0.95313,"state":"KY","location":null},"type":"Feature","geometry":{"type":"Point","coordinates":[-85.783684,38.256664]}},{"properties":{"permalink":"http://www.yourmapper.com/details/110/37739/charles-lew-pospisil.htm","detaillink":"http://kspsor.state.ky.us/sor/servlet/SOR?id=37739","imagepath":"http://kspsor.state.ky.us/sor/photos/thumbs/37739.jpg","city":"louisville","name":"CHARLES LEW POSPISIL","latitude":38.244034,"zip":"40203","address2":null,"category":1,"date":null,"url":null,"id":"a62aa4gwop3a","description":"Date of Birth:&lt;br&gt; 1949-02-07","longitude":-85.758896,"address":"800 4th ave 404","distance":0.85502,"state":"KY","location":null},"type":"Feature","geometry":{"type":"Point","coordinates":[-85.758896,38.244034]}},{"properties":{"permalink":"http://www.yourmapper.com/details/110/38024/william-jason-reno-dotson.htm","detaillink":"http://kspsor.state.ky.us/sor/servlet/SOR?id=38024","imagepath":"http://kspsor.state.ky.us/sor/photos/thumbs/38024.jpg","city":"louisville","name":"WILLIAM JASON RENO DOTSON","latitude":38.250092,"zip":"40211","address2":null,"category":1,"date":null,"url":null,"id":"a62aa4klecvl","description":"Date of Birth:&lt;br&gt; 1972-04-06","longitude":-85.789421,"address":"659 s 23rd st","distance":1.30052,"state":"KY","location":null},"type":"Feature","geometry":{"type":"Point","coordinates":[-85.789421,38.250092]}},{"properties":{"permalink":"http://www.yourmapper.com/details/110/38140/kam-luy.htm","detaillink":"http://kspsor.state.ky.us/sor/servlet/SOR?id=38140","imagepath":"http://kspsor.state.ky.us/sor/photos/thumbs/38140.jpg","city":"louisville","name":"KAM LUY","latitude":38.256542,"zip":"40203","address2":null,"category":1,"date":null,"url":null,"id":"a62aa4m1pzgq","description":"Date of Birth:&lt;br&gt; 1979-11-05","longitude":-85.782494,"address":"1936 west jefferson st","distance":0.88762,"state":"KY","location":null},"type":"Feature","geometry":{"type":"Point","coordinates":[-85.782494,38.256542]}},{"properties":{"permalink":"http://www.yourmapper.com/details/110/39159/michael-mabrey.htm","detaillink":"http://kspsor.state.ky.us/sor/servlet/SOR?id=39159","imagepath":"http://kspsor.state.ky.us/sor/photos/thumbs/39159.jpg","city":"louisville","name":"MICHAEL MABREY","latitude":38.250092,"zip":"40211","address2":null,"category":1,"date":null,"url":null,"id":"a62aa4lbijh1","description":"Date of Birth:&lt;br&gt; 1959-09-07","longitude":-85.789421,"address":"659 s 23rd st","distance":1.30052,"state":"KY","location":null},"type":"Feature","geometry":{"type":"Point","coordinates":[-85.789421,38.250092]}},{"properties":{"permalink":"http://www.yourmapper.com/details/110/39699/stephen-charles-duzan.htm","detaillink":"http://kspsor.state.ky.us/sor/servlet/SOR?id=39699","imagepath":"http://kspsor.state.ky.us/sor/photos/thumbs/39699.jpg","city":"louisville","name":"STEPHEN CHARLES DUZAN","latitude":38.256706,"zip":"40203","address2":null,"category":1,"date":null,"url":null,"id":"a62aa4kq7lv1","description":"Date of Birth:&lt;br&gt; 1970-08-28","longitude":-85.783569,"address":"1934 w jefferson st","distance":0.94733,"state":"KY","location":null},"type":"Feature","geometry":{"type":"Point","coordinates":[-85.783569,38.256706]}},{"properties":{"permalink":"http://www.yourmapper.com/details/110/40239/jason-ross-ada.htm","detaillink":"http://kspsor.state.ky.us/sor/servlet/SOR?id=40239","imagepath":null,"city":"louisville","name":"JASON ROSS ADA","latitude":38.256542,"zip":"40203","address2":null,"category":1,"date":null,"url":null,"id":"a62aa4dljdz5","description":"Date of Birth:&lt;br&gt; 1975-12-25","longitude":-85.782494,"address":"1936 west jefferson street","distance":0.88762,"state":"KY","location":null},"type":"Feature","geometry":{"type":"Point","coordinates":[-85.782494,38.256542]}},{"properties":{"permalink":"http://www.yourmapper.com/details/110/40460/david-k-longo.htm","detaillink":"http://kspsor.state.ky.us/sor/servlet/SOR?id=40460","imagepath":"http://kspsor.state.ky.us/sor/photos/thumbs/40460.jpg","city":"louisville","name":"DAVID K LONGO","latitude":38.256706,"zip":"40203","address2":null,"category":1,"date":null,"url":null,"id":"a62aa4kggk7s","description":"Date of Birth:&lt;br&gt; 1962-11-24","longitude":-85.783569,"address":"1934 w jefferson st","distance":0.94733,"state":"KY","location":null},"type":"Feature","geometry":{"type":"Point","coordinates":[-85.783569,38.256706]}},{"properties":{"permalink":"http://www.yourmapper.com/details/110/4146/billy-ray-cook.htm","detaillink":"http://kspsor.state.ky.us/sor/servlet/SOR?id=4146","imagepath":"http://kspsor.state.ky.us/sor/photos/thumbs/4146.jpg","city":"louisville","name":"BILLY RAY COOK","latitude":38.256001,"zip":"40202","address2":null,"category":1,"date":null,"url":null,"id":"a62aa4mjklv9","description":"Date of Birth:&lt;br&gt; 1966-06-11","longitude":-85.767487,"address":"1020 w market st","distance":0.10071,"state":"KY","location":null},"type":"Feature","geometry":{"type":"Point","coordinates":[-85.767487,38.256001]}},{"properties":{"permalink":"http://www.yourmapper.com/details/110/4234/danny-ray-matthews.htm","detaillink":"http://kspsor.state.ky.us/sor/servlet/SOR?id=4234","imagepath":"http://kspsor.state.ky.us/sor/photos/thumbs/4234.jpg","city":"louisville","name":"DANNY RAY MATTHEWS","latitude":38.25634,"zip":"40202","address2":null,"category":1,"date":null,"url":null,"id":"a62aa4od5pae","description":"Date of Birth:&lt;br&gt; 1967-02-19","longitude":-85.767601,"address":"1020 w market 24 upper","distance":0.12364,"state":"KY","location":null},"type":"Feature","geometry":{"type":"Point","coordinates":[-85.767601,38.25634]}},{"properties":{"permalink":"http://www.yourmapper.com/details/110/4451/sergio-jose-roca.htm","detaillink":"http://kspsor.state.ky.us/sor/servlet/SOR?id=4451","imagepath":"http://kspsor.state.ky.us/sor/photos/thumbs/4451.jpg","city":"louisville","name":"SERGIO JOSE ROCA","latitude":38.254002,"zip":"40202","address2":null,"category":2,"date":null,"url":null,"id":"a62aa4pwlbjb","description":"Date of Birth:&lt;br&gt; 1956-10-03","longitude":-85.75,"address":"0 metro dept of corr","distance":0.89546,"state":"KY","location":null},"type":"Feature","geometry":{"type":"Point","coordinates":[-85.75,38.254002]}},{"properties":{"permalink":"http://www.yourmapper.com/details/110/4487/kevin-lee-wilson.htm","detaillink":"http://kspsor.state.ky.us/sor/servlet/SOR?id=4487","imagepath":"http://kspsor.state.ky.us/sor/photos/thumbs/4487.jpg","city":"louisville","name":"KEVIN LEE WILSON","latitude":38.256542,"zip":"40203","address2":null,"category":1,"date":null,"url":null,"id":"a62aa4jeu0tq","description":"Date of Birth:&lt;br&gt; 1972-07-06","longitude":-85.782494,"address":"1936 w jefferson st","distance":0.88762,"state":"KY","location":null},"type":"Feature","geometry":{"type":"Point","coordinates":[-85.782494,38.256542]}},{"properties":{"permalink":"http://www.yourmapper.com/details/110/5080/james-l-jr-coleman.htm","detaillink":"http://kspsor.state.ky.us/sor/servlet/SOR?id=5080","imagepath":"http://kspsor.state.ky.us/sor/photos/thumbs/5080.jpg","city":"louisville","name":"JAMES L JR COLEMAN","latitude":38.242558,"zip":"40210","address2":null,"category":1,"date":null,"url":null,"id":"a62aa4k6btzw","description":"Date of Birth:&lt;br&gt; 1955-03-31","longitude":-85.778633,"address":"1546 garland avenue","distance":1.08488,"state":"KY","location":null},"type":"Feature","geometry":{"type":"Point","coordinates":[-85.778633,38.242558]}},{"properties":{"permalink":"http://www.yourmapper.com/details/110/5224/thomas-main.htm","detaillink":"http://kspsor.state.ky.us/sor/servlet/SOR?id=5224","imagepath":"http://kspsor.state.ky.us/sor/photos/thumbs/5224.jpg","city":"louisville","name":"THOMAS MAIN","latitude":38.256706,"zip":"40203","address2":null,"category":1,"date":null,"url":null,"id":"a62aa4egttbb","description":"Date of Birth:&lt;br&gt; 1958-12-28","longitude":-85.783569,"address":"1934 w jefferson street","distance":0.94733,"state":"KY","location":null},"type":"Feature","geometry":{"type":"Point","coordinates":[-85.783569,38.256706]}},{"properties":{"permalink":"http://www.yourmapper.com/details/110/5236/sergio-enriquez.htm","detaillink":"http://kspsor.state.ky.us/sor/servlet/SOR?id=5236","imagepath":"http://kspsor.state.ky.us/sor/photos/thumbs/5236.jpg","city":"louisville","name":"SERGIO ENRIQUEZ","latitude":38.239571,"zip":"40203","address2":null,"category":1,"date":null,"url":null,"id":"a62aa4depo14","description":"Date of Birth:&lt;br&gt; 1962-11-30","longitude":-85.758018,"address":"976 south 3rd st apt 102","distance":1.15532,"state":"KY","location":null},"type":"Feature","geometry":{"type":"Point","coordinates":[-85.758018,38.239571]}},{"properties":{"permalink":"http://www.yourmapper.com/details/110/5252/james-lee-whitney.htm","detaillink":"http://kspsor.state.ky.us/sor/servlet/SOR?id=5252","imagepath":"http://kspsor.state.ky.us/sor/photos/thumbs/5252.jpg","city":"louisville","name":"JAMES LEE WHITNEY","latitude":38.250092,"zip":"40211","address2":null,"category":1,"date":null,"url":null,"id":"a62aa4g9b5y4","description":"Date of Birth:&lt;br&gt; 1947-10-05","longitude":-85.789421,"address":"659 s 23rd st","distance":1.30052,"state":"KY","location":null},"type":"Feature","geometry":{"type":"Point","coordinates":[-85.789421,38.250092]}},{"properties":{"permalink":"http://www.yourmapper.com/details/110/5327/carl-winston-adcock.htm","detaillink":"http://kspsor.state.ky.us/sor/servlet/SOR?id=5327","imagepath":"http://kspsor.state.ky.us/sor/photos/thumbs/5327.jpg","city":"louisville","name":"CARL WINSTON ADCOCK","latitude":38.262207,"zip":"40203","address2":null,"category":1,"date":null,"url":null,"id":"a62aa4irz4ak","description":"Date of Birth:&lt;br&gt; 1977-12-09","longitude":-85.781334,"address":"1923 duncan sst","distance":0.9635,"state":"KY","location":null},"type":"Feature","geometry":{"type":"Point","coordinates":[-85.781334,38.262207]}},{"properties":{"permalink":"http://www.yourmapper.com/details/110/5356/terry-eugene-banks.htm","detaillink":"http://kspsor.state.ky.us/sor/servlet/SOR?id=5356","imagepath":"http://kspsor.state.ky.us/sor/photos/thumbs/5356.jpg","city":"louisville","name":"TERRY EUGENE BANKS","latitude":38.254002,"zip":"40202","address2":null,"category":2,"date":null,"url":null,"id":"a62aa4cly9hv","description":"Date of Birth:&lt;br&gt; 1968-07-02","longitude":-85.75,"address":"0 metro dept of corr","distance":0.89546,"state":"KY","location":null},"type":"Feature","geometry":{"type":"Point","coordinates":[-85.75,38.254002]}},{"properties":{"permalink":"http://www.yourmapper.com/details/110/5357/darrell-winkler.htm","detaillink":"http://kspsor.state.ky.us/sor/servlet/SOR?id=5357","imagepath":"http://kspsor.state.ky.us/sor/photos/thumbs/5357.jpg","city":"louisville","name":"DARRELL WINKLER","latitude":38.259148,"zip":"40203","address2":null,"category":1,"date":null,"url":null,"id":"a62aa4daw5hu","description":"Date of Birth:&lt;br&gt; 1971-01-29","longitude":-85.784874,"address":"114 dr wj hodge st","distance":1.05299,"state":"KY","location":null},"type":"Feature","geometry":{"type":"Point","coordinates":[-85.784874,38.259148]}},{"properties":{"permalink":"http://www.yourmapper.com/details/110/5468/john-kenneth-malcolm.htm","detaillink":"http://kspsor.state.ky.us/sor/servlet/SOR?id=5468","imagepath":"http://kspsor.state.ky.us/sor/photos/thumbs/5468.jpg","city":"louisville","name":"JOHN KENNETH MALCOLM","latitude":38.242565,"zip":"40203","address2":null,"category":1,"date":null,"url":null,"id":"a62aa4d9mghe","description":"Date of Birth:&lt;br&gt; 1966-10-26","longitude":-85.755821,"address":"848 s 2nd 2","distance":1.02955,"state":"KY","location":null},"type":"Feature","geometry":{"type":"Point","coordinates":[-85.755821,38.242565]}},{"properties":{"permalink":"http://www.yourmapper.com/details/110/5547/darrell-robert-shea.htm","detaillink":"http://kspsor.state.ky.us/sor/servlet/SOR?id=5547","imagepath":"http://kspsor.state.ky.us/sor/photos/thumbs/5547.jpg","city":"louisville","name":"DARRELL ROBERT SHEA","latitude":38.234867,"zip":"40203","address2":null,"category":1,"date":null,"url":null,"id":"a62aa4efm5g3","description":"Date of Birth:&lt;br&gt; 1960-01-20","longitude":-85.76886,"address":"925 dumesnil st","distance":1.39503,"state":"KY","location":null},"type":"Feature","geometry":{"type":"Point","coordinates":[-85.76886,38.234867]}},{"properties":{"permalink":"http://www.yourmapper.com/details/110/5611/william-anthony-scharold.htm","detaillink":"http://kspsor.state.ky.us/sor/servlet/SOR?id=5611","imagepath":"http://kspsor.state.ky.us/sor/photos/thumbs/5611.jpg","city":"louisville","name":"WILLIAM ANTHONY SCHAROLD","latitude":38.256542,"zip":"40203","address2":null,"category":1,"date":null,"url":null,"id":"a62aa4fevep6","description":"Date of Birth:&lt;br&gt; 1964-10-13","longitude":-85.782494,"address":"1936 w jefferson st","distance":0.88762,"state":"KY","location":null},"type":"Feature","geometry":{"type":"Point","coordinates":[-85.782494,38.256542]}},{"properties":{"permalink":"http://www.yourmapper.com/details/110/5690/thomas-menser.htm","detaillink":"http://kspsor.state.ky.us/sor/servlet/SOR?id=5690","imagepath":"http://kspsor.state.ky.us/sor/photos/thumbs/5690.jpg","city":"louisville","name":"THOMAS MENSER","latitude":38.258316,"zip":"40203","address2":null,"category":1,"date":null,"url":null,"id":"a62aa4boypjz","description":"Date of Birth:&lt;br&gt; 1951-07-31","longitude":-85.783424,"address":"2003 w market 1","distance":0.96129,"state":"KY","location":null},"type":"Feature","geometry":{"type":"Point","coordinates":[-85.783424,38.258316]}},{"properties":{"permalink":"http://www.yourmapper.com/details/110/5912/michael-lamont-fountain.htm","detaillink":"http://kspsor.state.ky.us/sor/servlet/SOR?id=5912","imagepath":"http://kspsor.state.ky.us/sor/photos/thumbs/5912.jpg","city":"louisville","name":"MICHAEL LAMONT FOUNTAIN","latitude":38.257133,"zip":"40203","address2":null,"category":1,"date":null,"url":null,"id":"a62aa4imfye0","description":"Date of Birth:&lt;br&gt; 1975-06-15","longitude":-85.775276,"address":"1506 w market st 3","distance":0.51124,"state":"KY","location":null},"type":"Feature","geometry":{"type":"Point","coordinates":[-85.775276,38.257133]}},{"properties":{"permalink":"http://www.yourmapper.com/details/110/5920/randall-lynn-jones.htm","detaillink":"http://kspsor.state.ky.us/sor/servlet/SOR?id=5920","imagepath":"http://kspsor.state.ky.us/sor/photos/thumbs/5920.jpg","city":"louisville","name":"RANDALL LYNN JONES","latitude":38.249233,"zip":"40202","address2":null,"category":1,"date":null,"url":null,"id":"a62aa4ckkmkw","description":"Date of Birth:&lt;br&gt; 1966-10-02","longitude":-85.740654,"address":"700 e muhammad ali","distance":1.45681,"state":"KY","location":null},"type":"Feature","geometry":{"type":"Point","coordinates":[-85.740654,38.249233]}},{"properties":{"permalink":"http://www.yourmapper.com/details/110/5950/dewayne-lamont-boyd.htm","detaillink":"http://kspsor.state.ky.us/sor/servlet/SOR?id=5950","imagepath":"http://kspsor.state.ky.us/sor/photos/thumbs/5950.jpg","city":"louisville","name":"DEWAYNE LAMONT BOYD","latitude":38.254002,"zip":"40202","address2":null,"category":2,"date":null,"url":null,"id":"a62aa4hkkaad","description":"Date of Birth:&lt;br&gt; 1973-08-17","longitude":-85.75,"address":"0 metro dept of corr","distance":0.89546,"state":"KY","location":null},"type":"Feature","geometry":{"type":"Point","coordinates":[-85.75,38.254002]}},{"properties":{"permalink":"http://www.yourmapper.com/details/110/6113/sherman-anthony-williams.htm","detaillink":"http://kspsor.state.ky.us/sor/servlet/SOR?id=6113","imagepath":"http://kspsor.state.ky.us/sor/photos/thumbs/6113.jpg","city":"louisville","name":"SHERMAN ANTHONY WILLIAMS","latitude":38.256706,"zip":"40203","address2":null,"category":1,"date":null,"url":null,"id":"a62aa4cocs6l","description":"Date of Birth:&lt;br&gt; 1980-04-27","longitude":-85.783569,"address":"1934 w jefferson st","distance":0.94733,"state":"KY","location":null},"type":"Feature","geometry":{"type":"Point","coordinates":[-85.783569,38.256706]}},{"properties":{"permalink":"http://www.yourmapper.com/details/110/6227/shanta-r-brown.htm","detaillink":"http://kspsor.state.ky.us/sor/servlet/SOR?id=6227","imagepath":"http://kspsor.state.ky.us/sor/photos/thumbs/6227.jpg","city":"louisville","name":"SHANTA R BROWN","latitude":38.25201,"zip":"40202","address2":null,"category":1,"date":null,"url":null,"id":"a62aa4eokvjv","description":"Date of Birth:&lt;br&gt; 1977-04-19","longitude":-85.745079,"address":"432 e jefferson st","distance":1.17869,"state":"KY","location":null},"type":"Feature","geometry":{"type":"Point","coordinates":[-85.745079,38.25201]}},{"properties":{"permalink":"http://www.yourmapper.com/details/110/6554/robert-wayne-wright.htm","detaillink":"http://kspsor.state.ky.us/sor/servlet/SOR?id=6554","imagepath":"http://kspsor.state.ky.us/sor/photos/thumbs/6554.jpg","city":"louisville","name":"ROBERT WAYNE WRIGHT","latitude":38.256706,"zip":"40203","address2":null,"category":1,"date":null,"url":null,"id":"a62aa4pdphve","description":"Date of Birth:&lt;br&gt; 1971-07-09","longitude":-85.783569,"address":"1934 west jefferson st","distance":0.94733,"state":"KY","location":null},"type":"Feature","geometry":{"type":"Point","coordinates":[-85.783569,38.256706]}},{"properties":{"permalink":"http://www.yourmapper.com/details/110/6621/john-preston-henderson.htm","detaillink":"http://kspsor.state.ky.us/sor/servlet/SOR?id=6621","imagepath":"http://kspsor.state.ky.us/sor/photos/thumbs/6621.jpg","city":"louisville","name":"JOHN PRESTON HENDERSON","latitude":38.247742,"zip":"40210","address2":null,"category":1,"date":null,"url":null,"id":"a62aa4f8d3zg","description":"Date of Birth:&lt;br&gt; 1974-01-16","longitude":-85.787216,"address":"736 dr w j hodge st","distance":1.24005,"state":"KY","location":null},"type":"Feature","geometry":{"type":"Point","coordinates":[-85.787216,38.247742]}},{"properties":{"permalink":"http://www.yourmapper.com/details/110/6913/anthony-mike-salsbury.htm","detaillink":"http://kspsor.state.ky.us/sor/servlet/SOR?id=6913","imagepath":"http://kspsor.state.ky.us/sor/photos/thumbs/6913.jpg","city":"louisville","name":"ANTHONY MIKE SALSBURY","latitude":38.256706,"zip":"40203","address2":null,"category":1,"date":null,"url":null,"id":"a62aa4bdsg66","description":"Date of Birth:&lt;br&gt; 1974-04-05","longitude":-85.783569,"address":"1934 west jefferson","distance":0.94733,"state":"KY","location":null},"type":"Feature","geometry":{"type":"Point","coordinates":[-85.783569,38.256706]}},{"properties":{"permalink":"http://www.yourmapper.com/details/110/7037/richard-lee-smith.htm","detaillink":"http://kspsor.state.ky.us/sor/servlet/SOR?id=7037","imagepath":"http://kspsor.state.ky.us/sor/photos/thumbs/7037.jpg","city":"louisville","name":"RICHARD LEE SMITH","latitude":38.2575,"zip":"40203","address2":null,"category":1,"date":null,"url":null,"id":"a62aa4eeryn1","description":"Date of Birth:&lt;br&gt; 1971-08-26","longitude":-85.780792,"address":"1816 w market st","distance":0.80824,"state":"KY","location":null},"type":"Feature","geometry":{"type":"Point","coordinates":[-85.780792,38.2575]}},{"properties":{"permalink":"http://www.yourmapper.com/details/110/704/james-david-mcintire.htm","detaillink":"http://kspsor.state.ky.us/sor/servlet/SOR?id=704","imagepath":"http://kspsor.state.ky.us/sor/photos/thumbs/704.jpg","city":"louisville","name":"JAMES DAVID MCINTIRE","latitude":38.242367,"zip":"40203","address2":null,"category":1,"date":null,"url":null,"id":"a62aa4lgo8du","description":"Date of Birth:&lt;br&gt; 1972-03-10","longitude":-85.752113,"address":"831 brook st","distance":1.16522,"state":"KY","location":null},"type":"Feature","geometry":{"type":"Point","coordinates":[-85.752113,38.242367]}},{"properties":{"permalink":"http://www.yourmapper.com/details/110/7101/theodore-arthur-drury.htm","detaillink":"http://kspsor.state.ky.us/sor/servlet/SOR?id=7101","imagepath":"http://kspsor.state.ky.us/sor/photos/thumbs/7101.jpg","city":"louisville","name":"THEODORE ARTHUR DRURY","latitude":38.254002,"zip":"40202","address2":null,"category":2,"date":null,"url":null,"id":"a62aa4fznw4g","description":"Date of Birth:&lt;br&gt; 1962-01-01","longitude":-85.75,"address":"0 metro dept of corr","distance":0.89546,"state":"KY","location":null},"type":"Feature","geometry":{"type":"Point","coordinates":[-85.75,38.254002]}},{"properties":{"permalink":"http://www.yourmapper.com/details/110/721/herman-leslie-duke.htm","detaillink":"http://kspsor.state.ky.us/sor/servlet/SOR?id=721","imagepath":"http://kspsor.state.ky.us/sor/photos/thumbs/721.jpg","city":"louisville","name":"HERMAN LESLIE DUKE","latitude":38.26302,"zip":"40203","address2":null,"category":1,"date":null,"url":null,"id":"a62aa4ppmd24","description":"Date of Birth:&lt;br&gt; 1973-08-03","longitude":-85.777412,"address":"1731 lytle st","distance":0.82805,"state":"KY","location":null},"type":"Feature","geometry":{"type":"Point","coordinates":[-85.777412,38.26302]}},{"properties":{"permalink":"http://www.yourmapper.com/details/110/7378/terry-l-prather.htm","detaillink":"http://kspsor.state.ky.us/sor/servlet/SOR?id=7378","imagepath":"http://kspsor.state.ky.us/sor/photos/thumbs/7378.jpg","city":"louisville","name":"TERRY L PRATHER","latitude":38.248386,"zip":"40211","address2":null,"category":1,"date":null,"url":null,"id":"a62aa4k37v3j","description":"Date of Birth:&lt;br&gt; 1959-08-14","longitude":-85.786949,"address":"2112 anderson avenue","distance":1.20935,"state":"KY","location":null},"type":"Feature","geometry":{"type":"Point","coordinates":[-85.786949,38.248386]}},{"properties":{"permalink":"http://www.yourmapper.com/details/110/7379/edward-gilbert-richards.htm","detaillink":"http://kspsor.state.ky.us/sor/servlet/SOR?id=7379","imagepath":"http://kspsor.state.ky.us/sor/photos/thumbs/7379.jpg","city":"louisville","name":"EDWARD GILBERT RICHARDS","latitude":38.235687,"zip":"40203","address2":null,"category":1,"date":null,"url":null,"id":"a62aa4ckhcys","description":"Date of Birth:&lt;br&gt; 1978-06-22","longitude":-85.765701,"address":"729 west oak street apt 8","distance":1.33192,"state":"KY","location":null},"type":"Feature","geometry":{"type":"Point","coordinates":[-85.765701,38.235687]}},{"properties":{"permalink":"http://www.yourmapper.com/details/110/7513/mark-aubrey-ii-cissell.htm","detaillink":"http://kspsor.state.ky.us/sor/servlet/SOR?id=7513","imagepath":"http://kspsor.state.ky.us/sor/photos/thumbs/7513.jpg","city":"louisville","name":"MARK AUBREY II CISSELL","latitude":38.256706,"zip":"40203","address2":null,"category":1,"date":null,"url":null,"id":"a62aa4pusnnr","description":"Date of Birth:&lt;br&gt; 1981-06-29","longitude":-85.783569,"address":"1934 w jefferson st","distance":0.94733,"state":"KY","location":null},"type":"Feature","geometry":{"type":"Point","coordinates":[-85.783569,38.256706]}},{"properties":{"permalink":"http://www.yourmapper.com/details/110/7839/kenneth-r-fisher.htm","detaillink":"http://kspsor.state.ky.us/sor/servlet/SOR?id=7839","imagepath":"http://kspsor.state.ky.us/sor/photos/thumbs/7839.jpg","city":"louisville","name":"KENNETH R FISHER","latitude":38.248569,"zip":"40203","address2":null,"category":1,"date":null,"url":null,"id":"a62aa4ggvmvw","description":"Date of Birth:&lt;br&gt; 1968-08-29","longitude":-85.765373,"address":"428 east ormsbyfront apt","distance":0.43953,"state":"KY","location":null},"type":"Feature","geometry":{"type":"Point","coordinates":[-85.765373,38.248569]}},{"properties":{"permalink":"http://www.yourmapper.com/details/110/9411/ricky-howell.htm","detaillink":"http://kspsor.state.ky.us/sor/servlet/SOR?id=9411","imagepath":"http://kspsor.state.ky.us/sor/photos/thumbs/9411.jpg","city":"louisville","name":"RICKY HOWELL","latitude":38.248569,"zip":"40203","address2":null,"category":2,"date":null,"url":null,"id":"a62aa4icv1t9","description":"Date of Birth:&lt;br&gt; 1985-05-18","longitude":-85.765373,"address":"0 dismas house of portland","distance":0.43953,"state":"KY","location":null},"type":"Feature","geometry":{"type":"Point","coordinates":[-85.765373,38.248569]}},{"properties":{"permalink":"http://www.yourmapper.com/details/110/9514/craig-james-collins.htm","detaillink":"http://kspsor.state.ky.us/sor/servlet/SOR?id=9514","imagepath":"http://kspsor.state.ky.us/sor/photos/thumbs/9514.jpg","city":"louisville","name":"CRAIG JAMES COLLINS","latitude":38.256706,"zip":"40203","address2":null,"category":1,"date":null,"url":null,"id":"a62aa4jxnenf","description":"Date of Birth:&lt;br&gt; 1965-07-08","longitude":-85.783569,"address":"1934 west jefferson street","distance":0.94733,"state":"KY","location":null},"type":"Feature","geometry":{"type":"Point","coordinates":[-85.783569,38.256706]}},{"properties":{"permalink":"http://www.yourmapper.com/details/110/9715/rayshawn-d-bell.htm","detaillink":"http://kspsor.state.ky.us/sor/servlet/SOR?id=9715","imagepath":"http://kspsor.state.ky.us/sor/photos/thumbs/9715.jpg","city":"louisville","name":"RAYSHAWN D BELL","latitude":38.253056,"zip":"40203","address2":null,"category":1,"date":null,"url":null,"id":"a62aa4mcy0dg","description":"Date of Birth:&lt;br&gt; 1981-02-01","longitude":-85.776146,"address":"1518 w muhammad ali blvd 1","distance":0.54766,"state":"KY","location":null},"type":"Feature","geometry":{"type":"Point","coordinates":[-85.776146,38.253056]}}],"is_temporal":true,"author":{"url":"http://kspsor.state.ky.us/","metadata":"","contact_name":"","contact_address":"","source":"Kentucky State Police Sex Offender Registry","contact_phone":""},"source":"http://kspsor.state.ky.us/","pagination":{"sort":null,"start":0,"total":101,"limit":1000000},"state":"complete","tags":"kentucky,louisville,offender,sex","published":"2010-09-03T15:54:22Z","id":62672}