{"type":"FeatureCollection","data_type":"Dataset","url_type":null,"permissions":[{"permissions":{"download":true,"view":true},"group_id":"everyone"}],"classification":null,"title":"PortalWisconsin.org -  Multipurpose","count":576,"stream_id":63008,"contributor":{"url":"http://geocommons.com/users/13336","name":"natrick"},"data_attributes":null,"calculation_params":null,"icon_link":null,"link":"http://geocommons.com/overlays/63008.json","extent":[-92.5976,42.5239,-86.8975,46.8535],"geometry_types":["point"],"unique_name":null,"name":"PortalWisconsin.org -  Multipurpose","feature_count":576,"description":"","next_feature":null,"is_raster":false,"short_classification":"Y","stats":{"geo_score":{"max":0.857,"mean":0.840147569444455,"variance":0.00243241470712558,"stdev":0.0493195164932258,"min":0.0,"median":0.857}},"features":[{"properties":{"city":"West Bend","zip":null,"add":"323 S. Fifth Ave.","geo_score":0.75,"venue":"5th Avenue United Methodist Church","id":"a6lgpg08ov68","geo_precision":"city","state":"WI"},"type":"Feature","geometry":{"type":"Point","coordinates":[-91.853523,46.448552]}},{"properties":{"city":"Milwaukee","zip":"53202","add":"Astor Hotel, Suite 202 -- 924 E. Juneau Ave.","geo_score":0.857,"venue":"AAUW - Milwaukee Branch","id":"a6lgpfze25s5","geo_precision":"city","state":"WI"},"type":"Feature","geometry":{"type":"Point","coordinates":[-87.906474,43.038903]}},{"properties":{"city":"Eau Claire","zip":"54701","add":"505 S. Barstow","geo_score":0.857,"venue":"Acoustic Cafe","id":"a6lgpfunusad","geo_precision":"city","state":"WI"},"type":"Feature","geometry":{"type":"Point","coordinates":[-91.473097,44.75653]}},{"properties":{"city":"Lac du Flambeau","zip":"54538","add":"Peace Pipe Road","geo_score":0.725,"venue":"Adaawe Mall","id":"a6lgpg0s0fiu","geo_precision":"city","state":"WI"},"type":"Feature","geometry":{"type":"Point","coordinates":[-91.579323,44.458299]}},{"properties":{"city":"Fitchburg","zip":"53711","add":"5500 East Cheryl Parkway","geo_score":0.857,"venue":"Agora Art Fair","id":"a6lgpftm510f","geo_precision":"city","state":"WI"},"type":"Feature","geometry":{"type":"Point","coordinates":[-89.469843,42.960832]}},{"properties":{"city":"Kewaunee","zip":"54216","add":"N2251 State Road 42","geo_score":0.857,"venue":"Agricultural Heritage and Resources Inc.","id":"a6lgpfvgerzr","geo_precision":"city","state":"WI"},"type":"Feature","geometry":{"type":"Point","coordinates":[-87.592719,44.438185]}},{"properties":{"city":"Oshkosh","zip":"54901","add":"1174 Algoma Blvd.","geo_score":0.857,"venue":"Algoma Boulevard United Methodist Church","id":"a6lgpfzpyqzu","geo_precision":"city","state":"WI"},"type":"Feature","geometry":{"type":"Point","coordinates":[-88.55756,44.005661]}},{"properties":{"city":"Appleton","zip":"54911","add":"400 E. College Ave.","geo_score":0.857,"venue":"All Saints' Episcopal Church of Appleton","id":"a6lgpfzxbeea","geo_precision":"city","state":"WI"},"type":"Feature","geometry":{"type":"Point","coordinates":[-88.370856,44.275702]}},{"properties":{"city":"Kingston","zip":"53949","add":"County Road B","geo_score":0.857,"venue":"American Legion Grounds Kingston","id":"a6lgpfyfet0i","geo_precision":"city","state":"WI"},"type":"Feature","geometry":{"type":"Point","coordinates":[-89.130237,43.6911]}},{"properties":{"city":"Hartland","zip":"53029","add":"321 Goodwin Avenue","geo_score":0.857,"venue":"American Legion Hall","id":"a6lgpfsjvrci","geo_precision":"city","state":"WI"},"type":"Feature","geometry":{"type":"Point","coordinates":[-88.336087,43.123679]}},{"properties":{"city":"Cambridge","zip":"53523","add":"200 Spring Street","geo_score":0.857,"venue":"Amundson Community Center","id":"a6lgpfw3pfrb","geo_precision":"city","state":"WI"},"type":"Feature","geometry":{"type":"Point","coordinates":[-89.080742,42.987505]}},{"properties":{"city":"Shorewood","zip":"53211","add":"2107 E. Capitol Dr.","geo_score":0.857,"venue":"Anaba Tea Room","id":"a6lgpfutgutj","geo_precision":"city","state":"WI"},"type":"Feature","geometry":{"type":"Point","coordinates":[-87.887585,43.089179]}},{"properties":{"city":"Coloma","zip":"54930","add":"155 N Front St","geo_score":0.857,"venue":"Anna Follett Center","id":"a6lgpfxhgz76","geo_precision":"city","state":"WI"},"type":"Feature","geometry":{"type":"Point","coordinates":[-89.486854,44.026085]}},{"properties":{"city":"Minocqua","zip":"54548","add":"Hwy 70 East/Big Arbor Vitae Drive","geo_score":0.857,"venue":"Arbor Vitae Arts Fair Kiwanis","id":"a6lgpfuwb0e6","geo_precision":"city","state":"WI"},"type":"Feature","geometry":{"type":"Point","coordinates":[-89.824294,45.827583]}},{"properties":{"city":"Omro","zip":"54963","add":"6320 County Road K","geo_score":0.857,"venue":"Art Barn","id":"a6lgpfy33ylh","geo_precision":"city","state":"WI"},"type":"Feature","geometry":{"type":"Point","coordinates":[-88.754887,44.050782]}},{"properties":{"city":"Appleton","zip":"54911-5607","add":"326 E. North St.","geo_score":0.857,"venue":"Arthur Krempin School of Music","id":"a6lgpftyaamr","geo_precision":"city","state":"WI"},"type":"Feature","geometry":{"type":"Point","coordinates":[-88.370856,44.275702]}},{"properties":{"city":"Madison","zip":"53705","add":"6101 University Ave.","geo_score":0.857,"venue":"Asbury United Methodist Church","id":"a6lgpfz4euu5","geo_precision":"city","state":"WI"},"type":"Feature","geometry":{"type":"Point","coordinates":[-89.40123,43.073052]}},{"properties":{"city":"Minocqua","zip":"54548","add":"7937 Hwy. 51 S.","geo_score":0.857,"venue":"Ascension Lutheran Church","id":"a6lgpfqvzcsu","geo_precision":"city","state":"WI"},"type":"Feature","geometry":{"type":"Point","coordinates":[-89.824294,45.827583]}},{"properties":{"city":"Madison","zip":null,"add":"11 N. Seventh Street","geo_score":0.857,"venue":"Assumption Greek Orthodox Church","id":"a6lgpfoas1v5","geo_precision":"city","state":"WI"},"type":"Feature","geometry":{"type":"Point","coordinates":[-89.40123,43.073052]}},{"properties":{"city":"Odanah","zip":"54861","add":"U.S. Highway 2","geo_score":0.857,"venue":"Bad River Casino and Conference Center","id":"a6lgpfycs4q9","geo_precision":"city","state":"WI"},"type":"Feature","geometry":{"type":"Point","coordinates":[-90.619716,46.560783]}},{"properties":{"city":"Bangor","zip":"54614","add":"17th Ave. N. (Hwy. 162) and Badger St.","geo_score":0.857,"venue":"Bangor First Baptist Church","id":"a6lgpfqkabwg","geo_precision":"city","state":"WI"},"type":"Feature","geometry":{"type":"Point","coordinates":[-91.081457,43.919308]}},{"properties":{"city":"Superior","zip":"54880","add":"300 Marina Drive","geo_score":0.857,"venue":"Barker's Island Inn","id":"a6lgpfvocjck","geo_precision":"city","state":"WI"},"type":"Feature","geometry":{"type":"Point","coordinates":[-92.117578,46.574982]}},{"properties":{"city":"Milwaukee","zip":"53207","add":"2333 S. 6th St.","geo_score":0.857,"venue":"Basilica of St. Josaphat","id":"a6lgpg19kshh","geo_precision":"city","state":"WI"},"type":"Feature","geometry":{"type":"Point","coordinates":[-87.906474,43.038903]}},{"properties":{"city":"Glendale","zip":"53217","add":"700 W. Lexington Blvd.","geo_score":0.857,"venue":"Bavarian Inn","id":"a6lgpfpy9zmo","geo_precision":"city","state":"WI"},"type":"Feature","geometry":{"type":"Point","coordinates":[-87.935642,43.135288]}},{"properties":{"city":"Whitefish Bay","zip":"53217","add":"1200 E. Hampton Rd.","geo_score":0.857,"venue":"Bay Shore Lutheran Church","id":"a6lgpftju5ko","geo_precision":"city","state":"WI"},"type":"Feature","geometry":{"type":"Point","coordinates":[-87.900086,43.113345]}},{"properties":{"city":"Bayfield","zip":null,"add":"306 Washington Avenue","geo_score":0.857,"venue":"Bayfield Presbyterian Church","id":"a6lgpfs5vwuo","geo_precision":"city","state":"WI"},"type":"Feature","geometry":{"type":"Point","coordinates":[-90.915934,46.853517]}},{"properties":{"city":"Milwaukee","zip":null,"add":"2535 S. Kinnickinnic Avenue","geo_score":0.857,"venue":"Bayview Brew Haus","id":"a6lgpfte4s6u","geo_precision":"city","state":"WI"},"type":"Feature","geometry":{"type":"Point","coordinates":[-87.906474,43.038903]}},{"properties":{"city":"Beaver Dam","zip":"53916","add":"300 Beichl Ave.","geo_score":0.81,"venue":"Beaver Dam Veterans Center","id":"a6lgpfrnqlx3","geo_precision":"city","state":"WI"},"type":"Feature","geometry":{"type":"Point","coordinates":[-88.017883,45.13748]}},{"properties":{"city":"Beloit","zip":"53511","add":"700 College St.","geo_score":0.786,"venue":"Beloit College","id":"a6lgpfnzcxuo","geo_precision":"city","state":"WI"},"type":"Feature","geometry":{"type":"Point","coordinates":[-87.705366,44.34194]}},{"properties":{"city":"La Crosse","zip":"54601","add":"203 S. Fourth St.","geo_score":0.857,"venue":"Beneath Salon Medusa","id":"a6lgpg12ijto","geo_precision":"city","state":"WI"},"type":"Feature","geometry":{"type":"Point","coordinates":[-91.132072,43.85456]}},{"properties":{"city":"Milwaukee","zip":"53233","add":"901 W. Juneau","geo_score":0.857,"venue":"Best Place at the Historic Pabst Brewery","id":"a6lgpfrorks9","geo_precision":"city","state":"WI"},"type":"Feature","geometry":{"type":"Point","coordinates":[-87.906474,43.038903]}},{"properties":{"city":"Kenosha","zip":"53143","add":"6050 8th Ave.","geo_score":0.796,"venue":"Beth Hillel Temple","id":"a6lgpfoy3q5r","geo_precision":"city","state":"WI"},"type":"Feature","geometry":{"type":"Point","coordinates":[-88.190381,44.615548]}},{"properties":{"city":"Madison","zip":"53704","add":"301 Riverside Dr.","geo_score":0.857,"venue":"Bethany E. Free Church","id":"a6lgpfvoeger","geo_precision":"city","state":"WI"},"type":"Feature","geometry":{"type":"Point","coordinates":[-89.40123,43.073052]}},{"properties":{"city":"Ephraim","zip":"54211","add":"10020 Cedar St.","geo_score":0.857,"venue":"Bethany Lutheran Church","id":"a6lgpfybrauk","geo_precision":"city","state":"WI"},"type":"Feature","geometry":{"type":"Point","coordinates":[-87.171024,45.159184]}},{"properties":{"city":"Madison","zip":"53705","add":"3910 Mineral Point Rd.","geo_score":0.857,"venue":"Bethany United Methodist Church","id":"a6lgpfpsr6vi","geo_precision":"city","state":"WI"},"type":"Feature","geometry":{"type":"Point","coordinates":[-89.40123,43.073052]}},{"properties":{"city":"Madison","zip":"53703","add":"312 Wisconsin Ave.","geo_score":0.857,"venue":"Bethel Lutheran Church","id":"a6lgpg1zgprq","geo_precision":"city","state":"WI"},"type":"Feature","geometry":{"type":"Point","coordinates":[-89.40123,43.073052]}},{"properties":{"city":"Portage","zip":"53901","add":"W8267 Hwy 33 East","geo_score":0.857,"venue":"Bethlehem Lutheran Church","id":"a6lgpfq4mctb","geo_precision":"city","state":"WI"},"type":"Feature","geometry":{"type":"Point","coordinates":[-89.399335,43.50666]}},{"properties":{"city":"Madison","zip":"53744","add":"702 S. High Point Rd.","geo_score":0.857,"venue":"Bishop O'Connor Catholic Pastoral Center","id":"a6lgpfnkujs8","geo_precision":"city","state":"WI"},"type":"Feature","geometry":{"type":"Point","coordinates":[-89.40123,43.073052]}},{"properties":{"city":"Saint Germain","zip":"54558","add":"1330 Halberstadt Road","geo_score":0.774,"venue":"Black Bear Lodge","id":"a6lgpfntkqnd","geo_precision":"city","state":"WI"},"type":"Feature","geometry":{"type":"Point","coordinates":[-90.22462,46.438281]}},{"properties":{"city":"Black River Falls","zip":"54615","add":"100 N. 4th St.","geo_score":0.743,"venue":"Black River Falls United Methodist Church","id":"a6lgpfrecmkl","geo_precision":"city","state":"WI"},"type":"Feature","geometry":{"type":"Point","coordinates":[-89.234838,43.089719]}},{"properties":{"city":"Verona","zip":"53593","add":"9620 Brader Way","geo_score":0.857,"venue":"Blackhawk Church","id":"a6lgpfpsnpgc","geo_precision":"city","state":"WI"},"type":"Feature","geometry":{"type":"Point","coordinates":[-89.566512,42.995697]}},{"properties":{"city":"Milwaukee","zip":"53215","add":"3100 S. 41st St.","geo_score":0.857,"venue":"Blessed Sacrament Church Hall","id":"a6lgpfwy745d","geo_precision":"city","state":"WI"},"type":"Feature","geometry":{"type":"Point","coordinates":[-87.906474,43.038903]}},{"properties":{"city":"Richland Center","zip":"53589","add":"165 N. Central Avenue","geo_score":0.765,"venue":"Blue Highways Building","id":"a6lgpfwftw8j","geo_precision":"city","state":"WI"},"type":"Feature","geometry":{"type":"Point","coordinates":[-87.705365,44.313051]}},{"properties":{"city":"Green Lake","zip":"54941","add":"Hwy 23 and Princeton Rd.","geo_score":0.73,"venue":"Boston Farm","id":"a6lgpfohnggj","geo_precision":"city","state":"WI"},"type":"Feature","geometry":{"type":"Point","coordinates":[-87.745645,44.356106]}},{"properties":{"city":"Milwaukee","zip":"53211","add":"2559 N. Downer Ave.","geo_score":0.857,"venue":"Boswell Book Company","id":"a6lgpfmo3zbk","geo_precision":"city","state":"WI"},"type":"Feature","geometry":{"type":"Point","coordinates":[-87.906474,43.038903]}},{"properties":{"city":"Boulder Junction","zip":null,"add":"10249 Fish Trap Lake Rd.","geo_score":0.857,"venue":"Boulder Junction Community Center","id":"a6lgpfn9w9dc","geo_precision":"city","state":"WI"},"type":"Feature","geometry":{"type":"Point","coordinates":[-89.531393,46.078442]}},{"properties":{"city":"Neenah","zip":null,"add":"109 W. Columbian Ave.","geo_score":0.786,"venue":"Boys &amp; Girls Brigade Building","id":"a6lgpfyvinyf","geo_precision":"city","state":"WI"},"type":"Feature","geometry":{"type":"Point","coordinates":[-88.391487,43.446109]}},{"properties":{"city":"Sheboygan","zip":"53081","add":"6451 S. Business Drive","geo_score":0.857,"venue":"Breaking Bread Banquet and Meeting Center","id":"a6lgpfo7albq","geo_precision":"city","state":"WI"},"type":"Feature","geometry":{"type":"Point","coordinates":[-87.856793,43.722489]}},{"properties":{"city":"Madison","zip":"53703","add":"7 W. Main","geo_score":0.857,"venue":"Brocach Irish Pub","id":"a6lgpfsl45ix","geo_precision":"city","state":"WI"},"type":"Feature","geometry":{"type":"Point","coordinates":[-89.40123,43.073052]}},{"properties":{"city":"Brookfield","zip":null,"add":"2000 N. Calhoun Rd.","geo_score":0.857,"venue":"Brookfield Senior Center","id":"a6lgpfp8r9t8","geo_precision":"city","state":"WI"},"type":"Feature","geometry":{"type":"Point","coordinates":[-88.105906,43.062707]}},{"properties":{"city":"Milwaukee","zip":"53212","add":"1319 N. Martin Luther King Jr. Dr.","geo_score":0.857,"venue":"Bucketworks","id":"a6lgpfub3bq6","geo_precision":"city","state":"WI"},"type":"Feature","geometry":{"type":"Point","coordinates":[-87.906474,43.038903]}},{"properties":{"city":"Wisconsin Dells","zip":"53965","add":"150 Gasser Rd","geo_score":0.79,"venue":"Buffalo Phil's Pizza and Grille","id":"a6lgpfqkiism","geo_precision":"city","state":"WI"},"type":"Feature","geometry":{"type":"Point","coordinates":[-88.911228,45.656073]}},{"properties":{"city":"Madison","zip":"53718","add":"5720 Portage Rd.","geo_score":0.857,"venue":"Burke Lutheran Church","id":"a6lgpfugox31","geo_precision":"city","state":"WI"},"type":"Feature","geometry":{"type":"Point","coordinates":[-89.40123,43.073052]}},{"properties":{"city":"Madison","zip":"53703","add":"228 State St.","geo_score":0.857,"venue":"CTM Studio","id":"a6lgpfsv1qbb","geo_precision":"city","state":"WI"},"type":"Feature","geometry":{"type":"Point","coordinates":[-89.40123,43.073052]}},{"properties":{"city":"Mineral Point","zip":"53565","add":"20 Commerce Street","geo_score":0.857,"venue":"Caf?our","id":"a6lgpfnnuc3y","geo_precision":"city","state":"WI"},"type":"Feature","geometry":{"type":"Point","coordinates":[-90.152558,42.989701]}},{"properties":{"city":"Wauwatosa","zip":"53225-4498","add":"4515 N. Mayfair Rd.","geo_score":0.857,"venue":"Calvary Memorial United Church of Christ","id":"a6lgpfzqpt32","geo_precision":"city","state":"WI"},"type":"Feature","geometry":{"type":"Point","coordinates":[-88.007588,43.049457]}},{"properties":{"city":"Milwaukee","zip":"53233","add":"935 W. Wisconsin Ave.","geo_score":0.857,"venue":"Calvary Presbyterian Church","id":"a6lgpfxe5wdc","geo_precision":"city","state":"WI"},"type":"Feature","geometry":{"type":"Point","coordinates":[-87.906474,43.038903]}},{"properties":{"city":"Cambria","zip":null,"add":"Corner of Florence and Towyn","geo_score":0.857,"venue":"Cambria Presbyterian Church","id":"a6lgpfz0z0yg","geo_precision":"city","state":"WI"},"type":"Feature","geometry":{"type":"Point","coordinates":[-89.15173,43.550235]}},{"properties":{"city":"Crivitz","zip":"54114","add":"Caldron Falls Rd.","geo_score":0.857,"venue":"Camp Bird Youth Camp","id":"a6lgpfr9haz6","geo_precision":"city","state":"WI"},"type":"Feature","geometry":{"type":"Point","coordinates":[-88.078001,45.261661]}},{"properties":{"city":"Boulder Junction","zip":null,"add":"Highway K West","geo_score":0.857,"venue":"Camp Manitowish","id":"a6lgpfof8621","geo_precision":"city","state":"WI"},"type":"Feature","geometry":{"type":"Point","coordinates":[-89.531393,46.078442]}},{"properties":{"city":"Middleton","zip":"53562","add":"7734 Terrace Ave.","geo_score":0.857,"venue":"Capital Brewery","id":"a6lgpfps3y7h","geo_precision":"city","state":"WI"},"type":"Feature","geometry":{"type":"Point","coordinates":[-89.529153,43.114772]}},{"properties":{"city":"Milwaukee","zip":null,"add":"5229 W. Capitol Dr.","geo_score":0.857,"venue":"Capitol Drive Lutheran Church","id":"a6lgpg20v2qi","geo_precision":"city","state":"WI"},"type":"Feature","geometry":{"type":"Point","coordinates":[-87.906474,43.038903]}},{"properties":{"city":"Janesville","zip":"53545","add":"2000 Wesley Ave.","geo_score":0.857,"venue":"Cargill United Methodist Church","id":"a6lgpfzaxn17","geo_precision":"city","state":"WI"},"type":"Feature","geometry":{"type":"Point","coordinates":[-89.112201,42.710981]}},{"properties":{"city":"Mercer","zip":null,"add":"Highway J","geo_score":0.857,"venue":"Carow Tourist Park","id":"a6lgpfqq47ef","geo_precision":"city","state":"WI"},"type":"Feature","geometry":{"type":"Point","coordinates":[-90.110725,46.143746]}},{"properties":{"city":"Milwaukee","zip":"53202","add":"818 E. Juneau Ave.","geo_score":0.857,"venue":"Cathedral Church of All Saints","id":"a6lgpfxvikpm","geo_precision":"city","state":"WI"},"type":"Feature","geometry":{"type":"Point","coordinates":[-87.906474,43.038903]}},{"properties":{"city":"Madison","zip":"53713","add":"1862 Beld St.","geo_score":0.857,"venue":"Catholic Multicultural Center","id":"a6lgpfv6e32e","geo_precision":"city","state":"WI"},"type":"Feature","geometry":{"type":"Point","coordinates":[-89.40123,43.073052]}},{"properties":{"city":"Rothschild","zip":"54474","add":"10101 Market Street","geo_score":0.857,"venue":"Cedar Creek Mall","id":"a6lgpfohihjp","geo_precision":"city","state":"WI"},"type":"Feature","geometry":{"type":"Point","coordinates":[-89.712935,44.898819]}},{"properties":{"city":"Ripon","zip":"54971","add":"W14471 Dartford Road","geo_score":0.857,"venue":"Cedar Ridge Ranch","id":"a6lgpfqy8o0n","geo_precision":"city","state":"WI"},"type":"Feature","geometry":{"type":"Point","coordinates":[-88.533445,43.782526]}},{"properties":{"city":"Cedarburg","zip":null,"add":"W63 N641 Washington Ave.","geo_score":0.857,"venue":"Cedarburg Community Center","id":"a6lgpfzfzbmk","geo_precision":"city","state":"WI"},"type":"Feature","geometry":{"type":"Point","coordinates":[-88.004033,43.321475]}},{"properties":{"city":"Cedarburg","zip":"53012","add":"W63 N641 Washington Ave.","geo_score":0.857,"venue":"Cedarburg Community Gymnasium","id":"a6lgpfsrhj50","geo_precision":"city","state":"WI"},"type":"Feature","geometry":{"type":"Point","coordinates":[-88.004033,43.321475]}},{"properties":{"city":"Cedarburg","zip":"53012-0350","add":"W62 N546 Washington Ave.","geo_score":0.857,"venue":"Cedarburg Cultural Center","id":"a6lgpfsy1znr","geo_precision":"city","state":"WI"},"type":"Feature","geometry":{"type":"Point","coordinates":[-88.004033,43.321475]}},{"properties":{"city":"Cedarburg","zip":"53012-0350","add":"W68 N611 Evergreen Boulevard","geo_score":0.857,"venue":"Cedarburg Performing Arts Center","id":"a6lgpfqz9gs8","geo_precision":"city","state":"WI"},"type":"Feature","geometry":{"type":"Point","coordinates":[-88.004033,43.321475]}},{"properties":{"city":"Wisconsin Rapids","zip":"54494","add":"240 Johnson St.","geo_score":0.798,"venue":"Central Wisconsin Cultural Center","id":"a6lgpfvyzza3","geo_precision":"city","state":"WI"},"type":"Feature","geometry":{"type":"Point","coordinates":[-88.911228,45.656073]}},{"properties":{"city":"Superior","zip":"54880","add":"39 N. 25th St. East","geo_score":0.857,"venue":"Challenge Center","id":"a6lgpg2eviyt","geo_precision":"city","state":"WI"},"type":"Feature","geometry":{"type":"Point","coordinates":[-92.117578,46.574982]}},{"properties":{"city":"Brookfield","zip":"53005","add":"12560 W. Townsend St.","geo_score":0.857,"venue":"Channel 10/36 Friends, Inc.","id":"a6lgpg2g2bmx","geo_precision":"city","state":"WI"},"type":"Feature","geometry":{"type":"Point","coordinates":[-88.105906,43.062707]}},{"properties":{"city":"Marshfield","zip":"54449","add":"208 S. Chestnut Ave. - P.O. Box 613","geo_score":0.786,"venue":"Chestnut Avenue Center for the Arts","id":"a6lgpfqudoci","geo_precision":"city","state":"WI"},"type":"Feature","geometry":{"type":"Point","coordinates":[-89.659844,43.191103]}},{"properties":{"city":"Waupaca","zip":"54981","add":"108 S. Main","geo_score":0.857,"venue":"Chez Marche Cafe","id":"a6lgpfqyr1ib","geo_precision":"city","state":"WI"},"type":"Feature","geometry":{"type":"Point","coordinates":[-89.04668,44.429163]}},{"properties":{"city":"La Crosse","zip":"54601","add":"111 N. Ninth St.","geo_score":0.857,"venue":"Christ Episcopal Church","id":"a6lgpftwcxui","geo_precision":"city","state":"WI"},"type":"Feature","geometry":{"type":"Point","coordinates":[-91.132072,43.85456]}},{"properties":{"city":"Spring Green","zip":"53588","add":"237 E. Daley St.","geo_score":0.753,"venue":"Christ Lutheran Church","id":"a6lgpfuuhc9u","geo_precision":"city","state":"WI"},"type":"Feature","geometry":{"type":"Point","coordinates":[-87.745645,44.356106]}},{"properties":{"city":"Marshfield","zip":"54449","add":"1208 W. 14th St.","geo_score":0.786,"venue":"Christ Lutheran Church","id":"a6lgpfu2z91a","geo_precision":"city","state":"WI"},"type":"Feature","geometry":{"type":"Point","coordinates":[-89.659844,43.191103]}},{"properties":{"city":"Madison","zip":"53703","add":"944 E. Gorham St.","geo_score":0.857,"venue":"Christ Presbyterian Church","id":"a6lgpfxigcsh","geo_precision":"city","state":"WI"},"type":"Feature","geometry":{"type":"Point","coordinates":[-89.40123,43.073052]}},{"properties":{"city":"Stevens Point","zip":"54481","add":"1417 Church St.","geo_score":0.821,"venue":"Church of the Intercession","id":"a6lgpfnjxjtb","geo_precision":"city","state":"WI"},"type":"Feature","geometry":{"type":"Point","coordinates":[-91.171532,44.036351]}},{"properties":{"city":"Verona","zip":"53593","add":"100 Cross Country Road","geo_score":0.857,"venue":"Circolo","id":"a6lgpfqyl5yv","geo_precision":"city","state":"WI"},"type":"Feature","geometry":{"type":"Point","coordinates":[-89.566512,42.995697]}},{"properties":{"city":"Stevens Point","zip":"54481","add":"1009 Clark St.","geo_score":0.821,"venue":"Clark Place","id":"a6lgpfvt97s8","geo_precision":"city","state":"WI"},"type":"Feature","geometry":{"type":"Point","coordinates":[-91.171532,44.036351]}},{"properties":{"city":"Clear Lake","zip":"54005","add":"560 Fifth St.","geo_score":0.73,"venue":"Clear Lake Community Center","id":"a6lgpfsggh4u","geo_precision":"city","state":"WI"},"type":"Feature","geometry":{"type":"Point","coordinates":[-87.776246,43.748441]}},{"properties":{"city":"Milwaukee","zip":"53228","add":"9339 W. Howard Ave.","geo_score":0.857,"venue":"Clement Manor Retirement Community","id":"a6lgpg1tj416","geo_precision":"city","state":"WI"},"type":"Feature","geometry":{"type":"Point","coordinates":[-87.906474,43.038903]}},{"properties":{"city":"Phillips","zip":null,"add":"784 N. Lake Ave.","geo_score":0.804,"venue":"Club 13","id":"a6lgpfujw4sv","geo_precision":"city","state":"WI"},"type":"Feature","geometry":{"type":"Point","coordinates":[-89.257762,46.092807]}},{"properties":{"city":"Roberts","zip":"54023","add":"201 N. Vine Steet","geo_score":0.857,"venue":"Color Crossing","id":"a6lgpfn5pjny","geo_precision":"city","state":"WI"},"type":"Feature","geometry":{"type":"Point","coordinates":[-92.59762,44.974357]}},{"properties":{"city":"Mequon","zip":null,"add":"13111 N. Port Washington Rd.","geo_score":0.857,"venue":"Columbia St. Mary's-Ozaukee Campus","id":"a6lgpfq7elk2","geo_precision":"city","state":"WI"},"type":"Feature","geometry":{"type":"Point","coordinates":[-87.984534,43.236396]}},{"properties":{"city":"North Fond du Lac","zip":null,"add":"701 Minnesota Ave.","geo_score":0.857,"venue":"Community United Methodist Church, North Fond du Lac","id":"a6lgpfpmg693","geo_precision":"city","state":"WI"},"type":"Feature","geometry":{"type":"Point","coordinates":[-88.483442,43.811377]}},{"properties":{"city":"Concord","zip":"53178","add":"W985 Concord Center Drive","geo_score":0.857,"venue":"Concord House","id":"a6lgpfrhtxqf","geo_precision":"city","state":"WI"},"type":"Feature","geometry":{"type":"Point","coordinates":[-88.598712,43.06945]}},{"properties":{"city":"Milwaukee","zip":"53209","add":"6880 N. Green Bay Ave.","geo_score":0.857,"venue":"Congregation Beth Israel","id":"a6lgpfv5f71h","geo_precision":"city","state":"WI"},"type":"Feature","geometry":{"type":"Point","coordinates":[-87.906474,43.038903]}},{"properties":{"city":"Cooksville","zip":null,"add":"11927 W. Church Rd.","geo_score":0.857,"venue":"Cooksville Lutheran Church","id":"a6lgpfqflnuf","geo_precision":"city","state":"WI"},"type":"Feature","geometry":{"type":"Point","coordinates":[-89.240672,42.835282]}},{"properties":{"city":"Richland Center","zip":"53581","add":"1200 Hwy 14 West","geo_score":0.765,"venue":"Coppertop Theater - UW-Richland","id":"a6lgpfzjws7k","geo_precision":"city","state":"WI"},"type":"Feature","geometry":{"type":"Point","coordinates":[-87.705365,44.313051]}},{"properties":{"city":"Sturgeon Bay","zip":"54235","add":"805 W. Juniper","geo_score":0.857,"venue":"Corpus Christi Social Hall","id":"a6lgpfzuoqcp","geo_precision":"city","state":"WI"},"type":"Feature","geometry":{"type":"Point","coordinates":[-87.384142,44.945314]}},{"properties":{"city":"Madison","zip":"53705","add":"326 S. Segoe Rd.","geo_score":0.857,"venue":"Covenant Presbyterian Church","id":"a6lgpg0jgmyz","geo_precision":"city","state":"WI"},"type":"Feature","geometry":{"type":"Point","coordinates":[-89.40123,43.073052]}},{"properties":{"city":"Manitowish Waters","zip":"54545","add":"US Hwy 151","geo_score":0.804,"venue":"Cozy Cove Tavern and Restaurant","id":"a6lgpfntyprj","geo_precision":"city","state":"WI"},"type":"Feature","geometry":{"type":"Point","coordinates":[-90.013495,46.133004]}},{"properties":{"city":"Janesville","zip":"53545","add":"1301 Craig Ave.","geo_score":0.857,"venue":"Craig Center","id":"a6lgpfouq9ep","geo_precision":"city","state":"WI"},"type":"Feature","geometry":{"type":"Point","coordinates":[-89.112201,42.710981]}},{"properties":{"city":"Milwaukee","zip":"53212","add":"732 E Clarke St","geo_score":0.857,"venue":"Cream City Collectives","id":"a6lgpfofrjc5","geo_precision":"city","state":"WI"},"type":"Feature","geometry":{"type":"Point","coordinates":[-87.906474,43.038903]}},{"properties":{"city":"Mequon","zip":"53097","add":"Highland &amp; Green Bay Roads","geo_score":0.857,"venue":"Crossroads Presbyterian Church","id":"a6lgpfwd439p","geo_precision":"city","state":"WI"},"type":"Feature","geometry":{"type":"Point","coordinates":[-87.984534,43.236396]}},{"properties":{"city":"Madison","zip":null,"add":"5501 University Ave","geo_score":0.857,"venue":"Dale Heights Presbyterian Church","id":"a6lgpfqyljzq","geo_precision":"city","state":"WI"},"type":"Feature","geometry":{"type":"Point","coordinates":[-89.40123,43.073052]}},{"properties":{"city":"Milwaukee","zip":"53202","add":"1661 N. Water St.","geo_score":0.857,"venue":"Danceworks Studio Theatre","id":"a6lgpfo1giha","geo_precision":"city","state":"WI"},"type":"Feature","geometry":{"type":"Point","coordinates":[-87.906474,43.038903]}},{"properties":{"city":"Racine","zip":"53403","add":"600 21st St.","geo_score":0.857,"venue":"DeKoven Center","id":"a6lgpfrv18nb","geo_precision":"city","state":"WI"},"type":"Feature","geometry":{"type":"Point","coordinates":[-87.675979,42.727153]}},{"properties":{"city":"Delavan","zip":null,"add":"213 S. 2nd Street","geo_score":0.857,"venue":"Delavan United Methodist Church","id":"a6lgpfpjibm1","geo_precision":"city","state":"WI"},"type":"Feature","geometry":{"type":"Point","coordinates":[-88.653496,42.641556]}},{"properties":{"city":"Denmark","zip":null,"add":"141 Highridge","geo_score":0.857,"venue":"Denmark Senior Center","id":"a6lgpg02zrk6","geo_precision":"city","state":"WI"},"type":"Feature","geometry":{"type":"Point","coordinates":[-87.885734,44.459153]}},{"properties":{"city":"Madison","zip":null,"add":"5702 S. Hill Rd.","geo_score":0.857,"venue":"Divine Savior United Methodist Church","id":"a6lgpfwh77q6","geo_precision":"city","state":"WI"},"type":"Feature","geometry":{"type":"Point","coordinates":[-89.40123,43.073052]}},{"properties":{"city":"Dodgeville","zip":null,"add":"200 W. Chapel St.","geo_score":0.857,"venue":"Dodgeville Masonic Hall","id":"a6lgpfvegrs2","geo_precision":"city","state":"WI"},"type":"Feature","geometry":{"type":"Point","coordinates":[-90.192522,43.007063]}},{"properties":{"city":"Door County","zip":null,"add":"Various locations","geo_score":0.757,"venue":"Door County Holiday Home Tour","id":"a6lgpg0i28k3","geo_precision":"city","state":"WI"},"type":"Feature","geometry":{"type":"Point","coordinates":[-88.44482,42.778903]}},{"properties":{"city":"Racine","zip":null,"add":"601 21st Street","geo_score":0.857,"venue":"Dr. John Bryant Community Center","id":"a6lgpg19dh60","geo_precision":"city","state":"WI"},"type":"Feature","geometry":{"type":"Point","coordinates":[-87.675979,42.727153]}},{"properties":{"city":"Sheboygan","zip":"53081","add":"1201 Erie Avenue","geo_score":0.857,"venue":"EBCO ARTWORKS","id":"a6lgpfm8lttz","geo_precision":"city","state":"WI"},"type":"Feature","geometry":{"type":"Point","coordinates":[-87.856793,43.722489]}},{"properties":{"city":"Eagle","zip":"53119","add":"W370 S9590 Hwy 67","geo_score":0.857,"venue":"Eagle Centre House Bed &amp; Breakfast","id":"a6lgpfv95lyd","geo_precision":"city","state":"WI"},"type":"Feature","geometry":{"type":"Point","coordinates":[-88.47489,42.929074]}},{"properties":{"city":"Madison","zip":"53704","add":"1733 Thierer Road","geo_score":0.857,"venue":"East Pointe Plaza","id":"a6lgpfoci9ey","geo_precision":"city","state":"WI"},"type":"Feature","geometry":{"type":"Point","coordinates":[-89.40123,43.073052]}},{"properties":{"city":"Eau Claire","zip":null,"add":"Various venues around the city","geo_score":0.857,"venue":"Eau Claire Jazz Festival events","id":"a6lgpg1rj1h7","geo_precision":"city","state":"WI"},"type":"Feature","geometry":{"type":"Point","coordinates":[-91.473097,44.75653]}},{"properties":{"city":"Eau Claire","zip":"54701","add":"616 Graham Ave.","geo_score":0.857,"venue":"Eau Claire Masonic Temple","id":"a6lgpfmgmcqa","geo_precision":"city","state":"WI"},"type":"Feature","geometry":{"type":"Point","coordinates":[-91.473097,44.75653]}},{"properties":{"city":"Ontario","zip":"54651","add":"E 14604 County Rd. F","geo_score":0.857,"venue":"Echo Valley Farm","id":"a6lgpfxwua55","geo_precision":"city","state":"WI"},"type":"Feature","geometry":{"type":"Point","coordinates":[-90.548053,43.696538]}},{"properties":{"city":"Madison","zip":"53705","add":"6048 S. Highlands Ave.","geo_score":0.857,"venue":"Edenfred","id":"a6lgpfuz8b4j","geo_precision":"city","state":"WI"},"type":"Feature","geometry":{"type":"Point","coordinates":[-89.40123,43.073052]}},{"properties":{"city":"Edgerton","zip":"53534","add":"312 W. Fulton St.","geo_score":0.857,"venue":"Edgerton Masonic Lodge","id":"a6lgpfoz1z0w","geo_precision":"city","state":"WI"},"type":"Feature","geometry":{"type":"Point","coordinates":[-89.101389,42.803797]}},{"properties":{"city":"Ellison Bay","zip":"54210","add":"Highway 42","geo_score":0.857,"venue":"Ellison Bay Community Center","id":"a6lgpfq9mdn6","geo_precision":"city","state":"WI"},"type":"Feature","geometry":{"type":"Point","coordinates":[-87.044698,45.253108]}},{"properties":{"city":"Brookfield","zip":"53045","add":"777 S. Barker Rd.","geo_score":0.857,"venue":"Elmbrook Church","id":"a6lgpfufdb2y","geo_precision":"city","state":"WI"},"type":"Feature","geometry":{"type":"Point","coordinates":[-88.105906,43.062707]}},{"properties":{"city":"Land O' Lakes","zip":"54540","add":"4302 County Road B","geo_score":0.757,"venue":"Ely Memorial Church","id":"a6lgpfv3jc3e","geo_precision":"city","state":"WI"},"type":"Feature","geometry":{"type":"Point","coordinates":[-92.206009,44.53969]}},{"properties":{"city":"Ephraim","zip":"54211","add":"9970 Moravia St. - P.O. Box 73","geo_score":0.857,"venue":"Ephraim Moravian Church","id":"a6lgpftjufmr","geo_precision":"city","state":"WI"},"type":"Feature","geometry":{"type":"Point","coordinates":[-87.171024,45.159184]}},{"properties":{"city":"Balsam Lake","zip":"54810","add":"215 Main St.","geo_score":0.857,"venue":"Extension Agency Building","id":"a6lgpfp17f3k","geo_precision":"city","state":"WI"},"type":"Feature","geometry":{"type":"Point","coordinates":[-92.378752,45.421648]}},{"properties":{"city":"Whitewater","zip":"53190","add":"435 Starin Rd.","geo_score":0.857,"venue":"Fairhaven Retirement Community","id":"a6lgpfqj1cth","geo_precision":"city","state":"WI"},"type":"Feature","geometry":{"type":"Point","coordinates":[-88.592559,42.784255]}},{"properties":{"city":"Appleton","zip":"54911","add":"601 E. Glendale Ave.","geo_score":0.857,"venue":"Faith Lutheran Church","id":"a6lgpfu7rmd1","geo_precision":"city","state":"WI"},"type":"Feature","geometry":{"type":"Point","coordinates":[-88.370856,44.275702]}},{"properties":{"city":"Milwaukee","zip":"53222","add":"4240 N. 78th Street","geo_score":0.857,"venue":"Faith United Church of Christ","id":"a6lgpfnipuvm","geo_precision":"city","state":"WI"},"type":"Feature","geometry":{"type":"Point","coordinates":[-87.906474,43.038903]}},{"properties":{"city":"Racine","zip":"53403","add":"#5 Fifth Street","geo_score":0.857,"venue":"Festival Hall","id":"a6lgpfz9c8yx","geo_precision":"city","state":"WI"},"type":"Feature","geometry":{"type":"Point","coordinates":[-87.675979,42.727153]}},{"properties":{"city":"Madison","zip":null,"add":"Various venues","geo_score":0.857,"venue":"Festival locations","id":"a6lgpfmthbub","geo_precision":"city","state":"WI"},"type":"Feature","geometry":{"type":"Point","coordinates":[-89.40123,43.073052]}},{"properties":{"city":"Sister Bay","zip":"54235","add":"954 S. Bay Shore Dr.","geo_score":0.857,"venue":"First Baptist Church","id":"a6lgpfuo4ud3","geo_precision":"city","state":"WI"},"type":"Feature","geometry":{"type":"Point","coordinates":[-87.101748,45.178293]}},{"properties":{"city":"Clinton","zip":null,"add":"309 Allen St.","geo_score":0.857,"venue":"First Baptist Church, Clinton","id":"a6lgpfqigw64","geo_precision":"city","state":"WI"},"type":"Feature","geometry":{"type":"Point","coordinates":[-88.859993,42.56239]}},{"properties":{"city":"Madison","zip":"53705","add":"518 N. Franklin Ave.","geo_score":0.857,"venue":"First Baptist Church, Madison","id":"a6lgpfvqsvr8","geo_precision":"city","state":"WI"},"type":"Feature","geometry":{"type":"Point","coordinates":[-89.40123,43.073052]}},{"properties":{"city":"Wauwatosa","zip":"53213","add":"1511 Church St.","geo_score":0.857,"venue":"First Congregational Church","id":"a6lgpg169xg8","geo_precision":"city","state":"WI"},"type":"Feature","geometry":{"type":"Point","coordinates":[-88.007588,43.049457]}},{"properties":{"city":"Eau Claire","zip":"54703","add":"310 Broadway St.","geo_score":0.857,"venue":"First Congregational Church","id":"a6lgpfxgb0ms","geo_precision":"city","state":"WI"},"type":"Feature","geometry":{"type":"Point","coordinates":[-91.473097,44.75653]}},{"properties":{"city":"Wisconsin Rapids","zip":"54494","add":"311 Second St. So.","geo_score":0.798,"venue":"First Congregational Church","id":"a6lgpfqntfp5","geo_precision":"city","state":"WI"},"type":"Feature","geometry":{"type":"Point","coordinates":[-88.911228,45.656073]}},{"properties":{"city":"Beloit","zip":null,"add":"801 Bushnell St.","geo_score":0.786,"venue":"First Congregational Church (Beloit)","id":"a6lgpfo05m82","geo_precision":"city","state":"WI"},"type":"Feature","geometry":{"type":"Point","coordinates":[-87.705366,44.34194]}},{"properties":{"city":"Appleton","zip":"54915","add":"724 E. South River St.","geo_score":0.857,"venue":"First Congregational Church of Appleton","id":"a6lgpfw69les","geo_precision":"city","state":"WI"},"type":"Feature","geometry":{"type":"Point","coordinates":[-88.370856,44.275702]}},{"properties":{"city":"Redgranite","zip":null,"add":"Hwy 21","geo_score":0.857,"venue":"First Congregational Church of Christ, Redgranite","id":"a6lgpfqlql06","geo_precision":"city","state":"WI"},"type":"Feature","geometry":{"type":"Point","coordinates":[-89.217031,44.080217]}},{"properties":{"city":"Oshkosh","zip":"54901","add":"137 Algoma Blvd.","geo_score":0.857,"venue":"First Congregational Church, Oshkosh","id":"a6lgpft8ddhq","geo_precision":"city","state":"WI"},"type":"Feature","geometry":{"type":"Point","coordinates":[-88.55756,44.005661]}},{"properties":{"city":"Sheboygan","zip":null,"add":"310 Bluff Ave.","geo_score":0.857,"venue":"First Congregational Church, Sheboygan","id":"a6lgpg11rpij","geo_precision":"city","state":"WI"},"type":"Feature","geometry":{"type":"Point","coordinates":[-87.856793,43.722489]}},{"properties":{"city":"Oconomowoc","zip":"53066-3415","add":"815 S. Concord Rd.","geo_score":0.816,"venue":"First Congregational United Church of Christ","id":"a6lgpg1x4l1h","geo_precision":"city","state":"WI"},"type":"Feature","geometry":{"type":"Point","coordinates":[-88.459265,43.104451]}},{"properties":{"city":"Eagle River","zip":null,"add":"105 N First Street","geo_score":0.786,"venue":"First Congregational United Church of Christ","id":"a6lgpg19vwy9","geo_precision":"city","state":"WI"},"type":"Feature","geometry":{"type":"Point","coordinates":[-88.47489,42.929074]}},{"properties":{"city":"Plymouth","zip":"53073","add":"1405 S. Milwaukee St. (State Hwy 67)","geo_score":0.857,"venue":"First Congregational United Church of Christ, Plymouth","id":"a6lgpfqcxwwi","geo_precision":"city","state":"WI"},"type":"Feature","geometry":{"type":"Point","coordinates":[-87.975773,43.768454]}},{"properties":{"city":"Onalaska","zip":"54650","add":"410 Main St.","geo_score":0.857,"venue":"First Lutheran Church, Onalaska","id":"a6lgpftcuzyz","geo_precision":"city","state":"WI"},"type":"Feature","geometry":{"type":"Point","coordinates":[-91.130399,43.886664]}},{"properties":{"city":"La Crosse","zip":"54601","add":"233 West Ave. S.","geo_score":0.857,"venue":"First Presbyterian Church","id":"a6lgpg18e5oo","geo_precision":"city","state":"WI"},"type":"Feature","geometry":{"type":"Point","coordinates":[-91.132072,43.85456]}},{"properties":{"city":"Fond du Lac","zip":"54935-6727","add":"1225 Fourth St.","geo_score":0.857,"venue":"First Presbyterian Church","id":"a6lgpfwd8ayi","geo_precision":"city","state":"WI"},"type":"Feature","geometry":{"type":"Point","coordinates":[-88.523176,43.734724]}},{"properties":{"city":"Beloit","zip":"53511","add":"501 Prospect St.","geo_score":0.786,"venue":"First Presbyterian Church (Beloit)","id":"a6lgpfm4w24l","geo_precision":"city","state":"WI"},"type":"Feature","geometry":{"type":"Point","coordinates":[-87.705366,44.34194]}},{"properties":{"city":"Waunakee","zip":null,"add":"5763 County Road Q","geo_score":0.857,"venue":"First Presbyterian Church (Waunakee)","id":"a6lgpfs08w9s","geo_precision":"city","state":"WI"},"type":"Feature","geometry":{"type":"Point","coordinates":[-89.322655,43.183972]}},{"properties":{"city":"Eau Claire","zip":"54701","add":"2112 Rudolph Rd.","geo_score":0.857,"venue":"First Presbyterian Church, Eau Claire","id":"a6lgpg0wa4i2","geo_precision":"city","state":"WI"},"type":"Feature","geometry":{"type":"Point","coordinates":[-91.473097,44.75653]}},{"properties":{"city":"Neenah","zip":"54956","add":"200 Church St.","geo_score":0.786,"venue":"First Presbyterian Church, Neenah","id":"a6lgpfr2cevi","geo_precision":"city","state":"WI"},"type":"Feature","geometry":{"type":"Point","coordinates":[-88.391487,43.446109]}},{"properties":{"city":"Wausau","zip":"54403","add":"406 Grant St.","geo_score":0.857,"venue":"First Presbyterian Church, Wausau","id":"a6lgpfwmqptp","geo_precision":"city","state":"WI"},"type":"Feature","geometry":{"type":"Point","coordinates":[-89.794002,44.961874]}},{"properties":{"city":"Madison","zip":"53705","add":"900 University Bay Dr.","geo_score":0.857,"venue":"First Unitarian Society of Madison","id":"a6lgpfyfn366","geo_precision":"city","state":"WI"},"type":"Feature","geometry":{"type":"Point","coordinates":[-89.40123,43.073052]}},{"properties":{"city":"Milwaukee","zip":"53202","add":"1342 N. Astor St.","geo_score":0.857,"venue":"First Unitarian Society of Milwaukee","id":"a6lgpfqshgfc","geo_precision":"city","state":"WI"},"type":"Feature","geometry":{"type":"Point","coordinates":[-87.906474,43.038903]}},{"properties":{"city":"Green Bay","zip":"54301","add":"509 S. Webster Ave.","geo_score":0.857,"venue":"First United Church of Christ","id":"a6lgpg1jy4bp","geo_precision":"city","state":"WI"},"type":"Feature","geometry":{"type":"Point","coordinates":[-88.019826,44.519159]}},{"properties":{"city":"Sheboygan","zip":"53081","add":"2401 Kohler Memorial Dr.","geo_score":0.857,"venue":"First United Lutheran Church","id":"a6lgpfxrxzws","geo_precision":"city","state":"WI"},"type":"Feature","geometry":{"type":"Point","coordinates":[-87.856793,43.722489]}},{"properties":{"city":"Madison","zip":"53703","add":"203 Wisconsin Ave.","geo_score":0.857,"venue":"First United Methodist Church","id":"a6lgpfns25ap","geo_precision":"city","state":"WI"},"type":"Feature","geometry":{"type":"Point","coordinates":[-89.40123,43.073052]}},{"properties":{"city":"Appleton","zip":"54911","add":"200 N. Drew St.","geo_score":0.857,"venue":"First United Methodist Church of Appleton","id":"a6lgpfo9jwjt","geo_precision":"city","state":"WI"},"type":"Feature","geometry":{"type":"Point","coordinates":[-88.370856,44.275702]}},{"properties":{"city":"Fitchburg","zip":null,"add":"5510 Lacy Rd.","geo_score":0.857,"venue":"Fitchburg Community Center / Senior Center","id":"a6lgpfpr8sps","geo_precision":"city","state":"WI"},"type":"Feature","geometry":{"type":"Point","coordinates":[-89.469843,42.960832]}},{"properties":{"city":"Milwaukee","zip":"53212","add":"811 E. Vienna Ave.","geo_score":0.857,"venue":"Flux Design, Ltd.","id":"a6lgpfnm3ame","geo_precision":"city","state":"WI"},"type":"Feature","geometry":{"type":"Point","coordinates":[-87.906474,43.038903]}},{"properties":{"city":"Fond du Lac","zip":null,"add":"Hwy 45 and Martin Rd.","geo_score":0.857,"venue":"Fond du Lac County Fairgrounds","id":"a6lgpfxkp23p","geo_precision":"city","state":"WI"},"type":"Feature","geometry":{"type":"Point","coordinates":[-88.523176,43.734724]}},{"properties":{"city":"Fort McCoy","zip":"54656","add":"off State Hwy. 21","geo_score":0.73,"venue":"Fort McCoy Commemorative Area","id":"a6lgpfuz0dur","geo_precision":"city","state":"WI"},"type":"Feature","geometry":{"type":"Point","coordinates":[-91.083245,46.570499]}},{"properties":{"city":"Fountain City","zip":null,"add":"42 N. Main St.","geo_score":0.786,"venue":"Fountain City Auditorium","id":"a6lgpfq2fre7","geo_precision":"city","state":"WI"},"type":"Feature","geometry":{"type":"Point","coordinates":[-87.786203,44.371105]}},{"properties":{"city":"Cecil","zip":"54111","add":"206 N. Lemke St.","geo_score":0.857,"venue":"Fox Ballroom","id":"a6lgpfvgau6q","geo_precision":"city","state":"WI"},"type":"Feature","geometry":{"type":"Point","coordinates":[-88.391648,44.810274]}},{"properties":{"city":"Appleton / Kaukauna / Kimberly / Menasha / Neenah","zip":null,"add":"Various address in the Fox Valley","geo_score":0.741,"venue":"Fox Cities Book Festival locations","id":"a6lgpfmmjwhm","geo_precision":"city","state":"WI"},"type":"Feature","geometry":{"type":"Point","coordinates":[-88.446497,44.202208]}},{"properties":{"city":"Mishicot","zip":"54228","add":"300 W. Church St.","geo_score":0.857,"venue":"Fox Hills Resort and Convention Center","id":"a6lgpfpsqhm1","geo_precision":"city","state":"WI"},"type":"Feature","geometry":{"type":"Point","coordinates":[-87.739206,44.167783]}},{"properties":{"city":"Fox Point","zip":"53217","add":"7510 N. Santa Monica Blvd.","geo_score":0.857,"venue":"Fox Point Lutheran Church","id":"a6lgpfodyby0","geo_precision":"city","state":"WI"},"type":"Feature","geometry":{"type":"Point","coordinates":[-87.901753,43.15751]}},{"properties":{"city":"Appleton","zip":"54913","add":"5300 N. Meade St.","geo_score":0.857,"venue":"Fox Valley Lutheran High School Auditorium","id":"a6lgpfyaw17g","geo_precision":"city","state":"WI"},"type":"Feature","geometry":{"type":"Point","coordinates":[-88.370856,44.275702]}},{"properties":{"city":"La Crosse","zip":"54601","add":"920 Market St.","geo_score":0.857,"venue":"Franciscan Spirituality Center","id":"a6lgpg0kbd8s","geo_precision":"city","state":"WI"},"type":"Feature","geometry":{"type":"Point","coordinates":[-91.132072,43.85456]}},{"properties":{"city":"Shell Lake","zip":"54871","add":"118 4th Avenue","geo_score":0.746,"venue":"Friendship Commons","id":"a6lgpfuqal3n","geo_precision":"city","state":"WI"},"type":"Feature","geometry":{"type":"Point","coordinates":[-90.375852,44.606893]}},{"properties":{"city":"Pewaukee","zip":null,"add":"N24 W26430 Crestview Dr.","geo_score":0.857,"venue":"Galilee Lutheran Church","id":"a6lgpfnnwnri","geo_precision":"city","state":"WI"},"type":"Feature","geometry":{"type":"Point","coordinates":[-88.264875,43.080185]}},{"properties":{"city":"Menasha","zip":"54952","add":"320 Chute St.","geo_score":0.857,"venue":"Germania Hall","id":"a6lgpfzmc59x","geo_precision":"city","state":"WI"},"type":"Feature","geometry":{"type":"Point","coordinates":[-88.446497,44.202208]}},{"properties":{"city":"Milwaukee","zip":"53211","add":"4050 N. Oakland Ave.","geo_score":0.857,"venue":"Gilda's Club","id":"a6lgpfvw7417","geo_precision":"city","state":"WI"},"type":"Feature","geometry":{"type":"Point","coordinates":[-87.906474,43.038903]}},{"properties":{"city":"Seymour","zip":null,"add":"605 Bronson Rd.","geo_score":0.857,"venue":"Good Shepherd Community Room","id":"a6lgpfzyzqpa","geo_precision":"city","state":"WI"},"type":"Feature","geometry":{"type":"Point","coordinates":[-88.463328,44.430443]}},{"properties":{"city":"Madison","zip":"53711","add":"5701 Raymond Rd.","geo_score":0.857,"venue":"Good Shepherd Lutheran Church","id":"a6lgpg2d2bmg","geo_precision":"city","state":"WI"},"type":"Feature","geometry":{"type":"Point","coordinates":[-89.40123,43.073052]}},{"properties":{"city":"Stoughton","zip":null,"add":"1860 U.S. Highway 51","geo_score":0.857,"venue":"Good Shepherd by the Lake Lutheran Church","id":"a6lgpfrtmj04","geo_precision":"city","state":"WI"},"type":"Feature","geometry":{"type":"Point","coordinates":[-89.168354,42.931289]}},{"properties":{"city":"Madison","zip":"53704","add":"149 Waubesa Street","geo_score":0.857,"venue":"Goodman Community Center","id":"a6lgpfx0h4ir","geo_precision":"city","state":"WI"},"type":"Feature","geometry":{"type":"Point","coordinates":[-89.40123,43.073052]}},{"properties":{"city":"Blue Mounds","zip":"53517","add":"2099 County Road E","geo_score":0.771,"venue":"Gourd Guy Farm","id":"a6lgpfqk3g1m","geo_precision":"city","state":"WI"},"type":"Feature","geometry":{"type":"Point","coordinates":[-90.263828,42.685375]}},{"properties":{"city":"Menomonie","zip":null,"add":"670th Street","geo_score":0.857,"venue":"Govin's Meats and Berries","id":"a6lgpfv1gsxx","geo_precision":"city","state":"WI"},"type":"Feature","geometry":{"type":"Point","coordinates":[-91.943198,44.867809]}},{"properties":{"city":"Racine","zip":null,"add":"3626 Hwy 31","geo_score":0.857,"venue":"Grace Church","id":"a6lgpfu26ct4","geo_precision":"city","state":"WI"},"type":"Feature","geometry":{"type":"Point","coordinates":[-87.675979,42.727153]}},{"properties":{"city":"West Allis","zip":null,"add":"8400 Beloit Rd.","geo_score":0.73,"venue":"Grace Community Church","id":"a6lgpg1qez6p","geo_precision":"city","state":"WI"},"type":"Feature","geometry":{"type":"Point","coordinates":[-88.016214,44.477492]}},{"properties":{"city":"Madison","zip":null,"add":"116 W. Washington Ave.","geo_score":0.857,"venue":"Grace Episcopal Church","id":"a6lgpfm1v2u5","geo_precision":"city","state":"WI"},"type":"Feature","geometry":{"type":"Point","coordinates":[-89.40123,43.073052]}},{"properties":{"city":"Dodgeville","zip":null,"add":"1105 N Bequette Street","geo_score":0.857,"venue":"Grace Lutheran Church","id":"a6lgpfternzy","geo_precision":"city","state":"WI"},"type":"Feature","geometry":{"type":"Point","coordinates":[-90.192522,43.007063]}},{"properties":{"city":"Eau Claire","zip":"54703","add":"202 W. Grand Ave.","geo_score":0.857,"venue":"Grace Lutheran Church, Eau Claire","id":"a6lgpfqxygfe","geo_precision":"city","state":"WI"},"type":"Feature","geometry":{"type":"Point","coordinates":[-91.473097,44.75653]}},{"properties":{"city":"Grafton","zip":null,"add":"12665 Seventh Ave.","geo_score":0.857,"venue":"Grafton Multipurpose Center","id":"a6lgpfr0rcvc","geo_precision":"city","state":"WI"},"type":"Feature","geometry":{"type":"Point","coordinates":[-87.94104,43.299956]}},{"properties":{"city":"Madison","zip":"53706","add":"975 University Ave.","geo_score":0.857,"venue":"Grainger Hall / UW-Madison School of Business","id":"a6lgpfrqynnj","geo_precision":"city","state":"WI"},"type":"Feature","geometry":{"type":"Point","coordinates":[-89.40123,43.073052]}},{"properties":{"city":"Monroe","zip":"53566","add":"W7762 Falk Rd.","geo_score":0.857,"venue":"Great Plains Zen Center","id":"a6lgpfyvlh2v","geo_precision":"city","state":"WI"},"type":"Feature","geometry":{"type":"Point","coordinates":[-89.656994,42.612966]}},{"properties":{"city":"Racine","zip":null,"add":"1335 S. Green Bay Road","geo_score":0.857,"venue":"Greek Orthodox Church","id":"a6lgpfvx0dbb","geo_precision":"city","state":"WI"},"type":"Feature","geometry":{"type":"Point","coordinates":[-87.675979,42.727153]}},{"properties":{"city":"Hales Corners","zip":null,"add":"5424 S. 111th St.","geo_score":0.762,"venue":"Hales Corners Lutheran Church","id":"a6lgpg14sw1j","geo_precision":"city","state":"WI"},"type":"Feature","geometry":{"type":"Point","coordinates":[-88.977341,45.703849]}},{"properties":{"city":"Hales Corners","zip":null,"add":"5344 S. 98th St.","geo_score":0.762,"venue":"Hales Corners Retiree's Association","id":"a6lgpg0g7s93","geo_precision":"city","state":"WI"},"type":"Feature","geometry":{"type":"Point","coordinates":[-88.977341,45.703849]}},{"properties":{"city":"Sussex","zip":null,"add":"W220 N6151 Town Line Road","geo_score":0.857,"venue":"Hamilton Fine Arts Center","id":"a6lgpg02vk7o","geo_precision":"city","state":"WI"},"type":"Feature","geometry":{"type":"Point","coordinates":[-88.245381,43.148887]}},{"properties":{"city":"Milwaukee","zip":null,"add":"2559 N. Downer Ave.","geo_score":0.857,"venue":"Harry W. Schwartz Bookshop---Milwaukee (Downer Ave.)","id":"a6lgpfm65wwr","geo_precision":"city","state":"WI"},"type":"Feature","geometry":{"type":"Point","coordinates":[-87.906474,43.038903]}},{"properties":{"city":"Superior","zip":null,"add":"Superior Curling Club - 4700 Tower Ave.","geo_score":0.857,"venue":"Head of the Lakes Fairgrounds","id":"a6lgpg0s5ao0","geo_precision":"city","state":"WI"},"type":"Feature","geometry":{"type":"Point","coordinates":[-92.117578,46.574982]}},{"properties":{"city":"Milwaukee","zip":null,"add":"200 N. Harbor Dr.","geo_score":0.857,"venue":"Henry Maier Festival Park","id":"a6lgpfqg0sue","geo_precision":"city","state":"WI"},"type":"Feature","geometry":{"type":"Point","coordinates":[-87.906474,43.038903]}},{"properties":{"city":"Madison","zip":null,"add":"3102 Prairie Rd.","geo_score":0.857,"venue":"Heritage Congregational Church","id":"a6lgpfoodz5l","geo_precision":"city","state":"WI"},"type":"Feature","geometry":{"type":"Point","coordinates":[-89.40123,43.073052]}},{"properties":{"city":"Madison","zip":"53703","add":"611 Langdon St.","geo_score":0.857,"venue":"Hillel at the University of Wisconsin","id":"a6lgpfrok0mm","geo_precision":"city","state":"WI"},"type":"Feature","geometry":{"type":"Point","coordinates":[-89.40123,43.073052]}},{"properties":{"city":"Spring Green","zip":"53588","add":"Highway 23, across from Taliesin","geo_score":0.753,"venue":"Hilltop","id":"a6lgpfvtzpsh","geo_precision":"city","state":"WI"},"type":"Feature","geometry":{"type":"Point","coordinates":[-87.745645,44.356106]}},{"properties":{"city":"Pewaukee","zip":null,"add":"N4063 W243 Pewaukee Rd. (Hwy 164 N)","geo_score":0.857,"venue":"Hindu Temple of Wisconsin","id":"a6lgpfwi813f","geo_precision":"city","state":"WI"},"type":"Feature","geometry":{"type":"Point","coordinates":[-88.264875,43.080185]}},{"properties":{"city":"Rhinelander","zip":"54501","add":"5476 River Road","geo_score":0.857,"venue":"Hodag Country Festival Grounds","id":"a6lgpfxg622f","geo_precision":"city","state":"WI"},"type":"Feature","geometry":{"type":"Point","coordinates":[-89.386562,45.704474]}},{"properties":{"city":"Rhinelander","zip":"54501","add":"4060 S. Shore Dr. - P.O. Box 460","geo_score":0.857,"venue":"Holiday Acres Resort on Lake Thompson","id":"a6lgpfug2q9d","geo_precision":"city","state":"WI"},"type":"Feature","geometry":{"type":"Point","coordinates":[-89.386562,45.704474]}},{"properties":{"city":"Holmen","zip":null,"add":"228 Morris St.","geo_score":0.857,"venue":"Holmen Lutheran Church","id":"a6lgpfq4dwjd","geo_precision":"city","state":"WI"},"type":"Feature","geometry":{"type":"Point","coordinates":[-91.223484,43.968617]}},{"properties":{"city":"Racine","zip":"53405","add":"2000 W. Sixth St.","geo_score":0.857,"venue":"Holy Communion Lutheran Church","id":"a6lgpfphturi","geo_precision":"city","state":"WI"},"type":"Feature","geometry":{"type":"Point","coordinates":[-87.675979,42.727153]}},{"properties":{"city":"Hubertus","zip":"53033","add":"1525 Carmel Rd.","geo_score":0.857,"venue":"Holy Hill (Discalced Carmelite Friars)","id":"a6lgpfph3plp","geo_precision":"city","state":"WI"},"type":"Feature","geometry":{"type":"Point","coordinates":[-88.252892,43.367185]}},{"properties":{"city":"West Allis","zip":"53227","add":"11709 W. Cleveland Avenue","geo_score":0.73,"venue":"Holy Trinity Lutheran Church","id":"a6lgpfp1sa50","geo_precision":"city","state":"WI"},"type":"Feature","geometry":{"type":"Point","coordinates":[-88.016214,44.477492]}},{"properties":{"city":"Middleton","zip":"53562","add":"4200 County Highway M","geo_score":0.857,"venue":"Holy Wisdom Monastery (formerly St. Benedict Center)","id":"a6lgpfnpxbrr","geo_precision":"city","state":"WI"},"type":"Feature","geometry":{"type":"Point","coordinates":[-89.529153,43.114772]}},{"properties":{"city":"Sturgeon Bay","zip":"54235","add":"141 S. 12th Ave.","geo_score":0.857,"venue":"Hope United Church of Christ","id":"a6lgpfy5zrxg","geo_precision":"city","state":"WI"},"type":"Feature","geometry":{"type":"Point","coordinates":[-87.384142,44.945314]}},{"properties":{"city":"Spring Green","zip":"53588","add":"400 Springs Dr.","geo_score":0.753,"venue":"House on the Rock Resort","id":"a6lgpfw2tr7j","geo_precision":"city","state":"WI"},"type":"Feature","geometry":{"type":"Point","coordinates":[-87.745645,44.356106]}},{"properties":{"city":"Madison","zip":"53703","add":"1021 Spaight St.","geo_score":0.857,"venue":"Immanuel Lutheran Church","id":"a6lgpfm2lajb","geo_precision":"city","state":"WI"},"type":"Feature","geometry":{"type":"Point","coordinates":[-89.40123,43.073052]}},{"properties":{"city":"Marshfield","zip":"54449","add":"604 S. Chestnut Ave.","geo_score":0.786,"venue":"Immanuel Lutheran Church","id":"a6lgpfwfvwya","geo_precision":"city","state":"WI"},"type":"Feature","geometry":{"type":"Point","coordinates":[-89.659844,43.191103]}},{"properties":{"city":"Milwaukee","zip":null,"add":"1100 N. Astor Street","geo_score":0.857,"venue":"Immanuel Presbyterian Church","id":"a6lgpfmgi4up","geo_precision":"city","state":"WI"},"type":"Feature","geometry":{"type":"Point","coordinates":[-87.906474,43.038903]}},{"properties":{"city":"Ripon","zip":"54971","add":"401 W. Fond du Lac St.","geo_score":0.857,"venue":"Immanuel United Methodist Church","id":"a6lgpfwgqneh","geo_precision":"city","state":"WI"},"type":"Feature","geometry":{"type":"Point","coordinates":[-88.533445,43.782526]}},{"properties":{"city":"Sturgeon Bay","zip":"54235","add":"336 Louisiana St.","geo_score":0.857,"venue":"Inn at Cedar Crossing","id":"a6lgpg1upvt8","geo_precision":"city","state":"WI"},"type":"Feature","geometry":{"type":"Point","coordinates":[-87.384142,44.945314]}},{"properties":{"city":"Madison","zip":"53704","add":"21 Wirth Ct.","geo_score":0.857,"venue":"Institute for Creative and Artistic Development","id":"a6lgpfzatrfy","geo_precision":"city","state":"WI"},"type":"Feature","geometry":{"type":"Point","coordinates":[-89.40123,43.073052]}},{"properties":{"city":"Iola","zip":null,"add":"130 Jenson Dr.","geo_score":0.857,"venue":"Iola Old Car Show Activity Center","id":"a6lgpfzlwtqs","geo_precision":"city","state":"WI"},"type":"Feature","geometry":{"type":"Point","coordinates":[-89.071142,44.572209]}},{"properties":{"city":"Wauwatosa","zip":"53213","add":"1532 Wauwatosa Ave.","geo_score":0.857,"venue":"Irish Fest Center","id":"a6lgpfotcjbb","geo_precision":"city","state":"WI"},"type":"Feature","geometry":{"type":"Point","coordinates":[-88.007588,43.049457]}},{"properties":{"city":"Milwaukee","zip":"53202-5916","add":"631 E. Chicago St.","geo_score":0.857,"venue":"Italian Community Center","id":"a6lgpfrs9vua","geo_precision":"city","state":"WI"},"type":"Feature","geometry":{"type":"Point","coordinates":[-87.906474,43.038903]}},{"properties":{"city":"Madison","zip":"53715","add":"914 Regent St.","geo_score":0.857,"venue":"Italian Workmen's Club","id":"a6lgpfqt0x24","geo_precision":"city","state":"WI"},"type":"Feature","geometry":{"type":"Point","coordinates":[-89.40123,43.073052]}},{"properties":{"city":"Two Rivers","zip":"54241","add":"1520 Seventeenth St.","geo_score":0.73,"venue":"J.E. Hamilton Community House","id":"a6lgpfn80ylj","geo_precision":"city","state":"WI"},"type":"Feature","geometry":{"type":"Point","coordinates":[-92.244916,46.569386]}},{"properties":{"city":"Janesville","zip":"53545","add":"2615 W. Memorial Dr.","geo_score":0.857,"venue":"Janesville Country Club","id":"a6lgpfyquwtr","geo_precision":"city","state":"WI"},"type":"Feature","geometry":{"type":"Point","coordinates":[-89.112201,42.710981]}},{"properties":{"city":"Janesville","zip":null,"add":"401 Randall Ave.","geo_score":0.857,"venue":"Janesville Craig High School - Craig Auditorium","id":"a6lgpfx3cm98","geo_precision":"city","state":"WI"},"type":"Feature","geometry":{"type":"Point","coordinates":[-89.112201,42.710981]}},{"properties":{"city":"Wausau","zip":"54403","add":"201 Jefferson Street","geo_score":0.857,"venue":"Jefferson Street Inn","id":"a6lgpfsz3muy","geo_precision":"city","state":"WI"},"type":"Feature","geometry":{"type":"Point","coordinates":[-89.794002,44.961874]}},{"properties":{"city":"Wales","zip":"53183","add":"207 Main St.","geo_score":0.857,"venue":"Jerusalem Presbyterian Church","id":"a6lgpfpspnhx","geo_precision":"city","state":"WI"},"type":"Feature","geometry":{"type":"Point","coordinates":[-88.376916,43.003573]}},{"properties":{"city":"Whitefish Bay","zip":null,"add":"6255 N. Santa Monica Blvd.","geo_score":0.857,"venue":"Jewish Community Center","id":"a6lgpfpr5b4o","geo_precision":"city","state":"WI"},"type":"Feature","geometry":{"type":"Point","coordinates":[-87.900086,43.113345]}},{"properties":{"city":"Janesville","zip":"53546","add":"9937 N County Road F","geo_score":0.857,"venue":"Johnstown Community Center","id":"a6lgpg0rqoru","geo_precision":"city","state":"WI"},"type":"Feature","geometry":{"type":"Point","coordinates":[-89.112201,42.710981]}},{"properties":{"city":"Juneau","zip":null,"add":"500 Lincoln Dr.","geo_score":0.857,"venue":"Juneau Community Center","id":"a6lgpfppqsum","geo_precision":"city","state":"WI"},"type":"Feature","geometry":{"type":"Point","coordinates":[-88.710157,43.372221]}},{"properties":{"city":"Green Bay","zip":"54301","add":"333 Main Street","geo_score":0.857,"venue":"KI Convention Center","id":"a6lgpfu9k8bi","geo_precision":"city","state":"WI"},"type":"Feature","geometry":{"type":"Point","coordinates":[-88.019826,44.519159]}},{"properties":{"city":"Madison","zip":"53703","add":"341 State St., 2nd Floor","geo_score":0.857,"venue":"Kanopy Dance Company / Kanopy School for Contemporary Dance","id":"a6lgpfr691m9","geo_precision":"city","state":"WI"},"type":"Feature","geometry":{"type":"Point","coordinates":[-89.40123,43.073052]}},{"properties":{"city":"Green Bay","zip":"54303","add":"112 S. Broadway","geo_score":0.857,"venue":"Kavarna Coffeehouse","id":"a6lgpfxsy4fh","geo_precision":"city","state":"WI"},"type":"Feature","geometry":{"type":"Point","coordinates":[-88.019826,44.519159]}},{"properties":{"city":"Kewaunee","zip":"54216","add":"E1870 Pine Grove Rd.","geo_score":0.857,"venue":"KeLe Alpacas","id":"a6lgpfqmuyu6","geo_precision":"city","state":"WI"},"type":"Feature","geometry":{"type":"Point","coordinates":[-87.592719,44.438185]}},{"properties":{"city":"Kenosha","zip":null,"add":"6501 Third Ave.","geo_score":0.796,"venue":"Kemper Center","id":"a6lgpfrugd6e","geo_precision":"city","state":"WI"},"type":"Feature","geometry":{"type":"Point","coordinates":[-88.190381,44.615548]}},{"properties":{"city":"Madison","zip":"53704","add":"199 Kennedy Heights","geo_score":0.857,"venue":"Kennedy Heights Community Center","id":"a6lgpg1a5nwu","geo_precision":"city","state":"WI"},"type":"Feature","geometry":{"type":"Point","coordinates":[-89.40123,43.073052]}},{"properties":{"city":"Freedom","zip":"54130","add":"N2797 State Highway 55","geo_score":0.857,"venue":"Kerrigan Brothers Winery","id":"a6lgpfvkn3ry","geo_precision":"city","state":"WI"},"type":"Feature","geometry":{"type":"Point","coordinates":[-88.464873,44.416326]}},{"properties":{"city":"Slinger","zip":null,"add":"1021 E. Commerce Blvd. (Hwy 60)","geo_score":0.857,"venue":"Kettle Moraine Bowl","id":"a6lgpfuobfvc","geo_precision":"city","state":"WI"},"type":"Feature","geometry":{"type":"Point","coordinates":[-88.260878,43.327417]}},{"properties":{"city":"Madison, WI","zip":"53703","add":"14 W. Mifflin Street","geo_score":0.825,"venue":"Kimia Lounge","id":"a6lgpftuipxn","geo_precision":"city","state":"WI"},"type":"Feature","geometry":{"type":"Point","coordinates":[-89.40123,43.073052]}},{"properties":{"city":"Madison","zip":"53703","add":"130 E. Gilman St.","geo_score":0.857,"venue":"Knapp House","id":"a6lgpfv4m2d9","geo_precision":"city","state":"WI"},"type":"Feature","geometry":{"type":"Point","coordinates":[-89.40123,43.073052]}},{"properties":{"city":"Madison","zip":"53715","add":"601 W. Dayton Street","geo_score":0.857,"venue":"Kohl Center","id":"a6lgpfy5xfjb","geo_precision":"city","state":"WI"},"type":"Feature","geometry":{"type":"Point","coordinates":[-89.40123,43.073052]}},{"properties":{"city":"Muscoda","zip":"53573","add":"206 N. Wisconsin Avenue","geo_score":0.857,"venue":"Kratochwill Memorial Building","id":"a6lgpft1nfrg","geo_precision":"city","state":"WI"},"type":"Feature","geometry":{"type":"Point","coordinates":[-90.488423,43.1234]}},{"properties":{"city":"Madison","zip":"53704","add":"149 Waubesa St.","geo_score":0.857,"venue":"Kupfer Ironworks","id":"a6lgpfrju82g","geo_precision":"city","state":"WI"},"type":"Feature","geometry":{"type":"Point","coordinates":[-89.40123,43.073052]}},{"properties":{"city":"Janesville","zip":"53546","add":"401 S. Wright Rd.","geo_score":0.857,"venue":"Lab Safety Supply","id":"a6lgpfzqcd16","geo_precision":"city","state":"WI"},"type":"Feature","geometry":{"type":"Point","coordinates":[-89.112201,42.710981]}},{"properties":{"city":"Hartland","zip":null,"add":"W299 N5595 Grace Drive","geo_score":0.857,"venue":"Lake Country Unitarian Universalist Church","id":"a6lgpfsss2wr","geo_precision":"city","state":"WI"},"type":"Feature","geometry":{"type":"Point","coordinates":[-88.336087,43.123679]}},{"properties":{"city":"Madison","zip":null,"add":"4032 Monona Drive","geo_score":0.857,"venue":"Lake Edge Lutheran Church","id":"a6lgpfozwvmt","geo_precision":"city","state":"WI"},"type":"Feature","geometry":{"type":"Point","coordinates":[-89.40123,43.073052]}},{"properties":{"city":"Elkhart Lake","zip":"53020","add":"21 Lake St.","geo_score":0.857,"venue":"Lake Street Cafe","id":"a6lgpfvmnw53","geo_precision":"city","state":"WI"},"type":"Feature","geometry":{"type":"Point","coordinates":[-87.9915,43.827363]}},{"properties":{"city":"Siren","zip":"54872","add":"State Road 35/70","geo_score":0.786,"venue":"Lakeview Event Center","id":"a6lgpfxp1hsk","geo_precision":"city","state":"WI"},"type":"Feature","geometry":{"type":"Point","coordinates":[-91.775875,45.73714]}},{"properties":{"city":"Green Bay","zip":"54304","add":"1265 Lombardi Ave.","geo_score":0.857,"venue":"Lambeau Field","id":"a6lgpfrnmonp","geo_precision":"city","state":"WI"},"type":"Feature","geometry":{"type":"Point","coordinates":[-88.019826,44.519159]}},{"properties":{"city":"Delafield","zip":null,"add":"514 Wells St.","geo_score":0.857,"venue":"Lang Campus","id":"a6lgpfp0l8iv","geo_precision":"city","state":"WI"},"type":"Feature","geometry":{"type":"Point","coordinates":[-88.386519,43.015666]}},{"properties":{"city":"Milwaukee","zip":"53204","add":"1028 S. Ninth St.","geo_score":0.857,"venue":"Latino Arts, Inc.","id":"a6lgpfowvmnw","geo_precision":"city","state":"WI"},"type":"Feature","geometry":{"type":"Point","coordinates":[-87.906474,43.038903]}},{"properties":{"city":"Manitowoc","zip":"54220","add":"1308 S. 22nd Street","geo_score":0.8,"venue":"Laurel Grove Assisted Living","id":"a6lgpfrt281e","geo_precision":"city","state":"WI"},"type":"Feature","geometry":{"type":"Point","coordinates":[-87.700919,44.099161]}},{"properties":{"city":"Appleton","zip":"54912","add":"420 E. College Ave. - P.O. Box 599","geo_score":0.857,"venue":"Lawrence University","id":"a6lgpfofydi1","geo_precision":"city","state":"WI"},"type":"Feature","geometry":{"type":"Point","coordinates":[-88.370856,44.275702]}},{"properties":{"city":"Bayfield","zip":null,"add":"7 Rice Avenue","geo_score":0.857,"venue":"Le Chateau Boutin","id":"a6lgpfuw09gt","geo_precision":"city","state":"WI"},"type":"Feature","geometry":{"type":"Point","coordinates":[-90.915934,46.853517]}},{"properties":{"city":"Keshena","zip":null,"add":"N1024 Old South Branch Road","geo_score":0.857,"venue":"Legend Lake Lodge","id":"a6lgpfpq0d5y","geo_precision":"city","state":"WI"},"type":"Feature","geometry":{"type":"Point","coordinates":[-88.575133,44.88646]}},{"properties":{"city":"Amherst","zip":"54406","add":"487 North Main St.","geo_score":0.857,"venue":"Lettie W. Jensen Community Center","id":"a6lgpfq9jmp8","geo_precision":"city","state":"WI"},"type":"Feature","geometry":{"type":"Point","coordinates":[-89.335313,44.393087]}},{"properties":{"city":"Milwaukee","zip":null,"add":"235 E. Pittsburgh Ave.","geo_score":0.857,"venue":"Lighthouse's Transpak project","id":"a6lgpfq13xqm","geo_precision":"city","state":"WI"},"type":"Feature","geometry":{"type":"Point","coordinates":[-87.906474,43.038903]}},{"properties":{"city":"Mequon","zip":null,"add":"12351 N. Granville Rd.","geo_score":0.857,"venue":"Lindenwood Community Center","id":"a6lgpfy3snkx","geo_precision":"city","state":"WI"},"type":"Feature","geometry":{"type":"Point","coordinates":[-87.984534,43.236396]}},{"properties":{"city":"Green Lake","zip":null,"add":"W1601 County Road J","geo_score":0.73,"venue":"Londowski Farm","id":"a6lgpfuqdgo9","geo_precision":"city","state":"WI"},"type":"Feature","geometry":{"type":"Point","coordinates":[-87.745645,44.356106]}},{"properties":{"city":"Lone Rock","zip":"53556","add":"N. Broadway St.","geo_score":0.75,"venue":"Lone Rock Community Center","id":"a6lgpfmny407","geo_precision":"city","state":"WI"},"type":"Feature","geometry":{"type":"Point","coordinates":[-90.409857,44.582463]}},{"properties":{"city":"Denmark","zip":"54208","add":"623 De Pere Rd.","geo_score":0.857,"venue":"Lorrie's Cafe &amp; Catering","id":"a6lgpfz02a52","geo_precision":"city","state":"WI"},"type":"Feature","geometry":{"type":"Point","coordinates":[-87.885734,44.459153]}},{"properties":{"city":"Madison","zip":"53703","add":"610 Langdon St.","geo_score":0.857,"venue":"Lowell Center","id":"a6lgpfoa1kgy","geo_precision":"city","state":"WI"},"type":"Feature","geometry":{"type":"Point","coordinates":[-89.40123,43.073052]}},{"properties":{"city":"Loyal","zip":"54446","add":"302 N Union Street","geo_score":0.857,"venue":"Loyal American Legion","id":"a6lgpfnjm1hq","geo_precision":"city","state":"WI"},"type":"Feature","geometry":{"type":"Point","coordinates":[-90.634557,44.729482]}},{"properties":{"city":"Madison","zip":null,"add":"55 S. Gammon Rd.","geo_score":0.857,"venue":"Lussier Community Education Center","id":"a6lgpftw8d46","geo_precision":"city","state":"WI"},"type":"Feature","geometry":{"type":"Point","coordinates":[-89.40123,43.073052]}},{"properties":{"city":"Madison","zip":"53715","add":"1021 University Ave.","geo_score":0.857,"venue":"Luther Memorial Church","id":"a6lgpfnzsvna","geo_precision":"city","state":"WI"},"type":"Feature","geometry":{"type":"Point","coordinates":[-89.40123,43.073052]}},{"properties":{"city":"Madison","zip":"53703","add":"306 W. Dayton St.","geo_score":0.857,"venue":"Madison Center for Creative and Cultural Arts","id":"a6lgpfrfi1b2","geo_precision":"city","state":"WI"},"type":"Feature","geometry":{"type":"Point","coordinates":[-89.40123,43.073052]}},{"properties":{"city":"Madison","zip":null,"add":"7118 Old Sauk Rd.","geo_score":0.857,"venue":"Madison Christian Community","id":"a6lgpfxnsnsc","geo_precision":"city","state":"WI"},"type":"Feature","geometry":{"type":"Point","coordinates":[-89.40123,43.073052]}},{"properties":{"city":"Madison","zip":"53703","add":"5 E. Wilson St.","geo_score":0.857,"venue":"Madison Club","id":"a6lgpg0nnoyo","geo_precision":"city","state":"WI"},"type":"Feature","geometry":{"type":"Point","coordinates":[-89.40123,43.073052]}},{"properties":{"city":"Madison","zip":"53715","add":"1602 S. Park Street","geo_score":0.857,"venue":"Madison Labor Temple","id":"a6lgpfol2p86","geo_precision":"city","state":"WI"},"type":"Feature","geometry":{"type":"Point","coordinates":[-89.40123,43.073052]}},{"properties":{"city":"Middleton","zip":null,"add":"1313 John Q Hammons Dr.","geo_score":0.857,"venue":"Madison Marriott West","id":"a6lgpg2j067y","geo_precision":"city","state":"WI"},"type":"Feature","geometry":{"type":"Point","coordinates":[-89.529153,43.114772]}},{"properties":{"city":"Madison","zip":"53715","add":"301 Wisconsin Ave.","geo_score":0.857,"venue":"Madison Masonic Center","id":"a6lgpfwxerwx","geo_precision":"city","state":"WI"},"type":"Feature","geometry":{"type":"Point","coordinates":[-89.40123,43.073052]}},{"properties":{"city":"Madison","zip":"53703","add":"330 W. Mifflin St.","geo_score":0.857,"venue":"Madison Senior Center","id":"a6lgpfwrco9t","geo_precision":"city","state":"WI"},"type":"Feature","geometry":{"type":"Point","coordinates":[-89.40123,43.073052]}},{"properties":{"city":"Madison","zip":"53718","add":"3001 S. Stoughton Rd.","geo_score":0.857,"venue":"Madison Turner Hall","id":"a6lgpfson537","geo_precision":"city","state":"WI"},"type":"Feature","geometry":{"type":"Point","coordinates":[-89.40123,43.073052]}},{"properties":{"city":"Stockholm","zip":"54769","add":"W12266 King Lane","geo_score":0.857,"venue":"Maiden Rock Winery and Cidery","id":"a6lgpfqq8bsf","geo_precision":"city","state":"WI"},"type":"Feature","geometry":{"type":"Point","coordinates":[-92.232594,44.508365]}},{"properties":{"city":"Madison","zip":"53704","add":"1882 E. Main St.","geo_score":0.857,"venue":"Main Street Yoga","id":"a6lgpfybf8md","geo_precision":"city","state":"WI"},"type":"Feature","geometry":{"type":"Point","coordinates":[-89.40123,43.073052]}},{"properties":{"city":"Watertown","zip":"53094","add":"745 W. Main St.","geo_score":0.857,"venue":"Maranatha Baptist Bible College","id":"a6lgpftu8vef","geo_precision":"city","state":"WI"},"type":"Feature","geometry":{"type":"Point","coordinates":[-88.743595,43.132599]}},{"properties":{"city":"Milwaukee","zip":"53202-3122","add":"929 N. Water St.","geo_score":0.857,"venue":"Marcus Center for the Performing Arts","id":"a6lgpg148egp","geo_precision":"city","state":"WI"},"type":"Feature","geometry":{"type":"Point","coordinates":[-87.906474,43.038903]}},{"properties":{"city":"La Crosse","zip":"54601","add":"901 Franciscan Way, St. Rose Convent","geo_score":0.857,"venue":"Maria Angelorum Chapel (Mary of the Angels Chapel)","id":"a6lgpfyjmcqi","geo_precision":"city","state":"WI"},"type":"Feature","geometry":{"type":"Point","coordinates":[-91.132072,43.85456]}},{"properties":{"city":"Milwaukee","zip":"53207","add":"3195 S. Superior St.","geo_score":0.857,"venue":"Marian Center for Nonprofits","id":"a6lgpfq1qwlc","geo_precision":"city","state":"WI"},"type":"Feature","geometry":{"type":"Point","coordinates":[-87.906474,43.038903]}},{"properties":{"city":"Fond du Lac","zip":"54935","add":"45 S. National Ave.","geo_score":0.857,"venue":"Marian University","id":"a6lgpfpu0ti1","geo_precision":"city","state":"WI"},"type":"Feature","geometry":{"type":"Point","coordinates":[-88.523176,43.734724]}},{"properties":{"city":"Fond du Lac","zip":"54935","add":"45 S. National Ave.","geo_score":0.857,"venue":"Marian University - Sadoff Gymnasium","id":"a6lgpfu1bfht","geo_precision":"city","state":"WI"},"type":"Feature","geometry":{"type":"Point","coordinates":[-88.523176,43.734724]}},{"properties":{"city":"Egg Harbor","zip":"54209","add":"6811 Bay Shore Dr.","geo_score":0.857,"venue":"Marlett Residence","id":"a6lgpfttko4q","geo_precision":"city","state":"WI"},"type":"Feature","geometry":{"type":"Point","coordinates":[-87.266031,45.012261]}},{"properties":{"city":"Marshfield","zip":"54449","add":"208 S. Chestnut Ave.","geo_score":0.786,"venue":"Marshfield Arts Center","id":"a6lgpfnt5swg","geo_precision":"city","state":"WI"},"type":"Feature","geometry":{"type":"Point","coordinates":[-89.659844,43.191103]}},{"properties":{"city":"Sturgeon Bay","zip":"54235","add":"31 S. Third Ave.","geo_score":0.857,"venue":"Masonic Temple","id":"a6lgpfnn6i2a","geo_precision":"city","state":"WI"},"type":"Feature","geometry":{"type":"Point","coordinates":[-87.384142,44.945314]}},{"properties":{"city":"Mazomanie","zip":null,"add":"2 Brodhead St.","geo_score":0.857,"venue":"Mazomanie Movement Arts Center","id":"a6lgpfsuyubg","geo_precision":"city","state":"WI"},"type":"Feature","geometry":{"type":"Point","coordinates":[-89.729261,43.190983]}},{"properties":{"city":"McFarland","zip":null,"add":"5915 Milwaukee St.","geo_score":0.857,"venue":"McFarland Community Center","id":"a6lgpfqzevpl","geo_precision":"city","state":"WI"},"type":"Feature","geometry":{"type":"Point","coordinates":[-89.363862,43.010519]}},{"properties":{"city":"Milwaukee","zip":null,"add":"4500 W. Custer Ave.","geo_score":0.857,"venue":"McGourn Park Senior Center","id":"a6lgpftzxjg2","geo_precision":"city","state":"WI"},"type":"Feature","geometry":{"type":"Point","coordinates":[-87.906474,43.038903]}},{"properties":{"city":"Racine","zip":null,"add":"Seventh and Lake","geo_score":0.857,"venue":"Memorial Hall, Racine","id":"a6lgpfu823ml","geo_precision":"city","state":"WI"},"type":"Feature","geometry":{"type":"Point","coordinates":[-87.675979,42.727153]}},{"properties":{"city":"Appleton","zip":"54911","add":"803 E. College Ave.","geo_score":0.857,"venue":"Memorial Presbyterian Church of Appleton","id":"a6lgpfokyjzr","geo_precision":"city","state":"WI"},"type":"Feature","geometry":{"type":"Point","coordinates":[-88.370856,44.275702]}},{"properties":{"city":"Keshena","zip":"54135","add":"P.O. Box 910","geo_score":0.857,"venue":"Menominee Nation / Menominee Indian Tribe","id":"a6lgpftjflv8","geo_precision":"city","state":"WI"},"type":"Feature","geometry":{"type":"Point","coordinates":[-88.575133,44.88646]}},{"properties":{"city":"Neenah","zip":"54956","add":"700 Tullar Rd.","geo_score":0.786,"venue":"Michels Materials Quarry","id":"a6lgpg1jy91c","geo_precision":"city","state":"WI"},"type":"Feature","geometry":{"type":"Point","coordinates":[-88.391487,43.446109]}},{"properties":{"city":"Middleton","zip":"53562","add":"645 Schewe Road","geo_score":0.857,"venue":"Middleton Community United Church of Christ","id":"a6lgpfti1s5q","geo_precision":"city","state":"WI"},"type":"Feature","geometry":{"type":"Point","coordinates":[-89.529153,43.114772]}},{"properties":{"city":"Middleton","zip":"53562","add":"7448 Hubbard Ave.","geo_score":0.857,"venue":"Middleton Senior Center","id":"a6lgpfqdale4","geo_precision":"city","state":"WI"},"type":"Feature","geometry":{"type":"Point","coordinates":[-89.529153,43.114772]}},{"properties":{"city":"Madison","zip":"53711","add":"4329 Tokay Blvd.","geo_score":0.857,"venue":"Midvale Community Lutheran Church","id":"a6lgpforr5gv","geo_precision":"city","state":"WI"},"type":"Feature","geometry":{"type":"Point","coordinates":[-89.40123,43.073052]}},{"properties":{"city":"Milwaukee","zip":"53203","add":"400 W. Wisconsin Ave.","geo_score":0.857,"venue":"Midwest Airlines Center","id":"a6lgpfwnm9eq","geo_precision":"city","state":"WI"},"type":"Feature","geometry":{"type":"Point","coordinates":[-87.906474,43.038903]}},{"properties":{"city":"Eleva","zip":"54738","add":"50684 N. Main St.","geo_score":0.857,"venue":"Mill Pond Market","id":"a6lgpfyeu82l","geo_precision":"city","state":"WI"},"type":"Feature","geometry":{"type":"Point","coordinates":[-91.411701,44.394025]}},{"properties":{"city":"Milwaukee","zip":"53214","add":"201 S. 46th Street","geo_score":0.857,"venue":"Miller Park","id":"a6lgpfqgro1z","geo_precision":"city","state":"WI"},"type":"Feature","geometry":{"type":"Point","coordinates":[-87.906474,43.038903]}},{"properties":{"city":"Milwaukee","zip":"53212","add":"2821 N. Fourth St., Room 300","geo_score":0.857,"venue":"Milwaukee Enterprise Center","id":"a6lgpfwoy110","geo_precision":"city","state":"WI"},"type":"Feature","geometry":{"type":"Point","coordinates":[-87.906474,43.038903]}},{"properties":{"city":"Milwaukee","zip":"53212","add":"315 W. Court St.","geo_score":0.857,"venue":"Milwaukee LGBT Community Center","id":"a6lgpg1qdxqt","geo_precision":"city","state":"WI"},"type":"Feature","geometry":{"type":"Point","coordinates":[-87.906474,43.038903]}},{"properties":{"city":"Milwaukee","zip":"53233","add":"800 W. Wells St.","geo_score":0.857,"venue":"Milwaukee Public Museum - Daniel M. Soref Planetarium","id":"a6lgpg0xzkn6","geo_precision":"city","state":"WI"},"type":"Feature","geometry":{"type":"Point","coordinates":[-87.906474,43.038903]}},{"properties":{"city":"Milwaukee","zip":"53202","add":"1047 N. Broadway","geo_score":0.857,"venue":"Milwaukee School of Engineering - Todd Wehr Auditorium","id":"a6lgpfr73ury","geo_precision":"city","state":"WI"},"type":"Feature","geometry":{"type":"Point","coordinates":[-87.906474,43.038903]}},{"properties":{"city":"Milwaukee","zip":"53203","add":"1034 N. Fourth St.","geo_score":0.857,"venue":"Milwaukee Turners &amp; Turner Hall Ballroom","id":"a6lgpfqtejtq","geo_precision":"city","state":"WI"},"type":"Feature","geometry":{"type":"Point","coordinates":[-87.906474,43.038903]}},{"properties":{"city":"Mineral Point","zip":"53565","add":"360 High Street","geo_score":0.857,"venue":"Mineral Point Masonic Lodge","id":"a6lgpfzmjza0","geo_precision":"city","state":"WI"},"type":"Feature","geometry":{"type":"Point","coordinates":[-90.152558,42.989701]}},{"properties":{"city":"Minocqua","zip":null,"add":"415 Menominee St.","geo_score":0.857,"venue":"Minocqua Community Building","id":"a6lgpfsdap4f","geo_precision":"city","state":"WI"},"type":"Feature","geometry":{"type":"Point","coordinates":[-89.824294,45.827583]}},{"properties":{"city":"Mole Lake","zip":null,"add":"State Hwy 55","geo_score":0.857,"venue":"Mole Lake Reservation","id":"a6lgpfqpghzj","geo_precision":"city","state":"WI"},"type":"Feature","geometry":{"type":"Point","coordinates":[-88.98317,45.479685]}},{"properties":{"city":"Colgate","zip":"53017","add":"5890 Monches Road","geo_score":0.857,"venue":"Monches Farm, LLC","id":"a6lgpfvpcsnj","geo_precision":"city","state":"WI"},"type":"Feature","geometry":{"type":"Point","coordinates":[-88.241501,43.209445]}},{"properties":{"city":"Monona","zip":"53716","add":"6332 Monona Drive","geo_score":0.857,"venue":"Monona Academy of Dance","id":"a6lgpfqgs63k","geo_precision":"city","state":"WI"},"type":"Feature","geometry":{"type":"Point","coordinates":[-89.334007,43.062219]}},{"properties":{"city":"Monona","zip":"53716","add":"1011 Nichols Rd.","geo_score":0.857,"venue":"Monona Community Center / Senior Center","id":"a6lgpg1mfuwh","geo_precision":"city","state":"WI"},"type":"Feature","geometry":{"type":"Point","coordinates":[-89.334007,43.062219]}},{"properties":{"city":"Mosinee","zip":"54455","add":"11th and Jackson St","geo_score":0.857,"venue":"Mosinee Recreation Center","id":"a6lgpfwmthpq","geo_precision":"city","state":"WI"},"type":"Feature","geometry":{"type":"Point","coordinates":[-89.701277,44.809226]}},{"properties":{"city":"Black Earth","zip":"53515","add":"4629 County Road JJ","geo_score":0.857,"venue":"Mount Horeb Area Arts Association","id":"a6lgpfyfbxnc","geo_precision":"city","state":"WI"},"type":"Feature","geometry":{"type":"Point","coordinates":[-89.624544,43.113953]}},{"properties":{"city":"Mount Morris","zip":"54982","add":"N3127 21st Lane","geo_score":0.857,"venue":"Mountain View Community Center","id":"a6lgpfofmag4","geo_precision":"city","state":"WI"},"type":"Feature","geometry":{"type":"Point","coordinates":[-89.190673,44.114423]}},{"properties":{"city":"Wauwatosa","zip":"53213","add":"7300 W. Chestnut St.","geo_score":0.857,"venue":"Muellner Building, 2nd Floor","id":"a6lgpfywk195","geo_precision":"city","state":"WI"},"type":"Feature","geometry":{"type":"Point","coordinates":[-88.007588,43.049457]}},{"properties":{"city":"Milwaukee","zip":null,"add":"2685 S. Kinninick Ave.","geo_score":0.857,"venue":"Music on KK","id":"a6lgpfmm1khq","geo_precision":"city","state":"WI"},"type":"Feature","geometry":{"type":"Point","coordinates":[-87.906474,43.038903]}},{"properties":{"city":"Madison","zip":"53711","add":"4145 Country Club Rd.","geo_score":0.857,"venue":"Nakoma Golf Club","id":"a6lgpfucbb43","geo_precision":"city","state":"WI"},"type":"Feature","geometry":{"type":"Point","coordinates":[-89.40123,43.073052]}},{"properties":{"city":"Green Bay","zip":"54304","add":"2270 S. Oneida St.","geo_score":0.857,"venue":"Nativity Church, Bona Hall","id":"a6lgpfngny96","geo_precision":"city","state":"WI"},"type":"Feature","geometry":{"type":"Point","coordinates":[-88.019826,44.519159]}},{"properties":{"city":"Cudahy","zip":null,"add":"3776 E. Hammond Ave.","geo_score":0.762,"venue":"Nativity of the Lord Catholic School","id":"a6lgpfsqib4u","geo_precision":"city","state":"WI"},"type":"Feature","geometry":{"type":"Point","coordinates":[-87.861203,44.142771]}},{"properties":{"city":"Madison","zip":"53715","add":"29 S. Mills Street","geo_score":0.857,"venue":"Neighborhood House Community Center","id":"a6lgpfqld1mr","geo_precision":"city","state":"WI"},"type":"Feature","geometry":{"type":"Point","coordinates":[-89.40123,43.073052]}},{"properties":{"city":"Mequon","zip":null,"add":"10976 N. Port Washington Rd","geo_score":0.857,"venue":"Next Chapter Bookshop","id":"a6lgpfneowro","geo_precision":"city","state":"WI"},"type":"Feature","geometry":{"type":"Point","coordinates":[-87.984534,43.236396]}},{"properties":{"city":"Oneida","zip":"54155","add":"N7210 Seminary Rd.","geo_score":0.857,"venue":"Norbert Hill Center","id":"a6lgpfvx22d5","geo_precision":"city","state":"WI"},"type":"Feature","geometry":{"type":"Point","coordinates":[-88.23333,44.447167]}},{"properties":{"city":"Fox Point","zip":"53217","add":"7330 N. Santa Monica Blvd.","geo_score":0.857,"venue":"North Shore Congregational Church","id":"a6lgpfskqwzg","geo_precision":"city","state":"WI"},"type":"Feature","geometry":{"type":"Point","coordinates":[-87.901753,43.15751]}},{"properties":{"city":"Shorewood","zip":"53211","add":"4048 N. Bartlett Ave.","geo_score":0.857,"venue":"North Shore Presbyterian Church","id":"a6lgpg2cjt4z","geo_precision":"city","state":"WI"},"type":"Feature","geometry":{"type":"Point","coordinates":[-87.887585,43.089179]}},{"properties":{"city":"Green Bay","zip":"54305-0704","add":"226 N. Adams St.","geo_score":0.857,"venue":"Northeastern Wisconsin Arts Council","id":"a6lgpg1w8r0z","geo_precision":"city","state":"WI"},"type":"Feature","geometry":{"type":"Point","coordinates":[-88.019826,44.519159]}},{"properties":{"city":"Amery","zip":null,"add":"113 Elm Street","geo_score":0.857,"venue":"Northern Lakes Center for the Arts, Inc.","id":"a6lgpfnmbhix","geo_precision":"city","state":"WI"},"type":"Feature","geometry":{"type":"Point","coordinates":[-92.401379,45.348566]}},{"properties":{"city":"Milwaukee","zip":"53219","add":"7507 W. Oklahoma Ave.","geo_score":0.857,"venue":"Norway House","id":"a6lgpfz2is9b","geo_precision":"city","state":"WI"},"type":"Feature","geometry":{"type":"Point","coordinates":[-87.906474,43.038903]}},{"properties":{"city":"Oak Creek","zip":null,"add":"7311 S. 13th St.","geo_score":0.768,"venue":"Oak Creek Assembly of God","id":"a6lgpfuxsj86","geo_precision":"city","state":"WI"},"type":"Feature","geometry":{"type":"Point","coordinates":[-87.633143,44.428885]}},{"properties":{"city":"Madison","zip":null,"add":"6165 Mineral Point Rd.","geo_score":0.857,"venue":"Oakwood Village West","id":"a6lgpfq6q9ue","geo_precision":"city","state":"WI"},"type":"Feature","geometry":{"type":"Point","coordinates":[-89.40123,43.073052]}},{"properties":{"city":"Oconomowoc","zip":"53066","add":"641 E. Forest Street","geo_score":0.816,"venue":"Oconomowoc Arts Center","id":"a6lgpfu0fbjq","geo_precision":"city","state":"WI"},"type":"Feature","geometry":{"type":"Point","coordinates":[-88.459265,43.104451]}},{"properties":{"city":"Bayfield","zip":"54814","add":"301 Rittenhouse Ave.","geo_score":0.857,"venue":"Old Rittenhouse Inn","id":"a6lgpfwer8ic","geo_precision":"city","state":"WI"},"type":"Feature","geometry":{"type":"Point","coordinates":[-90.915934,46.853517]}},{"properties":{"city":"Racine","zip":null,"add":"625 College Ave.","geo_score":0.857,"venue":"Olympia Brown Unitarian Universalist Church","id":"a6lgpfu5foxl","geo_precision":"city","state":"WI"},"type":"Feature","geometry":{"type":"Point","coordinates":[-87.675979,42.727153]}},{"properties":{"city":"Oconomowoc","zip":"53066","add":"1350 Royale Mile Rd.","geo_score":0.816,"venue":"Olympia Resort and Spa","id":"a6lgpg1jem0z","geo_precision":"city","state":"WI"},"type":"Feature","geometry":{"type":"Point","coordinates":[-88.459265,43.104451]}},{"properties":{"city":"Omro","zip":"54963","add":"205 Adams Ave.","geo_score":0.857,"venue":"Omro Wedding Chapel","id":"a6lgpg094rvw","geo_precision":"city","state":"WI"},"type":"Feature","geometry":{"type":"Point","coordinates":[-88.754887,44.050782]}},{"properties":{"city":"Birchwood","zip":null,"add":"2522 28th Avenue","geo_score":0.857,"venue":"On Twin Lakes Farm","id":"a6lgpg1gtfh8","geo_precision":"city","state":"WI"},"type":"Feature","geometry":{"type":"Point","coordinates":[-91.615044,45.732675]}},{"properties":{"city":"Oneida","zip":"54155","add":"2913 Artly St. (in Oneida Housing Site # 1)","geo_score":0.857,"venue":"Oneida Civic Center (Recreation Center)","id":"a6lgpfzd0idt","geo_precision":"city","state":"WI"},"type":"Feature","geometry":{"type":"Point","coordinates":[-88.23333,44.447167]}},{"properties":{"city":"Oneida","zip":"54155","add":"2907 S. Overland Rd. (junction of Hwy. 172 &amp; Overland Rd.)","geo_score":0.857,"venue":"Oneida Elderly Services Center","id":"a6lgpfpx8fpn","geo_precision":"city","state":"WI"},"type":"Feature","geometry":{"type":"Point","coordinates":[-88.23333,44.447167]}},{"properties":{"city":"Oneida","zip":"54155","add":"2936 Freedom Rd. (Cty Rd. E)","geo_score":0.857,"venue":"Oneida Parish Hall","id":"a6lgpfveypkz","geo_precision":"city","state":"WI"},"type":"Feature","geometry":{"type":"Point","coordinates":[-88.23333,44.447167]}},{"properties":{"city":"Green Bay","zip":"54304","add":"2640 West Point Rd.","geo_score":0.857,"venue":"Oneida Social Service Building","id":"a6lgpftjgphs","geo_precision":"city","state":"WI"},"type":"Feature","geometry":{"type":"Point","coordinates":[-88.019826,44.519159]}},{"properties":{"city":"Oregon","zip":"53575","add":"456 N. Perry Parkway","geo_score":0.857,"venue":"Oregon High School Performing Arts Center","id":"a6lgpfs4vas6","geo_precision":"city","state":"WI"},"type":"Feature","geometry":{"type":"Point","coordinates":[-89.389642,42.933918]}},{"properties":{"city":"Oshkosh","zip":"54901","add":"100 City Center","geo_score":0.857,"venue":"Oshkosh City Center Atrium","id":"a6lgpfvzq51c","geo_precision":"city","state":"WI"},"type":"Feature","geometry":{"type":"Point","coordinates":[-88.55756,44.005661]}},{"properties":{"city":"Oshkosh","zip":"54904","add":"2401 W. Waukau Avenue","geo_score":0.857,"venue":"Oshkosh Convention Center","id":"a6lgpfwfrai3","geo_precision":"city","state":"WI"},"type":"Feature","geometry":{"type":"Point","coordinates":[-88.55756,44.005661]}},{"properties":{"city":"Oshkosh","zip":"54902","add":"200 N. Campbell Rd.","geo_score":0.857,"venue":"Oshkosh Senior Center","id":"a6lgpg23e53e","geo_precision":"city","state":"WI"},"type":"Feature","geometry":{"type":"Point","coordinates":[-88.55756,44.005661]}},{"properties":{"city":"Omro","zip":"54963","add":"6289 County Rd. E","geo_score":0.857,"venue":"Oshkosh Sky Ranch","id":"a6lgpg04qs4l","geo_precision":"city","state":"WI"},"type":"Feature","geometry":{"type":"Point","coordinates":[-88.754887,44.050782]}},{"properties":{"city":"Elkhart Lake","zip":"53020","add":"101 Osthoff Ave.","geo_score":0.857,"venue":"Osthoff Resort","id":"a6lgpftwg0ki","geo_precision":"city","state":"WI"},"type":"Feature","geometry":{"type":"Point","coordinates":[-87.9915,43.827363]}},{"properties":{"city":"Marshfield","zip":"54449","add":"1414 W. Fifth St.","geo_score":0.786,"venue":"Our Lady of Peace Catholic Parish","id":"a6lgpfuhvg2k","geo_precision":"city","state":"WI"},"type":"Feature","geometry":{"type":"Point","coordinates":[-89.659844,43.191103]}},{"properties":{"city":"Random Lake","zip":"53075","add":"306 Butler St.","geo_score":0.857,"venue":"Our Lady of the Lakes School","id":"a6lgpfndaqvu","geo_precision":"city","state":"WI"},"type":"Feature","geometry":{"type":"Point","coordinates":[-88.000555,43.582924]}},{"properties":{"city":"Sun Prairie","zip":"53590","add":"550 Lincoln Dr.","geo_score":0.729,"venue":"Our Savior's Lutheran Church","id":"a6lgpfygnfis","geo_precision":"city","state":"WI"},"type":"Feature","geometry":{"type":"Point","coordinates":[-88.662056,43.996927]}},{"properties":{"city":"La Crosse","zip":"54601","add":"612 Division St.","geo_score":0.857,"venue":"Our Savior's Lutheran Church","id":"a6lgpftkq5jd","geo_precision":"city","state":"WI"},"type":"Feature","geometry":{"type":"Point","coordinates":[-91.132072,43.85456]}},{"properties":{"city":"Neenah","zip":"54956","add":"809 S. Commercial St.","geo_score":0.786,"venue":"Our Savior's Lutheran Church, Neenah","id":"a6lgpg2g0pxu","geo_precision":"city","state":"WI"},"type":"Feature","geometry":{"type":"Point","coordinates":[-88.391487,43.446109]}},{"properties":{"city":"Hartland","zip":null,"add":"W299 N5782 Cty. E","geo_score":0.857,"venue":"Our Savior's Lutheran Church-Hartland","id":"a6lgpfw5i7yw","geo_precision":"city","state":"WI"},"type":"Feature","geometry":{"type":"Point","coordinates":[-88.336087,43.123679]}},{"properties":{"city":"Milwaukee","zip":null,"add":"3022 W. Wisconsin Ave.","geo_score":0.857,"venue":"Our Savior's Lutheran Church-Milwaukee","id":"a6lgpfrgmur3","geo_precision":"city","state":"WI"},"type":"Feature","geometry":{"type":"Point","coordinates":[-87.906474,43.038903]}},{"properties":{"city":"Ripon","zip":"54971","add":"343 Scott St.","geo_score":0.857,"venue":"Our Saviour's United Church of Christ--Ripon","id":"a6lgpfwds8fn","geo_precision":"city","state":"WI"},"type":"Feature","geometry":{"type":"Point","coordinates":[-88.533445,43.782526]}},{"properties":{"city":"Owen","zip":null,"add":"Central Ave. and Hwy X, Historic Yellowstone Trail","geo_score":0.857,"venue":"Owen Old School Marketplace","id":"a6lgpfyub0a2","geo_precision":"city","state":"WI"},"type":"Feature","geometry":{"type":"Point","coordinates":[-90.627475,44.900923]}},{"properties":{"city":"Cedarburg","zip":"53012","add":"W62 N718 Riveredge Dr.","geo_score":0.857,"venue":"Ozaukee Art Center","id":"a6lgpftvygxu","geo_precision":"city","state":"WI"},"type":"Feature","geometry":{"type":"Point","coordinates":[-88.004033,43.321475]}},{"properties":{"city":"Mequon","zip":"53092","add":"10823 N. River Rd.","geo_score":0.857,"venue":"Ozaukee Country Club","id":"a6lgpfq4dqmz","geo_precision":"city","state":"WI"},"type":"Feature","geometry":{"type":"Point","coordinates":[-87.984534,43.236396]}},{"properties":{"city":"Sauk City","zip":null,"add":"307 Polk St.","geo_score":0.714,"venue":"Park Hall","id":"a6lgpfy8ch3y","geo_precision":"city","state":"WI"},"type":"Feature","geometry":{"type":"Point","coordinates":[-88.786223,44.216648]}},{"properties":{"city":"McFarland","zip":"53558","add":"5100 Erling Ave.","geo_score":0.857,"venue":"Park Ponderosa Ballroom","id":"a6lgpfycv91q","geo_precision":"city","state":"WI"},"type":"Feature","geometry":{"type":"Point","coordinates":[-89.363862,43.010519]}},{"properties":{"city":"Pickett","zip":"54964","add":"County Hwy FF","geo_score":0.857,"venue":"Peniel Chapel","id":"a6lgpfvxj0aw","geo_precision":"city","state":"WI"},"type":"Feature","geometry":{"type":"Point","coordinates":[-88.71918,43.956653]}},{"properties":{"city":"Madison","zip":"53705","add":"1714 Fritz Ave.","geo_score":0.857,"venue":"Play In The Mud Studio","id":"a6lgpfuv5uw5","geo_precision":"city","state":"WI"},"type":"Feature","geometry":{"type":"Point","coordinates":[-89.40123,43.073052]}},{"properties":{"city":"Plymouth","zip":"53073","add":"520 E. Mill St. - P.O. Box 253","geo_score":0.857,"venue":"Plymouth Arts Center (including Gallery 110 North)","id":"a6lgpfm1sqij","geo_precision":"city","state":"WI"},"type":"Feature","geometry":{"type":"Point","coordinates":[-87.975773,43.768454]}},{"properties":{"city":"Madison","zip":null,"add":"2401 Atwood Ave.","geo_score":0.857,"venue":"Plymouth Congregational United Church of Christ","id":"a6lgpfpuadt8","geo_precision":"city","state":"WI"},"type":"Feature","geometry":{"type":"Point","coordinates":[-89.40123,43.073052]}},{"properties":{"city":"Milwaukee","zip":"53211","add":"2717 E. Hampshire Ave.","geo_score":0.857,"venue":"Plymouth United Church of Christ","id":"a6lgpfufopv2","geo_precision":"city","state":"WI"},"type":"Feature","geometry":{"type":"Point","coordinates":[-87.906474,43.038903]}},{"properties":{"city":"Janesville","zip":"53545","add":"2809 Pontiac Drive","geo_score":0.857,"venue":"Pontiac Convention Center","id":"a6lgpfyifzo6","geo_precision":"city","state":"WI"},"type":"Feature","geometry":{"type":"Point","coordinates":[-89.112201,42.710981]}},{"properties":{"city":"Portage","zip":null,"add":"120 W. Pleasant","geo_score":0.857,"venue":"Portage Presbyterian Church","id":"a6lgpfqgzv8d","geo_precision":"city","state":"WI"},"type":"Feature","geometry":{"type":"Point","coordinates":[-89.399335,43.50666]}},{"properties":{"city":"Portage","zip":null,"add":"1804 New Pinery Rd.","geo_score":0.857,"venue":"Portage United Methodist Church","id":"a6lgpfxttgn2","geo_precision":"city","state":"WI"},"type":"Feature","geometry":{"type":"Point","coordinates":[-89.399335,43.50666]}},{"properties":{"city":"Sturgeon Bay","zip":"54235","add":"3740 Cty PD","geo_score":0.857,"venue":"Potawatomi State Park","id":"a6lgpfpiubhh","geo_precision":"city","state":"WI"},"type":"Feature","geometry":{"type":"Point","coordinates":[-87.384142,44.945314]}},{"properties":{"city":"Merrill","zip":"54452","add":"106 N Polk Street","geo_score":0.857,"venue":"Prairie River Middle School","id":"a6lgpg0ybp49","geo_precision":"city","state":"WI"},"type":"Feature","geometry":{"type":"Point","coordinates":[-89.713291,45.217518]}},{"properties":{"city":"Ashland","zip":"54806","add":"214 Vaughn Ave.","geo_score":0.781,"venue":"Presbyterian-Congregational Church","id":"a6lgpfplp336","geo_precision":"city","state":"WI"},"type":"Feature","geometry":{"type":"Point","coordinates":[-90.9713,46.573833]}},{"properties":{"city":"Eagle River","zip":"54521","add":"5030 State Highway 70 W","geo_score":0.786,"venue":"Prince of Peace Lutheran Church","id":"a6lgpfyqxey5","geo_precision":"city","state":"WI"},"type":"Feature","geometry":{"type":"Point","coordinates":[-88.47489,42.929074]}},{"properties":{"city":"Berlin","zip":"54923","add":"W3566 County Rd.","geo_score":0.786,"venue":"Prospera Farm","id":"a6lgpfqkvscq","geo_precision":"city","state":"WI"},"type":"Feature","geometry":{"type":"Point","coordinates":[-88.133876,44.163209]}},{"properties":{"city":"Madison","zip":"53703","add":"702 Langdon St.","geo_score":0.857,"venue":"Pyle Center","id":"a6lgpfzk3e8y","geo_precision":"city","state":"WI"},"type":"Feature","geometry":{"type":"Point","coordinates":[-89.40123,43.073052]}},{"properties":{"city":"Racine","zip":"53403","add":"316 Sixth St.","geo_score":0.857,"venue":"Racine Arts Council","id":"a6lgpfyuxp3y","geo_precision":"city","state":"WI"},"type":"Feature","geometry":{"type":"Point","coordinates":[-87.675979,42.727153]}},{"properties":{"city":"Madison","zip":"53703","add":"515 S. Paterson St.","geo_score":0.857,"venue":"ReaLibrary","id":"a6lgpfmomcje","geo_precision":"city","state":"WI"},"type":"Feature","geometry":{"type":"Point","coordinates":[-89.40123,43.073052]}},{"properties":{"city":"La Crosse","zip":"54601","add":"1601 Badger St","geo_score":0.857,"venue":"Recreational Eagle Center","id":"a6lgpfvn797r","geo_precision":"city","state":"WI"},"type":"Feature","geometry":{"type":"Point","coordinates":[-91.132072,43.85456]}},{"properties":{"city":"Wauwatosa","zip":null,"add":"4057 N. Mayfair Rd.","geo_score":0.857,"venue":"Redemption Lutheran Church, Wauwatosa","id":"a6lgpftny8xr","geo_precision":"city","state":"WI"},"type":"Feature","geometry":{"type":"Point","coordinates":[-88.007588,43.049457]}},{"properties":{"city":"Milwaukee","zip":"53212","add":"1422 N. 4th Street","geo_score":0.857,"venue":"Redline Milwaukee","id":"a6lgpfqk4duz","geo_precision":"city","state":"WI"},"type":"Feature","geometry":{"type":"Point","coordinates":[-87.906474,43.038903]}},{"properties":{"city":"Reedsburg","zip":"53959","add":"240 Railroad St.","geo_score":0.857,"venue":"Reedsburg Area Chamber of Commerce","id":"a6lgpg0swtx3","geo_precision":"city","state":"WI"},"type":"Feature","geometry":{"type":"Point","coordinates":[-89.95589,43.393767]}},{"properties":{"city":"Reedsburg","zip":null,"add":"131 S. Park St.","geo_score":0.857,"venue":"Reedsburg Fire Station","id":"a6lgpftup18o","geo_precision":"city","state":"WI"},"type":"Feature","geometry":{"type":"Point","coordinates":[-89.95589,43.393767]}},{"properties":{"city":"Prairie du Sac","zip":"53578","add":"105 Ninth St.","geo_score":0.738,"venue":"River Arts Center","id":"a6lgpg2bw0oj","geo_precision":"city","state":"WI"},"type":"Feature","geometry":{"type":"Point","coordinates":[-91.009035,44.262183]}},{"properties":{"city":"Stevens Point","zip":"54481","add":"1200 Crosby Ave.","geo_score":0.821,"venue":"Riverfront Arts Center","id":"a6lgpfnv4gjc","geo_precision":"city","state":"WI"},"type":"Feature","geometry":{"type":"Point","coordinates":[-91.171532,44.036351]}},{"properties":{"city":"La Crosse","zip":"54601","add":"115 4th Street S.","geo_score":0.857,"venue":"Root Note","id":"a6lgpg1u24om","geo_precision":"city","state":"WI"},"type":"Feature","geometry":{"type":"Point","coordinates":[-91.132072,43.85456]}},{"properties":{"city":"Rosholt","zip":"54473","add":"N. Main Street","geo_score":0.857,"venue":"Rosholt Fair Park","id":"a6lgpfteyy8t","geo_precision":"city","state":"WI"},"type":"Feature","geometry":{"type":"Point","coordinates":[-89.356834,44.605786]}},{"properties":{"city":"Milwaukee","zip":"53202","add":"750 N. Lincoln Memorial Dr.","geo_score":0.857,"venue":"Rotary Club of Milwaukee","id":"a6lgpftaryyl","geo_precision":"city","state":"WI"},"type":"Feature","geometry":{"type":"Point","coordinates":[-87.906474,43.038903]}},{"properties":{"city":"Beloit","zip":"53511","add":"1220 Riverside Dr.","geo_score":0.786,"venue":"Rotary River Center","id":"a6lgpfstzsrv","geo_precision":"city","state":"WI"},"type":"Feature","geometry":{"type":"Point","coordinates":[-87.705366,44.34194]}},{"properties":{"city":"Ladysmith","zip":"54848","add":"W9818 Gehlers Road","geo_score":0.857,"venue":"Rusk Area Arts Alliance","id":"a6lgpfnk62u6","geo_precision":"city","state":"WI"},"type":"Feature","geometry":{"type":"Point","coordinates":[-91.0943,45.490835]}},{"properties":{"city":"Madison","zip":"53704","add":"3511 Milwaukee St.","geo_score":0.857,"venue":"S.S. Morris Community African Methodist Episcopal","id":"a6lgpfohj4oi","geo_precision":"city","state":"WI"},"type":"Feature","geometry":{"type":"Point","coordinates":[-89.40123,43.073052]}},{"properties":{"city":"La Crosse","zip":"54601","add":"420 West Ave. S.","geo_score":0.857,"venue":"Saint Paul's Lutheran Church","id":"a6lgpfuud3t2","geo_precision":"city","state":"WI"},"type":"Feature","geometry":{"type":"Point","coordinates":[-91.132072,43.85456]}},{"properties":{"city":"Wausau","zip":"54403","add":"2822 N. Sixth St.","geo_score":0.857,"venue":"Salem Evangelical Lutheran Church","id":"a6lgpfrqwdpv","geo_precision":"city","state":"WI"},"type":"Feature","geometry":{"type":"Point","coordinates":[-89.794002,44.961874]}},{"properties":{"city":"Green Bay","zip":"54303","add":"626 Union Ct.","geo_score":0.857,"venue":"Salvation Army of Green Bay","id":"a6lgpfnuylbx","geo_precision":"city","state":"WI"},"type":"Feature","geometry":{"type":"Point","coordinates":[-88.019826,44.519159]}},{"properties":{"city":"Reedsburg","zip":null,"add":"54555 Hwy CH","geo_score":0.857,"venue":"Sauk County Health Care Center","id":"a6lgpg0ye087","geo_precision":"city","state":"WI"},"type":"Feature","geometry":{"type":"Point","coordinates":[-89.95589,43.393767]}},{"properties":{"city":"Seeley","zip":"54843","add":"Hwy 63 &amp; CTH OO","geo_score":0.0,"venue":"Sawmill Saloon Festival Grounds","id":"a6lgpftznmv1","geo_precision":"unmatched","state":"WI"},"type":"Feature","geometry":null},{"properties":{"city":"Sister Bay","zip":"54234","add":"290 Smith Dr.","geo_score":0.857,"venue":"Scandia Village Good Samaritan","id":"a6lgpfooi87d","geo_precision":"city","state":"WI"},"type":"Feature","geometry":{"type":"Point","coordinates":[-87.101748,45.178293]}},{"properties":{"city":"Waukesha","zip":null,"add":"1120 Baxter Street","geo_score":0.857,"venue":"Scheutze Building","id":"a6lgpfmq0pcd","geo_precision":"city","state":"WI"},"type":"Feature","geometry":{"type":"Point","coordinates":[-88.217715,42.987835]}},{"properties":{"city":"Hayward","zip":"54843","add":"10839N Nyman Ave.","geo_score":0.816,"venue":"Sebek Studio","id":"a6lgpfzy5eq6","geo_precision":"city","state":"WI"},"type":"Feature","geometry":{"type":"Point","coordinates":[-88.088159,44.543603]}},{"properties":{"city":"Richland Center","zip":null,"add":"26625 Crestview Dr.","geo_score":0.765,"venue":"Seventh Day Adventist Church","id":"a6lgpg18puc1","geo_precision":"city","state":"WI"},"type":"Feature","geometry":{"type":"Point","coordinates":[-87.705365,44.313051]}},{"properties":{"city":"Milton","zip":null,"add":"Hwys 59 &amp; 26","geo_score":0.857,"venue":"Seventh Day Baptist Church","id":"a6lgpfshzprq","geo_precision":"city","state":"WI"},"type":"Feature","geometry":{"type":"Point","coordinates":[-89.041277,42.737804]}},{"properties":{"city":"Twin Lakes","zip":null,"add":"2305 Lance Blvd.","geo_score":0.857,"venue":"Shadow Hill Ranch","id":"a6lgpg0lqfw6","geo_precision":"city","state":"WI"},"type":"Feature","geometry":{"type":"Point","coordinates":[-88.235389,42.523887]}},{"properties":{"city":"Brookfield","zip":"53045","add":"19805 W. Capitol Dr.","geo_score":0.857,"venue":"Sharon Lynne Wilson Center for the Arts","id":"a6lgpfnihv98","geo_precision":"city","state":"WI"},"type":"Feature","geometry":{"type":"Point","coordinates":[-88.105906,43.062707]}},{"properties":{"city":"Shell Lake","zip":"54871","add":"802 First St.","geo_score":0.746,"venue":"Shell Lake Arts Center","id":"a6lgpfulfyaq","geo_precision":"city","state":"WI"},"type":"Feature","geometry":{"type":"Point","coordinates":[-90.375852,44.606893]}},{"properties":{"city":"Ellison Bay","zip":"54210","add":"11836 State Road 42","geo_score":0.857,"venue":"Shepherd of the Bay Lutheran Church","id":"a6lgpfwahxbd","geo_precision":"city","state":"WI"},"type":"Feature","geometry":{"type":"Point","coordinates":[-87.044698,45.253108]}},{"properties":{"city":"Green Bay","zip":"54304","add":"1901 S. Oneida St.","geo_score":0.857,"venue":"Shopko Hall","id":"a6lgpg10r4ft","geo_precision":"city","state":"WI"},"type":"Feature","geometry":{"type":"Point","coordinates":[-88.019826,44.519159]}},{"properties":{"city":"La Crosse","zip":"54601","add":"5250 Justin Rd","geo_score":0.857,"venue":"Shrine of Our Lady of Guadalupe","id":"a6lgpfvqcvxk","geo_precision":"city","state":"WI"},"type":"Feature","geometry":{"type":"Point","coordinates":[-91.132072,43.85456]}},{"properties":{"city":"Medford","zip":"54451","add":"1037 W. Broadway","geo_score":0.857,"venue":"Simek Recreation Center","id":"a6lgpfxe4tdy","geo_precision":"city","state":"WI"},"type":"Feature","geometry":{"type":"Point","coordinates":[-90.445798,45.164705]}},{"properties":{"city":"Medford","zip":"54451","add":"1037 West Broadway","geo_score":0.857,"venue":"Simek Recreation Center/MAYHA","id":"a6lgpfqrcgnq","geo_precision":"city","state":"WI"},"type":"Feature","geometry":{"type":"Point","coordinates":[-90.445798,45.164705]}},{"properties":{"city":"Sinsinawa","zip":"53824","add":"585 County Road Z","geo_score":0.857,"venue":"Sinsinawa Mound","id":"a6lgpfmfe5fo","geo_precision":"city","state":"WI"},"type":"Feature","geometry":{"type":"Point","coordinates":[-90.791337,42.859325]}},{"properties":{"city":"Sister Bay","zip":"54234","add":"10924 Old Stage Rd.","geo_score":0.857,"venue":"Sister Bay Moravian Church","id":"a6lgpftebh8l","geo_precision":"city","state":"WI"},"type":"Feature","geometry":{"type":"Point","coordinates":[-87.101748,45.178293]}},{"properties":{"city":"Sister Bay","zip":null,"add":"Hwy 42","geo_score":0.857,"venue":"Sister Bay Village Hall","id":"a6lgpfu2jaeq","geo_precision":"city","state":"WI"},"type":"Feature","geometry":{"type":"Point","coordinates":[-87.101748,45.178293]}},{"properties":{"city":"Milwaukee","zip":"53204","add":"1032 S. Cesar Chavez Dr.","geo_score":0.857,"venue":"Sixteenth Street Community Health Center","id":"a6lgpfxlqctz","geo_precision":"city","state":"WI"},"type":"Feature","geometry":{"type":"Point","coordinates":[-87.906474,43.038903]}},{"properties":{"city":"Madison","zip":"53713","add":"2001 Taft Street","geo_score":0.857,"venue":"South Madison Boys &amp; Girls Club","id":"a6lgpfqpt3qy","geo_precision":"city","state":"WI"},"type":"Feature","geometry":{"type":"Point","coordinates":[-89.40123,43.073052]}},{"properties":{"city":"Butler","zip":"53007","add":"12801 W. Fairmount Ave.","geo_score":0.857,"venue":"St. Agnes Parish","id":"a6lgpg0whv81","geo_precision":"city","state":"WI"},"type":"Feature","geometry":{"type":"Point","coordinates":[-88.071489,43.108459]}},{"properties":{"city":"Hartford","zip":null,"add":"670 E. Monroe Ave.","geo_score":0.857,"venue":"St. Aidan's Episcopal Church","id":"a6lgpfpzheu4","geo_precision":"city","state":"WI"},"type":"Feature","geometry":{"type":"Point","coordinates":[-88.319032,43.357616]}},{"properties":{"city":"Sun Prairie","zip":null,"add":"2420 St. Albert Dr.","geo_score":0.729,"venue":"St. Albert the Great Catholic Church","id":"a6lgpfye4tbt","geo_precision":"city","state":"WI"},"type":"Feature","geometry":{"type":"Point","coordinates":[-88.662056,43.996927]}},{"properties":{"city":"West Allis","zip":"53214","add":"1414 S. 93rd St.","geo_score":0.73,"venue":"St. Aloysius Catholic Church","id":"a6lgpfqdgvc5","geo_precision":"city","state":"WI"},"type":"Feature","geometry":{"type":"Point","coordinates":[-88.016214,44.477492]}},{"properties":{"city":"Greendale","zip":null,"add":"6060 W. Loomis Rd.","geo_score":0.857,"venue":"St. Alphonsus Church","id":"a6lgpg08rjs6","geo_precision":"city","state":"WI"},"type":"Feature","geometry":{"type":"Point","coordinates":[-87.998935,42.937765]}},{"properties":{"city":"Madison","zip":"53726","add":"1833 Regent St.","geo_score":0.857,"venue":"St. Andrew's Episcopal Church","id":"a6lgpfmtkpts","geo_precision":"city","state":"WI"},"type":"Feature","geometry":{"type":"Point","coordinates":[-89.40123,43.073052]}},{"properties":{"city":"Wausau","zip":"54401","add":"700 W. Bridge Street","geo_score":0.857,"venue":"St. Anne's Catholic Church","id":"a6lgpfwaw5mj","geo_precision":"city","state":"WI"},"type":"Feature","geometry":{"type":"Point","coordinates":[-89.794002,44.961874]}},{"properties":{"city":"Lac du Flambeau","zip":"54538","add":"650 Old Abe Rd.","geo_score":0.725,"venue":"St. Anthony Parish Grounds","id":"a6lgpg08brdp","geo_precision":"city","state":"WI"},"type":"Feature","geometry":{"type":"Point","coordinates":[-91.579323,44.458299]}},{"properties":{"city":"Fontana","zip":"53125","add":"137 Dewey Ave.","geo_score":0.804,"venue":"St. Benedict Church","id":"a6lgpfw45q7b","geo_precision":"city","state":"WI"},"type":"Feature","geometry":{"type":"Point","coordinates":[-87.786203,44.371105]}},{"properties":{"city":"Appleton","zip":"54914","add":"1617 W. Pine St.","geo_score":0.857,"venue":"St. Bernard's Catholic Church of Appleton","id":"a6lgpfwnc3p0","geo_precision":"city","state":"WI"},"type":"Feature","geometry":{"type":"Point","coordinates":[-88.370856,44.275702]}},{"properties":{"city":"Wisconsin Dells","zip":"53965-1531","add":"603 Oak St.","geo_score":0.79,"venue":"St. Cecilia Catholic Church","id":"a6lgpfsj5byy","geo_precision":"city","state":"WI"},"type":"Feature","geometry":{"type":"Point","coordinates":[-88.911228,45.656073]}},{"properties":{"city":"Hartland","zip":"53029","add":"313 Circle Dr.","geo_score":0.857,"venue":"St. Charles Catholic Church","id":"a6lgpfnsc3ps","geo_precision":"city","state":"WI"},"type":"Feature","geometry":{"type":"Point","coordinates":[-88.336087,43.123679]}},{"properties":{"city":"Madison","zip":"53714","add":"413 Dempsey Rd.","geo_score":0.857,"venue":"St. Dennis Catholic Church","id":"a6lgpfw8qwz5","geo_precision":"city","state":"WI"},"type":"Feature","geometry":{"type":"Point","coordinates":[-89.40123,43.073052]}},{"properties":{"city":"Middleton","zip":null,"add":"6205 University Ave.","geo_score":0.857,"venue":"St. Dunstan's Episcopal Church","id":"a6lgpg0gpoeh","geo_precision":"city","state":"WI"},"type":"Feature","geometry":{"type":"Point","coordinates":[-89.529153,43.114772]}},{"properties":{"city":"Burlington","zip":"53105","add":"503 S. Browns Lake Dr. (Hwy W)","geo_score":0.857,"venue":"St. Francis Retreat Center","id":"a6lgpg205crh","geo_precision":"city","state":"WI"},"type":"Feature","geometry":{"type":"Point","coordinates":[-88.228793,42.692103]}},{"properties":{"city":"Green Bay","zip":"54301","add":"139 S. Madison St.","geo_score":0.857,"venue":"St. Francis Xavier Cathedral","id":"a6lgpfttdiqx","geo_precision":"city","state":"WI"},"type":"Feature","geometry":{"type":"Point","coordinates":[-88.019826,44.519159]}},{"properties":{"city":"Madison","zip":"53715","add":"1128 St. James Ct.","geo_score":0.857,"venue":"St. James Catholic Church","id":"a6lgpg0viu9a","geo_precision":"city","state":"WI"},"type":"Feature","geometry":{"type":"Point","coordinates":[-89.40123,43.073052]}},{"properties":{"city":"Germantown","zip":null,"add":"N104 W14181 Donges Bay Rd.","geo_score":0.857,"venue":"St. John United Church of Christ","id":"a6lgpfwgqka4","geo_precision":"city","state":"WI"},"type":"Feature","geometry":{"type":"Point","coordinates":[-88.124711,43.235477]}},{"properties":{"city":"Montello","zip":"53949","add":"277 E. Montello St.","geo_score":0.857,"venue":"St. John the Baptist Catholic Church","id":"a6lgpfo7b6qe","geo_precision":"city","state":"WI"},"type":"Feature","geometry":{"type":"Point","coordinates":[-89.372011,43.812581]}},{"properties":{"city":"Spring Green","zip":"53588","add":"129 W. Daley St.","geo_score":0.753,"venue":"St. John's Catholic Church","id":"a6lgpfrgwmu5","geo_precision":"city","state":"WI"},"type":"Feature","geometry":{"type":"Point","coordinates":[-87.745645,44.356106]}},{"properties":{"city":"Oshkosh","zip":"54901","add":"808 N. Main St.","geo_score":0.857,"venue":"St. John's Evangelical Lutheran Church","id":"a6lgpg1l0knr","geo_precision":"city","state":"WI"},"type":"Feature","geometry":{"type":"Point","coordinates":[-88.55756,44.005661]}},{"properties":{"city":"Brookfield","zip":"53045","add":"20275 Davidson Road","geo_score":0.857,"venue":"St. John's Lutheran Church","id":"a6lgpfu04srv","geo_precision":"city","state":"WI"},"type":"Feature","geometry":{"type":"Point","coordinates":[-88.105906,43.062707]}},{"properties":{"city":"Gillett","zip":null,"add":"101 W. Main St.","geo_score":0.857,"venue":"St. John's Lutheran Church","id":"a6lgpfore2b0","geo_precision":"city","state":"WI"},"type":"Feature","geometry":{"type":"Point","coordinates":[-88.174299,44.916397]}},{"properties":{"city":"Milwaukee","zip":"53202","add":"1840 N. Prospect Ave.","geo_score":0.857,"venue":"St. John's on the Lake","id":"a6lgpfumlxve","geo_precision":"city","state":"WI"},"type":"Feature","geometry":{"type":"Point","coordinates":[-87.906474,43.038903]}},{"properties":{"city":"Appleton","zip":"54911","add":"404 W. Lawrence St.","geo_score":0.857,"venue":"St. Joseph Catholic Church","id":"a6lgpg0k3e9k","geo_precision":"city","state":"WI"},"type":"Feature","geometry":{"type":"Point","coordinates":[-88.370856,44.275702]}},{"properties":{"city":"Milwaukee","zip":"53215","add":"1505 S. Layton Blvd.","geo_score":0.857,"venue":"St. Joseph Center Chapel","id":"a6lgpfyjwhmr","geo_precision":"city","state":"WI"},"type":"Feature","geometry":{"type":"Point","coordinates":[-87.906474,43.038903]}},{"properties":{"city":"Oneida","zip":null,"add":"145 St. Joseph Dr.","geo_score":0.857,"venue":"St. Joseph Parish Church","id":"a6lgpfnw6nxe","geo_precision":"city","state":"WI"},"type":"Feature","geometry":{"type":"Point","coordinates":[-88.23333,44.447167]}},{"properties":{"city":"Hudson","zip":"54016","add":"1337 County Road V","geo_score":0.857,"venue":"St. Joseph Town Hall","id":"a6lgpfqkznqy","geo_precision":"city","state":"WI"},"type":"Feature","geometry":{"type":"Point","coordinates":[-92.481156,44.971853]}},{"properties":{"city":"Baileys Harbor","zip":"54202","add":"3035 O'Brien Rd.","geo_score":0.857,"venue":"St. Joseph's Retreat Center","id":"a6lgpfrd0ho4","geo_precision":"city","state":"WI"},"type":"Feature","geometry":{"type":"Point","coordinates":[-87.14603,45.077002]}},{"properties":{"city":"Wauwatosa","zip":"53213","add":"800 Glenview Ave.","geo_score":0.857,"venue":"St. Jude the Apostle Catholic Church","id":"a6lgpfwhg0qh","geo_precision":"city","state":"WI"},"type":"Feature","geometry":{"type":"Point","coordinates":[-88.007588,43.049457]}},{"properties":{"city":"Wisconsin Rapids","zip":null,"add":"530 Tenth Ave. N.","geo_score":0.798,"venue":"St. Lawrence Parish","id":"a6lgpfvfptyg","geo_precision":"city","state":"WI"},"type":"Feature","geometry":{"type":"Point","coordinates":[-88.911228,45.656073]}},{"properties":{"city":"Madison","zip":"53716","add":"4011 Major Avenue","geo_score":0.857,"venue":"St. Luke's Episcopal Church","id":"a6lgpfzj06aj","geo_precision":"city","state":"WI"},"type":"Feature","geometry":{"type":"Point","coordinates":[-89.40123,43.073052]}},{"properties":{"city":"Racine","zip":null,"add":"614 Main St.","geo_score":0.857,"venue":"St. Luke's Episcopal Church","id":"a6lgpfwz6au9","geo_precision":"city","state":"WI"},"type":"Feature","geometry":{"type":"Point","coordinates":[-87.675979,42.727153]}},{"properties":{"city":"Wausau","zip":"54401","add":"600 Stevens Drive","geo_score":0.857,"venue":"St. Mark's Lutheran Church","id":"a6lgpfxfb7a5","geo_precision":"city","state":"WI"},"type":"Feature","geometry":{"type":"Point","coordinates":[-89.794002,44.961874]}},{"properties":{"city":"Hales Corners","zip":"53130","add":"9520 W. Forest Home Ave.","geo_score":0.762,"venue":"St. Mary Catholic Faith Community","id":"a6lgpfs8j035","geo_precision":"city","state":"WI"},"type":"Feature","geometry":{"type":"Point","coordinates":[-88.977341,45.703849]}},{"properties":{"city":"Madison","zip":null,"add":"2440 Atwood Ave","geo_score":0.857,"venue":"St. Mary's Adult Day Health Center","id":"a6lgpftjg2me","geo_precision":"city","state":"WI"},"type":"Feature","geometry":{"type":"Point","coordinates":[-89.40123,43.073052]}},{"properties":{"city":"Tomahawk","zip":"54487-1548","add":"320 E. Washington Ave.","geo_score":0.857,"venue":"St. Mary's Catholic Church","id":"a6lgpfoiyo8u","geo_precision":"city","state":"WI"},"type":"Feature","geometry":{"type":"Point","coordinates":[-89.765239,45.337814]}},{"properties":{"city":"Elm Grove","zip":"53122","add":"13000 Juneau Blvd.","geo_score":0.857,"venue":"St. Mary's Catholic Church","id":"a6lgpfynb68i","geo_precision":"city","state":"WI"},"type":"Feature","geometry":{"type":"Point","coordinates":[-88.087888,43.048211]}},{"properties":{"city":"Waukesha","zip":"53186","add":"225 S. Hartwell Ave.","geo_score":0.857,"venue":"St. Mary's Catholic Church","id":"a6lgpfsosdsz","geo_precision":"city","state":"WI"},"type":"Feature","geometry":{"type":"Point","coordinates":[-88.217715,42.987835]}},{"properties":{"city":"Madison","zip":null,"add":"1347 Fish Hatchery Rd.","geo_score":0.857,"venue":"St. Marys Care Center","id":"a6lgpfo0uutd","geo_precision":"city","state":"WI"},"type":"Feature","geometry":{"type":"Point","coordinates":[-89.40123,43.073052]}},{"properties":{"city":"Wauwatosa","zip":"53213","add":"1615 Wauwatosa Ave.","geo_score":0.857,"venue":"St. Matthew's Lutheran Church","id":"a6lgpfzjywvn","geo_precision":"city","state":"WI"},"type":"Feature","geometry":{"type":"Point","coordinates":[-88.007588,43.049457]}},{"properties":{"city":"Hustisford","zip":null,"add":"N4914 Gray Rd.","geo_score":0.857,"venue":"St. Michael's Church","id":"a6lgpfn5vmd3","geo_precision":"city","state":"WI"},"type":"Feature","geometry":{"type":"Point","coordinates":[-88.603032,43.330523]}},{"properties":{"city":"De Pere","zip":"54115","add":"1016 North Broadway","geo_score":0.786,"venue":"St. Norbert Abbey","id":"a6lgpfnwn6un","geo_precision":"city","state":"WI"},"type":"Feature","geometry":{"type":"Point","coordinates":[-89.243446,44.569975]}},{"properties":{"city":"De Pere","zip":"54115-2099","add":"100 Grant St.","geo_score":0.786,"venue":"St. Norbert College - Old St. Joseph's Church","id":"a6lgpfoep32w","geo_precision":"city","state":"WI"},"type":"Feature","geometry":{"type":"Point","coordinates":[-89.243446,44.569975]}},{"properties":{"city":"De Forest","zip":null,"add":"615 Jefferson St.","geo_score":0.821,"venue":"St. Olaf Parish Center","id":"a6lgpfu2f7cc","geo_precision":"city","state":"WI"},"type":"Feature","geometry":{"type":"Point","coordinates":[-92.259633,45.13663]}},{"properties":{"city":"Madison","zip":"53703","add":"404 E. Main St.","geo_score":0.857,"venue":"St. Patrick Catholic Church","id":"a6lgpfqgv4tt","geo_precision":"city","state":"WI"},"type":"Feature","geometry":{"type":"Point","coordinates":[-89.40123,43.073052]}},{"properties":{"city":"Racine","zip":"53402","add":"1100 Erie St.","geo_score":0.857,"venue":"St. Patrick's Catholic Church, Racine","id":"a6lgpfn7d2nc","geo_precision":"city","state":"WI"},"type":"Feature","geometry":{"type":"Point","coordinates":[-87.675979,42.727153]}},{"properties":{"city":"Plain","zip":"53577","add":"S8280 County Hwy. GG","geo_score":0.776,"venue":"St. Patrick's Church, Plain","id":"a6lgpfx9bm1r","geo_precision":"city","state":"WI"},"type":"Feature","geometry":{"type":"Point","coordinates":[-89.413172,44.569971]}},{"properties":{"city":"Madison","zip":"53704","add":"2126 N. Sherman Ave.","geo_score":0.857,"venue":"St. Paul Lutheran Church","id":"a6lgpfsl66hs","geo_precision":"city","state":"WI"},"type":"Feature","geometry":{"type":"Point","coordinates":[-89.40123,43.073052]}},{"properties":{"city":"Sheboygan Falls","zip":"53085","add":"730 County Road PPP","geo_score":0.735,"venue":"St. Paul Lutheran Church","id":"a6lgpfx00uro","geo_precision":"city","state":"WI"},"type":"Feature","geometry":{"type":"Point","coordinates":[-89.234838,43.089719]}},{"properties":{"city":"Fond du Lac","zip":"54935","add":"51 West Division Street","geo_score":0.857,"venue":"St. Paul's Cathedral","id":"a6lgpfmxsfh7","geo_precision":"city","state":"WI"},"type":"Feature","geometry":{"type":"Point","coordinates":[-88.523176,43.734724]}},{"properties":{"city":"Marinette","zip":null,"add":"917 Church St.","geo_score":0.857,"venue":"St. Paul's Episcopal Church","id":"a6lgpfnap4rd","geo_precision":"city","state":"WI"},"type":"Feature","geometry":{"type":"Point","coordinates":[-87.716311,45.086805]}},{"properties":{"city":"Beloit","zip":"53511","add":"212 W. Grand Ave.","geo_score":0.786,"venue":"St. Paul's Episcopal Church","id":"a6lgpfqzll02","geo_precision":"city","state":"WI"},"type":"Feature","geometry":{"type":"Point","coordinates":[-87.705366,44.34194]}},{"properties":{"city":"Medford","zip":"54451","add":"309 N. Park Ave.","geo_score":0.857,"venue":"St. Paul's Evangelical Lutheran Church","id":"a6lgpfwwaq3m","geo_precision":"city","state":"WI"},"type":"Feature","geometry":{"type":"Point","coordinates":[-90.445798,45.164705]}},{"properties":{"city":"Mayville","zip":"53050","add":"16 S. Walnut","geo_score":0.821,"venue":"St. Paul's Lutheran Church","id":"a6lgpfs5fm88","geo_precision":"city","state":"WI"},"type":"Feature","geometry":{"type":"Point","coordinates":[-92.527413,44.688579]}},{"properties":{"city":"Neenah","zip":"54956","add":"200 N. Commercial St.","geo_score":0.786,"venue":"St. Paul's Lutheran Church of Neenah","id":"a6lgpfokkn2v","geo_precision":"city","state":"WI"},"type":"Feature","geometry":{"type":"Point","coordinates":[-88.391487,43.446109]}},{"properties":{"city":"Stevens Point","zip":"54481","add":"600 N. Wilshire Blvd.","geo_score":0.821,"venue":"St. Paul's United Methodist Church","id":"a6lgpg0l4a48","geo_precision":"city","state":"WI"},"type":"Feature","geometry":{"type":"Point","coordinates":[-91.171532,44.036351]}},{"properties":{"city":"Sheboygan","zip":"53081","add":"1444 South 11th St.","geo_score":0.857,"venue":"St. Peter Claver Church","id":"a6lgpfm2w7n4","geo_precision":"city","state":"WI"},"type":"Feature","geometry":{"type":"Point","coordinates":[-87.856793,43.722489]}},{"properties":{"city":"Stevens Point","zip":"54481","add":"800 4th Avenue","geo_score":0.821,"venue":"St. Peter's Church","id":"a6lgpfuzqf6n","geo_precision":"city","state":"WI"},"type":"Feature","geometry":{"type":"Point","coordinates":[-91.171532,44.036351]}},{"properties":{"city":"Shorewood","zip":"53211","add":"2224 E. Capitol Dr.","geo_score":0.857,"venue":"St. Robert Catholic Church","id":"a6lgpfq4horn","geo_precision":"city","state":"WI"},"type":"Feature","geometry":{"type":"Point","coordinates":[-87.887585,43.089179]}},{"properties":{"city":"Milwaukee","zip":"53208","add":"5400 W. Washington Blvd.","geo_score":0.857,"venue":"St. Sebastian Catholic Church","id":"a6lgpfpcoj5e","geo_precision":"city","state":"WI"},"type":"Feature","geometry":{"type":"Point","coordinates":[-87.906474,43.038903]}},{"properties":{"city":"Stevens Point","zip":"54481","add":"1401 Clark St.","geo_score":0.821,"venue":"St. Stephen Catholic Church","id":"a6lgpfxutk4s","geo_precision":"city","state":"WI"},"type":"Feature","geometry":{"type":"Point","coordinates":[-91.171532,44.036351]}},{"properties":{"city":"Monona","zip":"53716","add":"5700 Pheasant Hill Rd.","geo_score":0.857,"venue":"St. Stephen's Lutheran Church","id":"a6lgpfy40hyg","geo_precision":"city","state":"WI"},"type":"Feature","geometry":{"type":"Point","coordinates":[-89.334007,43.062219]}},{"properties":{"city":"Merrill","zip":null,"add":"Mill &amp; Second St.","geo_score":0.857,"venue":"St. Stephen's United Church of Christ","id":"a6lgpfoylj4e","geo_precision":"city","state":"WI"},"type":"Feature","geometry":{"type":"Point","coordinates":[-89.713291,45.217518]}},{"properties":{"city":"Milwaukee","zip":"53226","add":"9525 W. Bluemound Rd.","geo_score":0.857,"venue":"St. Therese Parish","id":"a6lgpfy8nbwl","geo_precision":"city","state":"WI"},"type":"Feature","geometry":{"type":"Point","coordinates":[-87.906474,43.038903]}},{"properties":{"city":"Madison","zip":"53717","add":"602 Everglade Dr.","geo_score":0.857,"venue":"St. Thomas Aquinas Church","id":"a6lgpg0iw9d3","geo_precision":"city","state":"WI"},"type":"Feature","geometry":{"type":"Point","coordinates":[-89.40123,43.073052]}},{"properties":{"city":"Waukesha","zip":null,"add":"440 N. Moreland","geo_score":0.857,"venue":"St. William Church","id":"a6lgpfxw9kvg","geo_precision":"city","state":"WI"},"type":"Feature","geometry":{"type":"Point","coordinates":[-88.217715,42.987835]}},{"properties":{"city":"Sturgeon Bay","zip":null,"add":"Michigan Street Bridge area","geo_score":0.857,"venue":"Steel Bridge Songfest venues","id":"a6lgpfwntmgt","geo_precision":"city","state":"WI"},"type":"Feature","geometry":{"type":"Point","coordinates":[-87.384142,44.945314]}},{"properties":{"city":"Sister Bay","zip":"54234","add":"2410 Bay Shore Drive","geo_score":0.857,"venue":"Stella Maris Parish, Sister Bay","id":"a6lgpfv0sqwr","geo_precision":"city","state":"WI"},"type":"Feature","geometry":{"type":"Point","coordinates":[-87.101748,45.178293]}},{"properties":{"city":"Milwaukee","zip":"53202","add":"1661 N. Water St.","geo_score":0.857,"venue":"Studio 1661","id":"a6lgpfqcsdd8","geo_precision":"city","state":"WI"},"type":"Feature","geometry":{"type":"Point","coordinates":[-87.906474,43.038903]}},{"properties":{"city":"Sturgeon Bay","zip":"54235","add":"323 S. Fifth Ave.","geo_score":0.857,"venue":"Sturgeon Bay Moravian Church","id":"a6lgpfq3yo8z","geo_precision":"city","state":"WI"},"type":"Feature","geometry":{"type":"Point","coordinates":[-87.384142,44.945314]}},{"properties":{"city":"Sturgeon Bay","zip":"54235","add":"1900 Michigan","geo_score":0.857,"venue":"Sturgeon Bay YMCA","id":"a6lgpfwt0ndj","geo_precision":"city","state":"WI"},"type":"Feature","geometry":{"type":"Point","coordinates":[-87.384142,44.945314]}},{"properties":{"city":"Ferryville","zip":"54628","add":"13141 Sugar Creek Bible Camp Rd","geo_score":0.857,"venue":"Sugar Creek Bible Camp","id":"a6lgpfyfuzzh","geo_precision":"city","state":"WI"},"type":"Feature","geometry":{"type":"Point","coordinates":[-91.054678,43.319219]}},{"properties":{"city":"Madison","zip":"53705","add":"6209 Mineral Point Road","geo_score":0.857,"venue":"Tabor Oaks Courtyard - Oakwood Village West","id":"a6lgpfmk16uw","geo_precision":"city","state":"WI"},"type":"Feature","geometry":{"type":"Point","coordinates":[-89.40123,43.073052]}},{"properties":{"city":"Institute","zip":"54235","add":"4497 Ploor Rd.","geo_score":0.857,"venue":"Team Leadership Center","id":"a6lgpfu58cn8","geo_precision":"city","state":"WI"},"type":"Feature","geometry":{"type":"Point","coordinates":[-87.287044,44.89333]}},{"properties":{"city":"Cable","zip":"54821","add":"42225 Telemark Rd.","geo_score":0.857,"venue":"Telemark Resort and Convention Center","id":"a6lgpfrgj7my","geo_precision":"city","state":"WI"},"type":"Feature","geometry":{"type":"Point","coordinates":[-91.189305,46.21018]}},{"properties":{"city":"Blair","zip":"54616","add":"N27587 Joe Coulee Rd.","geo_score":0.762,"venue":"Tenba Fiber Arts","id":"a6lgpfm9vum2","geo_precision":"city","state":"WI"},"type":"Feature","geometry":{"type":"Point","coordinates":[-88.838922,44.898739]}},{"properties":{"city":"Kohler","zip":"53044","add":"444 Highland Dr.","geo_score":0.857,"venue":"The American Club","id":"a6lgpfn8pu01","geo_precision":"city","state":"WI"},"type":"Feature","geometry":{"type":"Point","coordinates":[-87.776246,43.748441]}},{"properties":{"city":"Monticello","zip":"53570","add":"209 N. Main St.","geo_score":0.857,"venue":"The Dining Room at 209 Main","id":"a6lgpfxn2qhl","geo_precision":"city","state":"WI"},"type":"Feature","geometry":{"type":"Point","coordinates":[-89.621013,42.74305]}},{"properties":{"city":"Whitewater","zip":"53190","add":"N8660 Clover Valley Road","geo_score":0.857,"venue":"The Fuzzy Pig","id":"a6lgpg1ad6in","geo_precision":"city","state":"WI"},"type":"Feature","geometry":{"type":"Point","coordinates":[-88.592559,42.784255]}},{"properties":{"city":"Stevens Point","zip":null,"add":"1009 First Street","geo_score":0.821,"venue":"The Garage at Emy J's","id":"a6lgpfs9lpi6","geo_precision":"city","state":"WI"},"type":"Feature","geometry":{"type":"Point","coordinates":[-91.171532,44.036351]}},{"properties":{"city":"Milton","zip":null,"add":"715 Campus Street","geo_score":0.857,"venue":"The Gathering Place Senior Center","id":"a6lgpfsbchu8","geo_precision":"city","state":"WI"},"type":"Feature","geometry":{"type":"Point","coordinates":[-89.041277,42.737804]}},{"properties":{"city":"Janesville","zip":"53545","add":"18 N Main Street","geo_score":0.857,"venue":"The Looking Glass","id":"a6lgpfr3y4j2","geo_precision":"city","state":"WI"},"type":"Feature","geometry":{"type":"Point","coordinates":[-89.112201,42.710981]}},{"properties":{"city":"Milwaukee","zip":null,"add":"706 Jefferson St.","geo_score":0.857,"venue":"The Milwaukee Club","id":"a6lgpfvcs2zz","geo_precision":"city","state":"WI"},"type":"Feature","geometry":{"type":"Point","coordinates":[-87.906474,43.038903]}},{"properties":{"city":"Viroqua","zip":"54665","add":"219 S. Main St.","geo_score":0.735,"venue":"The Move--Center for Music, Art, Dance","id":"a6lgpfoycq4o","geo_precision":"city","state":"WI"},"type":"Feature","geometry":{"type":"Point","coordinates":[-90.957351,43.455808]}},{"properties":{"city":"Plain","zip":"53577","add":"1350 Cherry St.","geo_score":0.776,"venue":"The Old Convent","id":"a6lgpfp0bl5z","geo_precision":"city","state":"WI"},"type":"Feature","geometry":{"type":"Point","coordinates":[-89.413172,44.569971]}},{"properties":{"city":"Menasha","zip":null,"add":"1525 Appleton Rd.","geo_score":0.857,"venue":"The Salvation Army","id":"a6lgpfn2z0tk","geo_precision":"city","state":"WI"},"type":"Feature","geometry":{"type":"Point","coordinates":[-88.446497,44.202208]}},{"properties":{"city":"Fish Creek","zip":"54212","add":"9126 Hwy 42","geo_score":0.81,"venue":"The Settlement Courtyard Inn","id":"a6lgpfyp8lgj","geo_precision":"city","state":"WI"},"type":"Feature","geometry":{"type":"Point","coordinates":[-92.345472,45.483568]}},{"properties":{"city":"Lake Mills","zip":"53551","add":"100 S. Main St.","geo_score":0.857,"venue":"The Wine Vineyard","id":"a6lgpfuf2x17","geo_precision":"city","state":"WI"},"type":"Feature","geometry":{"type":"Point","coordinates":[-88.913251,43.080902]}},{"properties":{"city":"Stoughton","zip":"53589","add":"3741 Hwy 138 W","geo_score":0.857,"venue":"Three Gaits Stable","id":"a6lgpg122jt4","geo_precision":"city","state":"WI"},"type":"Feature","geometry":{"type":"Point","coordinates":[-89.168354,42.931289]}},{"properties":{"city":"Milwaukee","zip":"53211","add":"1716 N. Humboldt Ave.","geo_score":0.857,"venue":"Three Holy Women Parish","id":"a6lgpfsbltxv","geo_precision":"city","state":"WI"},"type":"Feature","geometry":{"type":"Point","coordinates":[-87.906474,43.038903]}},{"properties":{"city":"Three Lakes","zip":"54562","add":"1760 Superior St.","geo_score":0.857,"venue":"Three Lakes Center for the Arts","id":"a6lgpfpxu3i0","geo_precision":"city","state":"WI"},"type":"Feature","geometry":{"type":"Point","coordinates":[-89.157339,45.762075]}},{"properties":{"city":"Dodgeville","zip":"53533","add":"237 N. Iowa Street","geo_score":0.857,"venue":"Time Out Restaurant","id":"a6lgpfxttvh4","geo_precision":"city","state":"WI"},"type":"Feature","geometry":{"type":"Point","coordinates":[-90.192522,43.007063]}},{"properties":{"city":"Green Lake","zip":"54941","add":"W1648 County Road J","geo_score":0.73,"venue":"Toll/Londowski Family Farm","id":"a6lgpfw97zwh","geo_precision":"city","state":"WI"},"type":"Feature","geometry":{"type":"Point","coordinates":[-87.745645,44.356106]}},{"properties":{"city":"Nekoosa","zip":"54457","add":"1156 Alpine Drive","geo_score":0.857,"venue":"Town of Rome","id":"a6lgpfp78mr8","geo_precision":"city","state":"WI"},"type":"Feature","geometry":{"type":"Point","coordinates":[-89.920843,44.299968]}},{"properties":{"city":"Trempealeau","zip":"54661","add":"11332 Main Street","geo_score":0.857,"venue":"Trempealeau Hotel","id":"a6lgpfx1dhlm","geo_precision":"city","state":"WI"},"type":"Feature","geometry":{"type":"Point","coordinates":[-91.460168,44.076755]}},{"properties":{"city":"Edgerton","zip":"53534","add":"112 Swift Street","geo_score":0.857,"venue":"Tri County Community Center","id":"a6lgpftncbpi","geo_precision":"city","state":"WI"},"type":"Feature","geometry":{"type":"Point","coordinates":[-89.101389,42.803797]}},{"properties":{"city":"Mineral Point","zip":"53565","add":"409 High Street","geo_score":0.857,"venue":"Trinity Episcopal Church","id":"a6lgpfxmva6v","geo_precision":"city","state":"WI"},"type":"Feature","geometry":{"type":"Point","coordinates":[-90.152558,42.989701]}},{"properties":{"city":"Oshkosh","zip":"54901-4731","add":"311 Division St.","geo_score":0.857,"venue":"Trinity Episcopal Church","id":"a6lgpfzqd4ty","geo_precision":"city","state":"WI"},"type":"Feature","geometry":{"type":"Point","coordinates":[-88.55756,44.005661]}},{"properties":{"city":"Madison","zip":null,"add":"1904 Winnebago St.","geo_score":0.857,"venue":"Trinity Lutheran Church","id":"a6lgpg0mu3wf","geo_precision":"city","state":"WI"},"type":"Feature","geometry":{"type":"Point","coordinates":[-89.40123,43.073052]}},{"properties":{"city":"Waupaca","zip":"54981","add":"206 E. Badger Ave.","geo_score":0.857,"venue":"Trinity Lutheran Church","id":"a6lgpg0o9wjr","geo_precision":"city","state":"WI"},"type":"Feature","geometry":{"type":"Point","coordinates":[-89.04668,44.429163]}},{"properties":{"city":"Eau Claire","zip":null,"add":"1314 E. Lexington Blvd.","geo_score":0.857,"venue":"Trinity Lutheran Church","id":"a6lgpfr6bhsw","geo_precision":"city","state":"WI"},"type":"Feature","geometry":{"type":"Point","coordinates":[-91.473097,44.75653]}},{"properties":{"city":"Appleton","zip":"54911","add":"209 S. Allen St.","geo_score":0.857,"venue":"Trinity Lutheran Church of Appleton","id":"a6lgpfu9zwcm","geo_precision":"city","state":"WI"},"type":"Feature","geometry":{"type":"Point","coordinates":[-88.370856,44.275702]}},{"properties":{"city":"Arkdale","zip":null,"add":"1650 Church St.","geo_score":0.857,"venue":"Trinity Lutheran Church, Arkdale","id":"a6lgpfo5tnaw","geo_precision":"city","state":"WI"},"type":"Feature","geometry":{"type":"Point","coordinates":[-89.803877,44.079992]}},{"properties":{"city":"Sheboygan","zip":"53081","add":"824 Wisconsin Ave.","geo_score":0.857,"venue":"Trinity Lutheran Church, Sheboygan","id":"a6lgpft61sol","geo_precision":"city","state":"WI"},"type":"Feature","geometry":{"type":"Point","coordinates":[-87.856793,43.722489]}},{"properties":{"city":"Two Rivers","zip":"54241","add":"4519 Lincoln Ave.","geo_score":0.73,"venue":"Two Rivers High School Auditorium","id":"a6lgpfyl3ewn","geo_precision":"city","state":"WI"},"type":"Feature","geometry":{"type":"Point","coordinates":[-92.244916,46.569386]}},{"properties":{"city":"Two Rivers","zip":null,"add":"1520 17th St.","geo_score":0.73,"venue":"Two Rivers Senior Center","id":"a6lgpfxir8qp","geo_precision":"city","state":"WI"},"type":"Feature","geometry":{"type":"Point","coordinates":[-92.244916,46.569386]}},{"properties":{"city":"Menasha","zip":"54952","add":"1478 Midway Road","geo_score":0.857,"venue":"UW-Fox Valley - Communication Arts Center","id":"a6lgpfyd4o1k","geo_precision":"city","state":"WI"},"type":"Feature","geometry":{"type":"Point","coordinates":[-88.446497,44.202208]}},{"properties":{"city":"Madison","zip":"53711","add":"1440 Monroe St.","geo_score":0.857,"venue":"UW-Madison - Camp Randall Stadium","id":"a6lgpfsvufud","geo_precision":"city","state":"WI"},"type":"Feature","geometry":{"type":"Point","coordinates":[-89.40123,43.073052]}},{"properties":{"city":"Madison","zip":"53706","add":"800 Langdon St.","geo_score":0.857,"venue":"UW-Madison - Memorial Union","id":"a6lgpfo0uwfx","geo_precision":"city","state":"WI"},"type":"Feature","geometry":{"type":"Point","coordinates":[-89.40123,43.073052]}},{"properties":{"city":"Madison","zip":"53715-1009","add":"227 N. Randall Ave.","geo_score":0.857,"venue":"UW-Madison - Union South","id":"a6lgpfnsfwb6","geo_precision":"city","state":"WI"},"type":"Feature","geometry":{"type":"Point","coordinates":[-89.40123,43.073052]}},{"properties":{"city":"Madison","zip":"53706","add":"1401 Observatory Dr.","geo_score":0.857,"venue":"UW-Madison - Washburn Observatory","id":"a6lgpfxl3ona","geo_precision":"city","state":"WI"},"type":"Feature","geometry":{"type":"Point","coordinates":[-89.40123,43.073052]}},{"properties":{"city":"River Falls","zip":"54022","add":"E. Cascade Avenue and S. 4th Street","geo_score":0.757,"venue":"UW-River Falls - Kleinpell Fine Arts Building, William Abbott Concert Hall","id":"a6lgpfqntqe0","geo_precision":"city","state":"WI"},"type":"Feature","geometry":{"type":"Point","coordinates":[-89.234838,43.089719]}},{"properties":{"city":"River Falls","zip":"54022","add":"So. of Cascade Avenue on Sixth Street","geo_score":0.757,"venue":"UW-River Falls - University Center","id":"a6lgpfwoi1f3","geo_precision":"city","state":"WI"},"type":"Feature","geometry":{"type":"Point","coordinates":[-89.234838,43.089719]}},{"properties":{"city":"Whitewater","zip":"53190","add":"800 W. Main St.","geo_score":0.857,"venue":"UW-Whitewater, Light Recital Hall","id":"a6lgpfvsirz0","geo_precision":"city","state":"WI"},"type":"Feature","geometry":{"type":"Point","coordinates":[-88.592559,42.784255]}},{"properties":{"city":"Platteville","zip":"53818","add":"1 University Plaza","geo_score":0.857,"venue":"Ullsvik Center","id":"a6lgpfwed13t","geo_precision":"city","state":"WI"},"type":"Feature","geometry":{"type":"Point","coordinates":[-90.644975,42.795971]}},{"properties":{"city":"Green Bay","zip":"54301","add":"716 S. Madison St.","geo_score":0.857,"venue":"Union Congregational Church","id":"a6lgpfu25vrm","geo_precision":"city","state":"WI"},"type":"Feature","geometry":{"type":"Point","coordinates":[-88.019826,44.519159]}},{"properties":{"city":"Mequon","zip":null,"add":"13800 N. Port Washington Rd.","geo_score":0.857,"venue":"Unitarian Church North, Mequon","id":"a6lgpg06iz1f","geo_precision":"city","state":"WI"},"type":"Feature","geometry":{"type":"Point","coordinates":[-87.984534,43.236396]}},{"properties":{"city":"Wausau","zip":"54401","add":"504 Grant St.","geo_score":0.857,"venue":"Unitarian Universalist Church","id":"a6lgpfra186s","geo_precision":"city","state":"WI"},"type":"Feature","geometry":{"type":"Point","coordinates":[-89.794002,44.961874]}},{"properties":{"city":"Eau Claire","zip":"54703","add":"421 S. Farwell St.","geo_score":0.857,"venue":"Unitarian Universalist Church","id":"a6lgpfma1t6f","geo_precision":"city","state":"WI"},"type":"Feature","geometry":{"type":"Point","coordinates":[-91.473097,44.75653]}},{"properties":{"city":"Brookfield","zip":"53005","add":"13001 W. North Ave.","geo_score":0.857,"venue":"Unitarian Universalist Church West-Brookfield","id":"a6lgpfutlqzm","geo_precision":"city","state":"WI"},"type":"Feature","geometry":{"type":"Point","coordinates":[-88.105906,43.062707]}},{"properties":{"city":"Appleton","zip":null,"add":"2600 E. Philip Lane","geo_score":0.857,"venue":"Unitarian Universalist Fellowship Center","id":"a6lgpg2cmjdn","geo_precision":"city","state":"WI"},"type":"Feature","geometry":{"type":"Point","coordinates":[-88.370856,44.275702]}},{"properties":{"city":"Ephraim","zip":"54211","add":"10341 Hwy. 42","geo_score":0.857,"venue":"Unitarian Universalist Fellowship of Door County","id":"a6lgpfs4n4cc","geo_precision":"city","state":"WI"},"type":"Feature","geometry":{"type":"Point","coordinates":[-87.171024,45.159184]}},{"properties":{"city":"Neshkoro","zip":"54960","add":"N7888 State Road 22","geo_score":0.857,"venue":"United Methodist Assembly Center (Camp Budsin)","id":"a6lgpfoclugt","geo_precision":"city","state":"WI"},"type":"Feature","geometry":{"type":"Point","coordinates":[-89.310982,43.922097]}},{"properties":{"city":"Black River Falls","zip":"54615","add":"100 N. 4th Street","geo_score":0.743,"venue":"United Methodist Church","id":"a6lgpfzt4pmo","geo_precision":"city","state":"WI"},"type":"Feature","geometry":{"type":"Point","coordinates":[-89.234838,43.089719]}},{"properties":{"city":"Spirit","zip":null,"add":"Hwy 86","geo_score":0.857,"venue":"United Methodist Church, Spirit","id":"a6lgpfwdlgl4","geo_precision":"city","state":"WI"},"type":"Feature","geometry":{"type":"Point","coordinates":[-90.114313,45.454132]}},{"properties":{"city":"Wisconsin Dells","zip":"53965","add":"730 Cedar St.","geo_score":0.79,"venue":"United Presbyterian Church","id":"a6lgpftf0f2b","geo_precision":"city","state":"WI"},"type":"Feature","geometry":{"type":"Point","coordinates":[-88.911228,45.656073]}},{"properties":{"city":"Madison","zip":"53704","add":"2059 Atwood Ave.","geo_score":0.857,"venue":"United Way of Dane County","id":"a6lgpfxxlh5i","geo_precision":"city","state":"WI"},"type":"Feature","geometry":{"type":"Point","coordinates":[-89.40123,43.073052]}},{"properties":{"city":"Spring Green","zip":"53588","add":"On Cty. T, just east of Hwy. 23","geo_score":0.753,"venue":"Unity Chapel","id":"a6lgpg01czdi","geo_precision":"city","state":"WI"},"type":"Feature","geometry":{"type":"Point","coordinates":[-87.745645,44.356106]}},{"properties":{"city":"Milwaukee","zip":null,"add":"1025 E. Oklahoma Ave.","geo_score":0.857,"venue":"Unity Lutheran Church","id":"a6lgpfx4snxj","geo_precision":"city","state":"WI"},"type":"Feature","geometry":{"type":"Point","coordinates":[-87.906474,43.038903]}},{"properties":{"city":"Madison","zip":"53706","add":"803 State St.","geo_score":0.857,"venue":"University Club","id":"a6lgpfnwrb9w","geo_precision":"city","state":"WI"},"type":"Feature","geometry":{"type":"Point","coordinates":[-89.40123,43.073052]}},{"properties":{"city":"Milwaukee","zip":null,"add":"924 E. Wells St.","geo_score":0.857,"venue":"University Club","id":"a6lgpfya3v06","geo_precision":"city","state":"WI"},"type":"Feature","geometry":{"type":"Point","coordinates":[-87.906474,43.038903]}},{"properties":{"city":"Madison","zip":"53711","add":"1930 Monroe St.","geo_score":0.857,"venue":"University of Wisconsin Press","id":"a6lgpfmk6in6","geo_precision":"city","state":"WI"},"type":"Feature","geometry":{"type":"Point","coordinates":[-89.40123,43.073052]}},{"properties":{"city":"Cochrane","zip":null,"add":"100 Michaels St.","geo_score":0.857,"venue":"VFW Post 10406","id":"a6lgpfyibn85","geo_precision":"city","state":"WI"},"type":"Feature","geometry":{"type":"Point","coordinates":[-91.741701,44.237714]}},{"properties":{"city":"Eau Claire","zip":"54701","add":"412 S. Barstow St.","geo_score":0.857,"venue":"Valleybrook Church","id":"a6lgpfp2pteu","geo_precision":"city","state":"WI"},"type":"Feature","geometry":{"type":"Point","coordinates":[-91.473097,44.75653]}},{"properties":{"city":"Verona","zip":"53593","add":"108 Paoli St.","geo_score":0.857,"venue":"Verona Senior Center","id":"a6lgpg0ux35i","geo_precision":"city","state":"WI"},"type":"Feature","geometry":{"type":"Point","coordinates":[-89.566512,42.995697]}},{"properties":{"city":"Milwaukee","zip":"53204","add":"839 S. 5th Street","geo_score":0.857,"venue":"Walker's Point Center for the Arts","id":"a6lgpfpz4cpn","geo_precision":"city","state":"WI"},"type":"Feature","geometry":{"type":"Point","coordinates":[-87.906474,43.038903]}},{"properties":{"city":"Edgerton","zip":"53534","add":"7356 West Caledonia Rd.","geo_score":0.857,"venue":"Wartmann Prairie Farm","id":"a6lgpfznii3n","geo_precision":"city","state":"WI"},"type":"Feature","geometry":{"type":"Point","coordinates":[-89.101389,42.803797]}},{"properties":{"city":"Madison","zip":"53703","add":"402 W Lakeside Street","geo_score":0.857,"venue":"Washington Hotel Coffee Room","id":"a6lgpfy6ytli","geo_precision":"city","state":"WI"},"type":"Feature","geometry":{"type":"Point","coordinates":[-89.40123,43.073052]}},{"properties":{"city":"Washington Isle","zip":null,"add":"Main Road","geo_score":0.83,"venue":"Washington Island Community Center","id":"a6lgpftgghvd","geo_precision":"city","state":"WI"},"type":"Feature","geometry":{"type":"Point","coordinates":[-86.897472,45.373786]}},{"properties":{"city":"Milwaukee","zip":null,"add":"4420 W. Vliet St.","geo_score":0.857,"venue":"Washington Park Senior Center","id":"a6lgpfyrdndj","geo_precision":"city","state":"WI"},"type":"Feature","geometry":{"type":"Point","coordinates":[-87.906474,43.038903]}},{"properties":{"city":"Milwaukee","zip":"53202","add":"761 N. Jefferson St.","geo_score":0.857,"venue":"Watt's Tea Shop","id":"a6lgpfsxs5d8","geo_precision":"city","state":"WI"},"type":"Feature","geometry":{"type":"Point","coordinates":[-87.906474,43.038903]}},{"properties":{"city":"Waukesha","zip":null,"add":"1000 Northview Road","geo_score":0.857,"venue":"Waukesha County Exposition Center","id":"a6lgpftu8oxv","geo_precision":"city","state":"WI"},"type":"Feature","geometry":{"type":"Point","coordinates":[-88.217715,42.987835]}},{"properties":{"city":"Wausau","zip":null,"add":"309 McClellan St.","geo_score":0.857,"venue":"Wausau Club","id":"a6lgpfwj26q2","geo_precision":"city","state":"WI"},"type":"Feature","geometry":{"type":"Point","coordinates":[-89.794002,44.961874]}},{"properties":{"city":"Wauwatosa","zip":null,"add":"1529 N. Wauwatosa Ave.","geo_score":0.857,"venue":"Wauwatosa Avenue United Methodist Church","id":"a6lgpftdquwz","geo_precision":"city","state":"WI"},"type":"Feature","geometry":{"type":"Point","coordinates":[-88.007588,43.049457]}},{"properties":{"city":"Wauwatosa","zip":null,"add":"7725 W. North Ave.","geo_score":0.857,"venue":"Wauwatosa Civic Center","id":"a6lgpftgfsex","geo_precision":"city","state":"WI"},"type":"Feature","geometry":{"type":"Point","coordinates":[-88.007588,43.049457]}},{"properties":{"city":"Wauwatosa","zip":"53213","add":"2366 N. 80th Street","geo_score":0.857,"venue":"Wauwatosa Presbyterian Church","id":"a6lgpfr7byuv","geo_precision":"city","state":"WI"},"type":"Feature","geometry":{"type":"Point","coordinates":[-88.007588,43.049457]}},{"properties":{"city":"Wauwatosa","zip":"53226","add":"1626 Wauwatosa Ave.","geo_score":0.857,"venue":"Wauwatosa Women's Club","id":"a6lgpfvqmwcn","geo_precision":"city","state":"WI"},"type":"Feature","geometry":{"type":"Point","coordinates":[-88.007588,43.049457]}},{"properties":{"city":"Appleton","zip":"54914","add":"2350 N. Casaloma Dr.","geo_score":0.857,"venue":"Wave Bar and Ballroom","id":"a6lgpg2jzm63","geo_precision":"city","state":"WI"},"type":"Feature","geometry":{"type":"Point","coordinates":[-88.370856,44.275702]}},{"properties":{"city":"Van Dyne","zip":"54979","add":"N9699 Lakeshore Drive","geo_score":0.75,"venue":"Wendt's on the Lake","id":"a6lgpfmr6fbc","geo_precision":"city","state":"WI"},"type":"Feature","geometry":{"type":"Point","coordinates":[-87.786203,44.371105]}},{"properties":{"city":"Kenosha","zip":"53144","add":"4600 60th St.","geo_score":0.796,"venue":"Wesley United Methodist Church","id":"a6lgpfuuig55","geo_precision":"city","state":"WI"},"type":"Feature","geometry":{"type":"Point","coordinates":[-88.190381,44.615548]}},{"properties":{"city":"La Crosse","zip":"54601","add":"721 King St.","geo_score":0.857,"venue":"Wesley United Methodist Church","id":"a6lgpfoliwm7","geo_precision":"city","state":"WI"},"type":"Feature","geometry":{"type":"Point","coordinates":[-91.132072,43.85456]}},{"properties":{"city":"Blue Mounds","zip":"53517","add":"2962 Church St.","geo_score":0.771,"venue":"West Blue Mounds Lutheran Church","id":"a6lgpfndygnv","geo_precision":"city","state":"WI"},"type":"Feature","geometry":{"type":"Point","coordinates":[-90.263828,42.685375]}},{"properties":{"city":"Madison","zip":"53705","add":"602 Sawyer Terrace","geo_score":0.857,"venue":"West Madison Senior Center","id":"a6lgpfn9jgj3","geo_precision":"city","state":"WI"},"type":"Feature","geometry":{"type":"Point","coordinates":[-89.40123,43.073052]}},{"properties":{"city":"Eau Claire","zip":"54703","add":"4909 Sportsman Dr.","geo_score":0.857,"venue":"Westgate Sportsman Club","id":"a6lgpfwy6b78","geo_precision":"city","state":"WI"},"type":"Feature","geometry":{"type":"Point","coordinates":[-91.473097,44.75653]}},{"properties":{"city":"Madison","zip":null,"add":"953 Jenifer St.","geo_score":0.857,"venue":"Wil-Mar Community Center","id":"a6lgpg1k7e5b","geo_precision":"city","state":"WI"},"type":"Feature","geometry":{"type":"Point","coordinates":[-89.40123,43.073052]}},{"properties":{"city":"Marshfield","zip":"54449","add":"1800 S. Central Ave.","geo_score":0.786,"venue":"Wildwood Park and Zoo","id":"a6lgpfogivgn","geo_precision":"city","state":"WI"},"type":"Feature","geometry":{"type":"Point","coordinates":[-89.659844,43.191103]}},{"properties":{"city":"Neenah","zip":"54956","add":"2590 County Road II","geo_score":0.786,"venue":"Willie Beamons","id":"a6lgpg26xrr2","geo_precision":"city","state":"WI"},"type":"Feature","geometry":{"type":"Point","coordinates":[-88.391487,43.446109]}},{"properties":{"city":"Racine","zip":null,"add":"101 Bayfield Dr.","geo_score":0.857,"venue":"Wind Meadows Leisure Center","id":"a6lgpfocmhtk","geo_precision":"city","state":"WI"},"type":"Feature","geometry":{"type":"Point","coordinates":[-87.675979,42.727153]}},{"properties":{"city":"Racine","zip":null,"add":"5635 Erie St.","geo_score":0.857,"venue":"Windhover / 2006 RAM Designer Showhouse","id":"a6lgpg008ar0","geo_precision":"city","state":"WI"},"type":"Feature","geometry":{"type":"Point","coordinates":[-87.675979,42.727153]}},{"properties":{"city":"Fond du Lac","zip":"54935","add":"51 Sheboygan St.","geo_score":0.857,"venue":"Windhover Center for the Arts","id":"a6lgpfqupt8c","geo_precision":"city","state":"WI"},"type":"Feature","geometry":{"type":"Point","coordinates":[-88.523176,43.734724]}},{"properties":{"city":"Windsor","zip":"53598","add":"Hwy 51 and Mueller Road","geo_score":0.857,"venue":"Windsor Sports Commons","id":"a6lgpfwf8h7f","geo_precision":"city","state":"WI"},"type":"Feature","geometry":{"type":"Point","coordinates":[-89.34178,43.207783]}},{"properties":{"city":"Madison","zip":null,"add":"Various addresses","geo_score":0.857,"venue":"Wisconsin Book Festival locations","id":"a6lgpfo4ljfz","geo_precision":"city","state":"WI"},"type":"Feature","geometry":{"type":"Point","coordinates":[-89.40123,43.073052]}},{"properties":{"city":"Madison","zip":"53703","add":"811 Williamson St.","geo_score":0.857,"venue":"Wisconsin Center for Paper Arts","id":"a6lgpg18fmn2","geo_precision":"city","state":"WI"},"type":"Feature","geometry":{"type":"Point","coordinates":[-89.40123,43.073052]}},{"properties":{"city":"Milwaukee","zip":"53233","add":"900 W. Wisconsin Ave.","geo_score":0.857,"venue":"Wisconsin Club","id":"a6lgpfpihc29","geo_precision":"city","state":"WI"},"type":"Feature","geometry":{"type":"Point","coordinates":[-87.906474,43.038903]}},{"properties":{"city":"Spring Green","zip":"53588","add":"S13220 Shifflet Road","geo_score":0.753,"venue":"Wisconsin Riverside Resort","id":"a6lgpfowa0mq","geo_precision":"city","state":"WI"},"type":"Feature","geometry":{"type":"Point","coordinates":[-87.745645,44.356106]}},{"properties":{"city":"Witwen","zip":null,"add":"S9855 County Rd E","geo_score":0.857,"venue":"Witwen Park and Campground","id":"a6lgpfy8kanx","geo_precision":"city","state":"WI"},"type":"Feature","geometry":{"type":"Point","coordinates":[-89.887346,43.285267]}},{"properties":{"city":"Kenosha","zip":"53140","add":"6028 Eighth Ave.","geo_score":0.796,"venue":"Woman's Club of Kenosha","id":"a6lgpg0lk1mj","geo_precision":"city","state":"WI"},"type":"Feature","geometry":{"type":"Point","coordinates":[-88.190381,44.615548]}},{"properties":{"city":"Milwaukee","zip":null,"add":"813 E Kilbourn Ave.","geo_score":0.857,"venue":"Woman's Club of Wisconsin","id":"a6lgpfy6jova","geo_precision":"city","state":"WI"},"type":"Feature","geometry":{"type":"Point","coordinates":[-87.906474,43.038903]}},{"properties":{"city":"Oregon","zip":"53575","add":"1239 South Fish Hatchery Road","geo_score":0.857,"venue":"Wood Cycle Farm","id":"a6lgpg0u670r","geo_precision":"city","state":"WI"},"type":"Feature","geometry":{"type":"Point","coordinates":[-89.389642,42.933918]}},{"properties":{"city":"Milwaukee","zip":"53207","add":"4747 South Howell Avenue","geo_score":0.857,"venue":"Wyndham Milwaukee Airport &amp; Convention Center","id":"a6lgpfnx8mqq","geo_precision":"city","state":"WI"},"type":"Feature","geometry":{"type":"Point","coordinates":[-87.906474,43.038903]}},{"properties":{"city":"Wausau","zip":null,"add":"613 Fifth Street","geo_score":0.857,"venue":"YWCA of Wausau","id":"a6lgpfwipp8e","geo_precision":"city","state":"WI"},"type":"Feature","geometry":{"type":"Point","coordinates":[-89.794002,44.961874]}},{"properties":{"city":"Mount Horeb","zip":"53572","add":"119 S. Second Street","geo_score":0.857,"venue":"Zalucha Studio, Tour Headquarters","id":"a6lgpfppnqgd","geo_precision":"city","state":"WI"},"type":"Feature","geometry":{"type":"Point","coordinates":[-89.513903,42.973438]}},{"properties":{"city":"Madison","zip":"53704","add":"2165 Linden Ave.","geo_score":0.857,"venue":"Zion Lutheran Church","id":"a6lgpfmr76x3","geo_precision":"city","state":"WI"},"type":"Feature","geometry":{"type":"Point","coordinates":[-89.40123,43.073052]}},{"properties":{"city":"Wausau","zip":"54403","add":"709 Sixth St","geo_score":0.857,"venue":"Zion Lutheran Church","id":"a6lgpfzlochj","geo_precision":"city","state":"WI"},"type":"Feature","geometry":{"type":"Point","coordinates":[-89.794002,44.961874]}},{"properties":{"city":"Milwaukee","zip":"53219","add":"3301 S. 76th St.","geo_score":0.857,"venue":"Zion United Church of Christ","id":"a6lgpfoi0ti6","geo_precision":"city","state":"WI"},"type":"Feature","geometry":{"type":"Point","coordinates":[-87.906474,43.038903]}},{"properties":{"city":"Monticello","zip":"53570","add":"416 E. Lake Ave.","geo_score":0.857,"venue":"Zwingli United Church of Christ","id":"a6lgpfzxzh4q","geo_precision":"city","state":"WI"},"type":"Feature","geometry":{"type":"Point","coordinates":[-89.621013,42.74305]}}],"is_temporal":false,"author":{"url":"","metadata":"","contact_name":"","contact_address":"","source":"","contact_phone":""},"source":"","pagination":{"sort":null,"start":0,"total":576,"limit":1000000},"state":"complete","tags":"","published":"2014-08-10T15:21:59-04:00","id":63008}