{"type":"FeatureCollection","data_type":"Dataset","url_type":null,"permissions":[{"permissions":{"download":true,"view":true},"group_id":"everyone"}],"classification":null,"title":"teststatestime","count":7,"stream_id":63334,"contributor":{"url":"http://geocommons.com/users/15876","name":"ppppp"},"data_attributes":null,"calculation_params":null,"icon_link":null,"link":"http://geocommons.com/overlays/63334.json","extent":[-122.332,25.7743,-74.006,47.6062],"geometry_types":["point"],"unique_name":null,"name":"teststatestime","feature_count":7,"description":"","next_feature":null,"is_raster":false,"short_classification":"Y","stats":{"2/1/2010":{"max":6,"mean":3.71428571428571,"variance":2.9047619047619,"stdev":1.70433620649269,"min":1,"median":4},"1/1/2010":{"max":7,"mean":4.57142857142857,"variance":2.95238095238095,"stdev":1.71824938596845,"min":2,"median":5},"geo_score":{"max":0.857,"mean":0.857,"variance":1.43802769180914e-32,"stdev":1.19917792333295e-16,"min":0.857,"median":0.857}},"features":[{"properties":{"city":"chicago","2/1/2010":5,"1/1/2010":2,"geo_score":0.857,"description":"N","id":"a6p8fq0asr6q","geo_precision":"city","state":"IL"},"type":"Feature","geometry":{"type":"Point","coordinates":[-87.650052,41.850033]}},{"properties":{"city":"dallas","2/1/2010":4,"1/1/2010":4,"geo_score":0.857,"description":"SW","id":"a6p8fpt4bof4","geo_precision":"city","state":"TX"},"type":"Feature","geometry":{"type":"Point","coordinates":[-96.806667,32.783056]}},{"properties":{"city":"los angeles","2/1/2010":6,"1/1/2010":5,"geo_score":0.857,"description":"W","id":"a6p8fpnb47da","geo_precision":"city","state":"CA"},"type":"Feature","geometry":{"type":"Point","coordinates":[-118.243685,34.052234]}},{"properties":{"city":"miami","2/1/2010":4,"1/1/2010":6,"geo_score":0.857,"description":"SE","id":"a6p8fpo5sneu","geo_precision":"city","state":"FL"},"type":"Feature","geometry":{"type":"Point","coordinates":[-80.193659,25.774266]}},{"properties":{"city":"new york","2/1/2010":1,"1/1/2010":7,"geo_score":0.857,"description":"NE","id":"a6p8fpl200rf","geo_precision":"city","state":"NY"},"type":"Feature","geometry":{"type":"Point","coordinates":[-74.005973,40.714269]}},{"properties":{"city":"seattle","2/1/2010":2,"1/1/2010":5,"geo_score":0.857,"description":"NW","id":"a6p8fpm114gu","geo_precision":"city","state":"WA"},"type":"Feature","geometry":{"type":"Point","coordinates":[-122.332071,47.60621]}},{"properties":{"city":"washington","2/1/2010":4,"1/1/2010":3,"geo_score":0.857,"description":"HQ","id":"a6p8fpryfd50","geo_precision":"city","state":"DC"},"type":"Feature","geometry":{"type":"Point","coordinates":[-77.036366,38.895112]}}],"is_temporal":false,"author":{"url":"","metadata":"","contact_name":"","contact_address":"","source":"","contact_phone":""},"source":"","pagination":{"sort":null,"start":0,"total":7,"limit":1000000},"state":"complete","tags":"","published":"2014-08-10T15:47:54-04:00","id":63334}