{"type":"FeatureCollection","data_type":"Dataset","url_type":null,"permissions":[{"permissions":{"download":true,"edit":true,"view":true},"group_id":13923},{"permissions":{"download":true,"view":true},"group_id":"everyone"}],"classification":null,"title":"Climbing Areas - USA","count":648,"stream_id":63500,"contributor":{"url":"http://geocommons.com/users/1","name":"admin"},"data_attributes":null,"calculation_params":null,"icon_link":null,"link":"http://geocommons.com/overlays/63500.json","extent":[-151.172,29.25,-68.2581,64.7366],"geometry_types":["point"],"unique_name":null,"name":"Climbing Areas - USA","feature_count":648,"description":"Rock climbing Areas in the USA","next_feature":null,"is_raster":false,"short_classification":"Y","stats":{"latitude":{"max":64.7366,"mean":38.4856935475309,"variance":24.9826183150857,"stdev":4.99826152928053,"min":29.25,"median":37.3822},"longitude":{"max":-68.2581,"mean":-109.984722473303,"variance":243.331700980935,"stdev":15.5990929537885,"min":-151.1719,"median":-116.1604}},"features":[{"properties":{"climb_area":"Continental Ranch","latitude":29.8032,"longitude":-101.4401,"id":"a64w94a0mhtx","source":"gps","state":"Texas"},"type":"Feature","geometry":{"type":"Point","coordinates":[-101.4401,29.8032]}},{"properties":{"climb_area":"Meat Packing Plant","latitude":44.086,"longitude":-103.2428,"id":"a64w93x7zw6n","source":"gps","state":"South Dakota"},"type":"Feature","geometry":{"type":"Point","coordinates":[-103.2428,44.086]}},{"properties":{"climb_area":"Big Bend National Park","latitude":29.25,"longitude":-103.25,"id":"a64w94282j3c","source":"gps","state":"Texas"},"type":"Feature","geometry":{"type":"Point","coordinates":[-103.25,29.25]}},{"properties":{"climb_area":"Falling Rock","latitude":44.0597,"longitude":-103.4232,"id":"a64w93ylo42p","source":"gps","state":"South Dakota"},"type":"Feature","geometry":{"type":"Point","coordinates":[-103.4232,44.0597]}},{"properties":{"climb_area":"Mount Rushmore National Memorial","latitude":43.8813,"longitude":-103.4624,"id":"a64w93tylpjo","source":"gps","state":"South Dakota"},"type":"Feature","geometry":{"type":"Point","coordinates":[-103.4624,43.8813]}},{"properties":{"climb_area":"Custer State Park","latitude":43.8436,"longitude":-103.5628,"id":"a64w93zh0xa7","source":"gps","state":"South Dakota"},"type":"Feature","geometry":{"type":"Point","coordinates":[-103.5628,43.8436]}},{"properties":{"climb_area":"Spearfish Canyon","latitude":44.4578,"longitude":-103.8589,"id":"a64w9426atiz","source":"gps","state":"South Dakota"},"type":"Feature","geometry":{"type":"Point","coordinates":[-103.8589,44.4578]}},{"properties":{"climb_area":"South Dakota","latitude":44.1204,"longitude":-104.036,"id":"a64w9433gcuo","source":"gps","state":"South Dakota"},"type":"Feature","geometry":{"type":"Point","coordinates":[-104.036,44.1204]}},{"properties":{"climb_area":"Sugarite State Park","latitude":36.9798,"longitude":-104.3937,"id":"a64w93xmgn2v","source":"gps","state":"New Mexico"},"type":"Feature","geometry":{"type":"Point","coordinates":[-104.3937,36.9798]}},{"properties":{"climb_area":"Sitting Bull Falls","latitude":32.2452,"longitude":-104.696,"id":"a64w93zw1dkx","source":"gps","state":"New Mexico"},"type":"Feature","geometry":{"type":"Point","coordinates":[-104.696,32.2452]}},{"properties":{"climb_area":"Devil's Tower","latitude":44.59047752,"longitude":-104.7154074,"id":"a64w942gz38w","source":"gps","state":"Wyoming"},"type":"Feature","geometry":{"type":"Point","coordinates":[-104.7154074,44.59047752]}},{"properties":{"climb_area":"Last Chance Canyon","latitude":32.2336,"longitude":-104.7537,"id":"a64w93zp63cw","source":"gps","state":"New Mexico"},"type":"Feature","geometry":{"type":"Point","coordinates":[-104.7537,32.2336]}},{"properties":{"climb_area":"Vedauwoo","latitude":41.2383,"longitude":-105.438,"id":"a64w93wtqpxm","source":"gps","state":"Wyoming"},"type":"Feature","geometry":{"type":"Point","coordinates":[-105.438,41.2383]}},{"properties":{"climb_area":"Lumpy Ridge","latitude":40.39647547,"longitude":-105.511894,"id":"a64w93vgfysv","source":"xy","state":"CO"},"type":"Feature","geometry":{"type":"Point","coordinates":[-105.511894,40.39647547]}},{"properties":{"climb_area":"Estes Park","latitude":40.35955996,"longitude":-105.5186332,"id":"a64w9444y7pt","source":"xy","state":"CO"},"type":"Feature","geometry":{"type":"Point","coordinates":[-105.5186332,40.35955996]}},{"properties":{"climb_area":"Taos","latitude":36.4059,"longitude":-105.574,"id":"a64w940a9fbo","source":"gps","state":"New Mexico"},"type":"Feature","geometry":{"type":"Point","coordinates":[-105.574,36.4059]}},{"properties":{"climb_area":"Estes Park McGregor Slab","latitude":40.40871664,"longitude":-105.5844942,"id":"a64w93uvpdj4","source":"xy","state":"CO"},"type":"Feature","geometry":{"type":"Point","coordinates":[-105.5844942,40.40871664]}},{"properties":{"climb_area":"The Tunnel","latitude":32.9461,"longitude":-105.8602,"id":"a64w949dcp4z","source":"gps","state":"New Mexico"},"type":"Feature","geometry":{"type":"Point","coordinates":[-105.8602,32.9461]}},{"properties":{"climb_area":"Santa Fe Area","latitude":35.6744,"longitude":-105.9487,"id":"a64w946f2mi1","source":"gps","state":"New Mexico"},"type":"Feature","geometry":{"type":"Point","coordinates":[-105.9487,35.6744]}},{"properties":{"climb_area":"New Mexico","latitude":34.5609,"longitude":-105.952,"id":"a64w944adj2i","source":"gps","state":"New Mexico"},"type":"Feature","geometry":{"type":"Point","coordinates":[-105.952,34.5609]}},{"properties":{"climb_area":"Hueco Tanks","latitude":31.9169,"longitude":-106.0429,"id":"a64w93y8eko2","source":"gps","state":"Texas"},"type":"Feature","geometry":{"type":"Point","coordinates":[-106.0429,31.9169]}},{"properties":{"climb_area":"Hueco Tanks Rate","latitude":31.9169,"longitude":-106.0429,"id":"a64w93yzlva1","source":"gps","state":"Texas"},"type":"Feature","geometry":{"type":"Point","coordinates":[-106.0429,31.9169]}},{"properties":{"climb_area":"Los Alamos and White Rock","latitude":35.8538,"longitude":-106.2585,"id":"a64w942q3vny","source":"gps","state":"New Mexico"},"type":"Feature","geometry":{"type":"Point","coordinates":[-106.2585,35.8538]}},{"properties":{"climb_area":"Snowy Range","latitude":41.3408,"longitude":-106.326,"id":"a64w945iggla","source":"gps","state":"Wyoming"},"type":"Feature","geometry":{"type":"Point","coordinates":[-106.326,41.3408]}},{"properties":{"climb_area":"McKelligon Canyon","latitude":31.836,"longitude":-106.4844,"id":"a64w93xbroz2","source":"gps","state":"Texas"},"type":"Feature","geometry":{"type":"Point","coordinates":[-106.4844,31.836]}},{"properties":{"climb_area":"Organ Mountains Rate","latitude":32.3436,"longitude":-106.562,"id":"a64w93vpl9zq","source":"gps","state":"New Mexico"},"type":"Feature","geometry":{"type":"Point","coordinates":[-106.562,32.3436]}},{"properties":{"climb_area":"Albuquerque Area Climbing","latitude":35.1055,"longitude":-106.6304,"id":"a64w940o6fya","source":"gps","state":"New Mexico"},"type":"Feature","geometry":{"type":"Point","coordinates":[-106.6304,35.1055]}},{"properties":{"climb_area":"Jemez Valley Area","latitude":35.7896,"longitude":-106.687,"id":"a64w93xjm4ku","source":"gps","state":"New Mexico"},"type":"Feature","geometry":{"type":"Point","coordinates":[-106.687,35.7896]}},{"properties":{"climb_area":"Dona Ana Mountains","latitude":32.45,"longitude":-106.79,"id":"a64w941xla4e","source":"gps","state":"New Mexico"},"type":"Feature","geometry":{"type":"Point","coordinates":[-106.79,32.45]}},{"properties":{"climb_area":"Fremont Canyon","latitude":42.4648,"longitude":-106.828,"id":"a64w9424d96n","source":"gps","state":"Wyoming"},"type":"Feature","geometry":{"type":"Point","coordinates":[-106.828,42.4648]}},{"properties":{"climb_area":"Socorro","latitude":34.0045,"longitude":-106.989,"id":"a64w93zgs43c","source":"gps","state":"New Mexico"},"type":"Feature","geometry":{"type":"Point","coordinates":[-106.989,34.0045]}},{"properties":{"climb_area":"Ten Sleep Canyon","latitude":44.1387,"longitude":-107.245,"id":"a64w93yt6z79","source":"gps","state":"Wyoming"},"type":"Feature","geometry":{"type":"Point","coordinates":[-107.245,44.1387]}},{"properties":{"climb_area":"Percha Creek; Hillsboro","latitude":32.92,"longitude":-107.572,"id":"a64w93vokhc7","source":"gps","state":"New Mexico"},"type":"Feature","geometry":{"type":"Point","coordinates":[-107.572,32.92]}},{"properties":{"climb_area":"Sweetwater","latitude":42.5698,"longitude":-107.7807,"id":"a64w93uaoly1","source":"gps","state":"Wyoming"},"type":"Feature","geometry":{"type":"Point","coordinates":[-107.7807,42.5698]}},{"properties":{"climb_area":"Wyoming","latitude":43.0046,"longitude":-107.842,"id":"a64w93wey018","source":"gps","state":"Wyoming"},"type":"Feature","geometry":{"type":"Point","coordinates":[-107.842,43.0046]}},{"properties":{"climb_area":"Enchanted Tower","latitude":34.2304,"longitude":-107.917,"id":"a64w9420hobd","source":"gps","state":"New Mexico"},"type":"Feature","geometry":{"type":"Point","coordinates":[-107.917,34.2304]}},{"properties":{"climb_area":"City of Rocks","latitude":32.5892,"longitude":-107.9745,"id":"a64w949xi185","source":"gps","state":"New Mexico"},"type":"Feature","geometry":{"type":"Point","coordinates":[-107.9745,32.5892]}},{"properties":{"climb_area":"Gallup/Grants Areas","latitude":35.3938,"longitude":-108.2078,"id":"a64w947mff2x","source":"gps","state":"New Mexico"},"type":"Feature","geometry":{"type":"Point","coordinates":[-108.2078,35.3938]}},{"properties":{"climb_area":"Wild Iris","latitude":42.5792,"longitude":-108.718,"id":"a64w949cm58h","source":"gps","state":"Wyoming"},"type":"Feature","geometry":{"type":"Point","coordinates":[-108.718,42.5792]}},{"properties":{"climb_area":"Sinks Canyon","latitude":42.8192,"longitude":-108.783,"id":"a64w944c8pg1","source":"gps","state":"Wyoming"},"type":"Feature","geometry":{"type":"Point","coordinates":[-108.783,42.8192]}},{"properties":{"climb_area":"Wind River","latitude":42.7551,"longitude":-109.204,"id":"a64w94060o5w","source":"gps","state":"Wyoming"},"type":"Feature","geometry":{"type":"Point","coordinates":[-109.204,42.7551]}},{"properties":{"climb_area":"Vernal area (1)","latitude":40.40789056,"longitude":-109.5092834,"id":"a64w93zx792p","source":"est","state":"Utah"},"type":"Feature","geometry":{"type":"Point","coordinates":[-109.5092834,40.40789056]}},{"properties":{"climb_area":"Moab Area (901)","latitude":38.48943315,"longitude":-109.608759,"id":"a64w93zi0dqj","source":"est","state":"Utah"},"type":"Feature","geometry":{"type":"Point","coordinates":[-109.608759,38.48943315]}},{"properties":{"climb_area":"Horse Creek Slabs","latitude":43.654,"longitude":-109.6195,"id":"a64w946a5s60","source":"gps","state":"Wyoming"},"type":"Feature","geometry":{"type":"Point","coordinates":[-109.6195,43.654]}},{"properties":{"climb_area":"Stonehenge","latitude":42.7591,"longitude":-109.704,"id":"a64w93wjnyws","source":"gps","state":"Wyoming"},"type":"Feature","geometry":{"type":"Point","coordinates":[-109.704,42.7591]}},{"properties":{"climb_area":"Gallatin Canyon","latitude":46.7097,"longitude":-109.9731,"id":"a64w945xgndt","source":"gps","state":"Montana"},"type":"Feature","geometry":{"type":"Point","coordinates":[-109.9731,46.7097]}},{"properties":{"climb_area":"Green River (5)","latitude":39.02944339,"longitude":-110.2908772,"id":"a64w93xoki9g","source":"est","state":"Utah"},"type":"Feature","geometry":{"type":"Point","coordinates":[-110.2908772,39.02944339]}},{"properties":{"climb_area":"The Mustang","latitude":31.694,"longitude":-110.4713,"id":"a64w943tt5ts","source":"gps","state":"Arizona"},"type":"Feature","geometry":{"type":"Point","coordinates":[-110.4713,31.694]}},{"properties":{"climb_area":"Hyalite Canyon","latitude":45.2651,"longitude":-110.5744,"id":"a64w93wkxc9y","source":"gps","state":"Montana"},"type":"Feature","geometry":{"type":"Point","coordinates":[-110.5744,45.2651]}},{"properties":{"climb_area":"Jackson Hole","latitude":43.4748,"longitude":-110.783,"id":"a64w94756ary","source":"gps","state":"Wyoming"},"type":"Feature","geometry":{"type":"Point","coordinates":[-110.783,43.4748]}},{"properties":{"climb_area":"Grand Teton National Park","latitude":43.7407,"longitude":-110.803,"id":"a64w93wkdazt","source":"gps","state":"Wyoming"},"type":"Feature","geometry":{"type":"Point","coordinates":[-110.803,43.7407]}},{"properties":{"climb_area":"Teton Canyon","latitude":43.755,"longitude":-110.9126,"id":"a64w93vk3bie","source":"gps","state":"Wyoming"},"type":"Feature","geometry":{"type":"Point","coordinates":[-110.9126,43.755]}},{"properties":{"climb_area":"Montana","latitude":45.5833,"longitude":-111.0059,"id":"a64w941jjde4","source":"gps","state":"Montana"},"type":"Feature","geometry":{"type":"Point","coordinates":[-111.0059,45.5833]}},{"properties":{"climb_area":"Jacks Canyon","latitude":34.7547,"longitude":-111.062,"id":"a64w93vdes2t","source":"gps","state":"Arizona"},"type":"Feature","geometry":{"type":"Point","coordinates":[-111.062,34.7547]}},{"properties":{"climb_area":"Picket Post Mountain","latitude":33.2684,"longitude":-111.1599,"id":"a64w943xotye","source":"gps","state":"Arizona"},"type":"Feature","geometry":{"type":"Point","coordinates":[-111.1599,33.2684]}},{"properties":{"climb_area":"Capitol Reef National Park (16)","latitude":38.33906775,"longitude":-111.2373673,"id":"a64w93w3sth4","source":"xy","state":"Utah"},"type":"Feature","geometry":{"type":"Point","coordinates":[-111.2373673,38.33906775]}},{"properties":{"climb_area":"Four Peaks Wilderness","latitude":33.7132,"longitude":-111.3303,"id":"a64w944190i0","source":"gps","state":"Arizona"},"type":"Feature","geometry":{"type":"Point","coordinates":[-111.3303,33.7132]}},{"properties":{"climb_area":"Maple Canyon (176)","latitude":39.6405076,"longitude":-111.5840596,"id":"a64w949j2uq2","source":"est","state":"Utah"},"type":"Feature","geometry":{"type":"Point","coordinates":[-111.5840596,39.6405076]}},{"properties":{"climb_area":"Kitt Peak","latitude":31.9583,"longitude":-111.598,"id":"a64w941fm4ik","source":"gps","state":"Arizona"},"type":"Feature","geometry":{"type":"Point","coordinates":[-111.598,31.9583]}},{"properties":{"climb_area":"Grand Canyon","latitude":36.046,"longitude":-111.9203,"id":"a64w93u5gew8","source":"gps","state":"Arizona"},"type":"Feature","geometry":{"type":"Point","coordinates":[-111.9203,36.046]}},{"properties":{"climb_area":"Paradise Forks","latitude":35.1381,"longitude":-112.0282,"id":"a64w9447i3o5","source":"gps","state":"Arizona"},"type":"Feature","geometry":{"type":"Point","coordinates":[-112.0282,35.1381]}},{"properties":{"climb_area":"Arizona","latitude":34.3797,"longitude":-112.061,"id":"a64w948qccyb","source":"gps","state":"Arizona"},"type":"Feature","geometry":{"type":"Point","coordinates":[-112.061,34.3797]}},{"properties":{"climb_area":"Zion National Park (86)","latitude":37.29534993,"longitude":-113.0223181,"id":"a64w93wfq7ak","source":"xy","state":"Utah"},"type":"Feature","geometry":{"type":"Point","coordinates":[-113.0223181,37.29534993]}},{"properties":{"climb_area":"Cedar City (39)","latitude":37.63616311,"longitude":-113.0855663,"id":"a64w93ywk2cy","source":"est","state":"Utah"},"type":"Feature","geometry":{"type":"Point","coordinates":[-113.0855663,37.63616311]}},{"properties":{"climb_area":"Mulkey Gulch","latitude":46.748,"longitude":-113.278,"id":"a64w93txtvrk","source":"gps","state":"Montana"},"type":"Feature","geometry":{"type":"Point","coordinates":[-113.278,46.748]}},{"properties":{"climb_area":"Competition Rock-North Side","latitude":42.08,"longitude":-113.4,"id":"a64w943pvrx4","source":"gps","state":"Idaho"},"type":"Feature","geometry":{"type":"Point","coordinates":[-113.4,42.08]}},{"properties":{"climb_area":"Shark's Fin Rock","latitude":42.1344,"longitude":-113.6659,"id":"a64w940lkm75","source":"gps","state":"Idaho"},"type":"Feature","geometry":{"type":"Point","coordinates":[-113.6659,42.1344]}},{"properties":{"climb_area":"Sweet 17","latitude":42.1362,"longitude":-113.6683,"id":"a64w93tv32hk","source":"gps","state":"Idaho"},"type":"Feature","geometry":{"type":"Point","coordinates":[-113.6683,42.1362]}},{"properties":{"climb_area":"Competition Rock-East Side","latitude":42.1359,"longitude":-113.6689,"id":"a64w943q014x","source":"gps","state":"Idaho"},"type":"Feature","geometry":{"type":"Point","coordinates":[-113.6689,42.1359]}},{"properties":{"climb_area":"Castle Rocks State Park","latitude":42.1354,"longitude":-113.67,"id":"a64w93vynbjy","source":"gps","state":"Idaho"},"type":"Feature","geometry":{"type":"Point","coordinates":[-113.67,42.1354]}},{"properties":{"climb_area":"Tiny Town Rocks","latitude":42.127,"longitude":-113.6701,"id":"a64w947zup3l","source":"gps","state":"Idaho"},"type":"Feature","geometry":{"type":"Point","coordinates":[-113.6701,42.127]}},{"properties":{"climb_area":"Johnny Cash Memorial Rock","latitude":42.1272,"longitude":-113.6762,"id":"a64w93voes3z","source":"gps","state":"Idaho"},"type":"Feature","geometry":{"type":"Point","coordinates":[-113.6762,42.1272]}},{"properties":{"climb_area":"City of Rocks National Reserve","latitude":42.0778,"longitude":-113.724,"id":"a64w940na90e","source":"gps","state":"Idaho"},"type":"Feature","geometry":{"type":"Point","coordinates":[-113.724,42.0778]}},{"properties":{"climb_area":"Wheeler Peak","latitude":39.0133,"longitude":-114.1228,"id":"a64w93vmmgiy","source":"gps","state":"Nevada"},"type":"Feature","geometry":{"type":"Point","coordinates":[-114.1228,39.0133]}},{"properties":{"climb_area":"Lake Havasu","latitude":34.6194,"longitude":-114.3401,"id":"a64w9416l6jh","source":"gps","state":"Arizona"},"type":"Feature","geometry":{"type":"Point","coordinates":[-114.3401,34.6194]}},{"properties":{"climb_area":"Rainbow Canyon","latitude":37.3123,"longitude":-114.57,"id":"a64w93ze9e98","source":"gps","state":"Nevada"},"type":"Feature","geometry":{"type":"Point","coordinates":[-114.57,37.3123]}},{"properties":{"climb_area":"Christmas Tree Pass","latitude":35.1416,"longitude":-114.6185,"id":"a64w949wxa79","source":"gps","state":"Nevada"},"type":"Feature","geometry":{"type":"Point","coordinates":[-114.6185,35.1416]}},{"properties":{"climb_area":"Keyhole Canyon","latitude":35.7156,"longitude":-114.9264,"id":"a64w94485gr2","source":"gps","state":"Nevada"},"type":"Feature","geometry":{"type":"Point","coordinates":[-114.9264,35.7156]}},{"properties":{"climb_area":"Old Woman Statue","latitude":34.5216,"longitude":-115.1649,"id":"a64w93vgs4go","source":"gps","state":"California"},"type":"Feature","geometry":{"type":"Point","coordinates":[-115.1649,34.5216]}},{"properties":{"climb_area":"Lone Mountain","latitude":36.2601,"longitude":-115.3433,"id":"a64w9418jm7n","source":"gps","state":"Nevada"},"type":"Feature","geometry":{"type":"Point","coordinates":[-115.3433,36.2601]}},{"properties":{"climb_area":"Lamoille Canyon","latitude":40.6364,"longitude":-115.393,"id":"a64w93ugwakj","source":"gps","state":"Nevada"},"type":"Feature","geometry":{"type":"Point","coordinates":[-115.393,40.6364]}},{"properties":{"climb_area":"Red Rock","latitude":36.1324,"longitude":-115.4235,"id":"a64w942kjkko","source":"gps","state":"Nevada"},"type":"Feature","geometry":{"type":"Point","coordinates":[-115.4235,36.1324]}},{"properties":{"climb_area":"Mt. Charleston","latitude":36.2657,"longitude":-115.5997,"id":"a64w93vrjzhp","source":"gps","state":"Nevada"},"type":"Feature","geometry":{"type":"Point","coordinates":[-115.5997,36.2657]}},{"properties":{"climb_area":"Mojave National Preserve","latitude":35.0121,"longitude":-115.655,"id":"a64w93wobib2","source":"gps","state":"California"},"type":"Feature","geometry":{"type":"Point","coordinates":[-115.655,35.0121]}},{"properties":{"climb_area":"Slick Rock (1)","latitude":44.94960938,"longitude":-115.9505775,"id":"a64w943iarmw","source":"xy","state":"Idaho"},"type":"Feature","geometry":{"type":"Point","coordinates":[-115.9505775,44.94960938]}},{"properties":{"climb_area":"Becky's Buttress","latitude":34.0087,"longitude":-116.0098,"id":"a64w945s70rq","source":"gps","state":"California"},"type":"Feature","geometry":{"type":"Point","coordinates":[-116.0098,34.0087]}},{"properties":{"climb_area":"Tollakson's Tower","latitude":34.0084,"longitude":-116.01,"id":"a64w949i1bje","source":"gps","state":"California"},"type":"Feature","geometry":{"type":"Point","coordinates":[-116.01,34.0084]}},{"properties":{"climb_area":"Becky's Buttress Area","latitude":34.009,"longitude":-116.0112,"id":"a64w945iwulc","source":"gps","state":"California"},"type":"Feature","geometry":{"type":"Point","coordinates":[-116.0112,34.009]}},{"properties":{"climb_area":"White Tank Campground","latitude":33.9861,"longitude":-116.0166,"id":"a64w93zgub0x","source":"gps","state":"California"},"type":"Feature","geometry":{"type":"Point","coordinates":[-116.0166,33.9861]}},{"properties":{"climb_area":"Stirrup Rock","latitude":33.9593,"longitude":-116.0184,"id":"a64w944ta480","source":"gps","state":"California"},"type":"Feature","geometry":{"type":"Point","coordinates":[-116.0184,33.9593]}},{"properties":{"climb_area":"Stirrup Tank","latitude":33.9605,"longitude":-116.0187,"id":"a64w946jrm1c","source":"gps","state":"California"},"type":"Feature","geometry":{"type":"Point","coordinates":[-116.0187,33.9605]}},{"properties":{"climb_area":"Belle Campground Area","latitude":34.0034,"longitude":-116.0189,"id":"a64w93vtvusq","source":"gps","state":"California"},"type":"Feature","geometry":{"type":"Point","coordinates":[-116.0189,34.0034]}},{"properties":{"climb_area":"Belle Campground","latitude":34.0016,"longitude":-116.0194,"id":"a64w940uha8g","source":"gps","state":"California"},"type":"Feature","geometry":{"type":"Point","coordinates":[-116.0194,34.0016]}},{"properties":{"climb_area":"Castle Rock","latitude":34.0016,"longitude":-116.0202,"id":"a64w9470vz1i","source":"gps","state":"California"},"type":"Feature","geometry":{"type":"Point","coordinates":[-116.0202,34.0016]}},{"properties":{"climb_area":"Castle Rock - North Side","latitude":34.0017,"longitude":-116.0203,"id":"a64w9412u4qb","source":"gps","state":"California"},"type":"Feature","geometry":{"type":"Point","coordinates":[-116.0203,34.0017]}},{"properties":{"climb_area":"Castle Rock - South Side","latitude":34.0015,"longitude":-116.0204,"id":"a64w944sg2r7","source":"gps","state":"California"},"type":"Feature","geometry":{"type":"Point","coordinates":[-116.0204,34.0015]}},{"properties":{"climb_area":"OZ Area","latitude":34.0322,"longitude":-116.0403,"id":"a64w93xr197m","source":"gps","state":"California"},"type":"Feature","geometry":{"type":"Point","coordinates":[-116.0403,34.0322]}},{"properties":{"climb_area":"Loveland","latitude":34.0219,"longitude":-116.0527,"id":"a64w93v99lqq","source":"gps","state":"California"},"type":"Feature","geometry":{"type":"Point","coordinates":[-116.0527,34.0219]}},{"properties":{"climb_area":"Future Games Rock","latitude":34.0117,"longitude":-116.0533,"id":"a64w941m0n0r","source":"gps","state":"California"},"type":"Feature","geometry":{"type":"Point","coordinates":[-116.0533,34.0117]}},{"properties":{"climb_area":"Live Oak Picnic Area","latitude":33.9992,"longitude":-116.0533,"id":"a64w945v8v8q","source":"gps","state":"California"},"type":"Feature","geometry":{"type":"Point","coordinates":[-116.0533,33.9992]}},{"properties":{"climb_area":"West Tiers","latitude":34.0094,"longitude":-116.0537,"id":"a64w941ou7ob","source":"gps","state":"California"},"type":"Feature","geometry":{"type":"Point","coordinates":[-116.0537,34.0094]}},{"properties":{"climb_area":"Graceland","latitude":34.0071,"longitude":-116.0538,"id":"a64w945gapyz","source":"gps","state":"California"},"type":"Feature","geometry":{"type":"Point","coordinates":[-116.0538,34.0071]}},{"properties":{"climb_area":"Safety First Rock","latitude":34.0116,"longitude":-116.0539,"id":"a64w93u31bx8","source":"gps","state":"California"},"type":"Feature","geometry":{"type":"Point","coordinates":[-116.0539,34.0116]}},{"properties":{"climb_area":"Frigid Tower","latitude":34.0116,"longitude":-116.0543,"id":"a64w93wfiypw","source":"gps","state":"California"},"type":"Feature","geometry":{"type":"Point","coordinates":[-116.0543,34.0116]}},{"properties":{"climb_area":"Split Dome","latitude":34.0097,"longitude":-116.0551,"id":"a64w9472nd03","source":"gps","state":"California"},"type":"Feature","geometry":{"type":"Point","coordinates":[-116.0551,34.0097]}},{"properties":{"climb_area":"Overbolted Rock","latitude":34.01,"longitude":-116.0557,"id":"a64w93yf5ro4","source":"gps","state":"California"},"type":"Feature","geometry":{"type":"Point","coordinates":[-116.0557,34.01]}},{"properties":{"climb_area":"Split Rocks","latitude":34.0094,"longitude":-116.0558,"id":"a64w944s2dmj","source":"gps","state":"California"},"type":"Feature","geometry":{"type":"Point","coordinates":[-116.0558,34.0094]}},{"properties":{"climb_area":"Grand Canyon","latitude":34.0072,"longitude":-116.0566,"id":"a64w943g9101","source":"gps","state":"California"},"type":"Feature","geometry":{"type":"Point","coordinates":[-116.0566,34.0072]}},{"properties":{"climb_area":"Rubicon Formation","latitude":34.006,"longitude":-116.0572,"id":"a64w945jov2b","source":"gps","state":"California"},"type":"Feature","geometry":{"type":"Point","coordinates":[-116.0572,34.006]}},{"properties":{"climb_area":"East Virgin Islands","latitude":33.9447,"longitude":-116.058,"id":"a64w93y0miac","source":"gps","state":"California"},"type":"Feature","geometry":{"type":"Point","coordinates":[-116.058,33.9447]}},{"properties":{"climb_area":"Isles in the Sky","latitude":34.0045,"longitude":-116.0584,"id":"a64w93znl9ro","source":"gps","state":"California"},"type":"Feature","geometry":{"type":"Point","coordinates":[-116.0584,34.0045]}},{"properties":{"climb_area":"Brit Corridor","latitude":34.0077,"longitude":-116.0586,"id":"a64w949uo6p0","source":"gps","state":"California"},"type":"Feature","geometry":{"type":"Point","coordinates":[-116.0586,34.0077]}},{"properties":{"climb_area":"Cling or Fling Corridor","latitude":34.0079,"longitude":-116.0588,"id":"a64w944mmxp1","source":"gps","state":"California"},"type":"Feature","geometry":{"type":"Point","coordinates":[-116.0588,34.0079]}},{"properties":{"climb_area":"Isles Corridor","latitude":34.0045,"longitude":-116.0589,"id":"a64w941b093u","source":"gps","state":"California"},"type":"Feature","geometry":{"type":"Point","coordinates":[-116.0589,34.0045]}},{"properties":{"climb_area":"Joshua Tree National Park / Skull Rock","latitude":33.99790836,"longitude":-116.0593334,"id":"a64w940p6unf","source":"xy","state":"California"},"type":"Feature","geometry":{"type":"Point","coordinates":[-116.0593334,33.99790836]}},{"properties":{"climb_area":"Morongo Man Cliffs","latitude":34.018,"longitude":-116.0637,"id":"a64w93xorwqh","source":"gps","state":"California"},"type":"Feature","geometry":{"type":"Point","coordinates":[-116.0637,34.018]}},{"properties":{"climb_area":"Jumbo Rocks Area","latitude":33.992,"longitude":-116.0682,"id":"a64w9498hv8p","source":"gps","state":"California"},"type":"Feature","geometry":{"type":"Point","coordinates":[-116.0682,33.992]}},{"properties":{"climb_area":"Desert Queen Mine","latitude":34.0158,"longitude":-116.0688,"id":"a64w93usw9nq","source":"gps","state":"California"},"type":"Feature","geometry":{"type":"Point","coordinates":[-116.0688,34.0158]}},{"properties":{"climb_area":"Double Cross Rocks","latitude":34.0191,"longitude":-116.0726,"id":"a64w949rf4e6","source":"gps","state":"California"},"type":"Feature","geometry":{"type":"Point","coordinates":[-116.0726,34.0191]}},{"properties":{"climb_area":"Squaw Tank","latitude":33.9294,"longitude":-116.0759,"id":"a64w946ricx9","source":"gps","state":"California"},"type":"Feature","geometry":{"type":"Point","coordinates":[-116.0759,33.9294]}},{"properties":{"climb_area":"Virgin Islands Area","latitude":33.9462,"longitude":-116.0766,"id":"a64w9454dfmm","source":"gps","state":"California"},"type":"Feature","geometry":{"type":"Point","coordinates":[-116.0766,33.9462]}},{"properties":{"climb_area":"Valley Of The Moon","latitude":32.631,"longitude":-116.0788,"id":"a64w93y3bepk","source":"gps","state":"California"},"type":"Feature","geometry":{"type":"Point","coordinates":[-116.0788,32.631]}},{"properties":{"climb_area":"Geology Tour Road","latitude":33.9718,"longitude":-116.08,"id":"a64w945vvpzg","source":"gps","state":"California"},"type":"Feature","geometry":{"type":"Point","coordinates":[-116.08,33.9718]}},{"properties":{"climb_area":"Towers of Uncertainty","latitude":33.9666,"longitude":-116.0862,"id":"a64w93zs5cze","source":"gps","state":"California"},"type":"Feature","geometry":{"type":"Point","coordinates":[-116.0862,33.9666]}},{"properties":{"climb_area":"Jerry's Quarry and Lost Pencil Areas","latitude":33.9523,"longitude":-116.0986,"id":"a64w940x820u","source":"gps","state":"California"},"type":"Feature","geometry":{"type":"Point","coordinates":[-116.0986,33.9523]}},{"properties":{"climb_area":"Queen Mountain","latitude":34.0481,"longitude":-116.1021,"id":"a64w940go5ns","source":"gps","state":"California"},"type":"Feature","geometry":{"type":"Point","coordinates":[-116.1021,34.0481]}},{"properties":{"climb_area":"McCall Area (4)","latitude":44.90252596,"longitude":-116.119394,"id":"a64w940pokte","source":"xy","state":"Idaho"},"type":"Feature","geometry":{"type":"Point","coordinates":[-116.119394,44.90252596]}},{"properties":{"climb_area":"Joshua Tree National Park / Sheep Pass","latitude":33.99890647,"longitude":-116.1199101,"id":"a64w949tueco","source":"xy","state":"California"},"type":"Feature","geometry":{"type":"Point","coordinates":[-116.1199101,33.99890647]}},{"properties":{"climb_area":"The Galapagos","latitude":33.9571,"longitude":-116.1205,"id":"a64w94653gro","source":"gps","state":"California"},"type":"Feature","geometry":{"type":"Point","coordinates":[-116.1205,33.9571]}},{"properties":{"climb_area":"Joshua Tree National Park","latitude":34.00510132,"longitude":-116.1218465,"id":"a64w948oxjt7","source":"xy","state":"California"},"type":"Feature","geometry":{"type":"Point","coordinates":[-116.1218465,34.00510132]}},{"properties":{"climb_area":"Castle Rock","latitude":47.6554,"longitude":-116.125,"id":"a64w942r86dh","source":"gps","state":"Idaho"},"type":"Feature","geometry":{"type":"Point","coordinates":[-116.125,47.6554]}},{"properties":{"climb_area":"Cave Corridor Area","latitude":34.0014,"longitude":-116.1356,"id":"a64w944j1pvn","source":"gps","state":"California"},"type":"Feature","geometry":{"type":"Point","coordinates":[-116.1356,34.0014]}},{"properties":{"climb_area":"Cave Corridor","latitude":34.0023,"longitude":-116.1359,"id":"a64w942k6pbj","source":"gps","state":"California"},"type":"Feature","geometry":{"type":"Point","coordinates":[-116.1359,34.0023]}},{"properties":{"climb_area":"Cowboy Crags","latitude":33.9917,"longitude":-116.1388,"id":"a64w941u072a","source":"gps","state":"California"},"type":"Feature","geometry":{"type":"Point","coordinates":[-116.1388,33.9917]}},{"properties":{"climb_area":"Saddle Rocks - Pommel","latitude":33.9939,"longitude":-116.1391,"id":"a64w942nb9o2","source":"gps","state":"California"},"type":"Feature","geometry":{"type":"Point","coordinates":[-116.1391,33.9939]}},{"properties":{"climb_area":"Saddle Rocks Area","latitude":33.9929,"longitude":-116.1392,"id":"a64w944vr7yi","source":"gps","state":"California"},"type":"Feature","geometry":{"type":"Point","coordinates":[-116.1392,33.9929]}},{"properties":{"climb_area":"Saddle Rocks - Cantle","latitude":33.9939,"longitude":-116.1392,"id":"a64w93v3r00z","source":"gps","state":"California"},"type":"Feature","geometry":{"type":"Point","coordinates":[-116.1392,33.9939]}},{"properties":{"climb_area":"Theoretical Boulder","latitude":33.9947,"longitude":-116.1393,"id":"a64w93tz02ko","source":"gps","state":"California"},"type":"Feature","geometry":{"type":"Point","coordinates":[-116.1393,33.9947]}},{"properties":{"climb_area":"Saddle Rocks","latitude":33.9942,"longitude":-116.14,"id":"a64w945xhxbp","source":"gps","state":"California"},"type":"Feature","geometry":{"type":"Point","coordinates":[-116.14,33.9942]}},{"properties":{"climb_area":"Kid Rock","latitude":33.994,"longitude":-116.1403,"id":"a64w942uzrcl","source":"gps","state":"California"},"type":"Feature","geometry":{"type":"Point","coordinates":[-116.1403,33.994]}},{"properties":{"climb_area":"Saddle Rocks - Skirt","latitude":33.9943,"longitude":-116.1403,"id":"a64w946kkq7f","source":"gps","state":"California"},"type":"Feature","geometry":{"type":"Point","coordinates":[-116.1403,33.9943]}},{"properties":{"climb_area":"The Saddlehorn","latitude":33.9941,"longitude":-116.1404,"id":"a64w93tlarsg","source":"gps","state":"California"},"type":"Feature","geometry":{"type":"Point","coordinates":[-116.1404,33.9941]}},{"properties":{"climb_area":"Rattlesnake Canyon","latitude":34.0835,"longitude":-116.1406,"id":"a64w947i67l7","source":"gps","state":"California"},"type":"Feature","geometry":{"type":"Point","coordinates":[-116.1406,34.0835]}},{"properties":{"climb_area":"Dire Straits Rock","latitude":33.9941,"longitude":-116.1406,"id":"a64w93tvem05","source":"gps","state":"California"},"type":"Feature","geometry":{"type":"Point","coordinates":[-116.1406,33.9941]}},{"properties":{"climb_area":"Corral Wall","latitude":34.0844,"longitude":-116.141,"id":"a64w948k84n4","source":"gps","state":"California"},"type":"Feature","geometry":{"type":"Point","coordinates":[-116.141,34.0844]}},{"properties":{"climb_area":"Comic Book Area","latitude":34.013,"longitude":-116.143,"id":"a64w93tx1m2x","source":"gps","state":"California"},"type":"Feature","geometry":{"type":"Point","coordinates":[-116.143,34.013]}},{"properties":{"climb_area":"The Comic Strip","latitude":34.0131,"longitude":-116.1433,"id":"a64w93yik56u","source":"gps","state":"California"},"type":"Feature","geometry":{"type":"Point","coordinates":[-116.1433,34.0131]}},{"properties":{"climb_area":"Sheep Pass Area","latitude":33.9986,"longitude":-116.1448,"id":"a64w946sejwc","source":"gps","state":"California"},"type":"Feature","geometry":{"type":"Point","coordinates":[-116.1448,33.9986]}},{"properties":{"climb_area":"Barker Dam Area","latitude":34.0307,"longitude":-116.146,"id":"a64w941gjo8e","source":"gps","state":"California"},"type":"Feature","geometry":{"type":"Point","coordinates":[-116.146,34.0307]}},{"properties":{"climb_area":"Hall of Horrors","latitude":34.0002,"longitude":-116.1471,"id":"a64w943my2qu","source":"gps","state":"California"},"type":"Feature","geometry":{"type":"Point","coordinates":[-116.1471,34.0002]}},{"properties":{"climb_area":"The Astro Domes","latitude":34.0387,"longitude":-116.1472,"id":"a64w9421hdzs","source":"gps","state":"California"},"type":"Feature","geometry":{"type":"Point","coordinates":[-116.1472,34.0387]}},{"properties":{"climb_area":"Hall of Horrors Area","latitude":34.0012,"longitude":-116.1482,"id":"a64w949ccmde","source":"gps","state":"California"},"type":"Feature","geometry":{"type":"Point","coordinates":[-116.1482,34.0012]}},{"properties":{"climb_area":"King Dome","latitude":34.0033,"longitude":-116.1493,"id":"a64w93ushbca","source":"gps","state":"California"},"type":"Feature","geometry":{"type":"Point","coordinates":[-116.1493,34.0033]}},{"properties":{"climb_area":"Wonderland of Rocks","latitude":34.0406,"longitude":-116.15,"id":"a64w9471vpig","source":"gps","state":"California"},"type":"Feature","geometry":{"type":"Point","coordinates":[-116.15,34.0406]}},{"properties":{"climb_area":"Little Hunk - NE Face (Left)","latitude":34.0262,"longitude":-116.1503,"id":"a64w93zfrucr","source":"gps","state":"California"},"type":"Feature","geometry":{"type":"Point","coordinates":[-116.1503,34.0262]}},{"properties":{"climb_area":"The Chair","latitude":34.0261,"longitude":-116.1504,"id":"a64w93ui470p","source":"gps","state":"California"},"type":"Feature","geometry":{"type":"Point","coordinates":[-116.1504,34.0261]}},{"properties":{"climb_area":"SW Face Right (Monkey Business Wall)","latitude":34.0261,"longitude":-116.1507,"id":"a64w941uqpc5","source":"gps","state":"California"},"type":"Feature","geometry":{"type":"Point","coordinates":[-116.1507,34.0261]}},{"properties":{"climb_area":"Wonderland North","latitude":34.072,"longitude":-116.1516,"id":"a64w940uebs3","source":"gps","state":"California"},"type":"Feature","geometry":{"type":"Point","coordinates":[-116.1516,34.072]}},{"properties":{"climb_area":"Little Hunk - NE Face (Shady Grove Wall)","latitude":34.0268,"longitude":-116.1517,"id":"a64w9472qgpb","source":"gps","state":"California"},"type":"Feature","geometry":{"type":"Point","coordinates":[-116.1517,34.0268]}},{"properties":{"climb_area":"SW Face Center (The Solarium)","latitude":34.0265,"longitude":-116.152,"id":"a64w941u9u99","source":"gps","state":"California"},"type":"Feature","geometry":{"type":"Point","coordinates":[-116.152,34.0265]}},{"properties":{"climb_area":"Mounds","latitude":34.0258,"longitude":-116.1522,"id":"a64w93y9kowl","source":"gps","state":"California"},"type":"Feature","geometry":{"type":"Point","coordinates":[-116.1522,34.0258]}},{"properties":{"climb_area":"Little Hunk","latitude":34.0268,"longitude":-116.1524,"id":"a64w93ycr9hp","source":"gps","state":"California"},"type":"Feature","geometry":{"type":"Point","coordinates":[-116.1524,34.0268]}},{"properties":{"climb_area":"Little Hunk - SW Face","latitude":34.0269,"longitude":-116.1527,"id":"a64w93y8kvme","source":"gps","state":"California"},"type":"Feature","geometry":{"type":"Point","coordinates":[-116.1527,34.0269]}},{"properties":{"climb_area":"Little Hunk - NE Face","latitude":34.0276,"longitude":-116.1529,"id":"a64w93zakbyc","source":"gps","state":"California"},"type":"Feature","geometry":{"type":"Point","coordinates":[-116.1529,34.0276]}},{"properties":{"climb_area":"SW Face Left (Trespassers Wall)","latitude":34.0272,"longitude":-116.153,"id":"a64w9447bnep","source":"gps","state":"California"},"type":"Feature","geometry":{"type":"Point","coordinates":[-116.153,34.0272]}},{"properties":{"climb_area":"Little Hunk - NE Face (Right)","latitude":34.0277,"longitude":-116.1531,"id":"a64w93usat5b","source":"gps","state":"California"},"type":"Feature","geometry":{"type":"Point","coordinates":[-116.1531,34.0277]}},{"properties":{"climb_area":"Short Wall","latitude":34.0926,"longitude":-116.1535,"id":"a64w9461914k","source":"gps","state":"California"},"type":"Feature","geometry":{"type":"Point","coordinates":[-116.1535,34.0926]}},{"properties":{"climb_area":"Johnson Canyon","latitude":34.088,"longitude":-116.1535,"id":"a64w946tme63","source":"gps","state":"California"},"type":"Feature","geometry":{"type":"Point","coordinates":[-116.1535,34.088]}},{"properties":{"climb_area":"Headstone Rock","latitude":33.9836,"longitude":-116.154,"id":"a64w942nquo1","source":"gps","state":"California"},"type":"Feature","geometry":{"type":"Point","coordinates":[-116.154,33.9836]}},{"properties":{"climb_area":"Ryan Campground","latitude":33.9885,"longitude":-116.1551,"id":"a64w945msif3","source":"gps","state":"California"},"type":"Feature","geometry":{"type":"Point","coordinates":[-116.1551,33.9885]}},{"properties":{"climb_area":"Planet X Area","latitude":33.9966,"longitude":-116.156,"id":"a64w94331e6c","source":"gps","state":"California"},"type":"Feature","geometry":{"type":"Point","coordinates":[-116.156,33.9966]}},{"properties":{"climb_area":"Billboard Buttress","latitude":34.0935,"longitude":-116.1561,"id":"a64w946ys6qh","source":"gps","state":"California"},"type":"Feature","geometry":{"type":"Point","coordinates":[-116.1561,34.0935]}},{"properties":{"climb_area":"Indian Cove","latitude":34.0938,"longitude":-116.1566,"id":"a64w93v0vkjj","source":"gps","state":"California"},"type":"Feature","geometry":{"type":"Point","coordinates":[-116.1566,34.0938]}},{"properties":{"climb_area":"Echo Rock Area","latitude":34.0254,"longitude":-116.1568,"id":"a64w942gqgpl","source":"gps","state":"California"},"type":"Feature","geometry":{"type":"Point","coordinates":[-116.1568,34.0254]}},{"properties":{"climb_area":"King Otto's Castle","latitude":34.0924,"longitude":-116.1569,"id":"a64w942o4u8o","source":"gps","state":"California"},"type":"Feature","geometry":{"type":"Point","coordinates":[-116.1569,34.0924]}},{"properties":{"climb_area":"Group Campsite 2","latitude":34.0966,"longitude":-116.1576,"id":"a64w93vsfkmu","source":"gps","state":"California"},"type":"Feature","geometry":{"type":"Point","coordinates":[-116.1576,34.0966]}},{"properties":{"climb_area":"Indian Cove CG","latitude":34.0925,"longitude":-116.1576,"id":"a64w9498sbe1","source":"gps","state":"California"},"type":"Feature","geometry":{"type":"Point","coordinates":[-116.1576,34.0925]}},{"properties":{"climb_area":"Echo Cove","latitude":34.0244,"longitude":-116.158,"id":"a64w9400y2br","source":"gps","state":"California"},"type":"Feature","geometry":{"type":"Point","coordinates":[-116.158,34.0244]}},{"properties":{"climb_area":"Echo Cove - South Face","latitude":34.0242,"longitude":-116.1582,"id":"a64w94012kxw","source":"gps","state":"California"},"type":"Feature","geometry":{"type":"Point","coordinates":[-116.1582,34.0242]}},{"properties":{"climb_area":"Campfire Crag","latitude":34.0954,"longitude":-116.1586,"id":"a64w93zdoocp","source":"gps","state":"California"},"type":"Feature","geometry":{"type":"Point","coordinates":[-116.1586,34.0954]}},{"properties":{"climb_area":"Group Camp Road","latitude":34.097,"longitude":-116.1592,"id":"a64w93z6hmz5","source":"gps","state":"California"},"type":"Feature","geometry":{"type":"Point","coordinates":[-116.1592,34.097]}},{"properties":{"climb_area":"Pixar Wall Area","latitude":34.0309,"longitude":-116.1593,"id":"a64w93ukebiv","source":"gps","state":"California"},"type":"Feature","geometry":{"type":"Point","coordinates":[-116.1593,34.0309]}},{"properties":{"climb_area":"Hodgepodge Rock","latitude":34.097,"longitude":-116.1604,"id":"a64w943yi0wd","source":"gps","state":"California"},"type":"Feature","geometry":{"type":"Point","coordinates":[-116.1604,34.097]}},{"properties":{"climb_area":"Hidden Valley Campground","latitude":34.0162,"longitude":-116.1614,"id":"a64w93xzrcfm","source":"gps","state":"California"},"type":"Feature","geometry":{"type":"Point","coordinates":[-116.1614,34.0162]}},{"properties":{"climb_area":"Joshua Tree National Park / Cap Rock","latitude":33.98818442,"longitude":-116.1618928,"id":"a64w942z9hq8","source":"gps","state":"California"},"type":"Feature","geometry":{"type":"Point","coordinates":[-116.1618928,33.98818442]}},{"properties":{"climb_area":"Intersection Rock","latitude":34.0148,"longitude":-116.163,"id":"a64w93yuw1n2","source":"gps","state":"California"},"type":"Feature","geometry":{"type":"Point","coordinates":[-116.163,34.0148]}},{"properties":{"climb_area":"The Outback","latitude":34.0208,"longitude":-116.1659,"id":"a64w943u2k8f","source":"gps","state":"California"},"type":"Feature","geometry":{"type":"Point","coordinates":[-116.1659,34.0208]}},{"properties":{"climb_area":"Steve Canyon Area","latitude":34.0194,"longitude":-116.1671,"id":"a64w9481hrvy","source":"gps","state":"California"},"type":"Feature","geometry":{"type":"Point","coordinates":[-116.1671,34.0194]}},{"properties":{"climb_area":"Houser Buttress Area","latitude":34.0103,"longitude":-116.1711,"id":"a64w949lh2sc","source":"gps","state":"California"},"type":"Feature","geometry":{"type":"Point","coordinates":[-116.1711,34.0103]}},{"properties":{"climb_area":"Real Hidden Valley","latitude":34.0145,"longitude":-116.1713,"id":"a64w9498ihi0","source":"gps","state":"California"},"type":"Feature","geometry":{"type":"Point","coordinates":[-116.1713,34.0145]}},{"properties":{"climb_area":"Roadside Rocks","latitude":34.0213,"longitude":-116.1728,"id":"a64w942xfnh4","source":"gps","state":"California"},"type":"Feature","geometry":{"type":"Point","coordinates":[-116.1728,34.0213]}},{"properties":{"climb_area":"Copper Falls","latitude":48.98976,"longitude":-116.17883,"id":"a64w945tjjok","source":"gps","state":"Idaho"},"type":"Feature","geometry":{"type":"Point","coordinates":[-116.17883,48.98976]}},{"properties":{"climb_area":"Lost Horse Area","latitude":34.0213,"longitude":-116.1793,"id":"a64w947axx2r","source":"gps","state":"California"},"type":"Feature","geometry":{"type":"Point","coordinates":[-116.1793,34.0213]}},{"properties":{"climb_area":"Trashcan Rock","latitude":34.0401,"longitude":-116.197,"id":"a64w947r1icx","source":"gps","state":"California"},"type":"Feature","geometry":{"type":"Point","coordinates":[-116.197,34.0401]}},{"properties":{"climb_area":"Quail Springs","latitude":34.0402,"longitude":-116.1976,"id":"a64w947k70fx","source":"gps","state":"California"},"type":"Feature","geometry":{"type":"Point","coordinates":[-116.1976,34.0402]}},{"properties":{"climb_area":"Joshua Tree National Park (2941)","latitude":34.09327802,"longitude":-116.2653505,"id":"a64w93utdyog","source":"xy","state":"California"},"type":"Feature","geometry":{"type":"Point","coordinates":[-116.2653505,34.09327802]}},{"properties":{"climb_area":"Giant Rock","latitude":34.3181,"longitude":-116.4217,"id":"a64w949ri2ol","source":"gps","state":"California"},"type":"Feature","geometry":{"type":"Point","coordinates":[-116.4217,34.3181]}},{"properties":{"climb_area":"Culp Valley","latitude":33.2162,"longitude":-116.4596,"id":"a64w93w6dtnd","source":"gps","state":"California"},"type":"Feature","geometry":{"type":"Point","coordinates":[-116.4596,33.2162]}},{"properties":{"climb_area":"Stonewall Peak","latitude":32.9599,"longitude":-116.572,"id":"a64w947sxc42","source":"gps","state":"California"},"type":"Feature","geometry":{"type":"Point","coordinates":[-116.572,32.9599]}},{"properties":{"climb_area":"Corte Madera","latitude":32.7555,"longitude":-116.591,"id":"a64w944xtk0w","source":"gps","state":"California"},"type":"Feature","geometry":{"type":"Point","coordinates":[-116.591,32.7555]}},{"properties":{"climb_area":"Nevada","latitude":39.0277,"longitude":-116.631,"id":"a64w943lw0s4","source":"gps","state":"Nevada"},"type":"Feature","geometry":{"type":"Point","coordinates":[-116.631,39.0277]}},{"properties":{"climb_area":"The Tramway","latitude":33.8062,"longitude":-116.6367,"id":"a64w9488t8bn","source":"gps","state":"California"},"type":"Feature","geometry":{"type":"Point","coordinates":[-116.6367,33.8062]}},{"properties":{"climb_area":"San Jacinto Mountains (93)","latitude":33.86650066,"longitude":-116.6560243,"id":"a64w9481kh5s","source":"est","state":"California"},"type":"Feature","geometry":{"type":"Point","coordinates":[-116.6560243,33.86650066]}},{"properties":{"climb_area":"Tahquitz Rock","latitude":33.7602,"longitude":-116.684,"id":"a64w93z65u80","source":"gps","state":"California"},"type":"Feature","geometry":{"type":"Point","coordinates":[-116.684,33.7602]}},{"properties":{"climb_area":"Suicide Rock","latitude":33.771,"longitude":-116.696,"id":"a64w941b5na1","source":"gps","state":"California"},"type":"Feature","geometry":{"type":"Point","coordinates":[-116.696,33.771]}},{"properties":{"climb_area":"8000 Foot Crag","latitude":34.1737,"longitude":-116.7177,"id":"a64w93z6tb9b","source":"gps","state":"California"},"type":"Feature","geometry":{"type":"Point","coordinates":[-116.7177,34.1737]}},{"properties":{"climb_area":"Idyllwild County Park","latitude":33.7441,"longitude":-116.7225,"id":"a64w93y3ebn5","source":"gps","state":"California"},"type":"Feature","geometry":{"type":"Point","coordinates":[-116.7225,33.7441]}},{"properties":{"climb_area":"Onyx Summit Crag","latitude":34.1968,"longitude":-116.724,"id":"a64w93vs7p1k","source":"gps","state":"California"},"type":"Feature","geometry":{"type":"Point","coordinates":[-116.724,34.1968]}},{"properties":{"climb_area":"Black Mountain","latitude":33.8263,"longitude":-116.7591,"id":"a64w9438egxf","source":"gps","state":"California"},"type":"Feature","geometry":{"type":"Point","coordinates":[-116.7591,33.8263]}},{"properties":{"climb_area":"El Cajon Mountain","latitude":32.9041,"longitude":-116.818,"id":"a64w93z9ll9o","source":"gps","state":"California"},"type":"Feature","geometry":{"type":"Point","coordinates":[-116.818,32.9041]}},{"properties":{"climb_area":"Holcomb Valley Pinnacles","latitude":34.3124,"longitude":-116.8804,"id":"a64w93us60aq","source":"gps","state":"California"},"type":"Feature","geometry":{"type":"Point","coordinates":[-116.8804,34.3124]}},{"properties":{"climb_area":"Post Falls","latitude":47.69022524,"longitude":-116.8886101,"id":"a64w944tir88","source":"xy","state":"Idaho"},"type":"Feature","geometry":{"type":"Point","coordinates":[-116.8886101,47.69022524]}},{"properties":{"climb_area":"Hercules Finger","latitude":34.6194,"longitude":-116.8997,"id":"a64w946ncmfv","source":"gps","state":"California"},"type":"Feature","geometry":{"type":"Point","coordinates":[-116.8997,34.6194]}},{"properties":{"climb_area":"Otay","latitude":32.603,"longitude":-116.9071,"id":"a64w9470ddco","source":"gps","state":"California"},"type":"Feature","geometry":{"type":"Point","coordinates":[-116.9071,32.603]}},{"properties":{"climb_area":"Hells Canyon (5)","latitude":44.84148975,"longitude":-116.9117083,"id":"a64w949v1dtm","source":"xy","state":"Idaho"},"type":"Feature","geometry":{"type":"Point","coordinates":[-116.9117083,44.84148975]}},{"properties":{"climb_area":"Poway Crags","latitude":32.9844,"longitude":-116.9496,"id":"a64w93y5dvt9","source":"gps","state":"California"},"type":"Feature","geometry":{"type":"Point","coordinates":[-116.9496,32.9844]}},{"properties":{"climb_area":"Castle Rock","latitude":34.2295,"longitude":-116.9587,"id":"a64w93u6o655","source":"gps","state":"California"},"type":"Feature","geometry":{"type":"Point","coordinates":[-116.9587,34.2295]}},{"properties":{"climb_area":"Hanna Rocks","latitude":34.2842,"longitude":-116.9588,"id":"a64w945wg8yi","source":"gps","state":"California"},"type":"Feature","geometry":{"type":"Point","coordinates":[-116.9588,34.2842]}},{"properties":{"climb_area":"Mount Woodson","latitude":33.0063,"longitude":-116.96,"id":"a64w943bv1hh","source":"gps","state":"California"},"type":"Feature","geometry":{"type":"Point","coordinates":[-116.96,33.0063]}},{"properties":{"climb_area":"Fisherman's Buttress Area","latitude":34.2406,"longitude":-116.9671,"id":"a64w93wj3jc2","source":"gps","state":"California"},"type":"Feature","geometry":{"type":"Point","coordinates":[-116.9671,34.2406]}},{"properties":{"climb_area":"Lucerne Limestone","latitude":34.4617,"longitude":-116.9697,"id":"a64w93y1m0c9","source":"gps","state":"California"},"type":"Feature","geometry":{"type":"Point","coordinates":[-116.9697,34.4617]}},{"properties":{"climb_area":"Frustration Creek","latitude":34.0987,"longitude":-116.9718,"id":"a64w93wzdg1m","source":"gps","state":"California"},"type":"Feature","geometry":{"type":"Point","coordinates":[-116.9718,34.0987]}},{"properties":{"climb_area":"New Jack City","latitude":34.6663,"longitude":-116.9784,"id":"a64w9446m961","source":"gps","state":"California"},"type":"Feature","geometry":{"type":"Point","coordinates":[-116.9784,34.6663]}},{"properties":{"climb_area":"Santee Boulders","latitude":32.8641,"longitude":-116.985,"id":"a64w93xrogpk","source":"gps","state":"California"},"type":"Feature","geometry":{"type":"Point","coordinates":[-116.985,32.8641]}},{"properties":{"climb_area":"Santee Boulders","latitude":32.8641,"longitude":-116.985,"id":"a64w9489vpd5","source":"gps","state":"California"},"type":"Feature","geometry":{"type":"Point","coordinates":[-116.985,32.8641]}},{"properties":{"climb_area":"The Coven","latitude":34.2744,"longitude":-116.9875,"id":"a64w945o2e40","source":"gps","state":"California"},"type":"Feature","geometry":{"type":"Point","coordinates":[-116.9875,34.2744]}},{"properties":{"climb_area":"Bonita","latitude":32.6913,"longitude":-117.012,"id":"a64w945mw0ts","source":"gps","state":"California"},"type":"Feature","geometry":{"type":"Point","coordinates":[-117.012,32.6913]}},{"properties":{"climb_area":"Mill Creek","latitude":34.1023,"longitude":-117.0135,"id":"a64w949086l8","source":"gps","state":"California"},"type":"Feature","geometry":{"type":"Point","coordinates":[-117.0135,34.1023]}},{"properties":{"climb_area":"Dixon Lake","latitude":33.1607,"longitude":-117.046,"id":"a64w940y5ysa","source":"gps","state":"California"},"type":"Feature","geometry":{"type":"Point","coordinates":[-117.046,33.1607]}},{"properties":{"climb_area":"Keller Peak","latitude":34.1993,"longitude":-117.0509,"id":"a64w942o1l0u","source":"gps","state":"California"},"type":"Feature","geometry":{"type":"Point","coordinates":[-117.0509,34.1993]}},{"properties":{"climb_area":"Mission Gorge","latitude":32.8187,"longitude":-117.056,"id":"a64w9428mrrz","source":"gps","state":"California"},"type":"Feature","geometry":{"type":"Point","coordinates":[-117.056,32.8187]}},{"properties":{"climb_area":"San Bernardino Mountains (370)","latitude":34.15400364,"longitude":-117.1227631,"id":"a64w93tpxu4g","source":"est","state":"California"},"type":"Feature","geometry":{"type":"Point","coordinates":[-117.1227631,34.15400364]}},{"properties":{"climb_area":"Apple Valley Crags","latitude":34.4901,"longitude":-117.1244,"id":"a64w940s72ym","source":"gps","state":"California"},"type":"Feature","geometry":{"type":"Point","coordinates":[-117.1244,34.4901]}},{"properties":{"climb_area":"Big Rock Area","latitude":33.8423,"longitude":-117.164,"id":"a64w944ynxt4","source":"gps","state":"California"},"type":"Feature","geometry":{"type":"Point","coordinates":[-117.164,33.8423]}},{"properties":{"climb_area":"Scot Rock","latitude":34.2256,"longitude":-117.1962,"id":"a64w9421uaq0","source":"gps","state":"California"},"type":"Feature","geometry":{"type":"Point","coordinates":[-117.1962,34.2256]}},{"properties":{"climb_area":"The Zoo at Mirabeau Point Park","latitude":47.68227,"longitude":-117.22735,"id":"a64w940hqars","source":"gps","state":"Washington"},"type":"Feature","geometry":{"type":"Point","coordinates":[-117.22735,47.68227]}},{"properties":{"climb_area":"Lake Arrowhead Pinnacles","latitude":34.3067,"longitude":-117.2281,"id":"a64w93ziczoj","source":"gps","state":"California"},"type":"Feature","geometry":{"type":"Point","coordinates":[-117.2281,34.3067]}},{"properties":{"climb_area":"Sphinx Rock","latitude":34.2271,"longitude":-117.2543,"id":"a64w93vmew4c","source":"gps","state":"California"},"type":"Feature","geometry":{"type":"Point","coordinates":[-117.2543,34.2271]}},{"properties":{"climb_area":"Dishman Rocks","latitude":47.6533,"longitude":-117.28652,"id":"a64w93zrhy3s","source":"gps","state":"Washington"},"type":"Feature","geometry":{"type":"Point","coordinates":[-117.28652,47.6533]}},{"properties":{"climb_area":"Box Springs Mountain Park","latitude":33.9893,"longitude":-117.3086,"id":"a64w944xhm0q","source":"gps","state":"California"},"type":"Feature","geometry":{"type":"Point","coordinates":[-117.3086,33.9893]}},{"properties":{"climb_area":"Mount Rubidoux","latitude":33.984,"longitude":-117.3917,"id":"a64w943i0dnt","source":"gps","state":"California"},"type":"Feature","geometry":{"type":"Point","coordinates":[-117.3917,33.984]}},{"properties":{"climb_area":"Minnehaha (7)","latitude":47.68864717,"longitude":-117.3997814,"id":"a64w944fiscl","source":"xy","state":"Washington"},"type":"Feature","geometry":{"type":"Point","coordinates":[-117.3997814,47.68864717]}},{"properties":{"climb_area":"Riverside Quarry","latitude":34.0169,"longitude":-117.4166,"id":"a64w946sta9m","source":"gps","state":"California"},"type":"Feature","geometry":{"type":"Point","coordinates":[-117.4166,34.0169]}},{"properties":{"climb_area":"San Diego County (331)","latitude":33.38685281,"longitude":-117.4649692,"id":"a64w947gzb2w","source":"est","state":"California"},"type":"Feature","geometry":{"type":"Point","coordinates":[-117.4649692,33.38685281]}},{"properties":{"climb_area":"Mormon Rocks","latitude":34.3199,"longitude":-117.4961,"id":"a64w93xmxrr7","source":"gps","state":"California"},"type":"Feature","geometry":{"type":"Point","coordinates":[-117.4961,34.3199]}},{"properties":{"climb_area":"Riverside County (181)","latitude":33.89896127,"longitude":-117.5292384,"id":"a64w945599xq","source":"est","state":"California"},"type":"Feature","geometry":{"type":"Point","coordinates":[-117.5292384,33.89896127]}},{"properties":{"climb_area":"Deep Creek","latitude":47.754,"longitude":-117.54872,"id":"a64w93vsxsbc","source":"gps","state":"Washington"},"type":"Feature","geometry":{"type":"Point","coordinates":[-117.54872,47.754]}},{"properties":{"climb_area":"McLellan Rocks","latitude":47.8356,"longitude":-117.725,"id":"a64w942ql5tj","source":"gps","state":"Washington"},"type":"Feature","geometry":{"type":"Point","coordinates":[-117.725,47.8356]}},{"properties":{"climb_area":"Orange County (5)","latitude":33.8555273,"longitude":-117.7604436,"id":"a64w94a0ncxj","source":"est","state":"California"},"type":"Feature","geometry":{"type":"Point","coordinates":[-117.7604436,33.8555273]}},{"properties":{"climb_area":"High Valley","latitude":45.21,"longitude":-117.79,"id":"a64w94015u6c","source":"gps","state":"Oregon"},"type":"Feature","geometry":{"type":"Point","coordinates":[-117.79,45.21]}},{"properties":{"climb_area":"Behind the Scenes","latitude":34.4112,"longitude":-117.8539,"id":"a64w9470lasl","source":"gps","state":"California"},"type":"Feature","geometry":{"type":"Point","coordinates":[-117.8539,34.4112]}},{"properties":{"climb_area":"Purgatory Wall","latitude":34.4121,"longitude":-117.8556,"id":"a64w946pe27i","source":"gps","state":"California"},"type":"Feature","geometry":{"type":"Point","coordinates":[-117.8556,34.4121]}},{"properties":{"climb_area":"Attitude Wall","latitude":34.4182,"longitude":-117.8571,"id":"a64w93uu49xd","source":"gps","state":"California"},"type":"Feature","geometry":{"type":"Point","coordinates":[-117.8571,34.4182]}},{"properties":{"climb_area":"VD (Very Direct) Wall","latitude":34.412,"longitude":-117.8573,"id":"a64w93x3xwgj","source":"gps","state":"California"},"type":"Feature","geometry":{"type":"Point","coordinates":[-117.8573,34.412]}},{"properties":{"climb_area":"Wallbanger","latitude":34.4116,"longitude":-117.8574,"id":"a64w93w4dsks","source":"gps","state":"California"},"type":"Feature","geometry":{"type":"Point","coordinates":[-117.8574,34.4116]}},{"properties":{"climb_area":"Little Attitude Wall","latitude":34.4182,"longitude":-117.858,"id":"a64w944blmh9","source":"gps","state":"California"},"type":"Feature","geometry":{"type":"Point","coordinates":[-117.858,34.4182]}},{"properties":{"climb_area":"The Corral","latitude":34.4188,"longitude":-117.8581,"id":"a64w941vsozw","source":"gps","state":"California"},"type":"Feature","geometry":{"type":"Point","coordinates":[-117.8581,34.4188]}},{"properties":{"climb_area":"West World","latitude":34.4115,"longitude":-117.8584,"id":"a64w93uihq0c","source":"gps","state":"California"},"type":"Feature","geometry":{"type":"Point","coordinates":[-117.8584,34.4115]}},{"properties":{"climb_area":"Tunnel Crag","latitude":34.3601,"longitude":-117.8593,"id":"a64w942p0udw","source":"gps","state":"California"},"type":"Feature","geometry":{"type":"Point","coordinates":[-117.8593,34.3601]}},{"properties":{"climb_area":"Pirate's Cove","latitude":33.5949,"longitude":-117.8781,"id":"a64w93ub3dca","source":"gps","state":"California"},"type":"Feature","geometry":{"type":"Point","coordinates":[-117.8781,33.5949]}},{"properties":{"climb_area":"Williamson Rock","latitude":34.3635,"longitude":-117.8797,"id":"a64w93yz7q19","source":"gps","state":"California"},"type":"Feature","geometry":{"type":"Point","coordinates":[-117.8797,34.3635]}},{"properties":{"climb_area":"Horse Flats","latitude":34.3494,"longitude":-118.0158,"id":"a64w93wae1tq","source":"gps","state":"California"},"type":"Feature","geometry":{"type":"Point","coordinates":[-118.0158,34.3494]}},{"properties":{"climb_area":"Titanium Man","latitude":34.3412,"longitude":-118.019,"id":"a64w945pxu0j","source":"gps","state":"California"},"type":"Feature","geometry":{"type":"Point","coordinates":[-118.019,34.3412]}},{"properties":{"climb_area":"Mt. Emily","latitude":45.43793062,"longitude":-118.0877867,"id":"a64w949c0q07","source":"gps","state":"Oregon"},"type":"Feature","geometry":{"type":"Point","coordinates":[-118.0877867,45.43793062]}},{"properties":{"climb_area":"The Chocolate Block","latitude":36.5846,"longitude":-118.1132,"id":"a64w93vesm3a","source":"gps","state":"California"},"type":"Feature","geometry":{"type":"Point","coordinates":[-118.1132,36.5846]}},{"properties":{"climb_area":"The Walnut","latitude":36.6068,"longitude":-118.1319,"id":"a64w948bjdmo","source":"gps","state":"California"},"type":"Feature","geometry":{"type":"Point","coordinates":[-118.1319,36.6068]}},{"properties":{"climb_area":"The Pistachio","latitude":36.6066,"longitude":-118.132,"id":"a64w93w5ztfh","source":"gps","state":"California"},"type":"Feature","geometry":{"type":"Point","coordinates":[-118.132,36.6066]}},{"properties":{"climb_area":"The Tall Wall","latitude":36.6071,"longitude":-118.1328,"id":"a64w941ij0dj","source":"gps","state":"California"},"type":"Feature","geometry":{"type":"Point","coordinates":[-118.1328,36.6071]}},{"properties":{"climb_area":"Millard Canyon","latitude":34.2163,"longitude":-118.146,"id":"a64w946apnur","source":"gps","state":"California"},"type":"Feature","geometry":{"type":"Point","coordinates":[-118.146,34.2163]}},{"properties":{"climb_area":"Eagle Rock","latitude":34.1432,"longitude":-118.1835,"id":"a64w93z3rkim","source":"gps","state":"California"},"type":"Feature","geometry":{"type":"Point","coordinates":[-118.1835,34.1432]}},{"properties":{"climb_area":"Portal Edge Wall","latitude":36.595,"longitude":-118.2159,"id":"a64w944y125w","source":"gps","state":"California"},"type":"Feature","geometry":{"type":"Point","coordinates":[-118.2159,36.595]}},{"properties":{"climb_area":"Lone Pine Peak","latitude":36.5616,"longitude":-118.2251,"id":"a64w942lx5rs","source":"gps","state":"California"},"type":"Feature","geometry":{"type":"Point","coordinates":[-118.2251,36.5616]}},{"properties":{"climb_area":"Anthony Lake","latitude":44.95968,"longitude":-118.23132,"id":"a64w946ka7zl","source":"gps","state":"Oregon"},"type":"Feature","geometry":{"type":"Point","coordinates":[-118.23132,44.95968]}},{"properties":{"climb_area":"Spring Mountain","latitude":45.461,"longitude":-118.234,"id":"a64w93ukh10p","source":"gps","state":"Oregon"},"type":"Feature","geometry":{"type":"Point","coordinates":[-118.234,45.461]}},{"properties":{"climb_area":"Mt. Russell","latitude":36.59,"longitude":-118.291,"id":"a64w940dftm3","source":"gps","state":"California"},"type":"Feature","geometry":{"type":"Point","coordinates":[-118.291,36.59]}},{"properties":{"climb_area":"Mt. Whitney","latitude":36.5784,"longitude":-118.293,"id":"a64w93vmkkf1","source":"gps","state":"California"},"type":"Feature","geometry":{"type":"Point","coordinates":[-118.293,36.5784]}},{"properties":{"climb_area":"Los Angeles County (255)","latitude":33.99235761,"longitude":-118.3294596,"id":"a64w93xnwae3","source":"est","state":"California"},"type":"Feature","geometry":{"type":"Point","coordinates":[-118.3294596,33.99235761]}},{"properties":{"climb_area":"Junction Peak","latitude":36.6899,"longitude":-118.3657,"id":"a64w93udy3l6","source":"gps","state":"California"},"type":"Feature","geometry":{"type":"Point","coordinates":[-118.3657,36.6899]}},{"properties":{"climb_area":"Kernville Rock","latitude":35.7563,"longitude":-118.378,"id":"a64w93w5trnu","source":"gps","state":"California"},"type":"Feature","geometry":{"type":"Point","coordinates":[-118.378,35.7563]}},{"properties":{"climb_area":"Texas Canyon","latitude":34.5136,"longitude":-118.4021,"id":"a64w946tz0fx","source":"gps","state":"California"},"type":"Feature","geometry":{"type":"Point","coordinates":[-118.4021,34.5136]}},{"properties":{"climb_area":"Druid Stones","latitude":37.3071,"longitude":-118.4364,"id":"a64w93zwd7pq","source":"gps","state":"California"},"type":"Feature","geometry":{"type":"Point","coordinates":[-118.4364,37.3071]}},{"properties":{"climb_area":"Charlotte Dome","latitude":36.7825,"longitude":-118.48,"id":"a64w940hyj8w","source":"gps","state":"California"},"type":"Feature","geometry":{"type":"Point","coordinates":[-118.48,36.7825]}},{"properties":{"climb_area":"Tehachapi","latitude":35.0679,"longitude":-118.486,"id":"a64w943c821h","source":"gps","state":"California"},"type":"Feature","geometry":{"type":"Point","coordinates":[-118.486,35.0679]}},{"properties":{"climb_area":"Temple Crag","latitude":37.1096,"longitude":-118.491,"id":"a64w942uxjdq","source":"gps","state":"California"},"type":"Feature","geometry":{"type":"Point","coordinates":[-118.491,37.1096]}},{"properties":{"climb_area":"Mt. Gayley","latitude":37.1031,"longitude":-118.499,"id":"a64w93wxjdfo","source":"gps","state":"California"},"type":"Feature","geometry":{"type":"Point","coordinates":[-118.499,37.1031]}},{"properties":{"climb_area":"Mt. Sill","latitude":37.0959,"longitude":-118.503,"id":"a64w941h1lud","source":"gps","state":"California"},"type":"Feature","geometry":{"type":"Point","coordinates":[-118.503,37.0959]}},{"properties":{"climb_area":"The Needles","latitude":36.1214,"longitude":-118.5044,"id":"a64w943of4ax","source":"gps","state":"California"},"type":"Feature","geometry":{"type":"Point","coordinates":[-118.5044,36.1214]}},{"properties":{"climb_area":"Polemonium Peak","latitude":37.0929,"longitude":-118.5124,"id":"a64w93tsl0gv","source":"gps","state":"California"},"type":"Feature","geometry":{"type":"Point","coordinates":[-118.5124,37.0929]}},{"properties":{"climb_area":"North Palisade","latitude":37.0942,"longitude":-118.514,"id":"a64w945zjtue","source":"gps","state":"California"},"type":"Feature","geometry":{"type":"Point","coordinates":[-118.514,37.0942]}},{"properties":{"climb_area":"The Black Kaweah","latitude":36.545,"longitude":-118.516,"id":"a64w940ubpqs","source":"gps","state":"California"},"type":"Feature","geometry":{"type":"Point","coordinates":[-118.516,36.545]}},{"properties":{"climb_area":"Mt. Winchell","latitude":37.1047,"longitude":-118.526,"id":"a64w942flqfw","source":"gps","state":"California"},"type":"Feature","geometry":{"type":"Point","coordinates":[-118.526,37.1047]}},{"properties":{"climb_area":"Owens River Gorge","latitude":37.4759,"longitude":-118.559,"id":"a64w947d8a07","source":"gps","state":"California"},"type":"Feature","geometry":{"type":"Point","coordinates":[-118.559,37.4759]}},{"properties":{"climb_area":"Mt. Goode","latitude":37.1231,"longitude":-118.568,"id":"a64w943mero1","source":"gps","state":"California"},"type":"Feature","geometry":{"type":"Point","coordinates":[-118.568,37.1231]}},{"properties":{"climb_area":"Trapezoid Peak","latitude":37.124,"longitude":-118.576,"id":"a64w93y318ls","source":"gps","state":"California"},"type":"Feature","geometry":{"type":"Point","coordinates":[-118.576,37.124]}},{"properties":{"climb_area":"Buttermilk Country","latitude":37.3291,"longitude":-118.5771,"id":"a64w944oql7j","source":"gps","state":"California"},"type":"Feature","geometry":{"type":"Point","coordinates":[-118.5771,37.3291]}},{"properties":{"climb_area":"Stoney Point","latitude":34.2714,"longitude":-118.604,"id":"a64w93xxqktx","source":"gps","state":"California"},"type":"Feature","geometry":{"type":"Point","coordinates":[-118.604,34.2714]}},{"properties":{"climb_area":"Sabrina Basin Bouldering","latitude":37.1921,"longitude":-118.6441,"id":"a64w948lkndw","source":"gps","state":"California"},"type":"Feature","geometry":{"type":"Point","coordinates":[-118.6441,37.1921]}},{"properties":{"climb_area":"Sherwin Plateau","latitude":37.5794,"longitude":-118.6475,"id":"a64w93wmajr3","source":"gps","state":"California"},"type":"Feature","geometry":{"type":"Point","coordinates":[-118.6475,37.5794]}},{"properties":{"climb_area":"Saddle Peak_Corpse Wall","latitude":34.0794,"longitude":-118.6593,"id":"a64w944hc0br","source":"gps","state":"California"},"type":"Feature","geometry":{"type":"Point","coordinates":[-118.6593,34.0794]}},{"properties":{"climb_area":"Pine Creek Canyon","latitude":37.3822,"longitude":-118.6724,"id":"a64w945q19wx","source":"gps","state":"California"},"type":"Feature","geometry":{"type":"Point","coordinates":[-118.6724,37.3822]}},{"properties":{"climb_area":"Kings Canyon","latitude":36.8049,"longitude":-118.7265,"id":"a64w9439cx7i","source":"gps","state":"California"},"type":"Feature","geometry":{"type":"Point","coordinates":[-118.7265,36.8049]}},{"properties":{"climb_area":"Malibu Creek State Park","latitude":34.0961,"longitude":-118.731,"id":"a64w943b5one","source":"gps","state":"California"},"type":"Feature","geometry":{"type":"Point","coordinates":[-118.731,34.0961]}},{"properties":{"climb_area":"Little Cheops","latitude":34.0982,"longitude":-118.7334,"id":"a64w949u9m9z","source":"gps","state":"California"},"type":"Feature","geometry":{"type":"Point","coordinates":[-118.7334,34.0982]}},{"properties":{"climb_area":"Drifter Wall","latitude":34.0982,"longitude":-118.7334,"id":"a64w93tob7s0","source":"gps","state":"California"},"type":"Feature","geometry":{"type":"Point","coordinates":[-118.7334,34.0982]}},{"properties":{"climb_area":"The Power Wall","latitude":34.098,"longitude":-118.734,"id":"a64w947ll4s8","source":"gps","state":"California"},"type":"Feature","geometry":{"type":"Point","coordinates":[-118.734,34.098]}},{"properties":{"climb_area":"Century Lake Area","latitude":34.0981,"longitude":-118.734,"id":"a64w945tu2vs","source":"gps","state":"California"},"type":"Feature","geometry":{"type":"Point","coordinates":[-118.734,34.0981]}},{"properties":{"climb_area":"The Water Wall","latitude":34.0981,"longitude":-118.7342,"id":"a64w942wbopj","source":"gps","state":"California"},"type":"Feature","geometry":{"type":"Point","coordinates":[-118.7342,34.0981]}},{"properties":{"climb_area":"Looking Wall","latitude":37.7554,"longitude":-118.7487,"id":"a64w947o6oio","source":"gps","state":"California"},"type":"Feature","geometry":{"type":"Point","coordinates":[-118.7487,37.7554]}},{"properties":{"climb_area":"Moro Rock","latitude":36.5442,"longitude":-118.7642,"id":"a64w942jdmxy","source":"gps","state":"California"},"type":"Feature","geometry":{"type":"Point","coordinates":[-118.7642,36.5442]}},{"properties":{"climb_area":"Bear Creek Spire","latitude":37.3681,"longitude":-118.767,"id":"a64w93wfibxz","source":"gps","state":"California"},"type":"Feature","geometry":{"type":"Point","coordinates":[-118.767,37.3681]}},{"properties":{"climb_area":"Feather Peak","latitude":37.326,"longitude":-118.7782,"id":"a64w947cxqgx","source":"gps","state":"California"},"type":"Feature","geometry":{"type":"Point","coordinates":[-118.7782,37.326]}},{"properties":{"climb_area":"Point Dume","latitude":34.015,"longitude":-118.8205,"id":"a64w93wwy8db","source":"gps","state":"California"},"type":"Feature","geometry":{"type":"Point","coordinates":[-118.8205,34.015]}},{"properties":{"climb_area":"Laurel Mountain","latitude":37.5853,"longitude":-118.8858,"id":"a64w93y4t9ff","source":"gps","state":"California"},"type":"Feature","geometry":{"type":"Point","coordinates":[-118.8858,37.5853]}},{"properties":{"climb_area":"Laurel Canyon","latitude":37.576,"longitude":-118.9128,"id":"a64w93zwfaen","source":"gps","state":"California"},"type":"Feature","geometry":{"type":"Point","coordinates":[-118.9128,37.576]}},{"properties":{"climb_area":"Clark Canyon","latitude":37.7891,"longitude":-118.9135,"id":"a64w940p4pjf","source":"gps","state":"California"},"type":"Feature","geometry":{"type":"Point","coordinates":[-118.9135,37.7891]}},{"properties":{"climb_area":"Tar Creek (the Swimming Hole)","latitude":34.4573,"longitude":-118.9232,"id":"a64w947sdco6","source":"gps","state":"California"},"type":"Feature","geometry":{"type":"Point","coordinates":[-118.9232,34.4573]}},{"properties":{"climb_area":"Energy Wall","latitude":34.126,"longitude":-118.9233,"id":"a64w93vbzv5k","source":"gps","state":"California"},"type":"Feature","geometry":{"type":"Point","coordinates":[-118.9233,34.126]}},{"properties":{"climb_area":"Echo Cliffs","latitude":34.1116,"longitude":-118.9264,"id":"a64w944btjqt","source":"gps","state":"California"},"type":"Feature","geometry":{"type":"Point","coordinates":[-118.9264,34.1116]}},{"properties":{"climb_area":"Balanced Rock","latitude":34.1259,"longitude":-118.9264,"id":"a64w941rh3yg","source":"gps","state":"California"},"type":"Feature","geometry":{"type":"Point","coordinates":[-118.9264,34.1259]}},{"properties":{"climb_area":"Al's Garage","latitude":37.7749,"longitude":-118.927,"id":"a64w93vygccp","source":"gps","state":"California"},"type":"Feature","geometry":{"type":"Point","coordinates":[-118.927,37.7749]}},{"properties":{"climb_area":"Junction Rock","latitude":37.6552,"longitude":-118.9311,"id":"a64w93x47fbb","source":"gps","state":"California"},"type":"Feature","geometry":{"type":"Point","coordinates":[-118.9311,37.6552]}},{"properties":{"climb_area":"Alpers Canyon","latitude":37.7751,"longitude":-118.935,"id":"a64w94465iwk","source":"gps","state":"California"},"type":"Feature","geometry":{"type":"Point","coordinates":[-118.935,37.7751]}},{"properties":{"climb_area":"Hueco Wall","latitude":34.1189,"longitude":-118.943,"id":"a64w947zmcpn","source":"gps","state":"California"},"type":"Feature","geometry":{"type":"Point","coordinates":[-118.943,34.1189]}},{"properties":{"climb_area":"Conejo Mountain","latitude":34.1978,"longitude":-118.9635,"id":"a64w93wvawf1","source":"gps","state":"California"},"type":"Feature","geometry":{"type":"Point","coordinates":[-118.9635,34.1978]}},{"properties":{"climb_area":"The Stumps","latitude":37.7758,"longitude":-118.9647,"id":"a64w93xkhg4x","source":"gps","state":"California"},"type":"Feature","geometry":{"type":"Point","coordinates":[-118.9647,37.7758]}},{"properties":{"climb_area":"Mammoth Lakes Bouldering","latitude":37.6468,"longitude":-118.966,"id":"a64w946a1kf3","source":"gps","state":"California"},"type":"Feature","geometry":{"type":"Point","coordinates":[-118.966,37.6468]}},{"properties":{"climb_area":"Matrimony Wall","latitude":37.749,"longitude":-118.9761,"id":"a64w93v2bak4","source":"gps","state":"California"},"type":"Feature","geometry":{"type":"Point","coordinates":[-118.9761,37.749]}},{"properties":{"climb_area":"Courtright Reservoir","latitude":37.0749,"longitude":-118.9819,"id":"a64w948t47r8","source":"gps","state":"California"},"type":"Feature","geometry":{"type":"Point","coordinates":[-118.9819,37.0749]}},{"properties":{"climb_area":"Warming Wall","latitude":37.6478,"longitude":-119.003,"id":"a64w93w2edzx","source":"gps","state":"California"},"type":"Feature","geometry":{"type":"Point","coordinates":[-119.003,37.6478]}},{"properties":{"climb_area":"Lee Vining (3)","latitude":37.64004455,"longitude":-119.00414,"id":"a64w946152su","source":"est","state":"California"},"type":"Feature","geometry":{"type":"Point","coordinates":[-119.00414,37.64004455]}},{"properties":{"climb_area":"T J Lake","latitude":37.5917,"longitude":-119.008,"id":"a64w93tnuzn4","source":"gps","state":"California"},"type":"Feature","geometry":{"type":"Point","coordinates":[-119.008,37.5917]}},{"properties":{"climb_area":"Crystal Crag","latitude":37.592,"longitude":-119.0141,"id":"a64w947vt5nv","source":"gps","state":"California"},"type":"Feature","geometry":{"type":"Point","coordinates":[-119.0141,37.592]}},{"properties":{"climb_area":"Horseshoe Slabs","latitude":37.6057,"longitude":-119.0216,"id":"a64w93uu641t","source":"gps","state":"California"},"type":"Feature","geometry":{"type":"Point","coordinates":[-119.0216,37.6057]}},{"properties":{"climb_area":"McLeod Lake","latitude":37.6076,"longitude":-119.0282,"id":"a64w945e3a3c","source":"gps","state":"California"},"type":"Feature","geometry":{"type":"Point","coordinates":[-119.0282,37.6076]}},{"properties":{"climb_area":"Bonaparte Lake","latitude":48.8062,"longitude":-119.0482,"id":"a64w93vkutlu","source":"gps","state":"Washington"},"type":"Feature","geometry":{"type":"Point","coordinates":[-119.0482,48.8062]}},{"properties":{"climb_area":"Point Mugu","latitude":34.0861,"longitude":-119.0589,"id":"a64w93zzslve","source":"gps","state":"California"},"type":"Feature","geometry":{"type":"Point","coordinates":[-119.0589,34.0861]}},{"properties":{"climb_area":"June Lakes Bouldering","latitude":37.778,"longitude":-119.077,"id":"a64w942meopf","source":"gps","state":"California"},"type":"Feature","geometry":{"type":"Point","coordinates":[-119.077,37.778]}},{"properties":{"climb_area":"Sierra Eastside (1115)","latitude":38.59135137,"longitude":-119.173296,"id":"a64w93urnnad","source":"est","state":"California"},"type":"Feature","geometry":{"type":"Point","coordinates":[-119.173296,38.59135137]}},{"properties":{"climb_area":"Clyde Minaret","latitude":37.6604,"longitude":-119.174,"id":"a64w940vw18o","source":"gps","state":"California"},"type":"Feature","geometry":{"type":"Point","coordinates":[-119.174,37.6604]}},{"properties":{"climb_area":"Mt. Ritter","latitude":37.6894,"longitude":-119.198,"id":"a64w948p3cn8","source":"gps","state":"California"},"type":"Feature","geometry":{"type":"Point","coordinates":[-119.198,37.6894]}},{"properties":{"climb_area":"Dana Plateau","latitude":37.8998,"longitude":-119.221,"id":"a64w944tktdh","source":"gps","state":"California"},"type":"Feature","geometry":{"type":"Point","coordinates":[-119.221,37.8998]}},{"properties":{"climb_area":"Yeti Dome","latitude":37.2102,"longitude":-119.2393,"id":"a64w94437qc0","source":"gps","state":"California"},"type":"Feature","geometry":{"type":"Point","coordinates":[-119.2393,37.2102]}},{"properties":{"climb_area":"Hwy 33/Ojai","latitude":34.4873,"longitude":-119.303,"id":"a64w93u4raj9","source":"gps","state":"California"},"type":"Feature","geometry":{"type":"Point","coordinates":[-119.303,34.4873]}},{"properties":{"climb_area":"Dragtooth","latitude":38.0981,"longitude":-119.383,"id":"a64w93zu4zii","source":"gps","state":"California"},"type":"Feature","geometry":{"type":"Point","coordinates":[-119.383,38.0981]}},{"properties":{"climb_area":"Matterhorn Peak","latitude":38.0881,"longitude":-119.385,"id":"a64w93y2asgh","source":"gps","state":"California"},"type":"Feature","geometry":{"type":"Point","coordinates":[-119.385,38.0881]}},{"properties":{"climb_area":"Tollhouse Rock","latitude":37.033,"longitude":-119.387,"id":"a64w93wz3fq3","source":"gps","state":"California"},"type":"Feature","geometry":{"type":"Point","coordinates":[-119.387,37.033]}},{"properties":{"climb_area":"Upper Jackass Lake","latitude":37.4217,"longitude":-119.4855,"id":"a64w94229ijy","source":"gps","state":"California"},"type":"Feature","geometry":{"type":"Point","coordinates":[-119.4855,37.4217]}},{"properties":{"climb_area":"Yosemite National Park (439)","latitude":37.80737988,"longitude":-119.6648614,"id":"a64w943t5gl6","source":"xy","state":"California"},"type":"Feature","geometry":{"type":"Point","coordinates":[-119.6648614,37.80737988]}},{"properties":{"climb_area":"Santa Barbara","latitude":34.4477,"longitude":-119.68,"id":"a64w942bzwwu","source":"gps","state":"California"},"type":"Feature","geometry":{"type":"Point","coordinates":[-119.68,34.4477]}},{"properties":{"climb_area":"Reno - Carson City","latitude":39.3439,"longitude":-119.7757,"id":"a64w949hfdj2","source":"gps","state":"Nevada"},"type":"Feature","geometry":{"type":"Point","coordinates":[-119.7757,39.3439]}},{"properties":{"climb_area":"Woodfords Canyon","latitude":38.7653,"longitude":-119.8463,"id":"a64w944boi0v","source":"gps","state":"California"},"type":"Feature","geometry":{"type":"Point","coordinates":[-119.8463,38.7653]}},{"properties":{"climb_area":"Vantage (Frenchman Coulee) (51)","latitude":47.02971023,"longitude":-119.9707093,"id":"a64w944fs9kn","source":"xy","state":"Washington"},"type":"Feature","geometry":{"type":"Point","coordinates":[-119.9707093,47.02971023]}},{"properties":{"climb_area":"Luther Spires","latitude":38.794,"longitude":-119.9963,"id":"a64w93z2avis","source":"gps","state":"California"},"type":"Feature","geometry":{"type":"Point","coordinates":[-119.9963,38.794]}},{"properties":{"climb_area":"River Rock","latitude":39.4556,"longitude":-120.0064,"id":"a64w948ahaym","source":"gps","state":"California"},"type":"Feature","geometry":{"type":"Point","coordinates":[-120.0064,39.4556]}},{"properties":{"climb_area":"Christmas Valley (Luther Rock)","latitude":38.8091,"longitude":-120.0104,"id":"a64w947vndsq","source":"gps","state":"California"},"type":"Feature","geometry":{"type":"Point","coordinates":[-120.0104,38.8091]}},{"properties":{"climb_area":"Christmas Valley(Luther Rock)","latitude":38.8091,"longitude":-120.0104,"id":"a64w942lcdhe","source":"gps","state":"California"},"type":"Feature","geometry":{"type":"Point","coordinates":[-120.0104,38.8091]}},{"properties":{"climb_area":"5N06 of Sonora","latitude":38.2039,"longitude":-120.014,"id":"a64w93tkq27k","source":"gps","state":"California"},"type":"Feature","geometry":{"type":"Point","coordinates":[-120.014,38.2039]}},{"properties":{"climb_area":"The Pie Shop","latitude":38.8847,"longitude":-120.0225,"id":"a64w9472q2hy","source":"gps","state":"California"},"type":"Feature","geometry":{"type":"Point","coordinates":[-120.0225,38.8847]}},{"properties":{"climb_area":"Echo Pass","latitude":38.8141,"longitude":-120.0302,"id":"a64w943ygvot","source":"gps","state":"California"},"type":"Feature","geometry":{"type":"Point","coordinates":[-120.0302,38.8141]}},{"properties":{"climb_area":"Echo Pass","latitude":38.8141,"longitude":-120.0302,"id":"a64w9498mv7g","source":"gps","state":"California"},"type":"Feature","geometry":{"type":"Point","coordinates":[-120.0302,38.8141]}},{"properties":{"climb_area":"Hwy 166/Silly Rock","latitude":35.1109,"longitude":-120.096,"id":"a64w942c1c3y","source":"gps","state":"California"},"type":"Feature","geometry":{"type":"Point","coordinates":[-120.096,35.1109]}},{"properties":{"climb_area":"Eagle Creek (56)","latitude":38.95044719,"longitude":-120.1186642,"id":"a64w93ymgfqo","source":"xy","state":"California"},"type":"Feature","geometry":{"type":"Point","coordinates":[-120.1186642,38.95044719]}},{"properties":{"climb_area":"Sierra Foothills (149)","latitude":38.44574678,"longitude":-120.1199357,"id":"a64w93vvb4zh","source":"est","state":"California"},"type":"Feature","geometry":{"type":"Point","coordinates":[-120.1199357,38.44574678]}},{"properties":{"climb_area":"Lovers Leap","latitude":38.80384198,"longitude":-120.1348272,"id":"a64w93vdxnbn","source":"xy","state":"California"},"type":"Feature","geometry":{"type":"Point","coordinates":[-120.1348272,38.80384198]}},{"properties":{"climb_area":"Truckee River Canyon","latitude":39.2219,"longitude":-120.201,"id":"a64w94217ltd","source":"gps","state":"California"},"type":"Feature","geometry":{"type":"Point","coordinates":[-120.201,39.2219]}},{"properties":{"climb_area":"Calaveras Dome Area","latitude":38.4939,"longitude":-120.2172,"id":"a64w93wmo1qh","source":"gps","state":"California"},"type":"Feature","geometry":{"type":"Point","coordinates":[-120.2172,38.4939]}},{"properties":{"climb_area":"Wright's Lake","latitude":38.8493,"longitude":-120.2259,"id":"a64w942evony","source":"gps","state":"California"},"type":"Feature","geometry":{"type":"Point","coordinates":[-120.2259,38.8493]}},{"properties":{"climb_area":"Phantom Spires","latitude":38.7885,"longitude":-120.245,"id":"a64w9475ybwt","source":"gps","state":"California"},"type":"Feature","geometry":{"type":"Point","coordinates":[-120.245,38.7885]}},{"properties":{"climb_area":"Sugarloaf","latitude":38.7765,"longitude":-120.3079,"id":"a64w93zlf2xa","source":"gps","state":"California"},"type":"Feature","geometry":{"type":"Point","coordinates":[-120.3079,38.7765]}},{"properties":{"climb_area":"Donner Pass","latitude":39.3184,"longitude":-120.314,"id":"a64w93xatjqk","source":"gps","state":"California"},"type":"Feature","geometry":{"type":"Point","coordinates":[-120.314,39.3184]}},{"properties":{"climb_area":"Donner Pass","latitude":39.3184,"longitude":-120.314,"id":"a64w93x3b95o","source":"gps","state":"California"},"type":"Feature","geometry":{"type":"Point","coordinates":[-120.314,39.3184]}},{"properties":{"climb_area":"Table Mountain","latitude":37.9619,"longitude":-120.4284,"id":"a64w941nfjuq","source":"gps","state":"California"},"type":"Feature","geometry":{"type":"Point","coordinates":[-120.4284,37.9619]}},{"properties":{"climb_area":"Mazama (3)","latitude":48.59323693,"longitude":-120.4411942,"id":"a64w94710030","source":"est","state":"Washington"},"type":"Feature","geometry":{"type":"Point","coordinates":[-120.4411942,48.59323693]}},{"properties":{"climb_area":"Potter's Rock","latitude":37.9491,"longitude":-120.4659,"id":"a64w946tfrtd","source":"gps","state":"California"},"type":"Feature","geometry":{"type":"Point","coordinates":[-120.4659,37.9491]}},{"properties":{"climb_area":"Peshastin Pinnacles","latitude":47.52865203,"longitude":-120.4744431,"id":"a64w93uy4re4","source":"xy","state":"Washington"},"type":"Feature","geometry":{"type":"Point","coordinates":[-120.4744431,47.52865203]}},{"properties":{"climb_area":"Mission Creek","latitude":47.39,"longitude":-120.5,"id":"a64w9426jkoj","source":"gps","state":"Washington"},"type":"Feature","geometry":{"type":"Point","coordinates":[-120.5,47.39]}},{"properties":{"climb_area":"Rainbow","latitude":39.3064,"longitude":-120.5176,"id":"a64w93um0lbu","source":"gps","state":"California"},"type":"Feature","geometry":{"type":"Point","coordinates":[-120.5176,39.3064]}},{"properties":{"climb_area":"Indian Springs","latitude":39.335,"longitude":-120.5758,"id":"a64w93ydk4lt","source":"gps","state":"California"},"type":"Feature","geometry":{"type":"Point","coordinates":[-120.5758,39.335]}},{"properties":{"climb_area":"Free For All Valley","latitude":39.5917,"longitude":-120.6282,"id":"a64w93zdimnz","source":"gps","state":"California"},"type":"Feature","geometry":{"type":"Point","coordinates":[-120.6282,39.5917]}},{"properties":{"climb_area":"Steins Pillar (3)","latitude":44.40818254,"longitude":-120.6287029,"id":"a64w944esq1i","source":"xy","state":"Oregon"},"type":"Feature","geometry":{"type":"Point","coordinates":[-120.6287029,44.40818254]}},{"properties":{"climb_area":"Leavenworth (145)","latitude":47.55912189,"longitude":-120.645428,"id":"a64w949mtbg2","source":"xy","state":"Washington"},"type":"Feature","geometry":{"type":"Point","coordinates":[-120.645428,47.55912189]}},{"properties":{"climb_area":"Leavenworth (145)","latitude":47.55912189,"longitude":-120.645428,"id":"a64w93yw64tb","source":"xy","state":"Washington"},"type":"Feature","geometry":{"type":"Point","coordinates":[-120.645428,47.55912189]}},{"properties":{"climb_area":"The Emeralds","latitude":39.3212,"longitude":-120.6538,"id":"a64w942q4wqm","source":"gps","state":"California"},"type":"Feature","geometry":{"type":"Point","coordinates":[-120.6538,39.3212]}},{"properties":{"climb_area":"Crack in the Ground","latitude":43.33258,"longitude":-120.676,"id":"a64w93wd3qv6","source":"gps","state":"Oregon"},"type":"Feature","geometry":{"type":"Point","coordinates":[-120.676,43.33258]}},{"properties":{"climb_area":"San Luis Obispo","latitude":35.3063,"longitude":-120.678,"id":"a64w9463i4s1","source":"gps","state":"California"},"type":"Feature","geometry":{"type":"Point","coordinates":[-120.678,35.3063]}},{"properties":{"climb_area":"Herring Creek Dome","latitude":38.6526,"longitude":-120.7032,"id":"a64w9495tqgw","source":"gps","state":"California"},"type":"Feature","geometry":{"type":"Point","coordinates":[-120.7032,38.6526]}},{"properties":{"climb_area":"Cosumnes River Gorge","latitude":38.6488,"longitude":-120.7066,"id":"a64w940qkcxi","source":"gps","state":"California"},"type":"Feature","geometry":{"type":"Point","coordinates":[-120.7066,38.6488]}},{"properties":{"climb_area":"Tieton River (23)","latitude":46.72462334,"longitude":-120.8096468,"id":"a64w9455egt5","source":"xy","state":"Washington"},"type":"Feature","geometry":{"type":"Point","coordinates":[-120.8096468,46.72462334]}},{"properties":{"climb_area":"The Badlands","latitude":43.98364,"longitude":-121.02434,"id":"a64w93x7x5uv","source":"gps","state":"Oregon"},"type":"Feature","geometry":{"type":"Point","coordinates":[-121.02434,43.98364]}},{"properties":{"climb_area":"Auburn Cliffs","latitude":38.9242,"longitude":-121.0789,"id":"a64w949uyu1i","source":"gps","state":"California"},"type":"Feature","geometry":{"type":"Point","coordinates":[-121.0789,38.9242]}},{"properties":{"climb_area":"Horsethief Butte (0)","latitude":45.64847471,"longitude":-121.0977575,"id":"a64w942felp6","source":"xy","state":"Washington"},"type":"Feature","geometry":{"type":"Point","coordinates":[-121.0977575,45.64847471]}},{"properties":{"climb_area":"Trout Creek (127)","latitude":44.80372017,"longitude":-121.1057011,"id":"a64w947gprxn","source":"xy","state":"Oregon"},"type":"Feature","geometry":{"type":"Point","coordinates":[-121.1057011,44.80372017]}},{"properties":{"climb_area":"Smith Rock (337)","latitude":44.3657,"longitude":-121.143,"id":"a64w9432953e","source":"gps","state":"Oregon"},"type":"Feature","geometry":{"type":"Point","coordinates":[-121.143,44.3657]}},{"properties":{"climb_area":"Willow Creek (12)","latitude":44.6448611,"longitude":-121.1609495,"id":"a64w943gjdb1","source":"xy","state":"Oregon"},"type":"Feature","geometry":{"type":"Point","coordinates":[-121.1609495,44.6448611]}},{"properties":{"climb_area":"Pinnacles National Monument","latitude":36.5004,"longitude":-121.202,"id":"a64w93vzl5pa","source":"gps","state":"California"},"type":"Feature","geometry":{"type":"Point","coordinates":[-121.202,36.5004]}},{"properties":{"climb_area":"Meca Flat (20)","latitude":44.75873099,"longitude":-121.2142358,"id":"a64w940j3bew","source":"xy","state":"Oregon"},"type":"Feature","geometry":{"type":"Point","coordinates":[-121.2142358,44.75873099]}},{"properties":{"climb_area":"Ramsy Cliff","latitude":44.75585032,"longitude":-121.2208614,"id":"a64w940tzkgt","source":"xy","state":"Oregon"},"type":"Feature","geometry":{"type":"Point","coordinates":[-121.2208614,44.75585032]}},{"properties":{"climb_area":"Wagon Caves","latitude":36.0714,"longitude":-121.3249,"id":"a64w941czwc6","source":"gps","state":"California"},"type":"Feature","geometry":{"type":"Point","coordinates":[-121.3249,36.0714]}},{"properties":{"climb_area":"North Cascades (11)","latitude":48.72979126,"longitude":-121.3335086,"id":"a64w93yxm1l6","source":"est","state":"Washington"},"type":"Feature","geometry":{"type":"Point","coordinates":[-121.3335086,48.72979126]}},{"properties":{"climb_area":"Meadowview Cliffs","latitude":43.99783601,"longitude":-121.384944,"id":"a64w93xawwk9","source":"gps","state":"Oregon"},"type":"Feature","geometry":{"type":"Point","coordinates":[-121.384944,43.99783601]}},{"properties":{"climb_area":"Widgi Creek","latitude":44.00603,"longitude":-121.38891,"id":"a64w93u7y7ls","source":"gps","state":"Oregon"},"type":"Feature","geometry":{"type":"Point","coordinates":[-121.38891,44.00603]}},{"properties":{"climb_area":"Big Sur","latitude":35.8386,"longitude":-121.4012,"id":"a64w93zshnul","source":"gps","state":"California"},"type":"Feature","geometry":{"type":"Point","coordinates":[-121.4012,35.8386]}},{"properties":{"climb_area":"Vulchar Rock (5)","latitude":45.39505963,"longitude":-121.4352068,"id":"a64w93ylo2jg","source":"xy","state":"Oregon"},"type":"Feature","geometry":{"type":"Point","coordinates":[-121.4352068,45.39505963]}},{"properties":{"climb_area":"LaPine Cliffs","latitude":43.50679621,"longitude":-121.4422566,"id":"a64w93w8c1bv","source":"xy","state":"Oregon"},"type":"Feature","geometry":{"type":"Point","coordinates":[-121.4422566,43.50679621]}},{"properties":{"climb_area":"Sisters Bouldering","latitude":44.36657,"longitude":-121.4494,"id":"a64w942edlo2","source":"xy","state":"Oregon"},"type":"Feature","geometry":{"type":"Point","coordinates":[-121.4494,44.36657]}},{"properties":{"climb_area":"Bulo Point (4)","latitude":45.37294662,"longitude":-121.473508,"id":"a64w949zo1gg","source":"xy","state":"Oregon"},"type":"Feature","geometry":{"type":"Point","coordinates":[-121.473508,45.37294662]}},{"properties":{"climb_area":"Mt. Adams (1)","latitude":46.21267819,"longitude":-121.4998375,"id":"a64w948owdy9","source":"xy","state":"Washington"},"type":"Feature","geometry":{"type":"Point","coordinates":[-121.4998375,46.21267819]}},{"properties":{"climb_area":"Sawmill Peak","latitude":39.81227,"longitude":-121.55862,"id":"a64w949y7e8c","source":"gps","state":"California"},"type":"Feature","geometry":{"type":"Point","coordinates":[-121.55862,39.81227]}},{"properties":{"climb_area":"Petes Pile","latitude":45.3995,"longitude":-121.5707,"id":"a64w93wcxtdf","source":"gps","state":"Oregon"},"type":"Feature","geometry":{"type":"Point","coordinates":[-121.5707,45.3995]}},{"properties":{"climb_area":"Green Ridge","latitude":44.405,"longitude":-121.57548,"id":"a64w947dmx3g","source":"gps","state":"Oregon"},"type":"Feature","geometry":{"type":"Point","coordinates":[-121.57548,44.405]}},{"properties":{"climb_area":"Index Town Walls (70)","latitude":47.81947059,"longitude":-121.5796868,"id":"a64w946ix73c","source":"xy","state":"Washington"},"type":"Feature","geometry":{"type":"Point","coordinates":[-121.5796868,47.81947059]}},{"properties":{"climb_area":"Shepards Tower (1)","latitude":44.60174425,"longitude":-121.6043038,"id":"a64w93xr3ycl","source":"xy","state":"Oregon"},"type":"Feature","geometry":{"type":"Point","coordinates":[-121.6043038,44.60174425]}},{"properties":{"climb_area":"Zeke's Wall","latitude":47.8502,"longitude":-121.6044,"id":"a64w93zw0dk8","source":"gps","state":"Washington"},"type":"Feature","geometry":{"type":"Point","coordinates":[-121.6044,47.8502]}},{"properties":{"climb_area":"No Name Rock","latitude":47.8115,"longitude":-121.622,"id":"a64w93txj03j","source":"gps","state":"Washington"},"type":"Feature","geometry":{"type":"Point","coordinates":[-121.622,47.8115]}},{"properties":{"climb_area":"Exit 38 / Deception Crags &amp; Mt Washington (26)","latitude":47.43191116,"longitude":-121.6574941,"id":"a64w93vusejb","source":"est","state":"Washington"},"type":"Feature","geometry":{"type":"Point","coordinates":[-121.6574941,47.43191116]}},{"properties":{"climb_area":"Mt. Hood (6)","latitude":45.3733,"longitude":-121.6957,"id":"a64w944bl4s9","source":"gps","state":"Oregon"},"type":"Feature","geometry":{"type":"Point","coordinates":[-121.6957,45.3733]}},{"properties":{"climb_area":"Exit 38/ Far Side (11)","latitude":47.44638087,"longitude":-121.7011509,"id":"a64w9443nwvt","source":"est","state":"Washington"},"type":"Feature","geometry":{"type":"Point","coordinates":[-121.7011509,47.44638087]}},{"properties":{"climb_area":"Exit 32 / Little Si (37)","latitude":47.46895252,"longitude":-121.7470727,"id":"a64w93vc9zbp","source":"est","state":"Washington"},"type":"Feature","geometry":{"type":"Point","coordinates":[-121.7470727,47.46895252]}},{"properties":{"climb_area":"Darrington (6)","latitude":48.08821734,"longitude":-121.7512777,"id":"a64w945hm7xb","source":"est","state":"Washington"},"type":"Feature","geometry":{"type":"Point","coordinates":[-121.7512777,48.08821734]}},{"properties":{"climb_area":"Mount Rainier (3)","latitude":46.85230291,"longitude":-121.75474,"id":"a64w9470onb7","source":"xy","state":"Washington"},"type":"Feature","geometry":{"type":"Point","coordinates":[-121.75474,46.85230291]}},{"properties":{"climb_area":"Mt. Jefferson (1)","latitude":44.67284386,"longitude":-121.7991086,"id":"a64w949182yb","source":"xy","state":"Oregon"},"type":"Feature","geometry":{"type":"Point","coordinates":[-121.7991086,44.67284386]}},{"properties":{"climb_area":"Sunol Regional Wilderness","latitude":37.5162,"longitude":-121.8305,"id":"a64w941xy7s6","source":"gps","state":"California"},"type":"Feature","geometry":{"type":"Point","coordinates":[-121.8305,37.5162]}},{"properties":{"climb_area":"Mt. Washington (1)","latitude":44.3323,"longitude":-121.8384,"id":"a64w93vcxhn8","source":"gps","state":"Oregon"},"type":"Feature","geometry":{"type":"Point","coordinates":[-121.8384,44.3323]}},{"properties":{"climb_area":"Three Fingered Jack (1)","latitude":44.47855401,"longitude":-121.8430705,"id":"a64w93zbyrco","source":"xy","state":"Oregon"},"type":"Feature","geometry":{"type":"Point","coordinates":[-121.8430705,44.47855401]}},{"properties":{"climb_area":"Williamson River Cliffs (3)","latitude":42.66585358,"longitude":-121.8571982,"id":"a64w941xp1t5","source":"xy","state":"Oregon"},"type":"Feature","geometry":{"type":"Point","coordinates":[-121.8571982,42.66585358]}},{"properties":{"climb_area":"Frenchs Dome","latitude":45.39788,"longitude":-121.86013,"id":"a64w93uq53u8","source":"gps","state":"Oregon"},"type":"Feature","geometry":{"type":"Point","coordinates":[-121.86013,45.39788]}},{"properties":{"climb_area":"Lower Guadalupe Rock","latitude":37.1864,"longitude":-121.8718,"id":"a64w93vip9rq","source":"gps","state":"California"},"type":"Feature","geometry":{"type":"Point","coordinates":[-121.8718,37.1864]}},{"properties":{"climb_area":"Bridge of the Gods Boulders (4)","latitude":45.66317074,"longitude":-121.9064505,"id":"a64w93yvfp43","source":"xy","state":"Washington"},"type":"Feature","geometry":{"type":"Point","coordinates":[-121.9064505,45.66317074]}},{"properties":{"climb_area":"Mount Diablo State Park","latitude":37.8817,"longitude":-121.9146,"id":"a64w93tke0r5","source":"gps","state":"California"},"type":"Feature","geometry":{"type":"Point","coordinates":[-121.9146,37.8817]}},{"properties":{"climb_area":"Salmon River Slab","latitude":45.2983,"longitude":-121.9382,"id":"a64w946j23rf","source":"gps","state":"Oregon"},"type":"Feature","geometry":{"type":"Point","coordinates":[-121.9382,45.2983]}},{"properties":{"climb_area":"Crab Town","latitude":36.5008,"longitude":-121.939,"id":"a64w9413qumo","source":"gps","state":"California"},"type":"Feature","geometry":{"type":"Point","coordinates":[-121.939,36.5008]}},{"properties":{"climb_area":"Sandy River Wall","latitude":45.29125556,"longitude":-121.94005,"id":"a64w93tz87md","source":"est","state":"Oregon"},"type":"Feature","geometry":{"type":"Point","coordinates":[-121.94005,45.29125556]}},{"properties":{"climb_area":"The Nut Tree Boulders","latitude":38.3767,"longitude":-121.9845,"id":"a64w93xuk3r0","source":"gps","state":"California"},"type":"Feature","geometry":{"type":"Point","coordinates":[-121.9845,38.3767]}},{"properties":{"climb_area":"Beacon Rock (15)","latitude":45.62719547,"longitude":-122.0206012,"id":"a64w93vxln7a","source":"xy","state":"Washington"},"type":"Feature","geometry":{"type":"Point","coordinates":[-122.0206012,45.62719547]}},{"properties":{"climb_area":"Wilkerson Cliffs","latitude":47.10206173,"longitude":-122.0241056,"id":"a64w93xuogul","source":"xy","state":"Washington"},"type":"Feature","geometry":{"type":"Point","coordinates":[-122.0241056,47.10206173]}},{"properties":{"climb_area":"Putah Creek","latitude":38.5174,"longitude":-122.056,"id":"a64w93wdejl4","source":"gps","state":"California"},"type":"Feature","geometry":{"type":"Point","coordinates":[-122.056,38.5174]}},{"properties":{"climb_area":"Nick's Cliff","latitude":47.51332713,"longitude":-122.0793696,"id":"a64w94675tgc","source":"xy","state":"Wahshington"},"type":"Feature","geometry":{"type":"Point","coordinates":[-122.0793696,47.51332713]}},{"properties":{"climb_area":"Marymore Park","latitude":47.65108205,"longitude":-122.0994737,"id":"a64w93zey0qv","source":"xy","state":"Washington"},"type":"Feature","geometry":{"type":"Point","coordinates":[-122.0994737,47.65108205]}},{"properties":{"climb_area":"Castle Rock State Park","latitude":37.2366,"longitude":-122.105,"id":"a64w93y5o6an","source":"gps","state":"California"},"type":"Feature","geometry":{"type":"Point","coordinates":[-122.105,37.2366]}},{"properties":{"climb_area":"Skyline Slabs","latitude":37.2934,"longitude":-122.1613,"id":"a64w947rlzy7","source":"gps","state":"California"},"type":"Feature","geometry":{"type":"Point","coordinates":[-122.1613,37.2934]}},{"properties":{"climb_area":"Panther Beach","latitude":36.993,"longitude":-122.1705,"id":"a64w944nlknu","source":"gps","state":"California"},"type":"Feature","geometry":{"type":"Point","coordinates":[-122.1705,36.993]}},{"properties":{"climb_area":"East Hill Climbing Wall","latitude":47.38604479,"longitude":-122.1871227,"id":"a64w93yw54oz","source":"xy","state":"Washington"},"type":"Feature","geometry":{"type":"Point","coordinates":[-122.1871227,47.38604479]}},{"properties":{"climb_area":"Mt. Shasta","latitude":41.4092,"longitude":-122.1949,"id":"a64w945lknow","source":"gps","state":"California"},"type":"Feature","geometry":{"type":"Point","coordinates":[-122.1949,41.4092]}},{"properties":{"climb_area":"Lake Temescal Park","latitude":37.8504,"longitude":-122.2398,"id":"a64w947d8cdz","source":"gps","state":"California"},"type":"Feature","geometry":{"type":"Point","coordinates":[-122.2398,37.8504]}},{"properties":{"climb_area":"Grizzly Peak Boulders","latitude":37.8823,"longitude":-122.2419,"id":"a64w946dmjb3","source":"gps","state":"California"},"type":"Feature","geometry":{"type":"Point","coordinates":[-122.2419,37.8823]}},{"properties":{"climb_area":"8-Mile Boulders","latitude":41.342,"longitude":-122.261,"id":"a64w946d7r53","source":"gps","state":"California"},"type":"Feature","geometry":{"type":"Point","coordinates":[-122.261,41.342]}},{"properties":{"climb_area":"Remillard Park","latitude":37.8923,"longitude":-122.2611,"id":"a64w93ypt8s1","source":"gps","state":"California"},"type":"Feature","geometry":{"type":"Point","coordinates":[-122.2611,37.8923]}},{"properties":{"climb_area":"Cragmont Park","latitude":37.892,"longitude":-122.2635,"id":"a64w943h1s9g","source":"gps","state":"California"},"type":"Feature","geometry":{"type":"Point","coordinates":[-122.2635,37.892]}},{"properties":{"climb_area":"Indian Rock","latitude":37.8922,"longitude":-122.2728,"id":"a64w9405ebg5","source":"gps","state":"California"},"type":"Feature","geometry":{"type":"Point","coordinates":[-122.2728,37.8922]}},{"properties":{"climb_area":"Great Stone Face Rock Park","latitude":37.8967,"longitude":-122.2783,"id":"a64w941m5hzz","source":"gps","state":"California"},"type":"Feature","geometry":{"type":"Point","coordinates":[-122.2783,37.8967]}},{"properties":{"climb_area":"U of W Tower (0)","latitude":47.6567351,"longitude":-122.2895242,"id":"a64w9466fmyv","source":"est","state":"Washington"},"type":"Feature","geometry":{"type":"Point","coordinates":[-122.2895242,47.6567351]}},{"properties":{"climb_area":"Flagstone","latitude":43.98575,"longitude":-122.29967,"id":"a64w943w7c0e","source":"gps","state":"Oregon"},"type":"Feature","geometry":{"type":"Point","coordinates":[-122.29967,43.98575]}},{"properties":{"climb_area":"Castle Crags","latitude":41.1756,"longitude":-122.341,"id":"a64w93zqmpu0","source":"gps","state":"California"},"type":"Feature","geometry":{"type":"Point","coordinates":[-122.341,41.1756]}},{"properties":{"climb_area":"Menagerie Wilderness","latitude":44.44211,"longitude":-122.3513,"id":"a64w93whk8bk","source":"gps","state":"Oregon"},"type":"Feature","geometry":{"type":"Point","coordinates":[-122.3513,44.44211]}},{"properties":{"climb_area":"Broughton Bluff (38)","latitude":45.5414,"longitude":-122.38,"id":"a64w945t6v4l","source":"gps","state":"Oregon"},"type":"Feature","geometry":{"type":"Point","coordinates":[-122.38,45.5414]}},{"properties":{"climb_area":"McKinley Rock","latitude":43.29353,"longitude":-122.39486,"id":"a64w949pm5x8","source":"gps","state":"Oregon"},"type":"Feature","geometry":{"type":"Point","coordinates":[-122.39486,43.29353]}},{"properties":{"climb_area":"Fossil Rock","latitude":46.82624413,"longitude":-122.4261591,"id":"a64w93ynv67a","source":"est","state":"Washington"},"type":"Feature","geometry":{"type":"Point","coordinates":[-122.4261591,46.82624413]}},{"properties":{"climb_area":"Beaver Street Wall","latitude":37.7655,"longitude":-122.4368,"id":"a64w9464u9tu","source":"gps","state":"California"},"type":"Feature","geometry":{"type":"Point","coordinates":[-122.4368,37.7655]}},{"properties":{"climb_area":"Glen Canyon","latitude":37.7408,"longitude":-122.4398,"id":"a64w942vyscx","source":"gps","state":"California"},"type":"Feature","geometry":{"type":"Point","coordinates":[-122.4398,37.7408]}},{"properties":{"climb_area":"Spanway Park Tower","latitude":47.122795,"longitude":-122.4425558,"id":"a64w93w1z7jj","source":"xy","state":"Washington"},"type":"Feature","geometry":{"type":"Point","coordinates":[-122.4425558,47.122795]}},{"properties":{"climb_area":"Ring Mountain","latitude":37.9095,"longitude":-122.4828,"id":"a64w93vajtkz","source":"gps","state":"California"},"type":"Feature","geometry":{"type":"Point","coordinates":[-122.4828,37.9095]}},{"properties":{"climb_area":"Carver Cliffs (19)","latitude":45.3909,"longitude":-122.498,"id":"a64w93zt3pn5","source":"gps","state":"Oregon"},"type":"Feature","geometry":{"type":"Point","coordinates":[-122.498,45.3909]}},{"properties":{"climb_area":"Sugarloaf Ridge State Park","latitude":38.443,"longitude":-122.5052,"id":"a64w93x3g4qm","source":"gps","state":"California"},"type":"Feature","geometry":{"type":"Point","coordinates":[-122.5052,38.443]}},{"properties":{"climb_area":"Rocky Butte","latitude":45.55135,"longitude":-122.56582,"id":"a64w948ypdu5","source":"gps","state":"Oregon"},"type":"Feature","geometry":{"type":"Point","coordinates":[-122.56582,45.55135]}},{"properties":{"climb_area":"Rocky Butte (11)","latitude":45.54684101,"longitude":-122.5660315,"id":"a64w93zgp6u0","source":"xy","state":"Oregon"},"type":"Feature","geometry":{"type":"Point","coordinates":[-122.5660315,45.54684101]}},{"properties":{"climb_area":"Mount Tamalpais","latitude":37.9291,"longitude":-122.578,"id":"a64w942ddt5f","source":"gps","state":"California"},"type":"Feature","geometry":{"type":"Point","coordinates":[-122.578,37.9291]}},{"properties":{"climb_area":"SF Bay Area (425)","latitude":37.96168502,"longitude":-122.5803092,"id":"a64w945jujed","source":"est","state":"California"},"type":"Feature","geometry":{"type":"Point","coordinates":[-122.5803092,37.96168502]}},{"properties":{"climb_area":"Waterboard City Park","latitude":45.34845,"longitude":-122.61135,"id":"a64w946yf4ws","source":"gps","state":"Oregon"},"type":"Feature","geometry":{"type":"Point","coordinates":[-122.61135,45.34845]}},{"properties":{"climb_area":"Mount Erie","latitude":48.454047,"longitude":-122.625646,"id":"a64w93xpnex2","source":"gps","state":"Washington"},"type":"Feature","geometry":{"type":"Point","coordinates":[-122.625646,48.454047]}},{"properties":{"climb_area":"Mickey's Beach","latitude":37.8886,"longitude":-122.6327,"id":"a64w940fd4k3","source":"gps","state":"California"},"type":"Feature","geometry":{"type":"Point","coordinates":[-122.6327,37.8886]}},{"properties":{"climb_area":"Mount St. Helena","latitude":38.6706,"longitude":-122.6333,"id":"a64w93vta5s1","source":"gps","state":"California"},"type":"Feature","geometry":{"type":"Point","coordinates":[-122.6333,38.6706]}},{"properties":{"climb_area":"Ashland Boulders","latitude":42.19042,"longitude":-122.72602,"id":"a64w941taa2b","source":"gps","state":"Oregon"},"type":"Feature","geometry":{"type":"Point","coordinates":[-122.72602,42.19042]}},{"properties":{"climb_area":"Nairn Cliffs","latitude":50.29651506,"longitude":-122.8322907,"id":"a64w93z5anrw","source":"est","state":"BC"},"type":"Feature","geometry":{"type":"Point","coordinates":[-122.8322907,50.29651506]}},{"properties":{"climb_area":"Rattlesnake","latitude":42.6515,"longitude":-122.8856,"id":"a64w93u8x9xp","source":"gps","state":"Oregon"},"type":"Feature","geometry":{"type":"Point","coordinates":[-122.8856,42.6515]}},{"properties":{"climb_area":"Whistler Cliffs","latitude":50.10309453,"longitude":-122.9786985,"id":"a64w9467geaq","source":"est","state":"BC"},"type":"Feature","geometry":{"type":"Point","coordinates":[-122.9786985,50.10309453]}},{"properties":{"climb_area":"Squaw Cliff Area","latitude":38.8032,"longitude":-123.0132,"id":"a64w942k492h","source":"gps","state":"California"},"type":"Feature","geometry":{"type":"Point","coordinates":[-123.0132,38.8032]}},{"properties":{"climb_area":"Minto Rail Wall","latitude":44.92897,"longitude":-123.05022,"id":"a64w949h85mt","source":"gps","state":"Oregon"},"type":"Feature","geometry":{"type":"Point","coordinates":[-123.05022,44.92897]}},{"properties":{"climb_area":"Dry Creek Sea Crag","latitude":38.369,"longitude":-123.0737,"id":"a64w93unj0n5","source":"gps","state":"California"},"type":"Feature","geometry":{"type":"Point","coordinates":[-123.0737,38.369]}},{"properties":{"climb_area":"Goat Rock State Beach","latitude":38.4434,"longitude":-123.087,"id":"a64w93z7wghu","source":"gps","state":"California"},"type":"Feature","geometry":{"type":"Point","coordinates":[-123.087,38.4434]}},{"properties":{"climb_area":"Skinners Butte Columns","latitude":44.059019,"longitude":-123.097004,"id":"a64w948pe6mi","source":"gps","state":"Oregon"},"type":"Feature","geometry":{"type":"Point","coordinates":[-123.097004,44.059019]}},{"properties":{"climb_area":"Sunset Boulders Goat Rock","latitude":38.42922,"longitude":-123.11591,"id":"a64w93zzb8ar","source":"gps","state":"California"},"type":"Feature","geometry":{"type":"Point","coordinates":[-123.11591,38.42922]}},{"properties":{"climb_area":"Twin Coves","latitude":38.4493,"longitude":-123.1179,"id":"a64w940m4s73","source":"gps","state":"California"},"type":"Feature","geometry":{"type":"Point","coordinates":[-123.1179,38.4493]}},{"properties":{"climb_area":"Climbing Area","latitude":50.03334384,"longitude":-123.12137,"id":"a64w93wl6uqb","source":"est","state":"BC"},"type":"Feature","geometry":{"type":"Point","coordinates":[-123.12137,50.03334384]}},{"properties":{"climb_area":"Super Slab","latitude":38.4548,"longitude":-123.1325,"id":"a64w947akvw4","source":"gps","state":"California"},"type":"Feature","geometry":{"type":"Point","coordinates":[-123.1325,38.4548]}},{"properties":{"climb_area":"The Brothers","latitude":47.65453,"longitude":-123.14077,"id":"a64w93vxamn8","source":"gps","state":"Washington"},"type":"Feature","geometry":{"type":"Point","coordinates":[-123.14077,47.65453]}},{"properties":{"climb_area":"Squamish","latitude":49.68333387,"longitude":-123.1429237,"id":"a64w93x2wk5n","source":"est","state":"BC"},"type":"Feature","geometry":{"type":"Point","coordinates":[-123.1429237,49.68333387]}},{"properties":{"climb_area":"Mt Veiw Road Quarry","latitude":44.3818,"longitude":-123.15222,"id":"a64w948z1esm","source":"gps","state":"Oregon"},"type":"Feature","geometry":{"type":"Point","coordinates":[-123.15222,44.3818]}},{"properties":{"climb_area":"Black Rock Spire","latitude":39.4585,"longitude":-123.20972,"id":"a64w93z86agg","source":"gps","state":"California"},"type":"Feature","geometry":{"type":"Point","coordinates":[-123.20972,39.4585]}},{"properties":{"climb_area":"Fort Ross","latitude":38.5361,"longitude":-123.2415,"id":"a64w93tuop9z","source":"gps","state":"California"},"type":"Feature","geometry":{"type":"Point","coordinates":[-123.2415,38.5361]}},{"properties":{"climb_area":"P-IKE Boulders (4)","latitude":45.3715,"longitude":-123.2617,"id":"a64w9475as11","source":"gps","state":"Oregon"},"type":"Feature","geometry":{"type":"Point","coordinates":[-123.2617,45.3715]}},{"properties":{"climb_area":"Olympic National Park (2)","latitude":47.69563647,"longitude":-123.3021652,"id":"a64w93zhopth","source":"est","state":"Washington"},"type":"Feature","geometry":{"type":"Point","coordinates":[-123.3021652,47.69563647]}},{"properties":{"climb_area":"Salt Point State Park","latitude":38.5706,"longitude":-123.3209,"id":"a64w949pzjw5","source":"gps","state":"California"},"type":"Feature","geometry":{"type":"Point","coordinates":[-123.3209,38.5706]}},{"properties":{"climb_area":"Redwood Coast (83)","latitude":39.47206332,"longitude":-123.4778754,"id":"a64w946q8wo4","source":"est","state":"California"},"type":"Feature","geometry":{"type":"Point","coordinates":[-123.4778754,39.47206332]}},{"properties":{"climb_area":"The Callahans","latitude":43.215,"longitude":-123.5586,"id":"a64w9462t7r8","source":"gps","state":"Oregon"},"type":"Feature","geometry":{"type":"Point","coordinates":[-123.5586,43.215]}},{"properties":{"climb_area":"Callahans","latitude":43.18867,"longitude":-123.58337,"id":"a64w947a6twn","source":"gps","state":"Oregon"},"type":"Feature","geometry":{"type":"Point","coordinates":[-123.58337,43.18867]}},{"properties":{"climb_area":"Land of the Lost","latitude":40.855466,"longitude":-123.71333,"id":"a64w93w5wuof","source":"gps","state":"California"},"type":"Feature","geometry":{"type":"Point","coordinates":[-123.71333,40.855466]}},{"properties":{"climb_area":"Harlen Roadside Quarry","latitude":44.54965,"longitude":-123.72296,"id":"a64w93xmlxuy","source":"gps","state":"Oregon"},"type":"Feature","geometry":{"type":"Point","coordinates":[-123.72296,44.54965]}},{"properties":{"climb_area":"Depoe Bay Viewpoint Cliffs (3)","latitude":44.8291,"longitude":-124.0647,"id":"a64w944ziynu","source":"gps","state":"Oregon"},"type":"Feature","geometry":{"type":"Point","coordinates":[-124.0647,44.8291]}},{"properties":{"climb_area":"Lost Rocks","latitude":41.5196,"longitude":-124.0815,"id":"a64w93u26of8","source":"gps","state":"California"},"type":"Feature","geometry":{"type":"Point","coordinates":[-124.0815,41.5196]}},{"properties":{"climb_area":"Promontory","latitude":41.6065,"longitude":-124.1051,"id":"a64w93ypxzmk","source":"gps","state":"California"},"type":"Feature","geometry":{"type":"Point","coordinates":[-124.1051,41.6065]}},{"properties":{"climb_area":"Moonstone Beach","latitude":41.03,"longitude":-124.1125,"id":"a64w93xyujoo","source":"gps","state":"California"},"type":"Feature","geometry":{"type":"Point","coordinates":[-124.1125,41.03]}},{"properties":{"climb_area":"Footsteps Rock","latitude":41.6155,"longitude":-124.115,"id":"a64w93w0ov78","source":"gps","state":"California"},"type":"Feature","geometry":{"type":"Point","coordinates":[-124.115,41.6155]}},{"properties":{"climb_area":"Houda Point","latitude":41.0353,"longitude":-124.1192,"id":"a64w93yhtfnq","source":"gps","state":"California"},"type":"Feature","geometry":{"type":"Point","coordinates":[-124.1192,41.0353]}},{"properties":{"climb_area":"Patrick's Point State Park","latitude":41.1384,"longitude":-124.1562,"id":"a64w93ty6imh","source":"gps","state":"California"},"type":"Feature","geometry":{"type":"Point","coordinates":[-124.1562,41.1384]}},{"properties":{"climb_area":"Anchorage","latitude":61.2134,"longitude":-149.8672,"id":"a64w93u1uhdm","source":"gps","state":"Alaska"},"type":"Feature","geometry":{"type":"Point","coordinates":[-149.8672,61.2134]}},{"properties":{"climb_area":"Alaska","latitude":64.7366,"longitude":-150.7324,"id":"a64w93vmyoix","source":"gps","state":"Alaska"},"type":"Feature","geometry":{"type":"Point","coordinates":[-150.7324,64.7366]}},{"properties":{"climb_area":"Denali NP","latitude":63.0649,"longitude":-151.1719,"id":"a64w9495cgo4","source":"gps","state":"Alaska"},"type":"Feature","geometry":{"type":"Point","coordinates":[-151.1719,63.0649]}},{"properties":{"climb_area":"Acadia National Park","latitude":44.3396,"longitude":-68.2581,"id":"a64w93ttlfdw","source":"gps","state":"Maine"},"type":"Feature","geometry":{"type":"Point","coordinates":[-68.2581,44.3396]}},{"properties":{"climb_area":"Katahdin","latitude":45.9045,"longitude":-68.9239,"id":"a64w93v3uip2","source":"gps","state":"Maine"},"type":"Feature","geometry":{"type":"Point","coordinates":[-68.9239,45.9045]}},{"properties":{"climb_area":"Maine","latitude":45.1511,"longitude":-69.1699,"id":"a64w941xqrno","source":"gps","state":"Maine"},"type":"Feature","geometry":{"type":"Point","coordinates":[-69.1699,45.1511]}},{"properties":{"climb_area":"Bradbury Mt. State Park","latitude":43.9002,"longitude":-70.1795,"id":"a64w93vmtwnv","source":"gps","state":"Maine"},"type":"Feature","geometry":{"type":"Point","coordinates":[-70.1795,43.9002]}},{"properties":{"climb_area":"Stage Fort Park","latitude":42.3623,"longitude":-70.4067,"id":"a64w946g0jnu","source":"gps","state":"Massachusetts"},"type":"Feature","geometry":{"type":"Point","coordinates":[-70.4067,42.3623]}},{"properties":{"climb_area":"Redrock","latitude":42.37,"longitude":-70.4366,"id":"a64w93wg7aa4","source":"gps","state":"Massachusetts"},"type":"Feature","geometry":{"type":"Point","coordinates":[-70.4366,42.37]}},{"properties":{"climb_area":"Shagg Crag","latitude":44.4237,"longitude":-70.5309,"id":"a64w93zdgku2","source":"gps","state":"Maine"},"type":"Feature","geometry":{"type":"Point","coordinates":[-70.5309,44.4237]}},{"properties":{"climb_area":"Lynn Woods","latitude":42.2866,"longitude":-70.5906,"id":"a64w940avhj5","source":"gps","state":"Massachusetts"},"type":"Feature","geometry":{"type":"Point","coordinates":[-70.5906,42.2866]}},{"properties":{"climb_area":"Nubble Lighthouse","latitude":43.1649,"longitude":-70.5932,"id":"a64w9441sjqf","source":"gps","state":"Maine"},"type":"Feature","geometry":{"type":"Point","coordinates":[-70.5932,43.1649]}},{"properties":{"climb_area":"Jockey Cap","latitude":44.0217,"longitude":-70.9624,"id":"a64w93vxnyai","source":"gps","state":"Maine"},"type":"Feature","geometry":{"type":"Point","coordinates":[-70.9624,44.0217]}},{"properties":{"climb_area":"Wild River Crags (aka Evans Notch)","latitude":44.3278,"longitude":-71.0218,"id":"a64w93ubcakc","source":"gps","state":"New Hampshire"},"type":"Feature","geometry":{"type":"Point","coordinates":[-71.0218,44.3278]}},{"properties":{"climb_area":"Rattlesnake Rocks","latitude":42.1392,"longitude":-71.0234,"id":"a64w948kprm8","source":"gps","state":"Massachusetts"},"type":"Feature","geometry":{"type":"Point","coordinates":[-71.0234,42.1392]}},{"properties":{"climb_area":"Mt. Madison","latitude":42.1987,"longitude":-71.0551,"id":"a64w940rjmvq","source":"gps","state":"Massachusetts"},"type":"Feature","geometry":{"type":"Point","coordinates":[-71.0551,42.1987]}},{"properties":{"climb_area":"Westport River","latitude":41.5162,"longitude":-71.0731,"id":"a64w93u50r7k","source":"gps","state":"Massachusetts"},"type":"Feature","geometry":{"type":"Point","coordinates":[-71.0731,41.5162]}},{"properties":{"climb_area":"Denrock","latitude":42.4081,"longitude":-71.0819,"id":"a64w947tgop4","source":"gps","state":"Massachusetts"},"type":"Feature","geometry":{"type":"Point","coordinates":[-71.0819,42.4081]}},{"properties":{"climb_area":"Jenkins Boulder","latitude":42.6191,"longitude":-71.0963,"id":"a64w93xktbnh","source":"gps","state":"Massachusetts"},"type":"Feature","geometry":{"type":"Point","coordinates":[-71.0963,42.6191]}},{"properties":{"climb_area":"Route 9 boulder","latitude":42.1912,"longitude":-71.1106,"id":"a64w93wau0om","source":"gps","state":"Massachusetts"},"type":"Feature","geometry":{"type":"Point","coordinates":[-71.1106,42.1912]}},{"properties":{"climb_area":"Cathedral Ledge","latitude":44.064,"longitude":-71.1663,"id":"a64w93wyvyzl","source":"gps","state":"New Hampshire"},"type":"Feature","geometry":{"type":"Point","coordinates":[-71.1663,44.064]}},{"properties":{"climb_area":"Whitehorse Ledge","latitude":44.0545,"longitude":-71.1668,"id":"a64w93ulokf3","source":"gps","state":"New Hampshire"},"type":"Feature","geometry":{"type":"Point","coordinates":[-71.1668,44.0545]}},{"properties":{"climb_area":"Humphrey's Ledge","latitude":44.0705,"longitude":-71.1711,"id":"a64w943nhkc5","source":"gps","state":"New Hampshire"},"type":"Feature","geometry":{"type":"Point","coordinates":[-71.1711,44.0705]}},{"properties":{"climb_area":"Pawtuckaway","latitude":43.1143,"longitude":-71.1773,"id":"a64w940flrj8","source":"gps","state":"New Hampshire"},"type":"Feature","geometry":{"type":"Point","coordinates":[-71.1773,43.1143]}},{"properties":{"climb_area":"Bates Boulder aka Fairy Rock","latitude":42.1872,"longitude":-71.186,"id":"a64w9479yecd","source":"gps","state":"Massachusetts"},"type":"Feature","geometry":{"type":"Point","coordinates":[-71.186,42.1872]}},{"properties":{"climb_area":"Quincy Quarries","latitude":42.1463,"longitude":-71.2099,"id":"a64w948b7pes","source":"gps","state":"Massachusetts"},"type":"Feature","geometry":{"type":"Point","coordinates":[-71.2099,42.1463]}},{"properties":{"climb_area":"Sundown Ledge","latitude":44.005,"longitude":-71.2393,"id":"a64w948ndfv5","source":"gps","state":"New Hampshire"},"type":"Feature","geometry":{"type":"Point","coordinates":[-71.2393,44.005]}},{"properties":{"climb_area":"Rainbow Slabs","latitude":44.0209,"longitude":-71.2561,"id":"a64w93xchheh","source":"gps","state":"New Hampshire"},"type":"Feature","geometry":{"type":"Point","coordinates":[-71.2561,44.0209]}},{"properties":{"climb_area":"Lincoln Woods","latitude":41.8975,"longitude":-71.4339,"id":"a64w9442tzva","source":"gps","state":"Rhode Island"},"type":"Feature","geometry":{"type":"Point","coordinates":[-71.4339,41.8975]}},{"properties":{"climb_area":"Vermont","latitude":43.5963,"longitude":-71.543,"id":"a64w93ytv31g","source":"gps","state":"Vermont"},"type":"Feature","geometry":{"type":"Point","coordinates":[-71.543,43.5963]}},{"properties":{"climb_area":"Echo Crag","latitude":44.1777,"longitude":-71.6891,"id":"a64w93wt3abc","source":"gps","state":"New Hampshire"},"type":"Feature","geometry":{"type":"Point","coordinates":[-71.6891,44.1777]}},{"properties":{"climb_area":"Cannon Cliff","latitude":44.1568,"longitude":-71.6986,"id":"a64w944rkec5","source":"gps","state":"New Hampshire"},"type":"Feature","geometry":{"type":"Point","coordinates":[-71.6986,44.1568]}},{"properties":{"climb_area":"New Hampshire","latitude":43.5804,"longitude":-71.7188,"id":"a64w9466omgf","source":"gps","state":"New Hampshire"},"type":"Feature","geometry":{"type":"Point","coordinates":[-71.7188,43.5804]}},{"properties":{"climb_area":"Rumney Rate","latitude":43.8021,"longitude":-71.8367,"id":"a64w948h0xro","source":"gps","state":"New Hampshire"},"type":"Feature","geometry":{"type":"Point","coordinates":[-71.8367,43.8021]}},{"properties":{"climb_area":"Rose Ledge","latitude":42.6105,"longitude":-72.4711,"id":"a64w93w1n4lu","source":"gps","state":"Massachusetts"},"type":"Feature","geometry":{"type":"Point","coordinates":[-72.4711,42.6105]}},{"properties":{"climb_area":"Deer Leap","latitude":43.6652,"longitude":-72.833,"id":"a64w946gatqp","source":"gps","state":"Vermont"},"type":"Feature","geometry":{"type":"Point","coordinates":[-72.833,43.6652]}},{"properties":{"climb_area":"Bolton Area","latitude":44.3779,"longitude":-72.8874,"id":"a64w93yxls51","source":"gps","state":"Vermont"},"type":"Feature","geometry":{"type":"Point","coordinates":[-72.8874,44.3779]}},{"properties":{"climb_area":"Massachusetts","latitude":42.6824,"longitude":-73.2239,"id":"a64w9445qt91","source":"gps","state":"Massachusetts"},"type":"Feature","geometry":{"type":"Point","coordinates":[-73.2239,42.6824]}},{"properties":{"climb_area":"New York City","latitude":40.7522,"longitude":-73.9854,"id":"a64w94a1bssg","source":"gps","state":"New York"},"type":"Feature","geometry":{"type":"Point","coordinates":[-73.9854,40.7522]}},{"properties":{"climb_area":"The Gunks","latitude":41.736,"longitude":-74.191,"id":"a64w947euru1","source":"gps","state":"New York"},"type":"Feature","geometry":{"type":"Point","coordinates":[-74.191,41.736]}},{"properties":{"climb_area":"New York","latitude":41.9677,"longitude":-74.4434,"id":"a64w949vfpdp","source":"gps","state":"New York"},"type":"Feature","geometry":{"type":"Point","coordinates":[-74.4434,41.9677]}},{"properties":{"climb_area":"Little Falls","latitude":43.0408,"longitude":-74.8567,"id":"a64w942feceo","source":"gps","state":"New York"},"type":"Feature","geometry":{"type":"Point","coordinates":[-74.8567,43.0408]}},{"properties":{"climb_area":"Ralph Stover (High Rocks) State Park","latitude":40.4344,"longitude":-75.0986,"id":"a64w93zwcvd4","source":"gps","state":"Pennsylvania"},"type":"Feature","geometry":{"type":"Point","coordinates":[-75.0986,40.4344]}},{"properties":{"climb_area":"Chickies Rock","latitude":40.0516,"longitude":-76.525,"id":"a64w93zvn88z","source":"gps","state":"Pennsylvania"},"type":"Feature","geometry":{"type":"Point","coordinates":[-76.525,40.0516]}},{"properties":{"climb_area":"Pennsylvania","latitude":40.2774,"longitude":-76.8741,"id":"a64w93ys8som","source":"gps","state":"Pennsylvania"},"type":"Feature","geometry":{"type":"Point","coordinates":[-76.8741,40.2774]}},{"properties":{"climb_area":"Whiskey Springs","latitude":40.0959,"longitude":-77.1326,"id":"a64w940tyj4x","source":"gps","state":"Pennsylvania"},"type":"Feature","geometry":{"type":"Point","coordinates":[-77.1326,40.0959]}},{"properties":{"climb_area":"Great Falls","latitude":38.9923,"longitude":-77.249,"id":"a64w93ysd4dk","source":"gps","state":"Virginia"},"type":"Feature","geometry":{"type":"Point","coordinates":[-77.249,38.9923]}},{"properties":{"climb_area":"Harper's Ferry","latitude":39.3246,"longitude":-77.7255,"id":"a64w93znfxxy","source":"gps","state":"West Virginia"},"type":"Feature","geometry":{"type":"Point","coordinates":[-77.7255,39.3246]}},{"properties":{"climb_area":"Crescent Rocks","latitude":39.1416,"longitude":-77.8241,"id":"a64w93wo8zdq","source":"gps","state":"Virginia"},"type":"Feature","geometry":{"type":"Point","coordinates":[-77.8241,39.1416]}},{"properties":{"climb_area":"Elizabeth Furnace","latitude":38.9418,"longitude":-78.3004,"id":"a64w940dk4d5","source":"gps","state":"Virginia"},"type":"Feature","geometry":{"type":"Point","coordinates":[-78.3004,38.9418]}},{"properties":{"climb_area":"Virginia","latitude":37.6142,"longitude":-78.5083,"id":"a64w949quogz","source":"gps","state":"Virginia"},"type":"Feature","geometry":{"type":"Point","coordinates":[-78.5083,37.6142]}},{"properties":{"climb_area":"Hidden Rocks R","latitude":38.4513,"longitude":-79.1162,"id":"a64w941sw7q6","source":"gps","state":"Virginia"},"type":"Feature","geometry":{"type":"Point","coordinates":[-79.1162,38.4513]}},{"properties":{"climb_area":"North Carolina","latitude":35.6037,"longitude":-79.2773,"id":"a64w93vmnira","source":"gps","state":"North Carolina"},"type":"Feature","geometry":{"type":"Point","coordinates":[-79.2773,35.6037]}},{"properties":{"climb_area":"Franklin Gorge","latitude":38.648,"longitude":-79.3282,"id":"a64w943t38q5","source":"gps","state":"West Virginia"},"type":"Feature","geometry":{"type":"Point","coordinates":[-79.3282,38.648]}},{"properties":{"climb_area":"Seneca Rocks","latitude":38.8338,"longitude":-79.3663,"id":"a64w9457e818","source":"gps","state":"West Virginia"},"type":"Feature","geometry":{"type":"Point","coordinates":[-79.3663,38.8338]}},{"properties":{"climb_area":"Breakneck","latitude":40.0323,"longitude":-79.5407,"id":"a64w9439dish","source":"gps","state":"Pennsylvania"},"type":"Feature","geometry":{"type":"Point","coordinates":[-79.5407,40.0323]}},{"properties":{"climb_area":"Moore's Wall","latitude":36.3979,"longitude":-80.2917,"id":"a64w941etdr6","source":"gps","state":"North Carolina"},"type":"Feature","geometry":{"type":"Point","coordinates":[-80.2917,36.3979]}},{"properties":{"climb_area":"Pilot Mountain","latitude":36.3402,"longitude":-80.4808,"id":"a64w941ssv8i","source":"gps","state":"North Carolina"},"type":"Feature","geometry":{"type":"Point","coordinates":[-80.4808,36.3402]}},{"properties":{"climb_area":"Stone Mountain","latitude":36.3916,"longitude":-81.0473,"id":"a64w93zttk1x","source":"gps","state":"North Carolina"},"type":"Feature","geometry":{"type":"Point","coordinates":[-81.0473,36.3916]}},{"properties":{"climb_area":"New River Gorge","latitude":38.0724,"longitude":-81.0812,"id":"a64w944zklr7","source":"gps","state":"West Virginia"},"type":"Feature","geometry":{"type":"Point","coordinates":[-81.0812,38.0724]}},{"properties":{"climb_area":"West Virginia","latitude":38.0692,"longitude":-81.0812,"id":"a64w93wg323f","source":"gps","state":"West Virginia"},"type":"Feature","geometry":{"type":"Point","coordinates":[-81.0812,38.0692]}},{"properties":{"climb_area":"Crowders Mountain Rate","latitude":35.2404,"longitude":-81.2694,"id":"a64w93vk2kru","source":"gps","state":"North Carolina"},"type":"Feature","geometry":{"type":"Point","coordinates":[-81.2694,35.2404]}},{"properties":{"climb_area":"Chippewa Creek","latitude":41.3205,"longitude":-81.6182,"id":"a64w941tdkj6","source":"gps","state":"Ohio"},"type":"Feature","geometry":{"type":"Point","coordinates":[-81.6182,41.3205]}},{"properties":{"climb_area":"Whipps Ledges","latitude":41.2213,"longitude":-81.6995,"id":"a64w942uicic","source":"gps","state":"Ohio"},"type":"Feature","geometry":{"type":"Point","coordinates":[-81.6995,41.2213]}},{"properties":{"climb_area":"Ship Rock Rate","latitude":36.099,"longitude":-81.7815,"id":"a64w941piw06","source":"gps","state":"North Carolina"},"type":"Feature","geometry":{"type":"Point","coordinates":[-81.7815,36.099]}},{"properties":{"climb_area":"Linville Gorge","latitude":35.8042,"longitude":-82.096,"id":"a64w9404hiyv","source":"gps","state":"North Carolina"},"type":"Feature","geometry":{"type":"Point","coordinates":[-82.096,35.8042]}},{"properties":{"climb_area":"Cascade; Elywood Park; Elyria","latitude":41.419,"longitude":-82.1018,"id":"a64w93vmgxdo","source":"gps","state":"Ohio"},"type":"Feature","geometry":{"type":"Point","coordinates":[-82.1018,41.419]}},{"properties":{"climb_area":"Rumbling Bald","latitude":35.4432,"longitude":-82.2435,"id":"a64w9474tqjc","source":"gps","state":"North Carolina"},"type":"Feature","geometry":{"type":"Point","coordinates":[-82.2435,35.4432]}},{"properties":{"climb_area":"Looking Glass Rock","latitude":35.2948,"longitude":-82.7882,"id":"a64w93xosdg2","source":"gps","state":"North Carolina"},"type":"Feature","geometry":{"type":"Point","coordinates":[-82.7882,35.2948]}},{"properties":{"climb_area":"Ohio","latitude":39.9603,"longitude":-83.0127,"id":"a64w93zua5vv","source":"gps","state":"Ohio"},"type":"Feature","geometry":{"type":"Point","coordinates":[-83.0127,39.9603]}},{"properties":{"climb_area":"Laurel Knob Rate","latitude":35.1503,"longitude":-83.0564,"id":"a64w9411q4n5","source":"gps","state":"North Carolina"},"type":"Feature","geometry":{"type":"Point","coordinates":[-83.0564,35.1503]}},{"properties":{"climb_area":"Whitesides Mountain","latitude":35.0798,"longitude":-83.1432,"id":"a64w940sx3it","source":"gps","state":"North Carolina"},"type":"Feature","geometry":{"type":"Point","coordinates":[-83.1432,35.0798]}},{"properties":{"climb_area":"Currahee Mountain","latitude":34.5294,"longitude":-83.3759,"id":"a64w945qmtan","source":"gps","state":"Georgia"},"type":"Feature","geometry":{"type":"Point","coordinates":[-83.3759,34.5294]}},{"properties":{"climb_area":"Tallulah Gorge","latitude":34.74,"longitude":-83.3931,"id":"a64w9486ja8w","source":"gps","state":"Georgia"},"type":"Feature","geometry":{"type":"Point","coordinates":[-83.3931,34.74]}},{"properties":{"climb_area":"Red River Gorge","latitude":37.7842,"longitude":-83.6824,"id":"a64w946d6y93","source":"gps","state":"Kentucky"},"type":"Feature","geometry":{"type":"Point","coordinates":[-83.6824,37.7842]}},{"properties":{"climb_area":"Mount Yonah","latitude":34.6372,"longitude":-83.7141,"id":"a64w93y13h67","source":"gps","state":"Georgia"},"type":"Feature","geometry":{"type":"Point","coordinates":[-83.7141,34.6372]}},{"properties":{"climb_area":"Metro-Atlanta Area","latitude":33.7517,"longitude":-84.386,"id":"a64w941hat2x","source":"gps","state":"Georgia"},"type":"Feature","geometry":{"type":"Point","coordinates":[-84.386,33.7517]}},{"properties":{"climb_area":"Georgia","latitude":33.7152,"longitude":-84.386,"id":"a64w949sivpj","source":"gps","state":"Georgia"},"type":"Feature","geometry":{"type":"Point","coordinates":[-84.386,33.7152]}},{"properties":{"climb_area":"Starr Mountain","latitude":35.2269,"longitude":-84.5255,"id":"a64w943i2f0n","source":"gps","state":"Tennessee"},"type":"Feature","geometry":{"type":"Point","coordinates":[-84.5255,35.2269]}},{"properties":{"climb_area":"Boat Rock","latitude":33.7198,"longitude":-84.5623,"id":"a64w93vp27b9","source":"gps","state":"Georgia"},"type":"Feature","geometry":{"type":"Point","coordinates":[-84.5623,33.7198]}},{"properties":{"climb_area":"Obed &amp; Clear Creek","latitude":36.1166,"longitude":-84.7317,"id":"a64w949v6r96","source":"gps","state":"Tennessee"},"type":"Feature","geometry":{"type":"Point","coordinates":[-84.7317,36.1166]}},{"properties":{"climb_area":"Ozone Falls","latitude":35.8801,"longitude":-84.8111,"id":"a64w93yvdjln","source":"gps","state":"Tennessee"},"type":"Feature","geometry":{"type":"Point","coordinates":[-84.8111,35.8801]}},{"properties":{"climb_area":"Collegedale Park","latitude":35.03,"longitude":-84.9902,"id":"a64w944xawlx","source":"gps","state":"Tennessee"},"type":"Feature","geometry":{"type":"Point","coordinates":[-84.9902,35.03]}},{"properties":{"climb_area":"Kentucky","latitude":37.5794,"longitude":-85.0781,"id":"a64w942l0u2y","source":"gps","state":"Kentucky"},"type":"Feature","geometry":{"type":"Point","coordinates":[-85.0781,37.5794]}},{"properties":{"climb_area":"Leda","latitude":35.2356,"longitude":-85.2265,"id":"a64w93w2y0d7","source":"gps","state":"Tennessee"},"type":"Feature","geometry":{"type":"Point","coordinates":[-85.2265,35.2356]}},{"properties":{"climb_area":"Lower Leda","latitude":35.236,"longitude":-85.2322,"id":"a64w93v8bm6h","source":"gps","state":"Tennessee"},"type":"Feature","geometry":{"type":"Point","coordinates":[-85.2322,35.236]}},{"properties":{"climb_area":"Lost Wall","latitude":34.6669,"longitude":-85.3712,"id":"a64w9412pulr","source":"gps","state":"Georgia"},"type":"Feature","geometry":{"type":"Point","coordinates":[-85.3712,34.6669]}},{"properties":{"climb_area":"Rocktown Rate","latitude":34.6591,"longitude":-85.3899,"id":"a64w944ihyji","source":"gps","state":"Georgia"},"type":"Feature","geometry":{"type":"Point","coordinates":[-85.3899,34.6591]}},{"properties":{"climb_area":"The Tennessee Wall","latitude":35.0717,"longitude":-85.3999,"id":"a64w93w4becr","source":"gps","state":"Tennessee"},"type":"Feature","geometry":{"type":"Point","coordinates":[-85.3999,35.0717]}},{"properties":{"climb_area":"Jamestown Rate","latitude":34.4097,"longitude":-85.5798,"id":"a64w946w05yj","source":"gps","state":"Alabama"},"type":"Feature","geometry":{"type":"Point","coordinates":[-85.5798,34.4097]}},{"properties":{"climb_area":"Foster Falls","latitude":35.1105,"longitude":-85.6421,"id":"a64w93upunq1","source":"gps","state":"Tennessee"},"type":"Feature","geometry":{"type":"Point","coordinates":[-85.6421,35.1105]}},{"properties":{"climb_area":"Sand Rock","latitude":34.1804,"longitude":-85.817,"id":"a64w946tak4u","source":"gps","state":"Alabama"},"type":"Feature","geometry":{"type":"Point","coordinates":[-85.817,34.1804]}},{"properties":{"climb_area":"Tennessee","latitude":35.6037,"longitude":-85.8691,"id":"a64w943rquje","source":"gps","state":"Tennessee"},"type":"Feature","geometry":{"type":"Point","coordinates":[-85.8691,35.6037]}},{"properties":{"climb_area":"Griffin Falls","latitude":34.2876,"longitude":-85.9237,"id":"a64w93vqp2fv","source":"gps","state":"Alabama"},"type":"Feature","geometry":{"type":"Point","coordinates":[-85.9237,34.2876]}},{"properties":{"climb_area":"Coosa Slabs","latitude":32.6133,"longitude":-86.2522,"id":"a64w93usi7ti","source":"gps","state":"Alabama"},"type":"Feature","geometry":{"type":"Point","coordinates":[-86.2522,32.6133]}},{"properties":{"climb_area":"Horse Pens 40","latitude":33.9278,"longitude":-86.308,"id":"a64w93x8esnb","source":"gps","state":"Alabama"},"type":"Feature","geometry":{"type":"Point","coordinates":[-86.308,33.9278]}},{"properties":{"climb_area":"Palisades Park","latitude":33.9602,"longitude":-86.4774,"id":"a64w940tyill","source":"gps","state":"Alabama"},"type":"Feature","geometry":{"type":"Point","coordinates":[-86.4774,33.9602]}},{"properties":{"climb_area":"Moss Rock Preserve","latitude":33.3836,"longitude":-86.8416,"id":"a64w943wxunb","source":"gps","state":"Alabama"},"type":"Feature","geometry":{"type":"Point","coordinates":[-86.8416,33.3836]}},{"properties":{"climb_area":"Hurricane Creek Park","latitude":34.2286,"longitude":-86.8599,"id":"a64w944bugav","source":"gps","state":"Alabama"},"type":"Feature","geometry":{"type":"Point","coordinates":[-86.8599,34.2286]}},{"properties":{"climb_area":"Alabama","latitude":33.7609,"longitude":-86.8799,"id":"a64w93ujpas4","source":"gps","state":"Alabama"},"type":"Feature","geometry":{"type":"Point","coordinates":[-86.8799,33.7609]}},{"properties":{"climb_area":"King's Bluff","latitude":36.5015,"longitude":-87.3234,"id":"a64w948ds3rx","source":"gps","state":"Tennessee"},"type":"Feature","geometry":{"type":"Point","coordinates":[-87.3234,36.5015]}},{"properties":{"climb_area":"The Ice Pit","latitude":44.4382,"longitude":-88.177,"id":"a64w9494difu","source":"gps","state":"Wisconsin"},"type":"Feature","geometry":{"type":"Point","coordinates":[-88.177,44.4382]}},{"properties":{"climb_area":"Horicon","latitude":43.441,"longitude":-88.6432,"id":"a64w93ubfitk","source":"gps","state":"Wisconsin"},"type":"Feature","geometry":{"type":"Point","coordinates":[-88.6432,43.441]}},{"properties":{"climb_area":"Monico Boulders","latitude":45.5459,"longitude":-89.1667,"id":"a64w945k7pbj","source":"gps","state":"Wisconsin"},"type":"Feature","geometry":{"type":"Point","coordinates":[-89.1667,45.5459]}},{"properties":{"climb_area":"Wisconsin","latitude":44.4652,"longitude":-89.4727,"id":"a64w93wa0im6","source":"gps","state":"Wisconsin"},"type":"Feature","geometry":{"type":"Point","coordinates":[-89.4727,44.4652]}},{"properties":{"climb_area":"Hillbilly Hollow","latitude":43.9771,"longitude":-89.5005,"id":"a64w93zqg6ze","source":"gps","state":"Wisconsin"},"type":"Feature","geometry":{"type":"Point","coordinates":[-89.5005,43.9771]}},{"properties":{"climb_area":"Illinois","latitude":39.741,"longitude":-89.6265,"id":"a64w93wum5pv","source":"gps","state":"Illinois"},"type":"Feature","geometry":{"type":"Point","coordinates":[-89.6265,39.741]}},{"properties":{"climb_area":"Owens Rock","latitude":44.204,"longitude":-89.658,"id":"a64w944oj0t5","source":"gps","state":"Wisconsin"},"type":"Feature","geometry":{"type":"Point","coordinates":[-89.658,44.204]}},{"properties":{"climb_area":"Rib Mountain","latitude":44.9201,"longitude":-89.6934,"id":"a64w93z1y5hs","source":"gps","state":"Wisconsin"},"type":"Feature","geometry":{"type":"Point","coordinates":[-89.6934,44.9201]}},{"properties":{"climb_area":"Devil's Lake","latitude":43.4135,"longitude":-89.7164,"id":"a64w941w6hh1","source":"gps","state":"Wisconsin"},"type":"Feature","geometry":{"type":"Point","coordinates":[-89.7164,43.4135]}},{"properties":{"climb_area":"Shiprock (a.k.a. Sh*trock)","latitude":44.0253,"longitude":-89.7174,"id":"a64w942nqpyu","source":"gps","state":"Wisconsin"},"type":"Feature","geometry":{"type":"Point","coordinates":[-89.7174,44.0253]}},{"properties":{"climb_area":"Rabbit Rock","latitude":44.0889,"longitude":-89.8084,"id":"a64w93uk79rn","source":"gps","state":"Wisconsin"},"type":"Feature","geometry":{"type":"Point","coordinates":[-89.8084,44.0889]}},{"properties":{"climb_area":"Necedah (Petenwell Bluff)","latitude":44.046,"longitude":-90.0209,"id":"a64w93tyuuq4","source":"gps","state":"Wisconsin"},"type":"Feature","geometry":{"type":"Point","coordinates":[-90.0209,44.046]}},{"properties":{"climb_area":"Rock Behind the Rugby Field","latitude":42.7329,"longitude":-90.4948,"id":"a64w93vrwh73","source":"gps","state":"Wisconsin"},"type":"Feature","geometry":{"type":"Point","coordinates":[-90.4948,42.7329]}},{"properties":{"climb_area":"Wyalusing ice","latitude":42.9458,"longitude":-91.1416,"id":"a64w942c2g9k","source":"gps","state":"Wisconsin"},"type":"Feature","geometry":{"type":"Point","coordinates":[-91.1416,42.9458]}},{"properties":{"climb_area":"Big Falls","latitude":44.8208,"longitude":-91.2941,"id":"a64w945yd2ae","source":"gps","state":"Wisconsin"},"type":"Feature","geometry":{"type":"Point","coordinates":[-91.2941,44.8208]}},{"properties":{"climb_area":"Casket Quarry (Duluth)","latitude":46.7774,"longitude":-92.1092,"id":"a64w93unzp9d","source":"gps","state":"Minnesota"},"type":"Feature","geometry":{"type":"Point","coordinates":[-92.1092,46.7774]}},{"properties":{"climb_area":"Arkansas","latitude":34.7055,"longitude":-92.2852,"id":"a64w941c2pp2","source":"gps","state":"Arkansas"},"type":"Feature","geometry":{"type":"Point","coordinates":[-92.2852,34.7055]}},{"properties":{"climb_area":"Capen Park","latitude":38.9306,"longitude":-92.3207,"id":"a64w942s4gsn","source":"gps","state":"Missouri"},"type":"Feature","geometry":{"type":"Point","coordinates":[-92.3207,38.9306]}},{"properties":{"climb_area":"Canidae Cliff (Hammond)","latitude":44.222,"longitude":-92.372,"id":"a64w949lrufh","source":"gps","state":"Minnesota"},"type":"Feature","geometry":{"type":"Point","coordinates":[-92.372,44.222]}},{"properties":{"climb_area":"Crane Lake (MN/CA border)","latitude":48.2649,"longitude":-92.4884,"id":"a64w940dvqbt","source":"gps","state":"Minnesota"},"type":"Feature","geometry":{"type":"Point","coordinates":[-92.4884,48.2649]}},{"properties":{"climb_area":"Barn Bluff (Red Wing)","latitude":44.5695,"longitude":-92.5265,"id":"a64w946q3w97","source":"gps","state":"Minnesota"},"type":"Feature","geometry":{"type":"Point","coordinates":[-92.5265,44.5695]}},{"properties":{"climb_area":"Missouri","latitude":38.6512,"longitude":-92.5488,"id":"a64w947zdorz","source":"gps","state":"Missouri"},"type":"Feature","geometry":{"type":"Point","coordinates":[-92.5488,38.6512]}},{"properties":{"climb_area":"Robinson Park (Sandstone)","latitude":46.1354,"longitude":-92.8587,"id":"a64w93tprzw9","source":"gps","state":"Minnesota"},"type":"Feature","geometry":{"type":"Point","coordinates":[-92.8587,46.1354]}},{"properties":{"climb_area":"Mankato Area (Mankato)","latitude":44.17,"longitude":-93.98,"id":"a64w942cqmht","source":"gps","state":"Minnesota"},"type":"Feature","geometry":{"type":"Point","coordinates":[-93.98,44.17]}},{"properties":{"climb_area":"Sheperd Springs","latitude":35.7045,"longitude":-94.107,"id":"a64w945965wm","source":"gps","state":"Arkansas"},"type":"Feature","geometry":{"type":"Point","coordinates":[-94.107,35.7045]}},{"properties":{"climb_area":"Quarry Park (St. Cloud)","latitude":45.5355,"longitude":-94.2416,"id":"a64w940vyofm","source":"gps","state":"Minnesota"},"type":"Feature","geometry":{"type":"Point","coordinates":[-94.2416,45.5355]}},{"properties":{"climb_area":"Lake Lincoln","latitude":35.9983,"longitude":-94.427,"id":"a64w9465me6g","source":"gps","state":"Arkansas"},"type":"Feature","geometry":{"type":"Point","coordinates":[-94.427,35.9983]}},{"properties":{"climb_area":"Minnesota","latitude":45.89,"longitude":-94.5703,"id":"a64w945sl7mm","source":"gps","state":"Minnesota"},"type":"Feature","geometry":{"type":"Point","coordinates":[-94.5703,45.89]}},{"properties":{"climb_area":"Eufaula Lake","latitude":35.2658,"longitude":-95.5426,"id":"a64w941hpq8w","source":"gps","state":"Oklahoma"},"type":"Feature","geometry":{"type":"Point","coordinates":[-95.5426,35.2658]}},{"properties":{"climb_area":"Chandler Park","latitude":36.1311,"longitude":-96.0758,"id":"a64w93ui2r7c","source":"gps","state":"Oklahoma"},"type":"Feature","geometry":{"type":"Point","coordinates":[-96.0758,36.1311]}},{"properties":{"climb_area":"The Silo","latitude":36.121,"longitude":-96.1225,"id":"a64w9499ahey","source":"gps","state":"Oklahoma"},"type":"Feature","geometry":{"type":"Point","coordinates":[-96.1225,36.121]}},{"properties":{"climb_area":"Blue Mounds SP (Luverne)","latitude":43.6975,"longitude":-96.1747,"id":"a64w93vuhoer","source":"gps","state":"Minnesota"},"type":"Feature","geometry":{"type":"Point","coordinates":[-96.1747,43.6975]}},{"properties":{"climb_area":"Palisades State Park","latitude":43.6901,"longitude":-96.5147,"id":"a64w949xil3x","source":"gps","state":"South Dakota"},"type":"Feature","geometry":{"type":"Point","coordinates":[-96.5147,43.6901]}},{"properties":{"climb_area":"Rogers Park","latitude":31.1586,"longitude":-97.4876,"id":"a64w947t4ry5","source":"gps","state":"Texas"},"type":"Feature","geometry":{"type":"Point","coordinates":[-97.4876,31.1586]}},{"properties":{"climb_area":"Oklahoma","latitude":35.6037,"longitude":-97.5586,"id":"a64w945x0a3d","source":"gps","state":"Oklahoma"},"type":"Feature","geometry":{"type":"Point","coordinates":[-97.5586,35.6037]}},{"properties":{"climb_area":"Texas","latitude":30.2875,"longitude":-97.7261,"id":"a64w93x40u5e","source":"gps","state":"Texas"},"type":"Feature","geometry":{"type":"Point","coordinates":[-97.7261,30.2875]}},{"properties":{"climb_area":"Bull Creek Park","latitude":30.3659,"longitude":-97.7873,"id":"a64w93wiuori","source":"gps","state":"Texas"},"type":"Feature","geometry":{"type":"Point","coordinates":[-97.7873,30.3659]}},{"properties":{"climb_area":"Mineral Wells State Park","latitude":32.8203,"longitude":-98.0273,"id":"a64w94638xx5","source":"gps","state":"Texas"},"type":"Feature","geometry":{"type":"Point","coordinates":[-98.0273,32.8203]}},{"properties":{"climb_area":"Reimer's Ranch","latitude":30.3337,"longitude":-98.1222,"id":"a64w943wovo3","source":"gps","state":"Texas"},"type":"Feature","geometry":{"type":"Point","coordinates":[-98.1222,30.3337]}},{"properties":{"climb_area":"Wichita Wildlife Refuge","latitude":34.7108,"longitude":-98.6233,"id":"a64w93x8n72v","source":"gps","state":"Oklahoma"},"type":"Feature","geometry":{"type":"Point","coordinates":[-98.6233,34.7108]}},{"properties":{"climb_area":"Enchanted Rock State Natural Area","latitude":30.5032,"longitude":-98.8213,"id":"a64w93vjn1yz","source":"gps","state":"Texas"},"type":"Feature","geometry":{"type":"Point","coordinates":[-98.8213,30.5032]}},{"properties":{"climb_area":"Quartz Mountain","latitude":34.8913,"longitude":-99.3014,"id":"a64w940b6e2d","source":"gps","state":"Oklahoma"},"type":"Feature","geometry":{"type":"Point","coordinates":[-99.3014,34.8913]}},{"properties":{"climb_area":"Camp Eagle Rate","latitude":29.9771,"longitude":-99.9607,"id":"a64w943e4syo","source":"gps","state":"Texas"},"type":"Feature","geometry":{"type":"Point","coordinates":[-99.9607,29.9771]}}],"is_temporal":false,"author":{"url":"http://www.poi-factory.com/poifiles/alpha","metadata":"","contact_name":"","contact_address":"","source":"POI Factory","contact_phone":""},"source":"http://www.poi-factory.com/poifiles/alpha","pagination":{"sort":null,"start":0,"total":648,"limit":1000000},"state":"complete","tags":"activities,adventure,climbing,recreation,rock","published":"2014-08-10T16:01:17-04:00","id":63500}