{"type":"FeatureCollection","data_type":"Dataset","url_type":null,"permissions":[{"permissions":{"download":true,"view":true},"group_id":"everyone"}],"classification":null,"title":"Casella Mass Service","count":165,"stream_id":63788,"contributor":{"url":"http://geocommons.com/users/15932","name":"Hbools"},"data_attributes":null,"calculation_params":null,"icon_link":null,"link":"http://geocommons.com/overlays/63788.json","extent":[-72.2136,41.5654,-69.9431,42.8695],"geometry_types":["point"],"unique_name":null,"name":"Casella Mass Service","feature_count":165,"description":"","next_feature":null,"is_raster":false,"short_classification":"Y","stats":{"geo_score":{"max":0.857,"mean":0.800236363636363,"variance":0.00315132793791575,"stdev":0.0561366897662816,"min":0.714,"median":0.805}},"features":[{"properties":{"city":"Acton","geo_score":0.786,"zip code":"01720","id":"a67587xfu0h1","geo_precision":"zip","state":"MA"},"type":"Feature","geometry":{"type":"Point","coordinates":[-71.453674,42.458427]}},{"properties":{"city":"Allston","geo_score":0.857,"zip code":"02134","id":"a675880jv6rk","geo_precision":"zip","state":"MA"},"type":"Feature","geometry":{"type":"Point","coordinates":[-71.112646,42.357169]}},{"properties":{"city":"Amesbury","geo_score":0.776,"zip code":"01913","id":"a67587v5o6po","geo_precision":"zip","state":"MA"},"type":"Feature","geometry":{"type":"Point","coordinates":[-70.911999,42.841757]}},{"properties":{"city":"Andover","geo_score":0.805,"zip code":"01810","id":"a675880g33vd","geo_precision":"zip","state":"MA"},"type":"Feature","geometry":{"type":"Point","coordinates":[-71.158391,42.661203]}},{"properties":{"city":"Arlington","geo_score":0.857,"zip code":"02474","id":"a675880wtfs3","geo_precision":"zip","state":"MA"},"type":"Feature","geometry":{"type":"Point","coordinates":[-71.159696,42.417595]}},{"properties":{"city":"Arlington Heights","geo_score":0.857,"zip code":"02475","id":"a67587t4us59","geo_precision":"zip","state":"MA"},"type":"Feature","geometry":{"type":"Point","coordinates":[-71.459405,42.446396]}},{"properties":{"city":"Ayer","geo_score":0.857,"zip code":"01432","id":"a67587w60wth","geo_precision":"zip","state":"MA"},"type":"Feature","geometry":{"type":"Point","coordinates":[-71.459405,42.446396]}},{"properties":{"city":"Bedford","geo_score":0.805,"zip code":"01730","id":"a67587t7omdz","geo_precision":"zip","state":"MA"},"type":"Feature","geometry":{"type":"Point","coordinates":[-71.315614,42.47815]}},{"properties":{"city":"Belmont","geo_score":0.857,"zip code":"02478","id":"a67587wyly8y","geo_precision":"zip","state":"MA"},"type":"Feature","geometry":{"type":"Point","coordinates":[-71.204399,42.412795]}},{"properties":{"city":"Billerica","geo_score":0.757,"zip code":"01821","id":"a67588513li6","geo_precision":"zip","state":"MA"},"type":"Feature","geometry":{"type":"Point","coordinates":[-71.288392,42.563982]}},{"properties":{"city":"Bolton","geo_score":0.792,"zip code":"01740","id":"a675882fbhp0","geo_precision":"zip","state":"MA"},"type":"Feature","geometry":{"type":"Point","coordinates":[-71.605067,42.39676]}},{"properties":{"city":"Boston","geo_score":0.857,"zip code":"02108","id":"a675881muf3s","geo_precision":"zip","state":"MA"},"type":"Feature","geometry":{"type":"Point","coordinates":[-71.102446,42.353806]}},{"properties":{"city":"Boxborough","geo_score":0.857,"zip code":"01719","id":"a675884yd90t","geo_precision":"zip","state":"MA"},"type":"Feature","geometry":{"type":"Point","coordinates":[-71.459405,42.446396]}},{"properties":{"city":"Boxford","geo_score":0.753,"zip code":"01921","id":"a675885jc44o","geo_precision":"zip","state":"MA"},"type":"Feature","geometry":{"type":"Point","coordinates":[-70.980054,42.688981]}},{"properties":{"city":"Brewster","geo_score":0.81,"zip code":"02631","id":"a6758833z0y8","geo_precision":"zip","state":"MA"},"type":"Feature","geometry":{"type":"Point","coordinates":[-70.109741,41.744554]}},{"properties":{"city":"Brighton","geo_score":0.857,"zip code":"02135","id":"a67587zcu5oh","geo_precision":"zip","state":"MA"},"type":"Feature","geometry":{"type":"Point","coordinates":[-71.104888,42.349768]}},{"properties":{"city":"Brimfield","geo_score":0.813,"zip code":"01010","id":"a67587w5kc3d","geo_precision":"zip","state":"MA"},"type":"Feature","geometry":{"type":"Point","coordinates":[-72.148411,42.111206]}},{"properties":{"city":"Brookfield","geo_score":0.857,"zip code":"01506","id":"a675880qs9jy","geo_precision":"zip","state":"MA"},"type":"Feature","geometry":{"type":"Point","coordinates":[-72.105011,42.19169]}},{"properties":{"city":"Burlington","geo_score":0.857,"zip code":"01803","id":"a675885i0h0z","geo_precision":"zip","state":"MA"},"type":"Feature","geometry":{"type":"Point","coordinates":[-71.201539,42.504844]}},{"properties":{"city":"Buzzards Bay","geo_score":0.726,"zip code":"02532","id":"a675884zow6j","geo_precision":"zip","state":"MA"},"type":"Feature","geometry":{"type":"Point","coordinates":[-70.535586,41.870105]}},{"properties":{"city":"Byfield","geo_score":0.798,"zip code":"01922","id":"a675881kwnq3","geo_precision":"zip","state":"MA"},"type":"Feature","geometry":{"type":"Point","coordinates":[-70.903664,42.748703]}},{"properties":{"city":"Cambridge","geo_score":0.857,"zip code":"02138","id":"a6758848hft4","geo_precision":"zip","state":"MA"},"type":"Feature","geometry":{"type":"Point","coordinates":[-71.132947,42.380442]}},{"properties":{"city":"Carlisle","geo_score":0.857,"zip code":"01741","id":"a67587tdvfnn","geo_precision":"zip","state":"MA"},"type":"Feature","geometry":{"type":"Point","coordinates":[-71.459405,42.446396]}},{"properties":{"city":"Carver","geo_score":0.857,"zip code":"02330","id":"a67587tp1jo8","geo_precision":"zip","state":"MA"},"type":"Feature","geometry":{"type":"Point","coordinates":[-70.759689,41.896238]}},{"properties":{"city":"Cataumet","geo_score":0.732,"zip code":"02534","id":"a67587zi09l8","geo_precision":"zip","state":"MA"},"type":"Feature","geometry":{"type":"Point","coordinates":[-70.61892,41.659829]}},{"properties":{"city":"Centerville","geo_score":0.857,"zip code":"02632","id":"a675881z66eb","geo_precision":"zip","state":"MA"},"type":"Feature","geometry":{"type":"Point","coordinates":[-70.175129,41.796311]}},{"properties":{"city":"Charlestown","geo_score":0.857,"zip code":"02129","id":"a67587tmuh5k","geo_precision":"zip","state":"MA"},"type":"Feature","geometry":{"type":"Point","coordinates":[-71.065287,42.382588]}},{"properties":{"city":"Charlton","geo_score":0.802,"zip code":"01507","id":"a6758807vmgs","geo_precision":"zip","state":"MA"},"type":"Feature","geometry":{"type":"Point","coordinates":[-71.924517,42.098151]}},{"properties":{"city":"Chatham","geo_score":0.857,"zip code":"02633","id":"a67587smqiuj","geo_precision":"zip","state":"MA"},"type":"Feature","geometry":{"type":"Point","coordinates":[-70.0468,41.859559]}},{"properties":{"city":"Chelmsford","geo_score":0.729,"zip code":"01824","id":"a67587vlesby","geo_precision":"zip","state":"MA"},"type":"Feature","geometry":{"type":"Point","coordinates":[-71.341172,42.615369]}},{"properties":{"city":"Chelsea","geo_score":0.857,"zip code":"02150","id":"a67587wohjhp","geo_precision":"zip","state":"MA"},"type":"Feature","geometry":{"type":"Point","coordinates":[-71.038894,42.378197]}},{"properties":{"city":"Cherry Valley","geo_score":0.857,"zip code":"01611","id":"a67587t8lcaf","geo_precision":"zip","state":"MA"},"type":"Feature","geometry":{"type":"Point","coordinates":[-71.878716,42.239392]}},{"properties":{"city":"Clinton","geo_score":0.857,"zip code":"01510","id":"a67587z69btn","geo_precision":"zip","state":"MA"},"type":"Feature","geometry":{"type":"Point","coordinates":[-71.687523,42.413972]}},{"properties":{"city":"Concord","geo_score":0.805,"zip code":"01742","id":"a67587z0k5e4","geo_precision":"zip","state":"MA"},"type":"Feature","geometry":{"type":"Point","coordinates":[-71.395339,42.458427]}},{"properties":{"city":"Cotuit","geo_score":0.796,"zip code":"02635","id":"a675884qjcm8","geo_precision":"zip","state":"MA"},"type":"Feature","geometry":{"type":"Point","coordinates":[-70.450582,41.637609]}},{"properties":{"city":"Cummaquid","geo_score":0.857,"zip code":"02637","id":"a67587sj1myu","geo_precision":"zip","state":"MA"},"type":"Feature","geometry":{"type":"Point","coordinates":[-70.277212,41.701438]}},{"properties":{"city":"Dennis","geo_score":0.857,"zip code":"02638","id":"a67587u44ogf","geo_precision":"zip","state":"MA"},"type":"Feature","geometry":{"type":"Point","coordinates":[-70.089142,41.725716]}},{"properties":{"city":"Dennis Port","geo_score":0.857,"zip code":"02639","id":"a6758828i55i","geo_precision":"zip","state":"MA"},"type":"Feature","geometry":{"type":"Point","coordinates":[-70.071836,41.750745]}},{"properties":{"city":"Douglas","geo_score":0.74,"zip code":"01516","id":"a67587rfz8c6","geo_precision":"zip","state":"MA"},"type":"Feature","geometry":{"type":"Point","coordinates":[-71.712013,42.100096]}},{"properties":{"city":"Dracut","geo_score":0.743,"zip code":"01826","id":"a675880bqrsu","geo_precision":"zip","state":"MA"},"type":"Feature","geometry":{"type":"Point","coordinates":[-71.366174,42.704257]}},{"properties":{"city":"Dudley","geo_score":0.857,"zip code":"01571","id":"a675881v8xgc","geo_precision":"zip","state":"MA"},"type":"Feature","geometry":{"type":"Point","coordinates":[-71.937037,42.059189]}},{"properties":{"city":"Dunstable","geo_score":0.857,"zip code":"01827","id":"a67587q699o2","geo_precision":"zip","state":"MA"},"type":"Feature","geometry":{"type":"Point","coordinates":[-71.459405,42.446396]}},{"properties":{"city":"East Dennis","geo_score":0.857,"zip code":"02641","id":"a6758825j655","geo_precision":"zip","state":"MA"},"type":"Feature","geometry":{"type":"Point","coordinates":[-70.20467,41.734713]}},{"properties":{"city":"East Falmouth","geo_score":0.75,"zip code":"02536","id":"a67587t1sxcz","geo_precision":"zip","state":"MA"},"type":"Feature","geometry":{"type":"Point","coordinates":[-70.537529,41.595942]}},{"properties":{"city":"East Orleans","geo_score":0.758,"zip code":"02643","id":"a675885a7fp5","geo_precision":"zip","state":"MA"},"type":"Feature","geometry":{"type":"Point","coordinates":[-69.943073,41.804276]}},{"properties":{"city":"East Wareham","geo_score":0.739,"zip code":"02538","id":"a67587tybwwe","geo_precision":"zip","state":"MA"},"type":"Feature","geometry":{"type":"Point","coordinates":[-70.634755,41.800105]}},{"properties":{"city":"Eastham","geo_score":0.735,"zip code":"02642","id":"a675880dpze4","geo_precision":"zip","state":"MA"},"type":"Feature","geometry":{"type":"Point","coordinates":[-70.00363,41.837608]}},{"properties":{"city":"Everett","geo_score":0.805,"zip code":"02149","id":"a67587udnmnx","geo_precision":"zip","state":"MA"},"type":"Feature","geometry":{"type":"Point","coordinates":[-71.063385,42.411208]}},{"properties":{"city":"Fairhaven","geo_score":0.741,"zip code":"02719","id":"a67587qsx8rl","geo_precision":"zip","state":"MA"},"type":"Feature","geometry":{"type":"Point","coordinates":[-70.864758,41.608438]}},{"properties":{"city":"Falmouth","geo_score":0.714,"zip code":"02540","id":"a6758826dtko","geo_precision":"zip","state":"MA"},"type":"Feature","geometry":{"type":"Point","coordinates":[-70.646419,41.565386]}},{"properties":{"city":"Fiskdale","geo_score":0.857,"zip code":"01518","id":"a67587taa203","geo_precision":"zip","state":"MA"},"type":"Feature","geometry":{"type":"Point","coordinates":[-72.114045,42.106405]}},{"properties":{"city":"Forestdale","geo_score":0.857,"zip code":"02644","id":"a675885dtxrb","geo_precision":"zip","state":"MA"},"type":"Feature","geometry":{"type":"Point","coordinates":[-70.268632,41.790031]}},{"properties":{"city":"Georgetown","geo_score":0.81,"zip code":"01833","id":"a67587w1vw25","geo_precision":"zip","state":"MA"},"type":"Feature","geometry":{"type":"Point","coordinates":[-70.991166,42.709814]}},{"properties":{"city":"Gloucester","geo_score":0.816,"zip code":"01930","id":"a67587uqcsgb","geo_precision":"zip","state":"MA"},"type":"Feature","geometry":{"type":"Point","coordinates":[-70.710601,42.613428]}},{"properties":{"city":"Grafton","geo_score":0.857,"zip code":"01519","id":"a675884c1iea","geo_precision":"zip","state":"MA"},"type":"Feature","geometry":{"type":"Point","coordinates":[-71.682862,42.203944]}},{"properties":{"city":"Greenbush","geo_score":0.857,"zip code":"02040","id":"a67587tab36m","geo_precision":"zip","state":"MA"},"type":"Feature","geometry":{"type":"Point","coordinates":[-70.701357,41.970474]}},{"properties":{"city":"Hamilton","geo_score":0.857,"zip code":"01936","id":"a67587uw523m","geo_precision":"zip","state":"MA"},"type":"Feature","geometry":{"type":"Point","coordinates":[-70.879123,42.635443]}},{"properties":{"city":"Hanscom AFB","geo_score":0.789,"zip code":"01731","id":"a675883w2way","geo_precision":"zip","state":"MA"},"type":"Feature","geometry":{"type":"Point","coordinates":[-71.459405,42.446396]}},{"properties":{"city":"Harwich","geo_score":0.726,"zip code":"02645","id":"a6758829zbtt","geo_precision":"zip","state":"MA"},"type":"Feature","geometry":{"type":"Point","coordinates":[-70.08224,41.713999]}},{"properties":{"city":"Harwich Port","geo_score":0.857,"zip code":"02646","id":"a67587pphxrq","geo_precision":"zip","state":"MA"},"type":"Feature","geometry":{"type":"Point","coordinates":[-70.053544,41.845717]}},{"properties":{"city":"Holden","geo_score":0.857,"zip code":"01520","id":"a67587uv7q4s","geo_precision":"zip","state":"MA"},"type":"Feature","geometry":{"type":"Point","coordinates":[-71.845316,42.336791]}},{"properties":{"city":"Holland","geo_score":0.857,"zip code":"01521","id":"a6758800uz4o","geo_precision":"zip","state":"MA"},"type":"Feature","geometry":{"type":"Point","coordinates":[-72.163991,42.061063]}},{"properties":{"city":"Hyannis","geo_score":0.732,"zip code":"02601","id":"a675880r394u","geo_precision":"zip","state":"MA"},"type":"Feature","geometry":{"type":"Point","coordinates":[-70.228631,41.705666]}},{"properties":{"city":"Hyannis Port","geo_score":0.857,"zip code":"02647","id":"a67587tmo4sj","geo_precision":"zip","state":"MA"},"type":"Feature","geometry":{"type":"Point","coordinates":[-70.306336,41.635004]}},{"properties":{"city":"Hyde Park","geo_score":0.857,"zip code":"02136","id":"a67587vzk28m","geo_precision":"zip","state":"MA"},"type":"Feature","geometry":{"type":"Point","coordinates":[-71.129321,42.254248]}},{"properties":{"city":"Jamaica Plain","geo_score":0.857,"zip code":"02130","id":"a675884wqj6h","geo_precision":"zip","state":"MA"},"type":"Feature","geometry":{"type":"Point","coordinates":[-71.121097,42.309661]}},{"properties":{"city":"Kingston","geo_score":0.729,"zip code":"02364","id":"a67587q3k2k5","geo_precision":"zip","state":"MA"},"type":"Feature","geometry":{"type":"Point","coordinates":[-70.793095,42.004269]}},{"properties":{"city":"Lakeville","geo_score":0.857,"zip code":"02347","id":"a67587sajmpw","geo_precision":"zip","state":"MA"},"type":"Feature","geometry":{"type":"Point","coordinates":[-70.959981,41.843757]}},{"properties":{"city":"Lawrence","geo_score":0.857,"zip code":"01840","id":"a67587rb0q1x","geo_precision":"zip","state":"MA"},"type":"Feature","geometry":{"type":"Point","coordinates":[-71.161052,42.70734]}},{"properties":{"city":"Lexington","geo_score":0.857,"zip code":"02420","id":"a67587teo6jl","geo_precision":"zip","state":"MA"},"type":"Feature","geometry":{"type":"Point","coordinates":[-71.21665,42.45631]}},{"properties":{"city":"Littleton","geo_score":0.727,"zip code":"01460","id":"a67587u2vpf7","geo_precision":"zip","state":"MA"},"type":"Feature","geometry":{"type":"Point","coordinates":[-71.536455,42.551758]}},{"properties":{"city":"Lowell","geo_score":0.746,"zip code":"01850","id":"a67587zw015f","geo_precision":"zip","state":"MA"},"type":"Feature","geometry":{"type":"Point","coordinates":[-71.303671,42.627869]}},{"properties":{"city":"Lynn","geo_score":0.857,"zip code":"01901","id":"a67587sf6dq5","geo_precision":"zip","state":"MA"},"type":"Feature","geometry":{"type":"Point","coordinates":[-70.946743,42.461246]}},{"properties":{"city":"Lynnfield","geo_score":0.806,"zip code":"01940","id":"a67587wn1l0l","geo_precision":"zip","state":"MA"},"type":"Feature","geometry":{"type":"Point","coordinates":[-71.00144,42.516762]}},{"properties":{"city":"Malden","geo_score":0.732,"zip code":"02148","id":"a67587pkp1me","geo_precision":"zip","state":"MA"},"type":"Feature","geometry":{"type":"Point","coordinates":[-71.074497,42.434818]}},{"properties":{"city":"Manchester","geo_score":0.816,"zip code":"01944","id":"a67587xve59l","geo_precision":"zip","state":"MA"},"type":"Feature","geometry":{"type":"Point","coordinates":[-70.782825,42.566762]}},{"properties":{"city":"Manomet","geo_score":0.786,"zip code":"02345","id":"a67587vimm96","geo_precision":"zip","state":"MA"},"type":"Feature","geometry":{"type":"Point","coordinates":[-70.553643,41.925104]}},{"properties":{"city":"Marblehead","geo_score":0.816,"zip code":"01945","id":"a675885tds1n","geo_precision":"zip","state":"MA"},"type":"Feature","geometry":{"type":"Point","coordinates":[-70.836991,42.500096]}},{"properties":{"city":"Marstons Mills","geo_score":0.736,"zip code":"02648","id":"a675880f6573","geo_precision":"zip","state":"MA"},"type":"Feature","geometry":{"type":"Point","coordinates":[-70.438637,41.671776]}},{"properties":{"city":"Mashpee","geo_score":0.798,"zip code":"02649","id":"a67587zxq29d","geo_precision":"zip","state":"MA"},"type":"Feature","geometry":{"type":"Point","coordinates":[-70.476972,41.58261]}},{"properties":{"city":"Mattapan","geo_score":0.857,"zip code":"02126","id":"a67587zm7h4f","geo_precision":"zip","state":"MA"},"type":"Feature","geometry":{"type":"Point","coordinates":[-71.105195,42.301247]}},{"properties":{"city":"Mattapoisett","geo_score":0.714,"zip code":"02739","id":"a675884w3dpb","geo_precision":"zip","state":"MA"},"type":"Feature","geometry":{"type":"Point","coordinates":[-70.851148,41.683437]}},{"properties":{"city":"Maynard","geo_score":0.857,"zip code":"01754","id":"a675883otrao","geo_precision":"zip","state":"MA"},"type":"Feature","geometry":{"type":"Point","coordinates":[-71.459405,42.446396]}},{"properties":{"city":"Medford","geo_score":0.857,"zip code":"02153","id":"a67587quh2ca","geo_precision":"zip","state":"MA"},"type":"Feature","geometry":{"type":"Point","coordinates":[-71.459405,42.446396]}},{"properties":{"city":"Melrose","geo_score":0.714,"zip code":"02176","id":"a67587r7peeg","geo_precision":"zip","state":"MA"},"type":"Feature","geometry":{"type":"Point","coordinates":[-71.068941,42.454263]}},{"properties":{"city":"Merrimac","geo_score":0.81,"zip code":"01860","id":"a6758854ijnx","geo_precision":"zip","state":"MA"},"type":"Feature","geometry":{"type":"Point","coordinates":[-70.988389,42.827868]}},{"properties":{"city":"Middleboro","geo_score":0.857,"zip code":"02344","id":"a67587xph404","geo_precision":"zip","state":"MA"},"type":"Feature","geometry":{"type":"Point","coordinates":[-70.701357,41.970474]}},{"properties":{"city":"Middleton","geo_score":0.73,"zip code":"01949","id":"a67587sbgcyp","geo_precision":"zip","state":"MA"},"type":"Feature","geometry":{"type":"Point","coordinates":[-70.998108,42.594538]}},{"properties":{"city":"Millbury","geo_score":0.729,"zip code":"01527","id":"a675884xpl1x","geo_precision":"zip","state":"MA"},"type":"Feature","geometry":{"type":"Point","coordinates":[-71.799515,42.113985]}},{"properties":{"city":"Monument Beach","geo_score":0.857,"zip code":"02553","id":"a675883plpy1","geo_precision":"zip","state":"MA"},"type":"Feature","geometry":{"type":"Point","coordinates":[-70.608047,41.67336]}},{"properties":{"city":"Nahant","geo_score":0.786,"zip code":"01908","id":"a675881b3ilp","geo_precision":"zip","state":"MA"},"type":"Feature","geometry":{"type":"Point","coordinates":[-70.932826,42.436208]}},{"properties":{"city":"Newburyport","geo_score":0.762,"zip code":"01950","id":"a67587vr0g20","geo_precision":"zip","state":"MA"},"type":"Feature","geometry":{"type":"Point","coordinates":[-70.882831,42.869535]}},{"properties":{"city":"North Andover","geo_score":0.81,"zip code":"01845","id":"a67587z4rdxt","geo_precision":"zip","state":"MA"},"type":"Feature","geometry":{"type":"Point","coordinates":[-71.112001,42.683425]}},{"properties":{"city":"North Chatham","geo_score":0.75,"zip code":"02650","id":"a675880aq9o4","geo_precision":"zip","state":"MA"},"type":"Feature","geometry":{"type":"Point","coordinates":[-69.96946,41.702889]}},{"properties":{"city":"North Eastham","geo_score":0.732,"zip code":"02651","id":"a67587ugu8bu","geo_precision":"zip","state":"MA"},"type":"Feature","geometry":{"type":"Point","coordinates":[-70.00363,41.843719]}},{"properties":{"city":"North Falmouth","geo_score":0.724,"zip code":"02556","id":"a67587uo2i0n","geo_precision":"zip","state":"MA"},"type":"Feature","geometry":{"type":"Point","coordinates":[-70.636142,41.626774]}},{"properties":{"city":"North Oxford","geo_score":0.74,"zip code":"01537","id":"a67587x82e0l","geo_precision":"zip","state":"MA"},"type":"Feature","geometry":{"type":"Point","coordinates":[-71.892295,42.165372]}},{"properties":{"city":"North Reading","geo_score":0.857,"zip code":"01864","id":"a67587vyg4w3","geo_precision":"zip","state":"MA"},"type":"Feature","geometry":{"type":"Point","coordinates":[-71.083725,42.581332]}},{"properties":{"city":"North Truro","geo_score":0.727,"zip code":"02652","id":"a675883atre5","geo_precision":"zip","state":"MA"},"type":"Feature","geometry":{"type":"Point","coordinates":[-70.093914,42.030659]}},{"properties":{"city":"Northborough","geo_score":0.738,"zip code":"01532","id":"a67587vryi5e","geo_precision":"zip","state":"MA"},"type":"Feature","geometry":{"type":"Point","coordinates":[-71.629234,42.330094]}},{"properties":{"city":"Onset","geo_score":0.73,"zip code":"02558","id":"a67587w2t6xz","geo_precision":"zip","state":"MA"},"type":"Feature","geometry":{"type":"Point","coordinates":[-70.655033,41.750105]}},{"properties":{"city":"Orleans","geo_score":0.735,"zip code":"02653","id":"a67587u8pjd3","geo_precision":"zip","state":"MA"},"type":"Feature","geometry":{"type":"Point","coordinates":[-69.956406,41.805664]}},{"properties":{"city":"Osterville","geo_score":0.714,"zip code":"02655","id":"a67587yrx9co","geo_precision":"zip","state":"MA"},"type":"Feature","geometry":{"type":"Point","coordinates":[-70.385302,41.614]}},{"properties":{"city":"Oxford","geo_score":0.725,"zip code":"01540","id":"a67587t3qkxo","geo_precision":"zip","state":"MA"},"type":"Feature","geometry":{"type":"Point","coordinates":[-71.880906,42.118151]}},{"properties":{"city":"Paxton","geo_score":0.857,"zip code":"01612","id":"a67587yf593r","geo_precision":"zip","state":"MA"},"type":"Feature","geometry":{"type":"Point","coordinates":[-71.892875,42.304675]}},{"properties":{"city":"Pembroke","geo_score":0.736,"zip code":"02359","id":"a675884tmiqj","geo_precision":"zip","state":"MA"},"type":"Feature","geometry":{"type":"Point","coordinates":[-70.828652,42.066768]}},{"properties":{"city":"Plainville","geo_score":0.786,"zip code":"02762","id":"a67587qzaq8l","geo_precision":"zip","state":"MA"},"type":"Feature","geometry":{"type":"Point","coordinates":[-71.308388,42.023155]}},{"properties":{"city":"Plymouth","geo_score":0.726,"zip code":"02360","id":"a675880svibt","geo_precision":"zip","state":"MA"},"type":"Feature","geometry":{"type":"Point","coordinates":[-70.628645,41.937604]}},{"properties":{"city":"Pocasset","geo_score":0.738,"zip code":"02559","id":"a67587tynnk1","geo_precision":"zip","state":"MA"},"type":"Feature","geometry":{"type":"Point","coordinates":[-70.620309,41.700106]}},{"properties":{"city":"Provincetown","geo_score":0.732,"zip code":"02657","id":"a675885vecsv","geo_precision":"zip","state":"MA"},"type":"Feature","geometry":{"type":"Point","coordinates":[-70.152248,42.063992]}},{"properties":{"city":"Reading","geo_score":0.777,"zip code":"01867","id":"a675883xvso6","geo_precision":"zip","state":"MA"},"type":"Feature","geometry":{"type":"Point","coordinates":[-71.111999,42.525095]}},{"properties":{"city":"Revere","geo_score":0.726,"zip code":"02151","id":"a67587qzssbg","geo_precision":"zip","state":"MA"},"type":"Feature","geometry":{"type":"Point","coordinates":[-70.966161,42.440097]}},{"properties":{"city":"Rochester","geo_score":0.857,"zip code":"02770","id":"a67587rhr37p","geo_precision":"zip","state":"MA"},"type":"Feature","geometry":{"type":"Point","coordinates":[-70.846041,41.751812]}},{"properties":{"city":"Roslindale","geo_score":0.857,"zip code":"02131","id":"a67587rf8kyu","geo_precision":"zip","state":"MA"},"type":"Feature","geometry":{"type":"Point","coordinates":[-71.120896,42.284197]}},{"properties":{"city":"Rowley","geo_score":0.857,"zip code":"01969","id":"a67587w0kx7n","geo_precision":"zip","state":"MA"},"type":"Feature","geometry":{"type":"Point","coordinates":[-70.892754,42.716155]}},{"properties":{"city":"Sagamore","geo_score":0.782,"zip code":"02561","id":"a675881jtku4","geo_precision":"zip","state":"MA"},"type":"Feature","geometry":{"type":"Point","coordinates":[-70.535585,41.806772]}},{"properties":{"city":"Sagamore Beach","geo_score":0.857,"zip code":"02562","id":"a675884kswbs","geo_precision":"zip","state":"MA"},"type":"Feature","geometry":{"type":"Point","coordinates":[-70.519584,41.793263]}},{"properties":{"city":"Sandwich","geo_score":0.732,"zip code":"02563","id":"a67587saaloo","geo_precision":"zip","state":"MA"},"type":"Feature","geometry":{"type":"Point","coordinates":[-70.474194,41.677886]}},{"properties":{"city":"Saugus","geo_score":0.727,"zip code":"01906","id":"a67587y396kk","geo_precision":"zip","state":"MA"},"type":"Feature","geometry":{"type":"Point","coordinates":[-71.03144,42.471763]}},{"properties":{"city":"Shrewsbury","geo_score":0.743,"zip code":"01545","id":"a675883cf6pc","geo_precision":"zip","state":"MA"},"type":"Feature","geometry":{"type":"Point","coordinates":[-71.741181,42.248705]}},{"properties":{"city":"Somerville","geo_score":0.771,"zip code":"02143","id":"a67587ypm9xe","geo_precision":"zip","state":"MA"},"type":"Feature","geometry":{"type":"Point","coordinates":[-71.086997,42.396763]}},{"properties":{"city":"South Carver","geo_score":0.857,"zip code":"02366","id":"a67587ya4ga2","geo_precision":"zip","state":"MA"},"type":"Feature","geometry":{"type":"Point","coordinates":[-70.704431,41.850087]}},{"properties":{"city":"South Chatham","geo_score":0.857,"zip code":"02659","id":"a67587xa82i9","geo_precision":"zip","state":"MA"},"type":"Feature","geometry":{"type":"Point","coordinates":[-70.030194,41.848932]}},{"properties":{"city":"South Dennis","geo_score":0.857,"zip code":"02660","id":"a675880z9gi1","geo_precision":"zip","state":"MA"},"type":"Feature","geometry":{"type":"Point","coordinates":[-70.089244,41.80038]}},{"properties":{"city":"South Harwich","geo_score":0.857,"zip code":"02661","id":"a67587vdahgc","geo_precision":"zip","state":"MA"},"type":"Feature","geometry":{"type":"Point","coordinates":[-70.032858,41.686205]}},{"properties":{"city":"South Orleans","geo_score":0.857,"zip code":"02662","id":"a67587prf4il","geo_precision":"zip","state":"MA"},"type":"Feature","geometry":{"type":"Point","coordinates":[-69.984123,41.756694]}},{"properties":{"city":"South Wellfleet","geo_score":0.745,"zip code":"02663","id":"a67587pw21p0","geo_precision":"zip","state":"MA"},"type":"Feature","geometry":{"type":"Point","coordinates":[-69.977243,41.923717]}},{"properties":{"city":"South Yarmouth","geo_score":0.725,"zip code":"02664","id":"a67588001o9l","geo_precision":"zip","state":"MA"},"type":"Feature","geometry":{"type":"Point","coordinates":[-70.203631,41.652889]}},{"properties":{"city":"Southbridge","geo_score":0.74,"zip code":"01550","id":"a675881492me","geo_precision":"zip","state":"MA"},"type":"Feature","geometry":{"type":"Point","coordinates":[-71.982852,42.048707]}},{"properties":{"city":"Spencer","geo_score":0.741,"zip code":"01562","id":"a67587potozy","geo_precision":"zip","state":"MA"},"type":"Feature","geometry":{"type":"Point","coordinates":[-71.976741,42.272314]}},{"properties":{"city":"Stoneham","geo_score":0.729,"zip code":"02180","id":"a675883ate6q","geo_precision":"zip","state":"MA"},"type":"Feature","geometry":{"type":"Point","coordinates":[-71.107831,42.483429]}},{"properties":{"city":"Stow","geo_score":0.726,"zip code":"01775","id":"a67587wn658l","geo_precision":"zip","state":"MA"},"type":"Feature","geometry":{"type":"Point","coordinates":[-71.484508,42.433427]}},{"properties":{"city":"Sturbridge","geo_score":0.857,"zip code":"01566","id":"a6758808zu5c","geo_precision":"zip","state":"MA"},"type":"Feature","geometry":{"type":"Point","coordinates":[-72.080996,42.10273]}},{"properties":{"city":"Sudbury","geo_score":0.714,"zip code":"01776","id":"a675882b5cj5","geo_precision":"zip","state":"MA"},"type":"Feature","geometry":{"type":"Point","coordinates":[-71.437006,42.388983]}},{"properties":{"city":"Sutton","geo_score":0.735,"zip code":"01590","id":"a675880br6iv","geo_precision":"zip","state":"MA"},"type":"Feature","geometry":{"type":"Point","coordinates":[-71.720347,42.175095]}},{"properties":{"city":"Swampscott","geo_score":0.857,"zip code":"01907","id":"a67587zii9vu","geo_precision":"zip","state":"MA"},"type":"Feature","geometry":{"type":"Point","coordinates":[-70.905893,42.513295]}},{"properties":{"city":"Tewksbury","geo_score":0.73,"zip code":"01876","id":"a675883pc9oy","geo_precision":"zip","state":"MA"},"type":"Feature","geometry":{"type":"Point","coordinates":[-71.263392,42.625092]}},{"properties":{"city":"Topsfield","geo_score":0.857,"zip code":"01983","id":"a675881amux3","geo_precision":"zip","state":"MA"},"type":"Feature","geometry":{"type":"Point","coordinates":[-70.954487,42.661793]}},{"properties":{"city":"Truro","geo_score":0.786,"zip code":"02666","id":"a6758829gwuk","geo_precision":"zip","state":"MA"},"type":"Feature","geometry":{"type":"Point","coordinates":[-70.075301,41.965104]}},{"properties":{"city":"Tyngsboro","geo_score":0.857,"zip code":"01879","id":"a675882w6nf2","geo_precision":"zip","state":"MA"},"type":"Feature","geometry":{"type":"Point","coordinates":[-71.459405,42.446396]}},{"properties":{"city":"Village of Nagog Woods","geo_score":0.857,"zip code":"01718","id":"a67587ugolhk","geo_precision":"zip","state":"MA"},"type":"Feature","geometry":{"type":"Point","coordinates":[-71.459405,42.446396]}},{"properties":{"city":"Wakefield","geo_score":0.79,"zip code":"01880","id":"a67587urkyhi","geo_precision":"zip","state":"MA"},"type":"Feature","geometry":{"type":"Point","coordinates":[-71.07033,42.495929]}},{"properties":{"city":"Wales","geo_score":0.857,"zip code":"01081","id":"a67588385js2","geo_precision":"zip","state":"MA"},"type":"Feature","geometry":{"type":"Point","coordinates":[-72.213598,42.061948]}},{"properties":{"city":"Waltham","geo_score":0.857,"zip code":"02451","id":"a67587w7lt0i","geo_precision":"zip","state":"MA"},"type":"Feature","geometry":{"type":"Point","coordinates":[-71.24505,42.398588]}},{"properties":{"city":"Watertown","geo_score":0.857,"zip code":"02471","id":"a6758818dmvv","geo_precision":"zip","state":"MA"},"type":"Feature","geometry":{"type":"Point","coordinates":[-71.459405,42.446396]}},{"properties":{"city":"Wayland","geo_score":0.729,"zip code":"01778","id":"a67587pmxuzr","geo_precision":"zip","state":"MA"},"type":"Feature","geometry":{"type":"Point","coordinates":[-71.364226,42.320929]}},{"properties":{"city":"Wellfleet","geo_score":0.714,"zip code":"02667","id":"a6758857tv2b","geo_precision":"zip","state":"MA"},"type":"Feature","geometry":{"type":"Point","coordinates":[-70.041133,41.930661]}},{"properties":{"city":"Wenham","geo_score":0.857,"zip code":"01984","id":"a67587tjavk8","geo_precision":"zip","state":"MA"},"type":"Feature","geometry":{"type":"Point","coordinates":[-70.8732,42.597691]}},{"properties":{"city":"West Barnstable","geo_score":0.857,"zip code":"02668","id":"a675880f3ydk","geo_precision":"zip","state":"MA"},"type":"Feature","geometry":{"type":"Point","coordinates":[-70.201719,41.79055]}},{"properties":{"city":"West Chatham","geo_score":0.857,"zip code":"02669","id":"a67587q5zpy6","geo_precision":"zip","state":"MA"},"type":"Feature","geometry":{"type":"Point","coordinates":[-70.004937,41.698721]}},{"properties":{"city":"West Dennis","geo_score":0.857,"zip code":"02670","id":"a67587ynsq69","geo_precision":"zip","state":"MA"},"type":"Feature","geometry":{"type":"Point","coordinates":[-70.072195,41.710855]}},{"properties":{"city":"West Falmouth","geo_score":0.75,"zip code":"02574","id":"a67587xfo8z1","geo_precision":"zip","state":"MA"},"type":"Feature","geometry":{"type":"Point","coordinates":[-70.649475,41.604274]}},{"properties":{"city":"West Harwich","geo_score":0.857,"zip code":"02671","id":"a67587v9a8sc","geo_precision":"zip","state":"MA"},"type":"Feature","geometry":{"type":"Point","coordinates":[-70.038282,41.846719]}},{"properties":{"city":"West Hyannisport","geo_score":0.857,"zip code":"02672","id":"a67587s0xrh7","geo_precision":"zip","state":"MA"},"type":"Feature","geometry":{"type":"Point","coordinates":[-70.323307,41.635635]}},{"properties":{"city":"West Roxbury","geo_score":0.857,"zip code":"02132","id":"a67587w7xr4n","geo_precision":"zip","state":"MA"},"type":"Feature","geometry":{"type":"Point","coordinates":[-71.155833,42.277897]}},{"properties":{"city":"West Wareham","geo_score":0.723,"zip code":"02576","id":"a67587z6hb0t","geo_precision":"zip","state":"MA"},"type":"Feature","geometry":{"type":"Point","coordinates":[-70.770315,41.833436]}},{"properties":{"city":"West Yarmouth","geo_score":0.738,"zip code":"02673","id":"a675880pjhi5","geo_precision":"zip","state":"MA"},"type":"Feature","geometry":{"type":"Point","coordinates":[-70.246687,41.645945]}},{"properties":{"city":"Westford","geo_score":0.714,"zip code":"01886","id":"a6758834ctno","geo_precision":"zip","state":"MA"},"type":"Feature","geometry":{"type":"Point","coordinates":[-71.420341,42.612591]}},{"properties":{"city":"White Horse Beach","geo_score":0.771,"zip code":"02381","id":"a67587xup0fp","geo_precision":"zip","state":"MA"},"type":"Feature","geometry":{"type":"Point","coordinates":[-70.566143,41.932049]}},{"properties":{"city":"Wilmington","geo_score":0.743,"zip code":"01887","id":"a67587tgpypb","geo_precision":"zip","state":"MA"},"type":"Feature","geometry":{"type":"Point","coordinates":[-71.191168,42.569538]}},{"properties":{"city":"Winchester","geo_score":0.789,"zip code":"01890","id":"a67587ymk1fc","geo_precision":"zip","state":"MA"},"type":"Feature","geometry":{"type":"Point","coordinates":[-71.125887,42.466762]}},{"properties":{"city":"Winthrop","geo_score":0.782,"zip code":"02152","id":"a67587qt30xc","geo_precision":"zip","state":"MA"},"type":"Feature","geometry":{"type":"Point","coordinates":[-70.971716,42.387597]}},{"properties":{"city":"Woburn","geo_score":0.743,"zip code":"01801","id":"a675885l4ove","geo_precision":"zip","state":"MA"},"type":"Feature","geometry":{"type":"Point","coordinates":[-71.128665,42.495928]}},{"properties":{"city":"Woods Hole","geo_score":0.857,"zip code":"02543","id":"a67587ttqvoq","geo_precision":"zip","state":"MA"},"type":"Feature","geometry":{"type":"Point","coordinates":[-70.646442,41.593809]}},{"properties":{"city":"Yarmouth Port","geo_score":0.857,"zip code":"02675","id":"a67587s9d9ew","geo_precision":"zip","state":"MA"},"type":"Feature","geometry":{"type":"Point","coordinates":[-70.135884,41.716271]}}],"is_temporal":false,"author":{"url":"","metadata":"","contact_name":"","contact_address":"","source":"","contact_phone":""},"source":"","pagination":{"sort":null,"start":0,"total":165,"limit":1000000},"state":"complete","tags":"casella,mass,service","published":"2014-08-10T16:32:05-04:00","id":63788}