{"type":"FeatureCollection","data_type":"Dataset","url_type":null,"permissions":[{"permissions":{"download":true,"view":true},"group_id":"everyone"}],"classification":null,"title":"tix2010","count":673,"stream_id":64269,"contributor":{"url":"http://geocommons.com/users/16196","name":"nelsonlo"},"data_attributes":null,"calculation_params":null,"icon_link":null,"link":"http://geocommons.com/overlays/64269.json","extent":[-161.77,20.8486,-69.3392,60.7228],"geometry_types":["point"],"unique_name":null,"name":"tix2010","feature_count":673,"description":"","next_feature":null,"is_raster":false,"short_classification":"Y","stats":{"geo_score":{"max":0.714,"mean":0.710817236255571,"variance":0.00226572994056466,"stdev":0.0475996842485816,"min":0.0,"median":0.714},"value":{"max":2,"mean":2.0,"variance":0.0,"stdev":0.0,"min":2,"median":2}},"features":[{"properties":{"zip":"01001","geo_score":0.714,"value":2,"id":"a62h21vajl6q","geo_precision":"zip"},"type":"Feature","geometry":{"type":"Point","coordinates":[-72.788661,42.140549]}},{"properties":{"zip":"01002","geo_score":0.714,"value":2,"id":"a62h21v3azh1","geo_precision":"zip"},"type":"Feature","geometry":{"type":"Point","coordinates":[-72.470364,42.377868]}},{"properties":{"zip":"01013","geo_score":0.714,"value":2,"id":"a62h21w48b74","geo_precision":"zip"},"type":"Feature","geometry":{"type":"Point","coordinates":[-72.667341,42.161492]}},{"properties":{"zip":"01069","geo_score":0.714,"value":2,"id":"a62h21lcj7wu","geo_precision":"zip"},"type":"Feature","geometry":{"type":"Point","coordinates":[-72.260635,42.175649]}},{"properties":{"zip":"01095","geo_score":0.714,"value":2,"id":"a62h21ytb9i5","geo_precision":"zip"},"type":"Feature","geometry":{"type":"Point","coordinates":[-72.489988,42.125974]}},{"properties":{"zip":"01106","geo_score":0.714,"value":2,"id":"a62h21rlvjy3","geo_precision":"zip"},"type":"Feature","geometry":{"type":"Point","coordinates":[-72.567882,42.049194]}},{"properties":{"zip":"01108","geo_score":0.714,"value":2,"id":"a62h21llevp5","geo_precision":"zip"},"type":"Feature","geometry":{"type":"Point","coordinates":[-72.570366,42.090372]}},{"properties":{"zip":"01605","geo_score":0.714,"value":2,"id":"a62h21tomu0s","geo_precision":"zip"},"type":"Feature","geometry":{"type":"Point","coordinates":[-71.796128,42.288792]}},{"properties":{"zip":"01773","geo_score":0.714,"value":2,"id":"a62h21nf2qae","geo_precision":"zip"},"type":"Feature","geometry":{"type":"Point","coordinates":[-71.325892,42.413984]}},{"properties":{"zip":"01960","geo_score":0.714,"value":2,"id":"a62h21lebgxc","geo_precision":"zip"},"type":"Feature","geometry":{"type":"Point","coordinates":[-70.949495,42.509818]}},{"properties":{"zip":"02025","geo_score":0.714,"value":2,"id":"a62h21pnjhxd","geo_precision":"zip"},"type":"Feature","geometry":{"type":"Point","coordinates":[-70.842545,42.258434]}},{"properties":{"zip":"02048","geo_score":0.714,"value":2,"id":"a62h21ujxkir","geo_precision":"zip"},"type":"Feature","geometry":{"type":"Point","coordinates":[-71.24533,41.998155]}},{"properties":{"zip":"02116","geo_score":0.714,"value":2,"id":"a62h21rsob46","geo_precision":"zip"},"type":"Feature","geometry":{"type":"Point","coordinates":[-71.086095,42.347207]}},{"properties":{"zip":"02135","geo_score":0.714,"value":2,"id":"a62h21lia1qz","geo_precision":"zip"},"type":"Feature","geometry":{"type":"Point","coordinates":[-71.104888,42.349768]}},{"properties":{"zip":"02144","geo_score":0.714,"value":2,"id":"a62h21usbz8p","geo_precision":"zip"},"type":"Feature","geometry":{"type":"Point","coordinates":[-71.122553,42.39593]}},{"properties":{"zip":"02151","geo_score":0.714,"value":2,"id":"a62h21yhezur","geo_precision":"zip"},"type":"Feature","geometry":{"type":"Point","coordinates":[-70.966161,42.440097]}},{"properties":{"zip":"02176","geo_score":0.714,"value":2,"id":"a62h21x1es0d","geo_precision":"zip"},"type":"Feature","geometry":{"type":"Point","coordinates":[-71.068941,42.454263]}},{"properties":{"zip":"02492","geo_score":0.714,"value":2,"id":"a62h21oq6798","geo_precision":"zip"},"type":"Feature","geometry":{"type":"Point","coordinates":[-71.25006,42.279797]}},{"properties":{"zip":"02571","geo_score":0.714,"value":2,"id":"a62h21z66jmk","geo_precision":"zip"},"type":"Feature","geometry":{"type":"Point","coordinates":[-70.726146,41.76677]}},{"properties":{"zip":"02675","geo_score":0.714,"value":2,"id":"a62h21qlmzkx","geo_precision":"zip"},"type":"Feature","geometry":{"type":"Point","coordinates":[-70.135884,41.716271]}},{"properties":{"zip":"02779","geo_score":0.714,"value":2,"id":"a62h21sm99jw","geo_precision":"zip"},"type":"Feature","geometry":{"type":"Point","coordinates":[-71.064135,41.828249]}},{"properties":{"zip":"02826","geo_score":0.714,"value":2,"id":"a62h21w24w3n","geo_precision":"zip"},"type":"Feature","geometry":{"type":"Point","coordinates":[-71.600848,41.982417]}},{"properties":{"zip":"02859","geo_score":0.714,"value":2,"id":"a62h21qo5f4j","geo_precision":"zip"},"type":"Feature","geometry":{"type":"Point","coordinates":[-71.708957,41.967876]}},{"properties":{"zip":"02906","geo_score":0.714,"value":2,"id":"a62h21xyr8op","geo_precision":"zip"},"type":"Feature","geometry":{"type":"Point","coordinates":[-71.394717,41.8374]}},{"properties":{"zip":"03038","geo_score":0.714,"value":2,"id":"a62h21oxywqr","geo_precision":"zip"},"type":"Feature","geometry":{"type":"Point","coordinates":[-71.312008,42.891753]}},{"properties":{"zip":"03049","geo_score":0.714,"value":2,"id":"a62h21svjm0b","geo_precision":"zip"},"type":"Feature","geometry":{"type":"Point","coordinates":[-71.581313,42.859545]}},{"properties":{"zip":"03064","geo_score":0.714,"value":2,"id":"a62h21pxltrs","geo_precision":"zip"},"type":"Feature","geometry":{"type":"Point","coordinates":[-71.628611,42.774237]}},{"properties":{"zip":"03079","geo_score":0.714,"value":2,"id":"a62h21rn0hwq","geo_precision":"zip"},"type":"Feature","geometry":{"type":"Point","coordinates":[-71.226449,42.786756]}},{"properties":{"zip":"03223","geo_score":0.714,"value":2,"id":"a62h21tblyik","geo_precision":"zip"},"type":"Feature","geometry":{"type":"Point","coordinates":[-71.632856,43.85896]}},{"properties":{"zip":"03264","geo_score":0.714,"value":2,"id":"a62h21l58hy0","geo_precision":"zip"},"type":"Feature","geometry":{"type":"Point","coordinates":[-71.762302,43.770349]}},{"properties":{"zip":"03458","geo_score":0.714,"value":2,"id":"a62h21v6gm6o","geo_precision":"zip"},"type":"Feature","geometry":{"type":"Point","coordinates":[-71.915634,42.813141]}},{"properties":{"zip":"03848","geo_score":0.714,"value":2,"id":"a62h21lzri7v","geo_precision":"zip"},"type":"Feature","geometry":{"type":"Point","coordinates":[-71.081447,42.880644]}},{"properties":{"zip":"04103","geo_score":0.714,"value":2,"id":"a62h21r4pzp3","geo_precision":"zip"},"type":"Feature","geometry":{"type":"Point","coordinates":[-70.289844,43.68826]}},{"properties":{"zip":"04210","geo_score":0.714,"value":2,"id":"a62h21ktc18r","geo_precision":"zip"},"type":"Feature","geometry":{"type":"Point","coordinates":[-70.271166,44.127294]}},{"properties":{"zip":"04941","geo_score":0.714,"value":2,"id":"a62h21wtw02d","geo_precision":"zip"},"type":"Feature","geometry":{"type":"Point","coordinates":[-69.339221,44.488583]}},{"properties":{"zip":"05031","geo_score":0.714,"value":2,"id":"a62h21ndfyjf","geo_precision":"zip"},"type":"Feature","geometry":{"type":"Point","coordinates":[-72.54586,43.657625]}},{"properties":{"zip":"05039","geo_score":0.714,"value":2,"id":"a62h21ux1r9i","geo_precision":"zip"},"type":"Feature","geometry":{"type":"Point","coordinates":[-72.33593,44.041454]}},{"properties":{"zip":"05255","geo_score":0.714,"value":2,"id":"a62h21nruy0v","geo_precision":"zip"},"type":"Feature","geometry":{"type":"Point","coordinates":[-73.021215,43.189798]}},{"properties":{"zip":"05257","geo_score":0.714,"value":2,"id":"a62h21t5wpt1","geo_precision":"zip"},"type":"Feature","geometry":{"type":"Point","coordinates":[-73.265665,42.936189]}},{"properties":{"zip":"05401","geo_score":0.714,"value":2,"id":"a62h21ueadb0","geo_precision":"zip"},"type":"Feature","geometry":{"type":"Point","coordinates":[-73.17096,44.466994]}},{"properties":{"zip":"05446","geo_score":0.714,"value":2,"id":"a62h21nzau6l","geo_precision":"zip"},"type":"Feature","geometry":{"type":"Point","coordinates":[-73.103897,44.535557]}},{"properties":{"zip":"05450","geo_score":0.714,"value":2,"id":"a62h21x3oxbf","geo_precision":"zip"},"type":"Feature","geometry":{"type":"Point","coordinates":[-72.659569,44.864769]}},{"properties":{"zip":"05465","geo_score":0.714,"value":2,"id":"a62h21z1b4o7","geo_precision":"zip"},"type":"Feature","geometry":{"type":"Point","coordinates":[-72.897901,44.445608]}},{"properties":{"zip":"05489","geo_score":0.714,"value":2,"id":"a62h220wzvp3","geo_precision":"zip"},"type":"Feature","geometry":{"type":"Point","coordinates":[-72.866512,44.505052]}},{"properties":{"zip":"05602","geo_score":0.714,"value":2,"id":"a62h21wd7fyj","geo_precision":"zip"},"type":"Feature","geometry":{"type":"Point","coordinates":[-72.578722,44.311447]}},{"properties":{"zip":"05656","geo_score":0.714,"value":2,"id":"a62h21nfswx1","geo_precision":"zip"},"type":"Feature","geometry":{"type":"Point","coordinates":[-72.661508,44.640051]}},{"properties":{"zip":"05660","geo_score":0.714,"value":2,"id":"a62h21n09aiq","geo_precision":"zip"},"type":"Feature","geometry":{"type":"Point","coordinates":[-72.786506,44.248669]}},{"properties":{"zip":"05672","geo_score":0.714,"value":2,"id":"a62h21s2hyr8","geo_precision":"zip"},"type":"Feature","geometry":{"type":"Point","coordinates":[-72.715952,44.47422]}},{"properties":{"zip":"05735","geo_score":0.714,"value":2,"id":"a62h21l5ptgc","geo_precision":"zip"},"type":"Feature","geometry":{"type":"Point","coordinates":[-73.138166,43.693121]}},{"properties":{"zip":"05764","geo_score":0.714,"value":2,"id":"a62h21nexlzo","geo_precision":"zip"},"type":"Feature","geometry":{"type":"Point","coordinates":[-73.235942,43.475626]}},{"properties":{"zip":"05774","geo_score":0.714,"value":2,"id":"a62h21z2gpa9","geo_precision":"zip"},"type":"Feature","geometry":{"type":"Point","coordinates":[-73.161826,43.429363]}},{"properties":{"zip":"06010","geo_score":0.714,"value":2,"id":"a62h21us4swn","geo_precision":"zip"},"type":"Feature","geometry":{"type":"Point","coordinates":[-72.942048,41.733154]}},{"properties":{"zip":"06020","geo_score":0.714,"value":2,"id":"a62h21m5lwj5","geo_precision":"zip"},"type":"Feature","geometry":{"type":"Point","coordinates":[-72.902811,41.853921]}},{"properties":{"zip":"06040","geo_score":0.714,"value":2,"id":"a62h21kxqvun","geo_precision":"zip"},"type":"Feature","geometry":{"type":"Point","coordinates":[-72.421195,41.864542]}},{"properties":{"zip":"06118","geo_score":0.714,"value":2,"id":"a62h21lsvqon","geo_precision":"zip"},"type":"Feature","geometry":{"type":"Point","coordinates":[-72.633702,41.740656]}},{"properties":{"zip":"06239","geo_score":0.714,"value":2,"id":"a62h21mbcfi4","geo_precision":"zip"},"type":"Feature","geometry":{"type":"Point","coordinates":[-71.833127,41.79121]}},{"properties":{"zip":"06351","geo_score":0.714,"value":2,"id":"a62h21lrxekz","geo_precision":"zip"},"type":"Feature","geometry":{"type":"Point","coordinates":[-71.940629,41.584265]}},{"properties":{"zip":"06385","geo_score":0.714,"value":2,"id":"a62h21ztqhte","geo_precision":"zip"},"type":"Feature","geometry":{"type":"Point","coordinates":[-72.145355,41.310098]}},{"properties":{"zip":"06484","geo_score":0.714,"value":2,"id":"a62h21nnes5y","geo_precision":"zip"},"type":"Feature","geometry":{"type":"Point","coordinates":[-73.095386,41.261764]}},{"properties":{"zip":"06511","geo_score":0.714,"value":2,"id":"a62h21r9ex89","geo_precision":"zip"},"type":"Feature","geometry":{"type":"Point","coordinates":[-72.926046,41.310547]}},{"properties":{"zip":"06706","geo_score":0.714,"value":2,"id":"a62h21ujp2zy","geo_precision":"zip"},"type":"Feature","geometry":{"type":"Point","coordinates":[-73.026951,41.535346]}},{"properties":{"zip":"06786","geo_score":0.714,"value":2,"id":"a62h21qql0az","geo_precision":"zip"},"type":"Feature","geometry":{"type":"Point","coordinates":[-72.998161,41.693153]}},{"properties":{"zip":"06790","geo_score":0.714,"value":2,"id":"a62h21xb0fng","geo_precision":"zip"},"type":"Feature","geometry":{"type":"Point","coordinates":[-73.143722,41.81843]}},{"properties":{"zip":"06801","geo_score":0.714,"value":2,"id":"a62h21ormawz","geo_precision":"zip"},"type":"Feature","geometry":{"type":"Point","coordinates":[-73.39908,41.381244]}},{"properties":{"zip":"06877","geo_score":0.714,"value":2,"id":"a62h21u8zxih","geo_precision":"zip"},"type":"Feature","geometry":{"type":"Point","coordinates":[-73.503457,41.292318]}},{"properties":{"zip":"07024","geo_score":0.714,"value":2,"id":"a62h21tcmqt1","geo_precision":"zip"},"type":"Feature","geometry":{"type":"Point","coordinates":[-73.962082,40.864267]}},{"properties":{"zip":"07039","geo_score":0.714,"value":2,"id":"a62h21wpz5op","geo_precision":"zip"},"type":"Feature","geometry":{"type":"Point","coordinates":[-74.324594,40.774267]}},{"properties":{"zip":"07073","geo_score":0.714,"value":2,"id":"a62h21xfss7i","geo_precision":"zip"},"type":"Feature","geometry":{"type":"Point","coordinates":[-74.110698,40.846489]}},{"properties":{"zip":"07421","geo_score":0.714,"value":2,"id":"a62h21wu2f97","geo_precision":"zip"},"type":"Feature","geometry":{"type":"Point","coordinates":[-74.382098,41.181762]}},{"properties":{"zip":"07462","geo_score":0.714,"value":2,"id":"a62h21t4d5e2","geo_precision":"zip"},"type":"Feature","geometry":{"type":"Point","coordinates":[-74.51434,41.189046]}},{"properties":{"zip":"07470","geo_score":0.714,"value":2,"id":"a62h21mdjafl","geo_precision":"zip"},"type":"Feature","geometry":{"type":"Point","coordinates":[-74.262092,40.991764]}},{"properties":{"zip":"07630","geo_score":0.714,"value":2,"id":"a62h21tsdn9u","geo_precision":"zip"},"type":"Feature","geometry":{"type":"Point","coordinates":[-74.021118,40.973199]}},{"properties":{"zip":"07642","geo_score":0.714,"value":2,"id":"a62h21wdsu5c","geo_precision":"zip"},"type":"Feature","geometry":{"type":"Point","coordinates":[-74.042084,41.011764]}},{"properties":{"zip":"07724","geo_score":0.714,"value":2,"id":"a62h21zv1i5c","geo_precision":"zip"},"type":"Feature","geometry":{"type":"Point","coordinates":[-74.095418,40.280667]}},{"properties":{"zip":"07731","geo_score":0.714,"value":2,"id":"a62h21tqxuz2","geo_precision":"zip"},"type":"Feature","geometry":{"type":"Point","coordinates":[-74.19678,40.258361]}},{"properties":{"zip":"07760","geo_score":0.714,"value":2,"id":"a62h220ie7cj","geo_precision":"zip"},"type":"Feature","geometry":{"type":"Point","coordinates":[-73.975138,40.379832]}},{"properties":{"zip":"08087","geo_score":0.714,"value":2,"id":"a62h21w3phjw","geo_precision":"zip"},"type":"Feature","geometry":{"type":"Point","coordinates":[-74.353479,39.601507]}},{"properties":{"zip":"08088","geo_score":0.714,"value":2,"id":"a62h21wbw8bg","geo_precision":"zip"},"type":"Feature","geometry":{"type":"Point","coordinates":[-74.710159,39.844005]}},{"properties":{"zip":"08319","geo_score":0.714,"value":2,"id":"a62h21lrehir","geo_precision":"zip"},"type":"Feature","geometry":{"type":"Point","coordinates":[-74.747108,39.395949]}},{"properties":{"zip":"08550","geo_score":0.714,"value":2,"id":"a62h21ref9f0","geo_precision":"zip"},"type":"Feature","geometry":{"type":"Point","coordinates":[-74.609323,40.316775]}},{"properties":{"zip":"08559","geo_score":0.714,"value":2,"id":"a62h21r3o4xb","geo_precision":"zip"},"type":"Feature","geometry":{"type":"Point","coordinates":[-74.916833,40.469271]}},{"properties":{"zip":"08854","geo_score":0.714,"value":2,"id":"a62h21vgcsfv","geo_precision":"zip"},"type":"Feature","geometry":{"type":"Point","coordinates":[-74.474598,40.515382]}},{"properties":{"zip":"08865","geo_score":0.714,"value":2,"id":"a62h21o143rk","geo_precision":"zip"},"type":"Feature","geometry":{"type":"Point","coordinates":[-75.140453,40.720654]}},{"properties":{"zip":"10075","geo_score":0.714,"value":2,"id":"a62h21wejm6t","geo_precision":"zip"},"type":"Feature","geometry":{"type":"Point","coordinates":[-74.005973,40.714269]}},{"properties":{"zip":"10507","geo_score":0.714,"value":2,"id":"a62h21t6blzi","geo_precision":"zip"},"type":"Feature","geometry":{"type":"Point","coordinates":[-73.697998,41.229037]}},{"properties":{"zip":"10536","geo_score":0.714,"value":2,"id":"a62h21ozsaqx","geo_precision":"zip"},"type":"Feature","geometry":{"type":"Point","coordinates":[-73.722909,41.308983]}},{"properties":{"zip":"10566","geo_score":0.714,"value":2,"id":"a62h21to9z58","geo_precision":"zip"},"type":"Feature","geometry":{"type":"Point","coordinates":[-73.903749,41.314816]}},{"properties":{"zip":"10570","geo_score":0.714,"value":2,"id":"a62h21sr3kiw","geo_precision":"zip"},"type":"Feature","geometry":{"type":"Point","coordinates":[-73.792214,41.131069]}},{"properties":{"zip":"10598","geo_score":0.714,"value":2,"id":"a62h21q1v9d6","geo_precision":"zip"},"type":"Feature","geometry":{"type":"Point","coordinates":[-73.80819,41.29565]}},{"properties":{"zip":"10705","geo_score":0.714,"value":2,"id":"a62h21sxsaj4","geo_precision":"zip"},"type":"Feature","geometry":{"type":"Point","coordinates":[-73.872529,40.926538]}},{"properties":{"zip":"10990","geo_score":0.714,"value":2,"id":"a62h220dllzr","geo_precision":"zip"},"type":"Feature","geometry":{"type":"Point","coordinates":[-74.326541,41.270927]}},{"properties":{"zip":"10992","geo_score":0.714,"value":2,"id":"a62h21po94ja","geo_precision":"zip"},"type":"Feature","geometry":{"type":"Point","coordinates":[-74.345433,41.407974]}},{"properties":{"zip":"11375","geo_score":0.714,"value":2,"id":"a62h21roppmi","geo_precision":"zip"},"type":"Feature","geometry":{"type":"Point","coordinates":[-73.850969,40.710658]}},{"properties":{"zip":"11530","geo_score":0.714,"value":2,"id":"a62h21oufnqt","geo_precision":"zip"},"type":"Feature","geometry":{"type":"Point","coordinates":[-73.688464,40.719269]}},{"properties":{"zip":"11733","geo_score":0.714,"value":2,"id":"a62h21z6j8av","geo_precision":"zip"},"type":"Feature","geometry":{"type":"Point","coordinates":[-73.083996,40.950932]}},{"properties":{"zip":"11746","geo_score":0.714,"value":2,"id":"a62h21p784bp","geo_precision":"zip"},"type":"Feature","geometry":{"type":"Point","coordinates":[-73.398731,40.82371]}},{"properties":{"zip":"11754","geo_score":0.714,"value":2,"id":"a62h21pa6h3l","geo_precision":"zip"},"type":"Feature","geometry":{"type":"Point","coordinates":[-73.220669,40.882042]}},{"properties":{"zip":"11756","geo_score":0.714,"value":2,"id":"a62h21v1ed1f","geo_precision":"zip"},"type":"Feature","geometry":{"type":"Point","coordinates":[-73.483736,40.717322]}},{"properties":{"zip":"11762","geo_score":0.714,"value":2,"id":"a62h21wkoxb4","geo_precision":"zip"},"type":"Feature","geometry":{"type":"Point","coordinates":[-73.601772,40.754757]}},{"properties":{"zip":"11942","geo_score":0.714,"value":2,"id":"a62h21nmc1w5","geo_precision":"zip"},"type":"Feature","geometry":{"type":"Point","coordinates":[-72.637078,40.922326]}},{"properties":{"zip":"12010","geo_score":0.714,"value":2,"id":"a62h21z0c3xl","geo_precision":"zip"},"type":"Feature","geometry":{"type":"Point","coordinates":[-74.269856,43.012574]}},{"properties":{"zip":"12019","geo_score":0.714,"value":2,"id":"a62h21n4q5ai","geo_precision":"zip"},"type":"Feature","geometry":{"type":"Point","coordinates":[-73.938458,42.903132]}},{"properties":{"zip":"12020","geo_score":0.714,"value":2,"id":"a62h21lwcvtj","geo_precision":"zip"},"type":"Feature","geometry":{"type":"Point","coordinates":[-73.929291,43.037575]}},{"properties":{"zip":"12023","geo_score":0.714,"value":2,"id":"a62h21nzdyoj","geo_precision":"zip"},"type":"Feature","geometry":{"type":"Point","coordinates":[-74.100133,42.558411]}},{"properties":{"zip":"12035","geo_score":0.714,"value":2,"id":"a62h220aayru","geo_precision":"zip"},"type":"Feature","geometry":{"type":"Point","coordinates":[-74.331244,42.706464]}},{"properties":{"zip":"12047","geo_score":0.714,"value":2,"id":"a62h21zhq5e3","geo_precision":"zip"},"type":"Feature","geometry":{"type":"Point","coordinates":[-73.756231,42.792022]}},{"properties":{"zip":"12054","geo_score":0.714,"value":2,"id":"a62h21u67geq","geo_precision":"zip"},"type":"Feature","geometry":{"type":"Point","coordinates":[-73.887903,42.60119]}},{"properties":{"zip":"12067","geo_score":0.714,"value":2,"id":"a62h21wgvei3","geo_precision":"zip"},"type":"Feature","geometry":{"type":"Point","coordinates":[-73.913714,42.555446]}},{"properties":{"zip":"12074","geo_score":0.714,"value":2,"id":"a62h21m1kvq0","geo_precision":"zip"},"type":"Feature","geometry":{"type":"Point","coordinates":[-74.018738,43.061741]}},{"properties":{"zip":"12084","geo_score":0.714,"value":2,"id":"a62h21taahx6","geo_precision":"zip"},"type":"Feature","geometry":{"type":"Point","coordinates":[-73.960324,42.703519]}},{"properties":{"zip":"12116","geo_score":0.714,"value":2,"id":"a62h21udy1f3","geo_precision":"zip"},"type":"Feature","geometry":{"type":"Point","coordinates":[-74.957104,42.491745]}},{"properties":{"zip":"12118","geo_score":0.714,"value":2,"id":"a62h21z2x786","geo_precision":"zip"},"type":"Feature","geometry":{"type":"Point","coordinates":[-73.720675,42.919799]}},{"properties":{"zip":"12122","geo_score":0.714,"value":2,"id":"a62h21uphsbl","geo_precision":"zip"},"type":"Feature","geometry":{"type":"Point","coordinates":[-74.353194,42.595632]}},{"properties":{"zip":"12150","geo_score":0.714,"value":2,"id":"a62h21ugdh8c","geo_precision":"zip"},"type":"Feature","geometry":{"type":"Point","coordinates":[-74.050083,42.869961]}},{"properties":{"zip":"12154","geo_score":0.714,"value":2,"id":"a62h220tt2g0","geo_precision":"zip"},"type":"Feature","geometry":{"type":"Point","coordinates":[-73.605672,42.878688]}},{"properties":{"zip":"12170","geo_score":0.714,"value":2,"id":"a62h21qxpphv","geo_precision":"zip"},"type":"Feature","geometry":{"type":"Point","coordinates":[-73.694563,43.010076]}},{"properties":{"zip":"12182","geo_score":0.714,"value":2,"id":"a62h21rfjdq6","geo_precision":"zip"},"type":"Feature","geometry":{"type":"Point","coordinates":[-73.634284,42.804522]}},{"properties":{"zip":"12189","geo_score":0.714,"value":2,"id":"a62h21my4xq3","geo_precision":"zip"},"type":"Feature","geometry":{"type":"Point","coordinates":[-73.720318,42.736277]}},{"properties":{"zip":"12198","geo_score":0.714,"value":2,"id":"a62h21p6rvhl","geo_precision":"zip"},"type":"Feature","geometry":{"type":"Point","coordinates":[-73.606194,42.676167]}},{"properties":{"zip":"12203","geo_score":0.714,"value":2,"id":"a62h21w68gmd","geo_precision":"zip"},"type":"Feature","geometry":{"type":"Point","coordinates":[-73.868734,42.691189]}},{"properties":{"zip":"12205","geo_score":0.714,"value":2,"id":"a62h21xd4xc0","geo_precision":"zip"},"type":"Feature","geometry":{"type":"Point","coordinates":[-73.8629,42.743966]}},{"properties":{"zip":"12208","geo_score":0.714,"value":2,"id":"a62h21lpkre8","geo_precision":"zip"},"type":"Feature","geometry":{"type":"Point","coordinates":[-73.845956,42.670079]}},{"properties":{"zip":"12210","geo_score":0.714,"value":2,"id":"a62h21m0r8ii","geo_precision":"zip"},"type":"Feature","geometry":{"type":"Point","coordinates":[-73.758115,42.683079]}},{"properties":{"zip":"12303","geo_score":0.714,"value":2,"id":"a62h21pfudik","geo_precision":"zip"},"type":"Feature","geometry":{"type":"Point","coordinates":[-73.970958,42.787021]}},{"properties":{"zip":"12304","geo_score":0.714,"value":2,"id":"a62h21ys8uy8","geo_precision":"zip"},"type":"Feature","geometry":{"type":"Point","coordinates":[-73.899917,42.788176]}},{"properties":{"zip":"12305","geo_score":0.714,"value":2,"id":"a62h21zvwhow","geo_precision":"zip"},"type":"Feature","geometry":{"type":"Point","coordinates":[-73.943368,42.812776]}},{"properties":{"zip":"12306","geo_score":0.714,"value":2,"id":"a62h21mlr31g","geo_precision":"zip"},"type":"Feature","geometry":{"type":"Point","coordinates":[-73.969569,42.794243]}},{"properties":{"zip":"12414","geo_score":0.714,"value":2,"id":"a62h21qq1fjg","geo_precision":"zip"},"type":"Feature","geometry":{"type":"Point","coordinates":[-73.875684,42.308419]}},{"properties":{"zip":"12463","geo_score":0.714,"value":2,"id":"a62h21mooouu","geo_precision":"zip"},"type":"Feature","geometry":{"type":"Point","coordinates":[-74.013746,42.202311]}},{"properties":{"zip":"12498","geo_score":0.714,"value":2,"id":"a62h21ku7443","geo_precision":"zip"},"type":"Feature","geometry":{"type":"Point","coordinates":[-74.076252,42.016759]}},{"properties":{"zip":"12553","geo_score":0.714,"value":2,"id":"a62h21wtarf6","geo_precision":"zip"},"type":"Feature","geometry":{"type":"Point","coordinates":[-74.311974,41.413667]}},{"properties":{"zip":"12563","geo_score":0.714,"value":2,"id":"a62h220sn7yp","geo_precision":"zip"},"type":"Feature","geometry":{"type":"Point","coordinates":[-73.570682,41.484538]}},{"properties":{"zip":"12571","geo_score":0.714,"value":2,"id":"a62h21m3y7nw","geo_precision":"zip"},"type":"Feature","geometry":{"type":"Point","coordinates":[-73.844576,42.029814]}},{"properties":{"zip":"12572","geo_score":0.714,"value":2,"id":"a62h21mug7w4","geo_precision":"zip"},"type":"Feature","geometry":{"type":"Point","coordinates":[-73.867078,41.895926]}},{"properties":{"zip":"12590","geo_score":0.714,"value":2,"id":"a62h21mt5gus","geo_precision":"zip"},"type":"Feature","geometry":{"type":"Point","coordinates":[-73.870691,41.622871]}},{"properties":{"zip":"12768","geo_score":0.714,"value":2,"id":"a62h21ys4u08","geo_precision":"zip"},"type":"Feature","geometry":{"type":"Point","coordinates":[-74.857261,41.841414]}},{"properties":{"zip":"12776","geo_score":0.714,"value":2,"id":"a62h21l8nmu7","geo_precision":"zip"},"type":"Feature","geometry":{"type":"Point","coordinates":[-74.976553,41.895088]}},{"properties":{"zip":"12816","geo_score":0.714,"value":2,"id":"a62h21zgr4k6","geo_precision":"zip"},"type":"Feature","geometry":{"type":"Point","coordinates":[-73.358445,43.052855]}},{"properties":{"zip":"12828","geo_score":0.714,"value":2,"id":"a62h21l721a6","geo_precision":"zip"},"type":"Feature","geometry":{"type":"Point","coordinates":[-73.577893,43.160908]}},{"properties":{"zip":"12832","geo_score":0.714,"value":2,"id":"a62h21l43uxd","geo_precision":"zip"},"type":"Feature","geometry":{"type":"Point","coordinates":[-73.324832,43.450348]}},{"properties":{"zip":"12866","geo_score":0.714,"value":2,"id":"a62h21n4qwl0","geo_precision":"zip"},"type":"Feature","geometry":{"type":"Point","coordinates":[-73.758175,43.067575]}},{"properties":{"zip":"12887","geo_score":0.714,"value":2,"id":"a62h21pnck1y","geo_precision":"zip"},"type":"Feature","geometry":{"type":"Point","coordinates":[-73.298445,43.5859]}},{"properties":{"zip":"12901","geo_score":0.714,"value":2,"id":"a62h21u9eqzc","geo_precision":"zip"},"type":"Feature","geometry":{"type":"Point","coordinates":[-73.411801,44.722543]}},{"properties":{"zip":"12961","geo_score":0.714,"value":2,"id":"a62h21z4bmy6","geo_precision":"zip"},"type":"Feature","geometry":{"type":"Point","coordinates":[-73.534677,44.055155]}},{"properties":{"zip":"12965","geo_score":0.714,"value":2,"id":"a62h21vsvezi","geo_precision":"zip"},"type":"Feature","geometry":{"type":"Point","coordinates":[-74.678121,44.726424]}},{"properties":{"zip":"12972","geo_score":0.714,"value":2,"id":"a62h21qzptdp","geo_precision":"zip"},"type":"Feature","geometry":{"type":"Point","coordinates":[-73.439856,44.605045]}},{"properties":{"zip":"12983","geo_score":0.714,"value":2,"id":"a62h21ulu946","geo_precision":"zip"},"type":"Feature","geometry":{"type":"Point","coordinates":[-74.143489,44.35283]}},{"properties":{"zip":"12986","geo_score":0.714,"value":2,"id":"a62h21pxnhqu","geo_precision":"zip"},"type":"Feature","geometry":{"type":"Point","coordinates":[-74.484892,44.227838]}},{"properties":{"zip":"13021","geo_score":0.714,"value":2,"id":"a62h21mgcvqd","geo_precision":"zip"},"type":"Feature","geometry":{"type":"Point","coordinates":[-76.601888,42.973122]}},{"properties":{"zip":"13027","geo_score":0.714,"value":2,"id":"a62h21z6bjtf","geo_precision":"zip"},"type":"Feature","geometry":{"type":"Point","coordinates":[-76.302152,43.113678]}},{"properties":{"zip":"13028","geo_score":0.714,"value":2,"id":"a62h21wrtk7v","geo_precision":"zip"},"type":"Feature","geometry":{"type":"Point","coordinates":[-75.90047,43.326181]}},{"properties":{"zip":"13029","geo_score":0.714,"value":2,"id":"a62h21qvvl7y","geo_precision":"zip"},"type":"Feature","geometry":{"type":"Point","coordinates":[-76.140648,43.227448]}},{"properties":{"zip":"13031","geo_score":0.714,"value":2,"id":"a62h21tyc0qk","geo_precision":"zip"},"type":"Feature","geometry":{"type":"Point","coordinates":[-76.274929,43.047844]}},{"properties":{"zip":"13032","geo_score":0.714,"value":2,"id":"a62h21uz1yjb","geo_precision":"zip"},"type":"Feature","geometry":{"type":"Point","coordinates":[-75.790743,43.13229]}},{"properties":{"zip":"13033","geo_score":0.714,"value":2,"id":"a62h21pjjrdd","geo_precision":"zip"},"type":"Feature","geometry":{"type":"Point","coordinates":[-76.654393,43.197289]}},{"properties":{"zip":"13035","geo_score":0.714,"value":2,"id":"a62h21p1h8ko","geo_precision":"zip"},"type":"Feature","geometry":{"type":"Point","coordinates":[-75.868248,42.912011]}},{"properties":{"zip":"13037","geo_score":0.714,"value":2,"id":"a62h21ln3tkl","geo_precision":"zip"},"type":"Feature","geometry":{"type":"Point","coordinates":[-75.846857,43.054512]}},{"properties":{"zip":"13039","geo_score":0.714,"value":2,"id":"a62h21vb0mkv","geo_precision":"zip"},"type":"Feature","geometry":{"type":"Point","coordinates":[-76.154128,43.125491]}},{"properties":{"zip":"13041","geo_score":0.714,"value":2,"id":"a62h21l1lp2e","geo_precision":"zip"},"type":"Feature","geometry":{"type":"Point","coordinates":[-76.277985,43.200901]}},{"properties":{"zip":"13045","geo_score":0.714,"value":2,"id":"a62h21wt9x8s","geo_precision":"zip"},"type":"Feature","geometry":{"type":"Point","coordinates":[-76.194374,42.510627]}},{"properties":{"zip":"13054","geo_score":0.714,"value":2,"id":"a62h21y29n7m","geo_precision":"zip"},"type":"Feature","geometry":{"type":"Point","coordinates":[-75.676572,43.145902]}},{"properties":{"zip":"13057","geo_score":0.714,"value":2,"id":"a62h21vyp1p1","geo_precision":"zip"},"type":"Feature","geometry":{"type":"Point","coordinates":[-76.030198,43.064511]}},{"properties":{"zip":"13066","geo_score":0.714,"value":2,"id":"a62h21wxret3","geo_precision":"zip"},"type":"Feature","geometry":{"type":"Point","coordinates":[-76.054088,43.029233]}},{"properties":{"zip":"13069","geo_score":0.714,"value":2,"id":"a62h21o10kws","geo_precision":"zip"},"type":"Feature","geometry":{"type":"Point","coordinates":[-76.357712,43.342846]}},{"properties":{"zip":"13074","geo_score":0.714,"value":2,"id":"a62h21vfgnoc","geo_precision":"zip"},"type":"Feature","geometry":{"type":"Point","coordinates":[-76.524108,43.262568]}},{"properties":{"zip":"13077","geo_score":0.714,"value":2,"id":"a62h21ue1azp","geo_precision":"zip"},"type":"Feature","geometry":{"type":"Point","coordinates":[-76.26493,42.804512]}},{"properties":{"zip":"13078","geo_score":0.714,"value":2,"id":"a62h21yp53zr","geo_precision":"zip"},"type":"Feature","geometry":{"type":"Point","coordinates":[-76.108812,42.996177]}},{"properties":{"zip":"13080","geo_score":0.714,"value":2,"id":"a62h21z8b89q","geo_precision":"zip"},"type":"Feature","geometry":{"type":"Point","coordinates":[-76.439657,43.067413]}},{"properties":{"zip":"13082","geo_score":0.714,"value":2,"id":"a62h21qdh3u3","geo_precision":"zip"},"type":"Feature","geometry":{"type":"Point","coordinates":[-75.977141,43.09979]}},{"properties":{"zip":"13083","geo_score":0.714,"value":2,"id":"a62h21xd0y0u","geo_precision":"zip"},"type":"Feature","geometry":{"type":"Point","coordinates":[-75.962419,43.641458]}},{"properties":{"zip":"13084","geo_score":0.714,"value":2,"id":"a62h21uiq3sa","geo_precision":"zip"},"type":"Feature","geometry":{"type":"Point","coordinates":[-76.087979,42.889511]}},{"properties":{"zip":"13088","geo_score":0.714,"value":2,"id":"a62h21zdkloq","geo_precision":"zip"},"type":"Feature","geometry":{"type":"Point","coordinates":[-76.243261,43.118123]}},{"properties":{"zip":"13090","geo_score":0.714,"value":2,"id":"a62h21vv3rbg","geo_precision":"zip"},"type":"Feature","geometry":{"type":"Point","coordinates":[-76.223459,43.152767]}},{"properties":{"zip":"13104","geo_score":0.714,"value":2,"id":"a62h21qm9z6u","geo_precision":"zip"},"type":"Feature","geometry":{"type":"Point","coordinates":[-75.982142,42.950067]}},{"properties":{"zip":"13108","geo_score":0.714,"value":2,"id":"a62h21n7kpm8","geo_precision":"zip"},"type":"Feature","geometry":{"type":"Point","coordinates":[-76.273818,42.927567]}},{"properties":{"zip":"13110","geo_score":0.714,"value":2,"id":"a62h21riamyj","geo_precision":"zip"},"type":"Feature","geometry":{"type":"Point","coordinates":[-76.253262,42.848123]}},{"properties":{"zip":"13114","geo_score":0.714,"value":2,"id":"a62h21l9oy8m","geo_precision":"zip"},"type":"Feature","geometry":{"type":"Point","coordinates":[-76.277708,43.417014]}},{"properties":{"zip":"13116","geo_score":0.714,"value":2,"id":"a62h21xhwt2h","geo_precision":"zip"},"type":"Feature","geometry":{"type":"Point","coordinates":[-76.006001,43.076828]}},{"properties":{"zip":"13118","geo_score":0.714,"value":2,"id":"a62h21ojntfm","geo_precision":"zip"},"type":"Feature","geometry":{"type":"Point","coordinates":[-76.459381,42.758403]}},{"properties":{"zip":"13120","geo_score":0.714,"value":2,"id":"a62h21uo068o","geo_precision":"zip"},"type":"Feature","geometry":{"type":"Point","coordinates":[-76.212705,42.930344]}},{"properties":{"zip":"13122","geo_score":0.714,"value":2,"id":"a62h21ouk07v","geo_precision":"zip"},"type":"Feature","geometry":{"type":"Point","coordinates":[-75.85266,42.825164]}},{"properties":{"zip":"13126","geo_score":0.714,"value":2,"id":"a62h21pegiaq","geo_precision":"zip"},"type":"Feature","geometry":{"type":"Point","coordinates":[-76.577446,43.412568]}},{"properties":{"zip":"13131","geo_score":0.714,"value":2,"id":"a62h2212d8b3","geo_precision":"zip"},"type":"Feature","geometry":{"type":"Point","coordinates":[-76.081589,43.461459]}},{"properties":{"zip":"13132","geo_score":0.714,"value":2,"id":"a62h21s535gf","geo_precision":"zip"},"type":"Feature","geometry":{"type":"Point","coordinates":[-76.230206,43.255902]}},{"properties":{"zip":"13135","geo_score":0.714,"value":2,"id":"a62h21ly69e7","geo_precision":"zip"},"type":"Feature","geometry":{"type":"Point","coordinates":[-76.358544,43.217846]}},{"properties":{"zip":"13143","geo_score":0.714,"value":2,"id":"a62h220de9a9","geo_precision":"zip"},"type":"Feature","geometry":{"type":"Point","coordinates":[-76.710785,43.214789]}},{"properties":{"zip":"13145","geo_score":0.714,"value":2,"id":"a62h21mlwps6","geo_precision":"zip"},"type":"Feature","geometry":{"type":"Point","coordinates":[-76.11029,43.621562]}},{"properties":{"zip":"13146","geo_score":0.714,"value":2,"id":"a62h21qlm3ka","geo_precision":"zip"},"type":"Feature","geometry":{"type":"Point","coordinates":[-76.762705,43.099386]}},{"properties":{"zip":"13148","geo_score":0.714,"value":2,"id":"a62h21z7ffxc","geo_precision":"zip"},"type":"Feature","geometry":{"type":"Point","coordinates":[-76.802178,42.991176]}},{"properties":{"zip":"13152","geo_score":0.714,"value":2,"id":"a62h21vqrcb3","geo_precision":"zip"},"type":"Feature","geometry":{"type":"Point","coordinates":[-76.41049,42.888956]}},{"properties":{"zip":"13164","geo_score":0.714,"value":2,"id":"a62h21zl3orj","geo_precision":"zip"},"type":"Feature","geometry":{"type":"Point","coordinates":[-76.328542,43.078678]}},{"properties":{"zip":"13165","geo_score":0.714,"value":2,"id":"a62h21s54ouk","geo_precision":"zip"},"type":"Feature","geometry":{"type":"Point","coordinates":[-76.882263,42.892556]}},{"properties":{"zip":"13166","geo_score":0.714,"value":2,"id":"a62h21wz8iuc","geo_precision":"zip"},"type":"Feature","geometry":{"type":"Point","coordinates":[-76.592721,43.040899]}},{"properties":{"zip":"13167","geo_score":0.714,"value":2,"id":"a62h21nh5uld","geo_precision":"zip"},"type":"Feature","geometry":{"type":"Point","coordinates":[-75.985474,43.384514]}},{"properties":{"zip":"13190","geo_score":0.0,"value":2,"id":"a62h21o75bij","geo_precision":"unmatched"},"type":"Feature","geometry":null},{"properties":{"zip":"13202","geo_score":0.714,"value":2,"id":"a62h21pnd8g3","geo_precision":"zip"},"type":"Feature","geometry":{"type":"Point","coordinates":[-76.150796,43.043116]}},{"properties":{"zip":"13203","geo_score":0.714,"value":2,"id":"a62h21mndrmt","geo_precision":"zip"},"type":"Feature","geometry":{"type":"Point","coordinates":[-76.134145,43.062016]}},{"properties":{"zip":"13204","geo_score":0.714,"value":2,"id":"a62h21ptfbxy","geo_precision":"zip"},"type":"Feature","geometry":{"type":"Point","coordinates":[-76.177597,43.055766]}},{"properties":{"zip":"13206","geo_score":0.714,"value":2,"id":"a62h21rgvbkb","geo_precision":"zip"},"type":"Feature","geometry":{"type":"Point","coordinates":[-76.104645,43.066178]}},{"properties":{"zip":"13207","geo_score":0.714,"value":2,"id":"a62h21pwyrly","geo_precision":"zip"},"type":"Feature","geometry":{"type":"Point","coordinates":[-76.170596,43.012216]}},{"properties":{"zip":"13208","geo_score":0.714,"value":2,"id":"a62h21w1xvvt","geo_precision":"zip"},"type":"Feature","geometry":{"type":"Point","coordinates":[-76.125757,43.081456]}},{"properties":{"zip":"13209","geo_score":0.714,"value":2,"id":"a62h21x68rpo","geo_precision":"zip"},"type":"Feature","geometry":{"type":"Point","coordinates":[-76.286318,43.120067]}},{"properties":{"zip":"13210","geo_score":0.714,"value":2,"id":"a62h21r7lslt","geo_precision":"zip"},"type":"Feature","geometry":{"type":"Point","coordinates":[-76.110995,43.031416]}},{"properties":{"zip":"13212","geo_score":0.714,"value":2,"id":"a62h21l4moyl","geo_precision":"zip"},"type":"Feature","geometry":{"type":"Point","coordinates":[-76.145758,43.115345]}},{"properties":{"zip":"13214","geo_score":0.714,"value":2,"id":"a62h21t3wmxn","geo_precision":"zip"},"type":"Feature","geometry":{"type":"Point","coordinates":[-76.072978,43.038678]}},{"properties":{"zip":"13215","geo_score":0.714,"value":2,"id":"a62h21mxqtjw","geo_precision":"zip"},"type":"Feature","geometry":{"type":"Point","coordinates":[-76.249372,42.9659]}},{"properties":{"zip":"13219","geo_score":0.714,"value":2,"id":"a62h21tjr05i","geo_precision":"zip"},"type":"Feature","geometry":{"type":"Point","coordinates":[-76.220482,43.047567]}},{"properties":{"zip":"13302","geo_score":0.714,"value":2,"id":"a62h21x8he7f","geo_precision":"zip"},"type":"Feature","geometry":{"type":"Point","coordinates":[-75.921305,43.498126]}},{"properties":{"zip":"13319","geo_score":0.714,"value":2,"id":"a62h21ru2ca6","geo_precision":"zip"},"type":"Feature","geometry":{"type":"Point","coordinates":[-75.264008,43.028469]}},{"properties":{"zip":"13322","geo_score":0.714,"value":2,"id":"a62h21zj2te4","geo_precision":"zip"},"type":"Feature","geometry":{"type":"Point","coordinates":[-75.233003,42.961973]}},{"properties":{"zip":"13323","geo_score":0.714,"value":2,"id":"a62h21vw60ik","geo_precision":"zip"},"type":"Feature","geometry":{"type":"Point","coordinates":[-75.431562,43.079792]}},{"properties":{"zip":"13326","geo_score":0.714,"value":2,"id":"a62h21lkuxij","geo_precision":"zip"},"type":"Feature","geometry":{"type":"Point","coordinates":[-74.89432,42.709797]}},{"properties":{"zip":"13340","geo_score":0.714,"value":2,"id":"a62h21q55m2n","geo_precision":"zip"},"type":"Feature","geometry":{"type":"Point","coordinates":[-75.16544,43.087848]}},{"properties":{"zip":"13346","geo_score":0.714,"value":2,"id":"a62h21xl96ix","geo_precision":"zip"},"type":"Feature","geometry":{"type":"Point","coordinates":[-75.566847,42.795069]}},{"properties":{"zip":"13348","geo_score":0.714,"value":2,"id":"a62h220hkxcr","geo_precision":"zip"},"type":"Feature","geometry":{"type":"Point","coordinates":[-75.063214,42.732574]}},{"properties":{"zip":"13354","geo_score":0.714,"value":2,"id":"a62h21ywdh8b","geo_precision":"zip"},"type":"Feature","geometry":{"type":"Point","coordinates":[-75.244612,43.293681]}},{"properties":{"zip":"13357","geo_score":0.714,"value":2,"id":"a62h21s9zcck","geo_precision":"zip"},"type":"Feature","geometry":{"type":"Point","coordinates":[-75.040157,42.967571]}},{"properties":{"zip":"13413","geo_score":0.714,"value":2,"id":"a62h21q9f266","geo_precision":"zip"},"type":"Feature","geometry":{"type":"Point","coordinates":[-75.290911,43.067369]}},{"properties":{"zip":"13420","geo_score":0.714,"value":2,"id":"a62h21s0boi8","geo_precision":"zip"},"type":"Feature","geometry":{"type":"Point","coordinates":[-74.873176,43.752203]}},{"properties":{"zip":"13421","geo_score":0.714,"value":2,"id":"a62h21wnny9a","geo_precision":"zip"},"type":"Feature","geometry":{"type":"Point","coordinates":[-75.632403,43.054235]}},{"properties":{"zip":"13438","geo_score":0.714,"value":2,"id":"a62h220gq6y9","geo_precision":"zip"},"type":"Feature","geometry":{"type":"Point","coordinates":[-75.016549,43.449791]}},{"properties":{"zip":"13440","geo_score":0.714,"value":2,"id":"a62h21ntrf8r","geo_precision":"zip"},"type":"Feature","geometry":{"type":"Point","coordinates":[-75.414896,43.250903]}},{"properties":{"zip":"13461","geo_score":0.714,"value":2,"id":"a62h21wc0efa","geo_precision":"zip"},"type":"Feature","geometry":{"type":"Point","coordinates":[-75.580839,43.074349]}},{"properties":{"zip":"13476","geo_score":0.714,"value":2,"id":"a62h21oula9r","geo_precision":"zip"},"type":"Feature","geometry":{"type":"Point","coordinates":[-75.50161,43.092924]}},{"properties":{"zip":"13478","geo_score":0.714,"value":2,"id":"a62h21q4105j","geo_precision":"zip"},"type":"Feature","geometry":{"type":"Point","coordinates":[-75.576291,43.189791]}},{"properties":{"zip":"13492","geo_score":0.714,"value":2,"id":"a62h21uzendn","geo_precision":"zip"},"type":"Feature","geometry":{"type":"Point","coordinates":[-75.365448,43.115347]}},{"properties":{"zip":"13493","geo_score":0.714,"value":2,"id":"a62h21pu1jsb","geo_precision":"zip"},"type":"Feature","geometry":{"type":"Point","coordinates":[-75.941861,43.368959]}},{"properties":{"zip":"13501","geo_score":0.714,"value":2,"id":"a62h21zoj32a","geo_precision":"zip"},"type":"Feature","geometry":{"type":"Point","coordinates":[-75.233208,43.077369]}},{"properties":{"zip":"13502","geo_score":0.714,"value":2,"id":"a62h21w2od38","geo_precision":"zip"},"type":"Feature","geometry":{"type":"Point","coordinates":[-75.125995,43.225625]}},{"properties":{"zip":"13601","geo_score":0.714,"value":2,"id":"a62h21yc1iwk","geo_precision":"zip"},"type":"Feature","geometry":{"type":"Point","coordinates":[-75.806865,43.954509]}},{"properties":{"zip":"13605","geo_score":0.714,"value":2,"id":"a62h21ntd6ta","geo_precision":"zip"},"type":"Feature","geometry":{"type":"Point","coordinates":[-76.074646,43.813954]}},{"properties":{"zip":"13606","geo_score":0.714,"value":2,"id":"a62h21n5sbxp","geo_precision":"zip"},"type":"Feature","geometry":{"type":"Point","coordinates":[-76.007188,43.831853]}},{"properties":{"zip":"13624","geo_score":0.714,"value":2,"id":"a62h21ujqud6","geo_precision":"zip"},"type":"Feature","geometry":{"type":"Point","coordinates":[-76.142724,44.283379]}},{"properties":{"zip":"13654","geo_score":0.714,"value":2,"id":"a62h21x5lkwb","geo_precision":"zip"},"type":"Feature","geometry":{"type":"Point","coordinates":[-75.580785,44.484783]}},{"properties":{"zip":"13669","geo_score":0.714,"value":2,"id":"a62h21v8xaj6","geo_precision":"zip"},"type":"Feature","geometry":{"type":"Point","coordinates":[-75.634957,44.598116]}},{"properties":{"zip":"13691","geo_score":0.714,"value":2,"id":"a62h21w8dico","geo_precision":"zip"},"type":"Feature","geometry":{"type":"Point","coordinates":[-75.767059,44.220448]}},{"properties":{"zip":"13697","geo_score":0.714,"value":2,"id":"a62h21xy9q2b","geo_precision":"zip"},"type":"Feature","geometry":{"type":"Point","coordinates":[-74.831584,44.759499]}},{"properties":{"zip":"13732","geo_score":0.714,"value":2,"id":"a62h21zvw5cu","geo_precision":"zip"},"type":"Feature","geometry":{"type":"Point","coordinates":[-76.155206,42.019241]}},{"properties":{"zip":"13743","geo_score":0.714,"value":2,"id":"a62h21lm24ev","geo_precision":"zip"},"type":"Feature","geometry":{"type":"Point","coordinates":[-76.417716,42.220352]}},{"properties":{"zip":"13748","geo_score":0.714,"value":2,"id":"a62h21npxj0j","geo_precision":"zip"},"type":"Feature","geometry":{"type":"Point","coordinates":[-75.809834,42.108659]}},{"properties":{"zip":"13756","geo_score":0.714,"value":2,"id":"a62h21tor2ay","geo_precision":"zip"},"type":"Feature","geometry":{"type":"Point","coordinates":[-75.096834,41.980643]}},{"properties":{"zip":"13760","geo_score":0.714,"value":2,"id":"a62h21ql3g1p","geo_precision":"zip"},"type":"Feature","geometry":{"type":"Point","coordinates":[-76.069092,42.151464]}},{"properties":{"zip":"13775","geo_score":0.714,"value":2,"id":"a62h21ubsorf","geo_precision":"zip"},"type":"Feature","geometry":{"type":"Point","coordinates":[-75.127389,42.359804]}},{"properties":{"zip":"13790","geo_score":0.714,"value":2,"id":"a62h21uml0vb","geo_precision":"zip"},"type":"Feature","geometry":{"type":"Point","coordinates":[-75.975477,42.115908]}},{"properties":{"zip":"13807","geo_score":0.714,"value":2,"id":"a62h21t1cgqf","geo_precision":"zip"},"type":"Feature","geometry":{"type":"Point","coordinates":[-74.975717,42.601799]}},{"properties":{"zip":"13815","geo_score":0.714,"value":2,"id":"a62h21vjojdc","geo_precision":"zip"},"type":"Feature","geometry":{"type":"Point","coordinates":[-75.473513,42.519518]}},{"properties":{"zip":"13835","geo_score":0.714,"value":2,"id":"a62h21ttmdy4","geo_precision":"zip"},"type":"Feature","geometry":{"type":"Point","coordinates":[-76.201319,42.411462]}},{"properties":{"zip":"13850","geo_score":0.714,"value":2,"id":"a62h21mfsrm8","geo_precision":"zip"},"type":"Feature","geometry":{"type":"Point","coordinates":[-75.990477,42.102297]}},{"properties":{"zip":"13856","geo_score":0.714,"value":2,"id":"a62h21naei0b","geo_precision":"zip"},"type":"Feature","geometry":{"type":"Point","coordinates":[-75.174058,42.011198]}},{"properties":{"zip":"13865","geo_score":0.714,"value":2,"id":"a62h21t0ie0o","geo_precision":"zip"},"type":"Feature","geometry":{"type":"Point","coordinates":[-75.764078,42.098966]}},{"properties":{"zip":"13901","geo_score":0.714,"value":2,"id":"a62h21wqflts","geo_precision":"zip"},"type":"Feature","geometry":{"type":"Point","coordinates":[-75.896307,42.133409]}},{"properties":{"zip":"13903","geo_score":0.714,"value":2,"id":"a62h21p80be5","geo_precision":"zip"},"type":"Feature","geometry":{"type":"Point","coordinates":[-75.912973,42.069798]}},{"properties":{"zip":"13904","geo_score":0.714,"value":2,"id":"a62h21zzy024","geo_precision":"zip"},"type":"Feature","geometry":{"type":"Point","coordinates":[-75.7488,42.14341]}},{"properties":{"zip":"13905","geo_score":0.714,"value":2,"id":"a62h21s84twe","geo_precision":"zip"},"type":"Feature","geometry":{"type":"Point","coordinates":[-75.962699,42.200631]}},{"properties":{"zip":"14001","geo_score":0.714,"value":2,"id":"a62h21wn9i0n","geo_precision":"zip"},"type":"Feature","geometry":{"type":"Point","coordinates":[-78.518081,43.111447]}},{"properties":{"zip":"14004","geo_score":0.714,"value":2,"id":"a62h21ymi0uz","geo_precision":"zip"},"type":"Feature","geometry":{"type":"Point","coordinates":[-78.516412,42.82756]}},{"properties":{"zip":"14006","geo_score":0.714,"value":2,"id":"a62h21w19bzv","geo_precision":"zip"},"type":"Feature","geometry":{"type":"Point","coordinates":[-79.066983,42.624226]}},{"properties":{"zip":"14009","geo_score":0.714,"value":2,"id":"a62h21yorwsl","geo_precision":"zip"},"type":"Feature","geometry":{"type":"Point","coordinates":[-78.34446,42.570618]}},{"properties":{"zip":"14011","geo_score":0.714,"value":2,"id":"a62h21q0nned","geo_precision":"zip"},"type":"Feature","geometry":{"type":"Point","coordinates":[-78.263626,42.793394]}},{"properties":{"zip":"14020","geo_score":0.714,"value":2,"id":"a62h21v158ei","geo_precision":"zip"},"type":"Feature","geometry":{"type":"Point","coordinates":[-78.299463,42.979782]}},{"properties":{"zip":"14021","geo_score":0.714,"value":2,"id":"a62h21xrwsda","geo_precision":"zip"},"type":"Feature","geometry":{"type":"Point","coordinates":[-78.184813,42.998052]}},{"properties":{"zip":"14025","geo_score":0.714,"value":2,"id":"a62h21woth94","geo_precision":"zip"},"type":"Feature","geometry":{"type":"Point","coordinates":[-78.747529,42.657838]}},{"properties":{"zip":"14031","geo_score":0.714,"value":2,"id":"a62h21vjmtet","geo_precision":"zip"},"type":"Feature","geometry":{"type":"Point","coordinates":[-78.586971,43.03117]}},{"properties":{"zip":"14032","geo_score":0.714,"value":2,"id":"a62h21tsb7do","geo_precision":"zip"},"type":"Feature","geometry":{"type":"Point","coordinates":[-78.636973,43.058114]}},{"properties":{"zip":"14036","geo_score":0.714,"value":2,"id":"a62h21raenjx","geo_precision":"zip"},"type":"Feature","geometry":{"type":"Point","coordinates":[-78.434744,42.997559]}},{"properties":{"zip":"14037","geo_score":0.714,"value":2,"id":"a62h21x03ggk","geo_precision":"zip"},"type":"Feature","geometry":{"type":"Point","coordinates":[-78.448076,42.827282]}},{"properties":{"zip":"14043","geo_score":0.714,"value":2,"id":"a62h21oyzmdu","geo_precision":"zip"},"type":"Feature","geometry":{"type":"Point","coordinates":[-78.707872,42.898958]}},{"properties":{"zip":"14047","geo_score":0.714,"value":2,"id":"a62h21scrcng","geo_precision":"zip"},"type":"Feature","geometry":{"type":"Point","coordinates":[-79.015038,42.683115]}},{"properties":{"zip":"14048","geo_score":0.714,"value":2,"id":"a62h21s2k1w0","geo_precision":"zip"},"type":"Feature","geometry":{"type":"Point","coordinates":[-79.406434,42.450335]}},{"properties":{"zip":"14051","geo_score":0.714,"value":2,"id":"a62h21uqb04b","geo_precision":"zip"},"type":"Feature","geometry":{"type":"Point","coordinates":[-78.696698,43.08478]}},{"properties":{"zip":"14052","geo_score":0.714,"value":2,"id":"a62h21uf4c7x","geo_precision":"zip"},"type":"Feature","geometry":{"type":"Point","coordinates":[-78.65586,42.745338]}},{"properties":{"zip":"14058","geo_score":0.714,"value":2,"id":"a62h21xzznez","geo_precision":"zip"},"type":"Feature","geometry":{"type":"Point","coordinates":[-78.16261,43.088434]}},{"properties":{"zip":"14059","geo_score":0.714,"value":2,"id":"a62h21nxobfy","geo_precision":"zip"},"type":"Feature","geometry":{"type":"Point","coordinates":[-78.628966,42.828309]}},{"properties":{"zip":"14063","geo_score":0.714,"value":2,"id":"a62h21slx1wb","geo_precision":"zip"},"type":"Feature","geometry":{"type":"Point","coordinates":[-79.298655,42.386725]}},{"properties":{"zip":"14068","geo_score":0.714,"value":2,"id":"a62h21m5awqt","geo_precision":"zip"},"type":"Feature","geometry":{"type":"Point","coordinates":[-78.798923,43.030057]}},{"properties":{"zip":"14069","geo_score":0.714,"value":2,"id":"a62h21oecdl8","geo_precision":"zip"},"type":"Feature","geometry":{"type":"Point","coordinates":[-78.639976,42.610187]}},{"properties":{"zip":"14070","geo_score":0.714,"value":2,"id":"a62h21ob2728","geo_precision":"zip"},"type":"Feature","geometry":{"type":"Point","coordinates":[-78.957537,42.373117]}},{"properties":{"zip":"14072","geo_score":0.714,"value":2,"id":"a62h21r7529x","geo_precision":"zip"},"type":"Feature","geometry":{"type":"Point","coordinates":[-78.959763,43.056445]}},{"properties":{"zip":"14075","geo_score":0.714,"value":2,"id":"a62h21ljnuw7","geo_precision":"zip"},"type":"Feature","geometry":{"type":"Point","coordinates":[-78.850033,42.705615]}},{"properties":{"zip":"14081","geo_score":0.714,"value":2,"id":"a62h21wthoz4","geo_precision":"zip"},"type":"Feature","geometry":{"type":"Point","coordinates":[-79.133373,42.563114]}},{"properties":{"zip":"14085","geo_score":0.714,"value":2,"id":"a62h21lbcbkz","geo_precision":"zip"},"type":"Feature","geometry":{"type":"Point","coordinates":[-78.935036,42.732281]}},{"properties":{"zip":"14086","geo_score":0.714,"value":2,"id":"a62h21p8gchm","geo_precision":"zip"},"type":"Feature","geometry":{"type":"Point","coordinates":[-78.632137,42.907658]}},{"properties":{"zip":"14094","geo_score":0.714,"value":2,"id":"a62h21r0u7yn","geo_precision":"zip"},"type":"Feature","geometry":{"type":"Point","coordinates":[-78.676977,43.222557]}},{"properties":{"zip":"14098","geo_score":0.714,"value":2,"id":"a62h21o6tp6r","geo_precision":"zip"},"type":"Feature","geometry":{"type":"Point","coordinates":[-78.388914,43.375057]}},{"properties":{"zip":"14103","geo_score":0.714,"value":2,"id":"a62h220nqxvy","geo_precision":"zip"},"type":"Feature","geometry":{"type":"Point","coordinates":[-78.436969,43.159225]}},{"properties":{"zip":"14105","geo_score":0.714,"value":2,"id":"a62h21tj5st1","geo_precision":"zip"},"type":"Feature","geometry":{"type":"Point","coordinates":[-78.502849,43.196947]}},{"properties":{"zip":"14120","geo_score":0.714,"value":2,"id":"a62h21ripb9i","geo_precision":"zip"},"type":"Feature","geometry":{"type":"Point","coordinates":[-78.852814,43.060613]}},{"properties":{"zip":"14125","geo_score":0.714,"value":2,"id":"a62h21xnmyz4","geo_precision":"zip"},"type":"Feature","geometry":{"type":"Point","coordinates":[-78.247242,43.098115]}},{"properties":{"zip":"14126","geo_score":0.714,"value":2,"id":"a62h21xfa75m","geo_precision":"zip"},"type":"Feature","geometry":{"type":"Point","coordinates":[-78.726661,43.330443]}},{"properties":{"zip":"14127","geo_score":0.714,"value":2,"id":"a62h21mquacc","geo_precision":"zip"},"type":"Feature","geometry":{"type":"Point","coordinates":[-78.746419,42.783393]}},{"properties":{"zip":"14132","geo_score":0.714,"value":2,"id":"a62h21z9e9ub","geo_precision":"zip"},"type":"Feature","geometry":{"type":"Point","coordinates":[-78.837815,43.128112]}},{"properties":{"zip":"14141","geo_score":0.714,"value":2,"id":"a62h21lx1401","geo_precision":"zip"},"type":"Feature","geometry":{"type":"Point","coordinates":[-78.685169,42.538335]}},{"properties":{"zip":"14143","geo_score":0.714,"value":2,"id":"a62h21zfan0o","geo_precision":"zip"},"type":"Feature","geometry":{"type":"Point","coordinates":[-78.051957,42.943672]}},{"properties":{"zip":"14145","geo_score":0.714,"value":2,"id":"a62h21u4v19k","geo_precision":"zip"},"type":"Feature","geometry":{"type":"Point","coordinates":[-78.41863,42.737283]}},{"properties":{"zip":"14150","geo_score":0.714,"value":2,"id":"a62h21x5xikm","geo_precision":"zip"},"type":"Feature","geometry":{"type":"Point","coordinates":[-78.809201,43.011724]}},{"properties":{"zip":"14167","geo_score":0.714,"value":2,"id":"a62h21vbjdf6","geo_precision":"zip"},"type":"Feature","geometry":{"type":"Point","coordinates":[-78.30946,42.737561]}},{"properties":{"zip":"14168","geo_score":0.714,"value":2,"id":"a62h21ky558p","geo_precision":"zip"},"type":"Feature","geometry":{"type":"Point","coordinates":[-78.999471,42.509271]}},{"properties":{"zip":"14202","geo_score":0.714,"value":2,"id":"a62h21lbjv4v","geo_precision":"zip"},"type":"Feature","geometry":{"type":"Point","coordinates":[-78.884157,42.889662]}},{"properties":{"zip":"14206","geo_score":0.714,"value":2,"id":"a62h220njeex","geo_precision":"zip"},"type":"Feature","geometry":{"type":"Point","coordinates":[-78.793922,42.893392]}},{"properties":{"zip":"14207","geo_score":0.714,"value":2,"id":"a62h21qu934x","geo_precision":"zip"},"type":"Feature","geometry":{"type":"Point","coordinates":[-78.897009,42.949557]}},{"properties":{"zip":"14209","geo_score":0.714,"value":2,"id":"a62h21pls30r","geo_precision":"zip"},"type":"Feature","geometry":{"type":"Point","coordinates":[-78.865857,42.918107]}},{"properties":{"zip":"14210","geo_score":0.714,"value":2,"id":"a62h21ww2p2z","geo_precision":"zip"},"type":"Feature","geometry":{"type":"Point","coordinates":[-78.825755,42.863608]}},{"properties":{"zip":"14214","geo_score":0.714,"value":2,"id":"a62h21uzxzmm","geo_precision":"zip"},"type":"Feature","geometry":{"type":"Point","coordinates":[-78.835256,42.940107]}},{"properties":{"zip":"14215","geo_score":0.714,"value":2,"id":"a62h21usr8j6","geo_precision":"zip"},"type":"Feature","geometry":{"type":"Point","coordinates":[-78.812252,42.932957]}},{"properties":{"zip":"14216","geo_score":0.714,"value":2,"id":"a62h21t44zfj","geo_precision":"zip"},"type":"Feature","geometry":{"type":"Point","coordinates":[-78.860407,42.946407]}},{"properties":{"zip":"14217","geo_score":0.714,"value":2,"id":"a62h21z0c358","geo_precision":"zip"},"type":"Feature","geometry":{"type":"Point","coordinates":[-78.870036,42.965891]}},{"properties":{"zip":"14218","geo_score":0.714,"value":2,"id":"a62h21zyom6p","geo_precision":"zip"},"type":"Feature","geometry":{"type":"Point","coordinates":[-78.823366,42.825614]}},{"properties":{"zip":"14219","geo_score":0.714,"value":2,"id":"a62h21vtxjun","geo_precision":"zip"},"type":"Feature","geometry":{"type":"Point","coordinates":[-78.823366,42.797281]}},{"properties":{"zip":"14220","geo_score":0.714,"value":2,"id":"a62h21z4r0nh","geo_precision":"zip"},"type":"Feature","geometry":{"type":"Point","coordinates":[-78.823005,42.845908]}},{"properties":{"zip":"14221","geo_score":0.714,"value":2,"id":"a62h21xs77o8","geo_precision":"zip"},"type":"Feature","geometry":{"type":"Point","coordinates":[-78.677529,42.964781]}},{"properties":{"zip":"14222","geo_score":0.714,"value":2,"id":"a62h21o2ge9r","geo_precision":"zip"},"type":"Feature","geometry":{"type":"Point","coordinates":[-78.875007,42.918207]}},{"properties":{"zip":"14223","geo_score":0.714,"value":2,"id":"a62h21wyklco","geo_precision":"zip"},"type":"Feature","geometry":{"type":"Point","coordinates":[-78.83809,42.961447]}},{"properties":{"zip":"14224","geo_score":0.714,"value":2,"id":"a62h21wx3e1n","geo_precision":"zip"},"type":"Feature","geometry":{"type":"Point","coordinates":[-78.786699,42.864781]}},{"properties":{"zip":"14225","geo_score":0.714,"value":2,"id":"a62h21llmclo","geo_precision":"zip"},"type":"Feature","geometry":{"type":"Point","coordinates":[-78.789754,42.785337]}},{"properties":{"zip":"14226","geo_score":0.714,"value":2,"id":"a62h21o2n77b","geo_precision":"zip"},"type":"Feature","geometry":{"type":"Point","coordinates":[-78.804478,42.990613]}},{"properties":{"zip":"14227","geo_score":0.714,"value":2,"id":"a62h21z6shqx","geo_precision":"zip"},"type":"Feature","geometry":{"type":"Point","coordinates":[-78.746202,42.885308]}},{"properties":{"zip":"14228","geo_score":0.714,"value":2,"id":"a62h21vzyero","geo_precision":"zip"},"type":"Feature","geometry":{"type":"Point","coordinates":[-78.766073,43.026016]}},{"properties":{"zip":"14261","geo_score":0.714,"value":2,"id":"a62h21xeqwiu","geo_precision":"zip"},"type":"Feature","geometry":{"type":"Point","coordinates":[-78.887094,42.768413]}},{"properties":{"zip":"14301","geo_score":0.714,"value":2,"id":"a62h21w6r2zn","geo_precision":"zip"},"type":"Feature","geometry":{"type":"Point","coordinates":[-79.009414,43.089805]}},{"properties":{"zip":"14304","geo_score":0.714,"value":2,"id":"a62h21uz53v7","geo_precision":"zip"},"type":"Feature","geometry":{"type":"Point","coordinates":[-78.906706,43.103112]}},{"properties":{"zip":"14305","geo_score":0.714,"value":2,"id":"a62h21kqwtsu","geo_precision":"zip"},"type":"Feature","geometry":{"type":"Point","coordinates":[-79.018415,43.117255]}},{"properties":{"zip":"14411","geo_score":0.714,"value":2,"id":"a62h21rgnj7u","geo_precision":"zip"},"type":"Feature","geometry":{"type":"Point","coordinates":[-78.296134,43.280058]}},{"properties":{"zip":"14414","geo_score":0.714,"value":2,"id":"a62h21vn4b5s","geo_precision":"zip"},"type":"Feature","geometry":{"type":"Point","coordinates":[-77.70639,42.90923]}},{"properties":{"zip":"14416","geo_score":0.714,"value":2,"id":"a62h21p2ke2l","geo_precision":"zip"},"type":"Feature","geometry":{"type":"Point","coordinates":[-77.962789,43.04895]}},{"properties":{"zip":"14418","geo_score":0.714,"value":2,"id":"a62h21lrjbx5","geo_precision":"zip"},"type":"Feature","geometry":{"type":"Point","coordinates":[-77.16553,42.623958]}},{"properties":{"zip":"14420","geo_score":0.714,"value":2,"id":"a62h21ow54rd","geo_precision":"zip"},"type":"Feature","geometry":{"type":"Point","coordinates":[-77.945013,43.178394]}},{"properties":{"zip":"14422","geo_score":0.714,"value":2,"id":"a62h21y6k6qk","geo_precision":"zip"},"type":"Feature","geometry":{"type":"Point","coordinates":[-78.066126,43.097005]}},{"properties":{"zip":"14423","geo_score":0.714,"value":2,"id":"a62h21lpypma","geo_precision":"zip"},"type":"Feature","geometry":{"type":"Point","coordinates":[-77.845561,42.893396]}},{"properties":{"zip":"14424","geo_score":0.714,"value":2,"id":"a62h21rt545w","geo_precision":"zip"},"type":"Feature","geometry":{"type":"Point","coordinates":[-77.401099,42.835343]}},{"properties":{"zip":"14425","geo_score":0.714,"value":2,"id":"a62h21vopfv2","geo_precision":"zip"},"type":"Feature","geometry":{"type":"Point","coordinates":[-77.308256,42.958041]}},{"properties":{"zip":"14427","geo_score":0.714,"value":2,"id":"a62h21w26sz6","geo_precision":"zip"},"type":"Feature","geometry":{"type":"Point","coordinates":[-78.106119,42.591452]}},{"properties":{"zip":"14428","geo_score":0.714,"value":2,"id":"a62h21mcd1q7","geo_precision":"zip"},"type":"Feature","geometry":{"type":"Point","coordinates":[-77.814729,43.052284]}},{"properties":{"zip":"14432","geo_score":0.714,"value":2,"id":"a62h21uaxch3","geo_precision":"zip"},"type":"Feature","geometry":{"type":"Point","coordinates":[-77.114418,42.918676]}},{"properties":{"zip":"14433","geo_score":0.714,"value":2,"id":"a62h220z4w4y","geo_precision":"zip"},"type":"Feature","geometry":{"type":"Point","coordinates":[-76.910518,43.025897]}},{"properties":{"zip":"14435","geo_score":0.714,"value":2,"id":"a62h21v8hwiz","geo_precision":"zip"},"type":"Feature","geometry":{"type":"Point","coordinates":[-77.677498,42.746453]}},{"properties":{"zip":"14437","geo_score":0.714,"value":2,"id":"a62h21x8c4hf","geo_precision":"zip"},"type":"Feature","geometry":{"type":"Point","coordinates":[-77.731663,42.5759]}},{"properties":{"zip":"14445","geo_score":0.714,"value":2,"id":"a62h220fzmnl","geo_precision":"zip"},"type":"Feature","geometry":{"type":"Point","coordinates":[-77.482538,43.113563]}},{"properties":{"zip":"14450","geo_score":0.714,"value":2,"id":"a62h21uks3p8","geo_precision":"zip"},"type":"Feature","geometry":{"type":"Point","coordinates":[-77.407491,43.06423]}},{"properties":{"zip":"14453","geo_score":0.714,"value":2,"id":"a62h21w79sfx","geo_precision":"zip"},"type":"Feature","geometry":{"type":"Point","coordinates":[-77.47054,43.010908]}},{"properties":{"zip":"14454","geo_score":0.714,"value":2,"id":"a62h21nqvdxu","geo_precision":"zip"},"type":"Feature","geometry":{"type":"Point","coordinates":[-77.717222,42.800063]}},{"properties":{"zip":"14456","geo_score":0.714,"value":2,"id":"a62h21sxfxbz","geo_precision":"zip"},"type":"Feature","geometry":{"type":"Point","coordinates":[-76.941908,42.839512]}},{"properties":{"zip":"14461","geo_score":0.714,"value":2,"id":"a62h21s5f2de","geo_precision":"zip"},"type":"Feature","geometry":{"type":"Point","coordinates":[-77.287611,42.808127]}},{"properties":{"zip":"14462","geo_score":0.714,"value":2,"id":"a62h21tk6vcg","geo_precision":"zip"},"type":"Feature","geometry":{"type":"Point","coordinates":[-77.754628,42.694819]}},{"properties":{"zip":"14464","geo_score":0.714,"value":2,"id":"a62h21tg8c9f","geo_precision":"zip"},"type":"Feature","geometry":{"type":"Point","coordinates":[-77.872234,43.348671]}},{"properties":{"zip":"14466","geo_score":0.714,"value":2,"id":"a62h220vkyb1","geo_precision":"zip"},"type":"Feature","geometry":{"type":"Point","coordinates":[-77.618049,42.78481]}},{"properties":{"zip":"14467","geo_score":0.714,"value":2,"id":"a62h21lhdpim","geo_precision":"zip"},"type":"Feature","geometry":{"type":"Point","coordinates":[-77.558902,43.058863]}},{"properties":{"zip":"14468","geo_score":0.714,"value":2,"id":"a62h21rqqlzy","geo_precision":"zip"},"type":"Feature","geometry":{"type":"Point","coordinates":[-77.809177,43.341449]}},{"properties":{"zip":"14469","geo_score":0.714,"value":2,"id":"a62h21strdgo","geo_precision":"zip"},"type":"Feature","geometry":{"type":"Point","coordinates":[-77.389432,42.861176]}},{"properties":{"zip":"14470","geo_score":0.714,"value":2,"id":"a62h21q4f285","geo_precision":"zip"},"type":"Feature","geometry":{"type":"Point","coordinates":[-78.04585,43.273948]}},{"properties":{"zip":"14471","geo_score":0.714,"value":2,"id":"a62h21p2siyj","geo_precision":"zip"},"type":"Feature","geometry":{"type":"Point","coordinates":[-77.491905,42.755573]}},{"properties":{"zip":"14472","geo_score":0.714,"value":2,"id":"a62h21wscgq6","geo_precision":"zip"},"type":"Feature","geometry":{"type":"Point","coordinates":[-77.618333,42.967008]}},{"properties":{"zip":"14476","geo_score":0.714,"value":2,"id":"a62h21ladmig","geo_precision":"zip"},"type":"Feature","geometry":{"type":"Point","coordinates":[-78.075851,43.335892]}},{"properties":{"zip":"14478","geo_score":0.714,"value":2,"id":"a62h21yqykjg","geo_precision":"zip"},"type":"Feature","geometry":{"type":"Point","coordinates":[-77.103582,42.614236]}},{"properties":{"zip":"14482","geo_score":0.714,"value":2,"id":"a62h21wk32ca","geo_precision":"zip"},"type":"Feature","geometry":{"type":"Point","coordinates":[-77.918898,42.978673]}},{"properties":{"zip":"14485","geo_score":0.714,"value":2,"id":"a62h21stiyde","geo_precision":"zip"},"type":"Feature","geometry":{"type":"Point","coordinates":[-77.608688,42.889864]}},{"properties":{"zip":"14487","geo_score":0.714,"value":2,"id":"a62h21u9hfef","geo_precision":"zip"},"type":"Feature","geometry":{"type":"Point","coordinates":[-77.671109,42.770897]}},{"properties":{"zip":"14488","geo_score":0.714,"value":2,"id":"a62h21t06nvd","geo_precision":"zip"},"type":"Feature","geometry":{"type":"Point","coordinates":[-77.773919,42.729839]}},{"properties":{"zip":"14502","geo_score":0.714,"value":2,"id":"a62h21r243xy","geo_precision":"zip"},"type":"Feature","geometry":{"type":"Point","coordinates":[-77.345544,43.14673]}},{"properties":{"zip":"14504","geo_score":0.714,"value":2,"id":"a62h21x6izgo","geo_precision":"zip"},"type":"Feature","geometry":{"type":"Point","coordinates":[-77.233194,42.968903]}},{"properties":{"zip":"14505","geo_score":0.714,"value":2,"id":"a62h21wkb1c3","geo_precision":"zip"},"type":"Feature","geometry":{"type":"Point","coordinates":[-77.172684,43.15594]}},{"properties":{"zip":"14506","geo_score":0.714,"value":2,"id":"a62h21ne6xu9","geo_precision":"zip"},"type":"Feature","geometry":{"type":"Point","coordinates":[-77.502495,42.964786]}},{"properties":{"zip":"14510","geo_score":0.714,"value":2,"id":"a62h21vt9tl6","geo_precision":"zip"},"type":"Feature","geometry":{"type":"Point","coordinates":[-77.913337,42.676174]}},{"properties":{"zip":"14512","geo_score":0.714,"value":2,"id":"a62h21xg22jt","geo_precision":"zip"},"type":"Feature","geometry":{"type":"Point","coordinates":[-77.364151,42.669789]}},{"properties":{"zip":"14513","geo_score":0.714,"value":2,"id":"a62h21snzj0b","geo_precision":"zip"},"type":"Feature","geometry":{"type":"Point","coordinates":[-77.075528,43.075064]}},{"properties":{"zip":"14514","geo_score":0.714,"value":2,"id":"a62h21qi93qn","geo_precision":"zip"},"type":"Feature","geometry":{"type":"Point","coordinates":[-77.789174,43.096173]}},{"properties":{"zip":"14517","geo_score":0.714,"value":2,"id":"a62h21tcy5sz","geo_precision":"zip"},"type":"Feature","geometry":{"type":"Point","coordinates":[-77.970282,42.577842]}},{"properties":{"zip":"14519","geo_score":0.714,"value":2,"id":"a62h21yai7vq","geo_precision":"zip"},"type":"Feature","geometry":{"type":"Point","coordinates":[-77.348324,43.278119]}},{"properties":{"zip":"14522","geo_score":0.714,"value":2,"id":"a62h21mbzajp","geo_precision":"zip"},"type":"Feature","geometry":{"type":"Point","coordinates":[-77.218849,43.081306]}},{"properties":{"zip":"14525","geo_score":0.714,"value":2,"id":"a62h220hu1ye","geo_precision":"zip"},"type":"Feature","geometry":{"type":"Point","coordinates":[-77.965007,42.833673]}},{"properties":{"zip":"14526","geo_score":0.714,"value":2,"id":"a62h21w3sn7s","geo_precision":"zip"},"type":"Feature","geometry":{"type":"Point","coordinates":[-77.454446,43.145813]}},{"properties":{"zip":"14527","geo_score":0.714,"value":2,"id":"a62h21ugg57u","geo_precision":"zip"},"type":"Feature","geometry":{"type":"Point","coordinates":[-77.137473,42.672013]}},{"properties":{"zip":"14530","geo_score":0.714,"value":2,"id":"a62h21r78jfv","geo_precision":"zip"},"type":"Feature","geometry":{"type":"Point","coordinates":[-78.032785,42.720062]}},{"properties":{"zip":"14532","geo_score":0.714,"value":2,"id":"a62h21n712se","geo_precision":"zip"},"type":"Feature","geometry":{"type":"Point","coordinates":[-77.03747,42.951731]}},{"properties":{"zip":"14534","geo_score":0.714,"value":2,"id":"a62h220rl1ya","geo_precision":"zip"},"type":"Feature","geometry":{"type":"Point","coordinates":[-77.474161,43.059508]}},{"properties":{"zip":"14543","geo_score":0.714,"value":2,"id":"a62h21whl4iv","geo_precision":"zip"},"type":"Feature","geometry":{"type":"Point","coordinates":[-77.705559,43.003396]}},{"properties":{"zip":"14544","geo_score":0.714,"value":2,"id":"a62h21y1enl9","geo_precision":"zip"},"type":"Feature","geometry":{"type":"Point","coordinates":[-77.242693,42.734157]}},{"properties":{"zip":"14546","geo_score":0.714,"value":2,"id":"a62h21szebv9","geo_precision":"zip"},"type":"Feature","geometry":{"type":"Point","coordinates":[-77.781117,43.053951]}},{"properties":{"zip":"14548","geo_score":0.714,"value":2,"id":"a62h21tqqxim","geo_precision":"zip"},"type":"Feature","geometry":{"type":"Point","coordinates":[-77.252696,42.978834]}},{"properties":{"zip":"14550","geo_score":0.714,"value":2,"id":"a62h21tbop12","geo_precision":"zip"},"type":"Feature","geometry":{"type":"Point","coordinates":[-78.133343,42.684506]}},{"properties":{"zip":"14551","geo_score":0.714,"value":2,"id":"a62h21y51h1l","geo_precision":"zip"},"type":"Feature","geometry":{"type":"Point","coordinates":[-77.01247,43.221732]}},{"properties":{"zip":"14555","geo_score":0.714,"value":2,"id":"a62h21ovktqx","geo_precision":"zip"},"type":"Feature","geometry":{"type":"Point","coordinates":[-76.983518,43.254644]}},{"properties":{"zip":"14559","geo_score":0.714,"value":2,"id":"a62h21no6bj8","geo_precision":"zip"},"type":"Feature","geometry":{"type":"Point","coordinates":[-77.855287,43.151728]}},{"properties":{"zip":"14560","geo_score":0.714,"value":2,"id":"a62h2204koe4","geo_precision":"zip"},"type":"Feature","geometry":{"type":"Point","coordinates":[-77.54166,42.737009]}},{"properties":{"zip":"14561","geo_score":0.714,"value":2,"id":"a62h21yai4lq","geo_precision":"zip"},"type":"Feature","geometry":{"type":"Point","coordinates":[-77.106084,42.857844]}},{"properties":{"zip":"14564","geo_score":0.714,"value":2,"id":"a62h21q92q4y","geo_precision":"zip"},"type":"Feature","geometry":{"type":"Point","coordinates":[-77.362766,42.962008]}},{"properties":{"zip":"14568","geo_score":0.714,"value":2,"id":"a62h220j6t03","geo_precision":"zip"},"type":"Feature","geometry":{"type":"Point","coordinates":[-77.287414,43.142795]}},{"properties":{"zip":"14569","geo_score":0.714,"value":2,"id":"a62h21nqhc7r","geo_precision":"zip"},"type":"Feature","geometry":{"type":"Point","coordinates":[-78.205846,42.685895]}},{"properties":{"zip":"14572","geo_score":0.714,"value":2,"id":"a62h21oisyuf","geo_precision":"zip"},"type":"Feature","geometry":{"type":"Point","coordinates":[-77.58888,42.530901]}},{"properties":{"zip":"14580","geo_score":0.714,"value":2,"id":"a62h21q32vt4","geo_precision":"zip"},"type":"Feature","geometry":{"type":"Point","coordinates":[-77.496386,43.204785]}},{"properties":{"zip":"14586","geo_score":0.714,"value":2,"id":"a62h21v2ucjg","geo_precision":"zip"},"type":"Feature","geometry":{"type":"Point","coordinates":[-77.683575,43.041553]}},{"properties":{"zip":"14589","geo_score":0.714,"value":2,"id":"a62h21z1xpb0","geo_precision":"zip"},"type":"Feature","geometry":{"type":"Point","coordinates":[-77.14359,43.287009]}},{"properties":{"zip":"14590","geo_score":0.714,"value":2,"id":"a62h21w7psbb","geo_precision":"zip"},"type":"Feature","geometry":{"type":"Point","coordinates":[-76.781901,43.284233]}},{"properties":{"zip":"14592","geo_score":0.714,"value":2,"id":"a62h21w48qnt","geo_precision":"zip"},"type":"Feature","geometry":{"type":"Point","coordinates":[-77.883511,42.875685]}},{"properties":{"zip":"14604","geo_score":0.714,"value":2,"id":"a62h220gybpv","geo_precision":"zip"},"type":"Feature","geometry":{"type":"Point","coordinates":[-77.604023,43.156612]}},{"properties":{"zip":"14605","geo_score":0.714,"value":2,"id":"a62h21sl7t5b","geo_precision":"zip"},"type":"Feature","geometry":{"type":"Point","coordinates":[-77.602973,43.166313]}},{"properties":{"zip":"14606","geo_score":0.714,"value":2,"id":"a62h21zmcftj","geo_precision":"zip"},"type":"Feature","geometry":{"type":"Point","coordinates":[-77.691577,43.173612]}},{"properties":{"zip":"14607","geo_score":0.714,"value":2,"id":"a62h21qbup0n","geo_precision":"zip"},"type":"Feature","geometry":{"type":"Point","coordinates":[-77.584888,43.152013]}},{"properties":{"zip":"14608","geo_score":0.714,"value":2,"id":"a62h21ksyr2o","geo_precision":"zip"},"type":"Feature","geometry":{"type":"Point","coordinates":[-77.624001,43.154611]}},{"properties":{"zip":"14609","geo_score":0.714,"value":2,"id":"a62h21ubzxgp","geo_precision":"zip"},"type":"Feature","geometry":{"type":"Point","coordinates":[-77.549971,43.198197]}},{"properties":{"zip":"14610","geo_score":0.714,"value":2,"id":"a62h21zpqmc9","geo_precision":"zip"},"type":"Feature","geometry":{"type":"Point","coordinates":[-77.550554,43.147563]}},{"properties":{"zip":"14611","geo_score":0.714,"value":2,"id":"a62h21sdjcf9","geo_precision":"zip"},"type":"Feature","geometry":{"type":"Point","coordinates":[-77.690837,43.153395]}},{"properties":{"zip":"14612","geo_score":0.714,"value":2,"id":"a62h21rryir9","geo_precision":"zip"},"type":"Feature","geometry":{"type":"Point","coordinates":[-77.634725,43.273117]}},{"properties":{"zip":"14613","geo_score":0.714,"value":2,"id":"a62h21tk2g9e","geo_precision":"zip"},"type":"Feature","geometry":{"type":"Point","coordinates":[-77.519325,43.13378]}},{"properties":{"zip":"14615","geo_score":0.714,"value":2,"id":"a62h21u2o0c4","geo_precision":"zip"},"type":"Feature","geometry":{"type":"Point","coordinates":[-77.552021,43.22252]}},{"properties":{"zip":"14616","geo_score":0.714,"value":2,"id":"a62h21zp9sqp","geo_precision":"zip"},"type":"Feature","geometry":{"type":"Point","coordinates":[-77.69306,43.209784]}},{"properties":{"zip":"14617","geo_score":0.714,"value":2,"id":"a62h21s6pisp","geo_precision":"zip"},"type":"Feature","geometry":{"type":"Point","coordinates":[-77.597224,43.253951]}},{"properties":{"zip":"14618","geo_score":0.714,"value":2,"id":"a62h21xnkgtk","geo_precision":"zip"},"type":"Feature","geometry":{"type":"Point","coordinates":[-77.565555,43.127007]}},{"properties":{"zip":"14619","geo_score":0.714,"value":2,"id":"a62h21mossqt","geo_precision":"zip"},"type":"Feature","geometry":{"type":"Point","coordinates":[-77.649126,43.135688]}},{"properties":{"zip":"14620","geo_score":0.714,"value":2,"id":"a62h21z4bi8u","geo_precision":"zip"},"type":"Feature","geometry":{"type":"Point","coordinates":[-77.618523,43.129862]}},{"properties":{"zip":"14621","geo_score":0.714,"value":2,"id":"a62h21l0rubx","geo_precision":"zip"},"type":"Feature","geometry":{"type":"Point","coordinates":[-77.631124,43.149013]}},{"properties":{"zip":"14622","geo_score":0.714,"value":2,"id":"a62h21xaqs5i","geo_precision":"zip"},"type":"Feature","geometry":{"type":"Point","coordinates":[-77.595823,43.199613]}},{"properties":{"zip":"14623","geo_score":0.714,"value":2,"id":"a62h21zcj9n9","geo_precision":"zip"},"type":"Feature","geometry":{"type":"Point","coordinates":[-77.649074,43.082184]}},{"properties":{"zip":"14624","geo_score":0.714,"value":2,"id":"a62h21ze7krb","geo_precision":"zip"},"type":"Feature","geometry":{"type":"Point","coordinates":[-77.735283,43.135895]}},{"properties":{"zip":"14625","geo_score":0.714,"value":2,"id":"a62h21lkiv3s","geo_precision":"zip"},"type":"Feature","geometry":{"type":"Point","coordinates":[-77.505705,43.152213]}},{"properties":{"zip":"14626","geo_score":0.714,"value":2,"id":"a62h21zwmjq5","geo_precision":"zip"},"type":"Feature","geometry":{"type":"Point","coordinates":[-77.73195,43.190895]}},{"properties":{"zip":"14627","geo_score":0.714,"value":2,"id":"a62h220v2czv","geo_precision":"zip"},"type":"Feature","geometry":{"type":"Point","coordinates":[-77.627674,43.127513]}},{"properties":{"zip":"14644","geo_score":0.714,"value":2,"id":"a62h21q7zj88","geo_precision":"zip"},"type":"Feature","geometry":{"type":"Point","coordinates":[-77.684264,43.286024]}},{"properties":{"zip":"14701","geo_score":0.714,"value":2,"id":"a62h21uk2k4f","geo_precision":"zip"},"type":"Feature","geometry":{"type":"Point","coordinates":[-79.301993,42.118113]}},{"properties":{"zip":"14709","geo_score":0.714,"value":2,"id":"a62h21zmo8wq","geo_precision":"zip"},"type":"Feature","geometry":{"type":"Point","coordinates":[-77.920279,42.391456]}},{"properties":{"zip":"14711","geo_score":0.714,"value":2,"id":"a62h21ocdgdg","geo_precision":"zip"},"type":"Feature","geometry":{"type":"Point","coordinates":[-78.164455,42.306734]}},{"properties":{"zip":"14712","geo_score":0.714,"value":2,"id":"a62h21l0etbq","geo_precision":"zip"},"type":"Feature","geometry":{"type":"Point","coordinates":[-79.406159,42.17728]}},{"properties":{"zip":"14724","geo_score":0.714,"value":2,"id":"a62h21rz9f2p","geo_precision":"zip"},"type":"Feature","geometry":{"type":"Point","coordinates":[-79.695884,42.024221]}},{"properties":{"zip":"14727","geo_score":0.714,"value":2,"id":"a62h21kyaim2","geo_precision":"zip"},"type":"Feature","geometry":{"type":"Point","coordinates":[-78.308627,42.321455]}},{"properties":{"zip":"14755","geo_score":0.714,"value":2,"id":"a62h21y32ami","geo_precision":"zip"},"type":"Feature","geometry":{"type":"Point","coordinates":[-78.716142,42.304508]}},{"properties":{"zip":"14760","geo_score":0.714,"value":2,"id":"a62h21ti6lox","geo_precision":"zip"},"type":"Feature","geometry":{"type":"Point","coordinates":[-78.440853,42.073954]}},{"properties":{"zip":"14767","geo_score":0.714,"value":2,"id":"a62h21s2dan5","geo_precision":"zip"},"type":"Feature","geometry":{"type":"Point","coordinates":[-79.505101,42.191346]}},{"properties":{"zip":"14775","geo_score":0.714,"value":2,"id":"a62h21ts2xz4","geo_precision":"zip"},"type":"Feature","geometry":{"type":"Point","coordinates":[-79.688658,42.227002]}},{"properties":{"zip":"14779","geo_score":0.714,"value":2,"id":"a62h21td8sln","geo_precision":"zip"},"type":"Feature","geometry":{"type":"Point","coordinates":[-78.801979,42.112285]}},{"properties":{"zip":"14781","geo_score":0.714,"value":2,"id":"a62h21tzzazs","geo_precision":"zip"},"type":"Feature","geometry":{"type":"Point","coordinates":[-79.688104,42.130056]}},{"properties":{"zip":"14787","geo_score":0.714,"value":2,"id":"a62h21tjyti4","geo_precision":"zip"},"type":"Feature","geometry":{"type":"Point","coordinates":[-79.521436,42.35228]}},{"properties":{"zip":"14802","geo_score":0.714,"value":2,"id":"a62h21tnxnep","geo_precision":"zip"},"type":"Feature","geometry":{"type":"Point","coordinates":[-77.783192,42.240535]}},{"properties":{"zip":"14803","geo_score":0.714,"value":2,"id":"a62h21ry5wi6","geo_precision":"zip"},"type":"Feature","geometry":{"type":"Point","coordinates":[-77.767772,42.267848]}},{"properties":{"zip":"14804","geo_score":0.714,"value":2,"id":"a62h21sck5bx","geo_precision":"zip"},"type":"Feature","geometry":{"type":"Point","coordinates":[-77.883055,42.299513]}},{"properties":{"zip":"14807","geo_score":0.714,"value":2,"id":"a62h21zmdv67","geo_precision":"zip"},"type":"Feature","geometry":{"type":"Point","coordinates":[-77.653881,42.46979]}},{"properties":{"zip":"14809","geo_score":0.714,"value":2,"id":"a62h21l0dlbk","geo_precision":"zip"},"type":"Feature","geometry":{"type":"Point","coordinates":[-77.508876,42.364237]}},{"properties":{"zip":"14810","geo_score":0.714,"value":2,"id":"a62h21vzui0o","geo_precision":"zip"},"type":"Feature","geometry":{"type":"Point","coordinates":[-77.332481,42.430349]}},{"properties":{"zip":"14817","geo_score":0.714,"value":2,"id":"a62h21muqznv","geo_precision":"zip"},"type":"Feature","geometry":{"type":"Point","coordinates":[-76.318546,42.352018]}},{"properties":{"zip":"14818","geo_score":0.714,"value":2,"id":"a62h21lgj7p9","geo_precision":"zip"},"type":"Feature","geometry":{"type":"Point","coordinates":[-76.770231,42.467017]}},{"properties":{"zip":"14821","geo_score":0.714,"value":2,"id":"a62h21txjh4w","geo_precision":"zip"},"type":"Feature","geometry":{"type":"Point","coordinates":[-77.264144,42.222851]}},{"properties":{"zip":"14825","geo_score":0.714,"value":2,"id":"a62h21x4rhj0","geo_precision":"zip"},"type":"Feature","geometry":{"type":"Point","coordinates":[-76.597169,42.068685]}},{"properties":{"zip":"14826","geo_score":0.714,"value":2,"id":"a62h21ysvbis","geo_precision":"zip"},"type":"Feature","geometry":{"type":"Point","coordinates":[-77.565823,42.423125]}},{"properties":{"zip":"14830","geo_score":0.714,"value":2,"id":"a62h21z05ya3","geo_precision":"zip"},"type":"Feature","geometry":{"type":"Point","coordinates":[-77.063858,42.081185]}},{"properties":{"zip":"14843","geo_score":0.714,"value":2,"id":"a62h21thx0cs","geo_precision":"zip"},"type":"Feature","geometry":{"type":"Point","coordinates":[-77.655824,42.302015]}},{"properties":{"zip":"14845","geo_score":0.714,"value":2,"id":"a62h220bbeck","geo_precision":"zip"},"type":"Feature","geometry":{"type":"Point","coordinates":[-76.887738,42.203408]}},{"properties":{"zip":"14846","geo_score":0.714,"value":2,"id":"a62h220gp036","geo_precision":"zip"},"type":"Feature","geometry":{"type":"Point","coordinates":[-77.999451,42.555834]}},{"properties":{"zip":"14847","geo_score":0.714,"value":2,"id":"a62h21lfkfe0","geo_precision":"zip"},"type":"Feature","geometry":{"type":"Point","coordinates":[-76.782176,42.572849]}},{"properties":{"zip":"14850","geo_score":0.714,"value":2,"id":"a62h220voipl","geo_precision":"zip"},"type":"Feature","geometry":{"type":"Point","coordinates":[-76.437994,42.455073]}},{"properties":{"zip":"14851","geo_score":0.714,"value":2,"id":"a62h21pmw253","geo_precision":"zip"},"type":"Feature","geometry":{"type":"Point","coordinates":[-76.505435,42.460721]}},{"properties":{"zip":"14852","geo_score":0.714,"value":2,"id":"a62h21qxaydy","geo_precision":"zip"},"type":"Feature","geometry":{"type":"Point","coordinates":[-76.467233,42.445074]}},{"properties":{"zip":"14864","geo_score":0.714,"value":2,"id":"a62h21zame6s","geo_precision":"zip"},"type":"Feature","geometry":{"type":"Point","coordinates":[-76.837457,42.251464]}},{"properties":{"zip":"14867","geo_score":0.714,"value":2,"id":"a62h21ot238l","geo_precision":"zip"},"type":"Feature","geometry":{"type":"Point","coordinates":[-76.632447,42.383684]}},{"properties":{"zip":"14870","geo_score":0.714,"value":2,"id":"a62h21qw6202","geo_precision":"zip"},"type":"Feature","geometry":{"type":"Point","coordinates":[-77.100248,42.272018]}},{"properties":{"zip":"14871","geo_score":0.714,"value":2,"id":"a62h21rirhk7","geo_precision":"zip"},"type":"Feature","geometry":{"type":"Point","coordinates":[-76.881349,42.023685]}},{"properties":{"zip":"14873","geo_score":0.714,"value":2,"id":"a62h21w5thyd","geo_precision":"zip"},"type":"Feature","geometry":{"type":"Point","coordinates":[-77.288868,42.523959]}},{"properties":{"zip":"14882","geo_score":0.714,"value":2,"id":"a62h21mt2mkh","geo_precision":"zip"},"type":"Feature","geometry":{"type":"Point","coordinates":[-76.539386,42.539516]}},{"properties":{"zip":"14883","geo_score":0.714,"value":2,"id":"a62h21tk6at3","geo_precision":"zip"},"type":"Feature","geometry":{"type":"Point","coordinates":[-76.507442,42.255907]}},{"properties":{"zip":"14886","geo_score":0.714,"value":2,"id":"a62h21voy206","geo_precision":"zip"},"type":"Feature","geometry":{"type":"Point","coordinates":[-76.67606,42.505628]}},{"properties":{"zip":"14889","geo_score":0.714,"value":2,"id":"a62h21qdzvgh","geo_precision":"zip"},"type":"Feature","geometry":{"type":"Point","coordinates":[-76.609669,42.224519]}},{"properties":{"zip":"14891","geo_score":0.714,"value":2,"id":"a62h21znxxzb","geo_precision":"zip"},"type":"Feature","geometry":{"type":"Point","coordinates":[-76.886626,42.342018]}},{"properties":{"zip":"14892","geo_score":0.714,"value":2,"id":"a62h21yq5emd","geo_precision":"zip"},"type":"Feature","geometry":{"type":"Point","coordinates":[-76.537167,41.997574]}},{"properties":{"zip":"14895","geo_score":0.714,"value":2,"id":"a62h21m0d8va","geo_precision":"zip"},"type":"Feature","geometry":{"type":"Point","coordinates":[-77.922223,42.086457]}},{"properties":{"zip":"14901","geo_score":0.714,"value":2,"id":"a62h21yw7e2u","geo_precision":"zip"},"type":"Feature","geometry":{"type":"Point","coordinates":[-76.71857,42.082585]}},{"properties":{"zip":"14903","geo_score":0.714,"value":2,"id":"a62h21twreme","geo_precision":"zip"},"type":"Feature","geometry":{"type":"Point","coordinates":[-76.868848,42.156464]}},{"properties":{"zip":"14904","geo_score":0.714,"value":2,"id":"a62h21n72iw7","geo_precision":"zip"},"type":"Feature","geometry":{"type":"Point","coordinates":[-76.819123,42.054796]}},{"properties":{"zip":"14905","geo_score":0.714,"value":2,"id":"a62h21yz1e15","geo_precision":"zip"},"type":"Feature","geometry":{"type":"Point","coordinates":[-76.845236,42.07813]}},{"properties":{"zip":"15005","geo_score":0.714,"value":2,"id":"a62h21kymgns","geo_precision":"zip"},"type":"Feature","geometry":{"type":"Point","coordinates":[-80.160615,40.634234]}},{"properties":{"zip":"15042","geo_score":0.714,"value":2,"id":"a62h21shihto","geo_precision":"zip"},"type":"Feature","geometry":{"type":"Point","coordinates":[-80.240559,40.710283]}},{"properties":{"zip":"15044","geo_score":0.714,"value":2,"id":"a62h220hd6m9","geo_precision":"zip"},"type":"Feature","geometry":{"type":"Point","coordinates":[-79.972557,40.655345]}},{"properties":{"zip":"15101","geo_score":0.714,"value":2,"id":"a62h21nw6lo8","geo_precision":"zip"},"type":"Feature","geometry":{"type":"Point","coordinates":[-79.947554,40.590068]}},{"properties":{"zip":"15137","geo_score":0.714,"value":2,"id":"a62h21udmofg","geo_precision":"zip"},"type":"Feature","geometry":{"type":"Point","coordinates":[-79.820881,40.39868]}},{"properties":{"zip":"15206","geo_score":0.714,"value":2,"id":"a62h21ot0yx0","geo_precision":"zip"},"type":"Feature","geometry":{"type":"Point","coordinates":[-79.922829,40.460625]}},{"properties":{"zip":"15214","geo_score":0.714,"value":2,"id":"a62h21zfniak","geo_precision":"zip"},"type":"Feature","geometry":{"type":"Point","coordinates":[-80.024817,40.434436]}},{"properties":{"zip":"15220","geo_score":0.714,"value":2,"id":"a62h21w3fduh","geo_precision":"zip"},"type":"Feature","geometry":{"type":"Point","coordinates":[-80.068944,40.414236]}},{"properties":{"zip":"15226","geo_score":0.714,"value":2,"id":"a62h21vwuxfv","geo_precision":"zip"},"type":"Feature","geometry":{"type":"Point","coordinates":[-80.017831,40.392014]}},{"properties":{"zip":"15228","geo_score":0.714,"value":2,"id":"a62h21sdhzcs","geo_precision":"zip"},"type":"Feature","geometry":{"type":"Point","coordinates":[-80.049498,40.355347]}},{"properties":{"zip":"15425","geo_score":0.714,"value":2,"id":"a62h21mq5vbp","geo_precision":"zip"},"type":"Feature","geometry":{"type":"Point","coordinates":[-79.603372,40.003964]}},{"properties":{"zip":"15611","geo_score":0.714,"value":2,"id":"a62h21qm8yf4","geo_precision":"zip"},"type":"Feature","geometry":{"type":"Point","coordinates":[-79.653058,40.303771]}},{"properties":{"zip":"15615","geo_score":0.714,"value":2,"id":"a62h21pbeq8j","geo_precision":"zip"},"type":"Feature","geometry":{"type":"Point","coordinates":[-79.743317,40.360619]}},{"properties":{"zip":"15834","geo_score":0.714,"value":2,"id":"a62h21t4480u","geo_precision":"zip"},"type":"Feature","geometry":{"type":"Point","coordinates":[-78.278067,41.494785]}},{"properties":{"zip":"16001","geo_score":0.714,"value":2,"id":"a62h21zgz4w7","geo_precision":"zip"},"type":"Feature","geometry":{"type":"Point","coordinates":[-79.906999,40.904231]}},{"properties":{"zip":"16066","geo_score":0.714,"value":2,"id":"a62h21u2l9cd","geo_precision":"zip"},"type":"Feature","geometry":{"type":"Point","coordinates":[-80.104597,40.709713]}},{"properties":{"zip":"16301","geo_score":0.714,"value":2,"id":"a62h21xuuywx","geo_precision":"zip"},"type":"Feature","geometry":{"type":"Point","coordinates":[-79.711719,41.409782]}},{"properties":{"zip":"16313","geo_score":0.714,"value":2,"id":"a62h21xpbwgc","geo_precision":"zip"},"type":"Feature","geometry":{"type":"Point","coordinates":[-79.099487,41.799227]}},{"properties":{"zip":"16335","geo_score":0.714,"value":2,"id":"a62h21m212w5","geo_precision":"zip"},"type":"Feature","geometry":{"type":"Point","coordinates":[-80.144782,41.628388]}},{"properties":{"zip":"16350","geo_score":0.714,"value":2,"id":"a62h21yitqed","geo_precision":"zip"},"type":"Feature","geometry":{"type":"Point","coordinates":[-79.227866,41.890561]}},{"properties":{"zip":"16365","geo_score":0.714,"value":2,"id":"a62h21vovw3y","geo_precision":"zip"},"type":"Feature","geometry":{"type":"Point","coordinates":[-79.205324,41.840337]}},{"properties":{"zip":"16415","geo_score":0.714,"value":2,"id":"a62h21vnq5ln","geo_precision":"zip"},"type":"Feature","geometry":{"type":"Point","coordinates":[-80.203115,42.0045]}},{"properties":{"zip":"16428","geo_score":0.714,"value":2,"id":"a62h21uucsli","geo_precision":"zip"},"type":"Feature","geometry":{"type":"Point","coordinates":[-79.82866,42.241447]}},{"properties":{"zip":"16433","geo_score":0.714,"value":2,"id":"a62h220tag0h","geo_precision":"zip"},"type":"Feature","geometry":{"type":"Point","coordinates":[-80.085612,41.754779]}},{"properties":{"zip":"16441","geo_score":0.714,"value":2,"id":"a62h21vhmyco","geo_precision":"zip"},"type":"Feature","geometry":{"type":"Point","coordinates":[-79.981997,41.929778]}},{"properties":{"zip":"16509","geo_score":0.714,"value":2,"id":"a62h21n6i1tj","geo_precision":"zip"},"type":"Feature","geometry":{"type":"Point","coordinates":[-80.201452,42.068391]}},{"properties":{"zip":"16510","geo_score":0.714,"value":2,"id":"a62h21nqtc53","geo_precision":"zip"},"type":"Feature","geometry":{"type":"Point","coordinates":[-79.968664,42.066722]}},{"properties":{"zip":"16635","geo_score":0.714,"value":2,"id":"a62h21lxx4o2","geo_precision":"zip"},"type":"Feature","geometry":{"type":"Point","coordinates":[-78.43307,40.433406]}},{"properties":{"zip":"16648","geo_score":0.714,"value":2,"id":"a62h21rrftsp","geo_precision":"zip"},"type":"Feature","geometry":{"type":"Point","coordinates":[-78.415014,40.367574]}},{"properties":{"zip":"16746","geo_score":0.714,"value":2,"id":"a62h21st26ox","geo_precision":"zip"},"type":"Feature","geometry":{"type":"Point","coordinates":[-77.902366,41.737627]}},{"properties":{"zip":"16748","geo_score":0.714,"value":2,"id":"a62h21rqv2fv","geo_precision":"zip"},"type":"Feature","geometry":{"type":"Point","coordinates":[-78.145564,41.940344]}},{"properties":{"zip":"16901","geo_score":0.714,"value":2,"id":"a62h21v76hp3","geo_precision":"zip"},"type":"Feature","geometry":{"type":"Point","coordinates":[-77.3622,41.673127]}},{"properties":{"zip":"16930","geo_score":0.714,"value":2,"id":"a62h21ozd0cn","geo_precision":"zip"},"type":"Feature","geometry":{"type":"Point","coordinates":[-77.10997,41.595074]}},{"properties":{"zip":"16933","geo_score":0.714,"value":2,"id":"a62h21xyqm4j","geo_precision":"zip"},"type":"Feature","geometry":{"type":"Point","coordinates":[-76.957463,41.86563]}},{"properties":{"zip":"17011","geo_score":0.714,"value":2,"id":"a62h21wftcj1","geo_precision":"zip"},"type":"Feature","geometry":{"type":"Point","coordinates":[-76.92053,40.230368]}},{"properties":{"zip":"17225","geo_score":0.714,"value":2,"id":"a62h21nim4wx","geo_precision":"zip"},"type":"Feature","geometry":{"type":"Point","coordinates":[-77.776662,39.744538]}},{"properties":{"zip":"17257","geo_score":0.714,"value":2,"id":"a62h21mauwgm","geo_precision":"zip"},"type":"Feature","geometry":{"type":"Point","coordinates":[-77.515542,40.038146]}},{"properties":{"zip":"17701","geo_score":0.714,"value":2,"id":"a62h21s51ts7","geo_precision":"zip"},"type":"Feature","geometry":{"type":"Point","coordinates":[-77.057191,41.293688]}},{"properties":{"zip":"17702","geo_score":0.714,"value":2,"id":"a62h21zpo1hx","geo_precision":"zip"},"type":"Feature","geometry":{"type":"Point","coordinates":[-77.046079,41.254244]}},{"properties":{"zip":"17728","geo_score":0.714,"value":2,"id":"a62h21o9zh0w","geo_precision":"zip"},"type":"Feature","geometry":{"type":"Point","coordinates":[-77.110803,41.328409]}},{"properties":{"zip":"17837","geo_score":0.714,"value":2,"id":"a62h21pvcsov","geo_precision":"zip"},"type":"Feature","geometry":{"type":"Point","coordinates":[-76.901356,40.952029]}},{"properties":{"zip":"18411","geo_score":0.714,"value":2,"id":"a62h21vgl2sv","geo_precision":"zip"},"type":"Feature","geometry":{"type":"Point","coordinates":[-75.765471,41.4823]}},{"properties":{"zip":"18507","geo_score":0.714,"value":2,"id":"a62h21qju56g","geo_precision":"zip"},"type":"Feature","geometry":{"type":"Point","coordinates":[-75.73547,41.348691]}},{"properties":{"zip":"18634","geo_score":0.714,"value":2,"id":"a62h21prum9q","geo_precision":"zip"},"type":"Feature","geometry":{"type":"Point","coordinates":[-76.015201,41.221749]}},{"properties":{"zip":"18704","geo_score":0.714,"value":2,"id":"a62h2202074n","geo_precision":"zip"},"type":"Feature","geometry":{"type":"Point","coordinates":[-75.874641,41.291748]}},{"properties":{"zip":"18708","geo_score":0.714,"value":2,"id":"a62h21qxe0bc","geo_precision":"zip"},"type":"Feature","geometry":{"type":"Point","coordinates":[-75.920198,41.312303]}},{"properties":{"zip":"18812","geo_score":0.714,"value":2,"id":"a62h21x2mx2w","geo_precision":"zip"},"type":"Feature","geometry":{"type":"Point","coordinates":[-75.918251,41.95702]}},{"properties":{"zip":"18850","geo_score":0.714,"value":2,"id":"a62h21pnn7kc","geo_precision":"zip"},"type":"Feature","geometry":{"type":"Point","coordinates":[-76.490776,41.855353]}},{"properties":{"zip":"18940","geo_score":0.714,"value":2,"id":"a62h21xv7xoa","geo_precision":"zip"},"type":"Feature","geometry":{"type":"Point","coordinates":[-74.958779,40.201498]}},{"properties":{"zip":"18944","geo_score":0.714,"value":2,"id":"a62h220pe6t4","geo_precision":"zip"},"type":"Feature","geometry":{"type":"Point","coordinates":[-75.256287,40.427325]}},{"properties":{"zip":"18950","geo_score":0.714,"value":2,"id":"a62h21pblshe","geo_precision":"zip"},"type":"Feature","geometry":{"type":"Point","coordinates":[-75.105172,40.424271]}},{"properties":{"zip":"18966","geo_score":0.714,"value":2,"id":"a62h21qbibc9","geo_precision":"zip"},"type":"Feature","geometry":{"type":"Point","coordinates":[-75.058782,40.183165]}},{"properties":{"zip":"18974","geo_score":0.714,"value":2,"id":"a62h21m7ztdf","geo_precision":"zip"},"type":"Feature","geometry":{"type":"Point","coordinates":[-75.065726,40.230386]}},{"properties":{"zip":"19027","geo_score":0.714,"value":2,"id":"a62h21scyd7u","geo_precision":"zip"},"type":"Feature","geometry":{"type":"Point","coordinates":[-75.131518,40.07501]}},{"properties":{"zip":"19040","geo_score":0.714,"value":2,"id":"a62h21yj2v1j","geo_precision":"zip"},"type":"Feature","geometry":{"type":"Point","coordinates":[-75.106265,40.182406]}},{"properties":{"zip":"19046","geo_score":0.714,"value":2,"id":"a62h21v5zs4g","geo_precision":"zip"},"type":"Feature","geometry":{"type":"Point","coordinates":[-75.089618,40.081222]}},{"properties":{"zip":"19063","geo_score":0.714,"value":2,"id":"a62h21l0pdsj","geo_precision":"zip"},"type":"Feature","geometry":{"type":"Point","coordinates":[-75.421029,39.945944]}},{"properties":{"zip":"19073","geo_score":0.714,"value":2,"id":"a62h2208ypnj","geo_precision":"zip"},"type":"Feature","geometry":{"type":"Point","coordinates":[-75.418529,40.008165]}},{"properties":{"zip":"19341","geo_score":0.714,"value":2,"id":"a62h21rqmh57","geo_precision":"zip"},"type":"Feature","geometry":{"type":"Point","coordinates":[-75.637713,40.014551]}},{"properties":{"zip":"19802","geo_score":0.714,"value":2,"id":"a62h21mq9zmd","geo_precision":"zip"},"type":"Feature","geometry":{"type":"Point","coordinates":[-75.506587,39.762891]}},{"properties":{"zip":"19945","geo_score":0.714,"value":2,"id":"a62h21ntykk5","geo_precision":"zip"},"type":"Feature","geometry":{"type":"Point","coordinates":[-75.16963,38.496502]}},{"properties":{"zip":"20007","geo_score":0.714,"value":2,"id":"a62h21luweab","geo_precision":"zip"},"type":"Feature","geometry":{"type":"Point","coordinates":[-77.062478,38.904834]}},{"properties":{"zip":"20198","geo_score":0.714,"value":2,"id":"a62h21v9lsm7","geo_precision":"zip"},"type":"Feature","geometry":{"type":"Point","coordinates":[-77.760779,38.870681]}},{"properties":{"zip":"21034","geo_score":0.714,"value":2,"id":"a62h21oe67b2","geo_precision":"zip"},"type":"Feature","geometry":{"type":"Point","coordinates":[-76.164953,39.623164]}},{"properties":{"zip":"21136","geo_score":0.714,"value":2,"id":"a62h220uc7lu","geo_precision":"zip"},"type":"Feature","geometry":{"type":"Point","coordinates":[-76.834144,39.50566]}},{"properties":{"zip":"21673","geo_score":0.714,"value":2,"id":"a62h21uwctnn","geo_precision":"zip"},"type":"Feature","geometry":{"type":"Point","coordinates":[-75.983827,38.671227]}},{"properties":{"zip":"21704","geo_score":0.714,"value":2,"id":"a62h21o34bdo","geo_precision":"zip"},"type":"Feature","geometry":{"type":"Point","coordinates":[-77.383229,39.345477]}},{"properties":{"zip":"21784","geo_score":0.714,"value":2,"id":"a62h21rv0qox","geo_precision":"zip"},"type":"Feature","geometry":{"type":"Point","coordinates":[-76.895255,39.396771]}},{"properties":{"zip":"21804","geo_score":0.714,"value":2,"id":"a62h21uai2n0","geo_precision":"zip"},"type":"Feature","geometry":{"type":"Point","coordinates":[-75.533782,38.350793]}},{"properties":{"zip":"21901","geo_score":0.714,"value":2,"id":"a62h21z34jjm","geo_precision":"zip"},"type":"Feature","geometry":{"type":"Point","coordinates":[-75.964945,39.675667]}},{"properties":{"zip":"22003","geo_score":0.714,"value":2,"id":"a62h21smiyga","geo_precision":"zip"},"type":"Feature","geometry":{"type":"Point","coordinates":[-77.255539,38.823168]}},{"properties":{"zip":"22042","geo_score":0.714,"value":2,"id":"a62h22132hvm","geo_precision":"zip"},"type":"Feature","geometry":{"type":"Point","coordinates":[-77.180258,38.865668]}},{"properties":{"zip":"22044","geo_score":0.714,"value":2,"id":"a62h21nejp0s","geo_precision":"zip"},"type":"Feature","geometry":{"type":"Point","coordinates":[-77.171091,38.882334]}},{"properties":{"zip":"22303","geo_score":0.714,"value":2,"id":"a62h21q9gweh","geo_precision":"zip"},"type":"Feature","geometry":{"type":"Point","coordinates":[-77.046921,38.804836]}},{"properties":{"zip":"22405","geo_score":0.714,"value":2,"id":"a62h21zj5c89","geo_precision":"zip"},"type":"Feature","geometry":{"type":"Point","coordinates":[-77.46054,38.303184]}},{"properties":{"zip":"22932","geo_score":0.714,"value":2,"id":"a62h21na2yhr","geo_precision":"zip"},"type":"Feature","geometry":{"type":"Point","coordinates":[-78.725298,38.046805]}},{"properties":{"zip":"23223","geo_score":0.714,"value":2,"id":"a62h21vn37c9","geo_precision":"zip"},"type":"Feature","geometry":{"type":"Point","coordinates":[-77.399148,37.562924]}},{"properties":{"zip":"23227","geo_score":0.714,"value":2,"id":"a62h21n9jjw6","geo_precision":"zip"},"type":"Feature","geometry":{"type":"Point","coordinates":[-77.460262,37.553758]}},{"properties":{"zip":"23454","geo_score":0.714,"value":2,"id":"a62h21m1xptx","geo_precision":"zip"},"type":"Feature","geometry":{"type":"Point","coordinates":[-76.051599,36.869315]}},{"properties":{"zip":"23464","geo_score":0.714,"value":2,"id":"a62h21wy5j8b","geo_precision":"zip"},"type":"Feature","geometry":{"type":"Point","coordinates":[-76.174381,36.797093]}},{"properties":{"zip":"24095","geo_score":0.714,"value":2,"id":"a62h21z0nfoy","geo_precision":"zip"},"type":"Feature","geometry":{"type":"Point","coordinates":[-79.742886,37.21229]}},{"properties":{"zip":"27302","geo_score":0.714,"value":2,"id":"a62h21mreqqn","geo_precision":"zip"},"type":"Feature","geometry":{"type":"Point","coordinates":[-79.226405,36.08625]}},{"properties":{"zip":"28078","geo_score":0.714,"value":2,"id":"a62h21xvyvnt","geo_precision":"zip"},"type":"Feature","geometry":{"type":"Point","coordinates":[-78.498332,36.428755]}},{"properties":{"zip":"28202","geo_score":0.714,"value":2,"id":"a62h21oqzxeg","geo_precision":"zip"},"type":"Feature","geometry":{"type":"Point","coordinates":[-80.843493,35.226192]}},{"properties":{"zip":"28205","geo_score":0.714,"value":2,"id":"a62h21m9j9s1","geo_precision":"zip"},"type":"Feature","geometry":{"type":"Point","coordinates":[-80.827444,35.325959]}},{"properties":{"zip":"28226","geo_score":0.714,"value":2,"id":"a62h21pwz78e","geo_precision":"zip"},"type":"Feature","geometry":{"type":"Point","coordinates":[-80.82747,35.108637]}},{"properties":{"zip":"28687","geo_score":0.714,"value":2,"id":"a62h21vtjc4p","geo_precision":"zip"},"type":"Feature","geometry":{"type":"Point","coordinates":[-80.947028,35.529792]}},{"properties":{"zip":"28778","geo_score":0.714,"value":2,"id":"a62h21l2cpf5","geo_precision":"zip"},"type":"Feature","geometry":{"type":"Point","coordinates":[-82.391511,35.638171]}},{"properties":{"zip":"29466","geo_score":0.714,"value":2,"id":"a62h21vvc97k","geo_precision":"zip"},"type":"Feature","geometry":{"type":"Point","coordinates":[-79.804893,32.867373]}},{"properties":{"zip":"30082","geo_score":0.714,"value":2,"id":"a62h21oygytn","geo_precision":"zip"},"type":"Feature","geometry":{"type":"Point","coordinates":[-84.534496,33.856754]}},{"properties":{"zip":"30101","geo_score":0.714,"value":2,"id":"a62h22004wlu","geo_precision":"zip"},"type":"Feature","geometry":{"type":"Point","coordinates":[-84.716048,33.979546]}},{"properties":{"zip":"30309","geo_score":0.714,"value":2,"id":"a62h21xjxbs1","geo_precision":"zip"},"type":"Feature","geometry":{"type":"Point","coordinates":[-84.387726,33.797854]}},{"properties":{"zip":"30605","geo_score":0.714,"value":2,"id":"a62h21zt0chs","geo_precision":"zip"},"type":"Feature","geometry":{"type":"Point","coordinates":[-83.364038,33.923088]}},{"properties":{"zip":"30683","geo_score":0.714,"value":2,"id":"a62h21r0xlax","geo_precision":"zip"},"type":"Feature","geometry":{"type":"Point","coordinates":[-83.292152,33.930735]}},{"properties":{"zip":"32082","geo_score":0.714,"value":2,"id":"a62h21pc9uaj","geo_precision":"zip"},"type":"Feature","geometry":{"type":"Point","coordinates":[-81.323687,30.022467]}},{"properties":{"zip":"32137","geo_score":0.714,"value":2,"id":"a62h21n4wzpy","geo_precision":"zip"},"type":"Feature","geometry":{"type":"Point","coordinates":[-81.201389,29.564391]}},{"properties":{"zip":"32566","geo_score":0.714,"value":2,"id":"a62h21w6e25q","geo_precision":"zip"},"type":"Feature","geometry":{"type":"Point","coordinates":[-86.281889,30.988514]}},{"properties":{"zip":"32905","geo_score":0.714,"value":2,"id":"a62h21t1ivf2","geo_precision":"zip"},"type":"Feature","geometry":{"type":"Point","coordinates":[-80.611642,27.96861]}},{"properties":{"zip":"32908","geo_score":0.714,"value":2,"id":"a62h21to4tie","geo_precision":"zip"},"type":"Feature","geometry":{"type":"Point","coordinates":[-80.692096,27.95504]}},{"properties":{"zip":"33070","geo_score":0.714,"value":2,"id":"a62h21puqws0","geo_precision":"zip"},"type":"Feature","geometry":{"type":"Point","coordinates":[-80.49256,25.042351]}},{"properties":{"zip":"33184","geo_score":0.714,"value":2,"id":"a62h21oyz979","geo_precision":"zip"},"type":"Feature","geometry":{"type":"Point","coordinates":[-80.405545,25.759247]}},{"properties":{"zip":"33905","geo_score":0.714,"value":2,"id":"a62h21tpkxrz","geo_precision":"zip"},"type":"Feature","geometry":{"type":"Point","coordinates":[-81.797584,26.680904]}},{"properties":{"zip":"34241","geo_score":0.714,"value":2,"id":"a62h220i53ms","geo_precision":"zip"},"type":"Feature","geometry":{"type":"Point","coordinates":[-82.351349,27.241077]}},{"properties":{"zip":"35226","geo_score":0.714,"value":2,"id":"a62h21sxt081","geo_precision":"zip"},"type":"Feature","geometry":{"type":"Point","coordinates":[-86.856101,33.401498]}},{"properties":{"zip":"39180","geo_score":0.714,"value":2,"id":"a62h21rk4kxx","geo_precision":"zip"},"type":"Feature","geometry":{"type":"Point","coordinates":[-90.94205,32.175152]}},{"properties":{"zip":"40324","geo_score":0.714,"value":2,"id":"a62h21qupd92","geo_precision":"zip"},"type":"Feature","geometry":{"type":"Point","coordinates":[-84.702169,38.205073]}},{"properties":{"zip":"43015","geo_score":0.714,"value":2,"id":"a62h2200psqh","geo_precision":"zip"},"type":"Feature","geometry":{"type":"Point","coordinates":[-83.012685,40.255618]}},{"properties":{"zip":"43125","geo_score":0.714,"value":2,"id":"a62h21vhetdt","geo_precision":"zip"},"type":"Feature","geometry":{"type":"Point","coordinates":[-82.88487,39.84692]}},{"properties":{"zip":"43220","geo_score":0.714,"value":2,"id":"a62h21p8zl56","geo_precision":"zip"},"type":"Feature","geometry":{"type":"Point","coordinates":[-83.011389,39.969036]}},{"properties":{"zip":"43235","geo_score":0.714,"value":2,"id":"a62h21oge90m","geo_precision":"zip"},"type":"Feature","geometry":{"type":"Point","coordinates":[-82.974204,40.108836]}},{"properties":{"zip":"43606","geo_score":0.714,"value":2,"id":"a62h21n0anqq","geo_precision":"zip"},"type":"Feature","geometry":{"type":"Point","coordinates":[-83.643269,41.664217]}},{"properties":{"zip":"44035","geo_score":0.714,"value":2,"id":"a62h21psgq99","geo_precision":"zip"},"type":"Feature","geometry":{"type":"Point","coordinates":[-82.115982,41.420321]}},{"properties":{"zip":"44060","geo_score":0.714,"value":2,"id":"a62h21tzvlk9","geo_precision":"zip"},"type":"Feature","geometry":{"type":"Point","coordinates":[-81.311772,41.739766]}},{"properties":{"zip":"44070","geo_score":0.714,"value":2,"id":"a62h21pwmtlr","geo_precision":"zip"},"type":"Feature","geometry":{"type":"Point","coordinates":[-81.922461,41.417347]}},{"properties":{"zip":"44094","geo_score":0.714,"value":2,"id":"a62h21xn297q","geo_precision":"zip"},"type":"Feature","geometry":{"type":"Point","coordinates":[-81.418447,41.598382]}},{"properties":{"zip":"44107","geo_score":0.714,"value":2,"id":"a62h21xyxezf","geo_precision":"zip"},"type":"Feature","geometry":{"type":"Point","coordinates":[-81.637249,41.514849]}},{"properties":{"zip":"44116","geo_score":0.714,"value":2,"id":"a62h2210mas1","geo_precision":"zip"},"type":"Feature","geometry":{"type":"Point","coordinates":[-81.849209,41.469497]}},{"properties":{"zip":"44121","geo_score":0.714,"value":2,"id":"a62h21p0yg8h","geo_precision":"zip"},"type":"Feature","geometry":{"type":"Point","coordinates":[-81.518455,41.523108]}},{"properties":{"zip":"44122","geo_score":0.714,"value":2,"id":"a62h220kv6hc","geo_precision":"zip"},"type":"Feature","geometry":{"type":"Point","coordinates":[-81.480675,41.462276]}},{"properties":{"zip":"44134","geo_score":0.714,"value":2,"id":"a62h21ntgsxc","geo_precision":"zip"},"type":"Feature","geometry":{"type":"Point","coordinates":[-81.726551,41.381701]}},{"properties":{"zip":"44202","geo_score":0.714,"value":2,"id":"a62h21o31y4g","geo_precision":"zip"},"type":"Feature","geometry":{"type":"Point","coordinates":[-81.395111,41.345888]}},{"properties":{"zip":"44236","geo_score":0.714,"value":2,"id":"a62h21x89hof","geo_precision":"zip"},"type":"Feature","geometry":{"type":"Point","coordinates":[-81.410666,41.264223]}},{"properties":{"zip":"44270","geo_score":0.714,"value":2,"id":"a62h21x9y59q","geo_precision":"zip"},"type":"Feature","geometry":{"type":"Point","coordinates":[-81.735408,40.952555]}},{"properties":{"zip":"44333","geo_score":0.714,"value":2,"id":"a62h21nlhxyn","geo_precision":"zip"},"type":"Feature","geometry":{"type":"Point","coordinates":[-81.609844,41.127833]}},{"properties":{"zip":"44509","geo_score":0.714,"value":2,"id":"a62h21kp0fh9","geo_precision":"zip"},"type":"Feature","geometry":{"type":"Point","coordinates":[-80.689243,41.10228]}},{"properties":{"zip":"44514","geo_score":0.714,"value":2,"id":"a62h21nkf21h","geo_precision":"zip"},"type":"Feature","geometry":{"type":"Point","coordinates":[-80.614795,41.024226]}},{"properties":{"zip":"44676","geo_score":0.714,"value":2,"id":"a62h21rx9wq2","geo_precision":"zip"},"type":"Feature","geometry":{"type":"Point","coordinates":[-82.032649,40.736169]}},{"properties":{"zip":"45220","geo_score":0.714,"value":2,"id":"a62h21wv34o1","geo_precision":"zip"},"type":"Feature","geometry":{"type":"Point","coordinates":[-84.520093,39.145559]}},{"properties":{"zip":"45247","geo_score":0.714,"value":2,"id":"a62h21lkiwrk","geo_precision":"zip"},"type":"Feature","geometry":{"type":"Point","coordinates":[-84.618002,39.292279]}},{"properties":{"zip":"45628","geo_score":0.714,"value":2,"id":"a62h21q69hj5","geo_precision":"zip"},"type":"Feature","geometry":{"type":"Point","coordinates":[-83.187688,39.384786]}},{"properties":{"zip":"45801","geo_score":0.714,"value":2,"id":"a62h21wza6lt","geo_precision":"zip"},"type":"Feature","geometry":{"type":"Point","coordinates":[-84.05189,40.78894]}},{"properties":{"zip":"46800","geo_score":0.714,"value":2,"id":"a62h21wzjc4x","geo_precision":"zip"},"type":"Feature","geometry":{"type":"Point","coordinates":[-85.12886,41.130604]}},{"properties":{"zip":"48093","geo_score":0.714,"value":2,"id":"a62h21wlaptj","geo_precision":"zip"},"type":"Feature","geometry":{"type":"Point","coordinates":[-83.006613,42.514886]}},{"properties":{"zip":"48103","geo_score":0.714,"value":2,"id":"a62h21poqh4y","geo_precision":"zip"},"type":"Feature","geometry":{"type":"Point","coordinates":[-83.849042,42.266638]}},{"properties":{"zip":"48198","geo_score":0.714,"value":2,"id":"a62h21zw6lzb","geo_precision":"zip"},"type":"Feature","geometry":{"type":"Point","coordinates":[-83.574382,42.257261]}},{"properties":{"zip":"48469","geo_score":0.714,"value":2,"id":"a62h21tgn8y7","geo_precision":"zip"},"type":"Feature","geometry":{"type":"Point","coordinates":[-82.566894,43.458914]}},{"properties":{"zip":"53222","geo_score":0.714,"value":2,"id":"a62h21q9pru7","geo_precision":"zip"},"type":"Feature","geometry":{"type":"Point","coordinates":[-88.036938,43.082161]}},{"properties":{"zip":"53708","geo_score":0.714,"value":2,"id":"a62h21xq80ds","geo_precision":"zip"},"type":"Feature","geometry":{"type":"Point","coordinates":[-89.423861,43.06956]}},{"properties":{"zip":"55016","geo_score":0.714,"value":2,"id":"a62h21rdkg61","geo_precision":"zip"},"type":"Feature","geometry":{"type":"Point","coordinates":[-92.928821,44.809967]}},{"properties":{"zip":"55108","geo_score":0.714,"value":2,"id":"a62h21vkv6b6","geo_precision":"zip"},"type":"Feature","geometry":{"type":"Point","coordinates":[-93.205779,44.998577]}},{"properties":{"zip":"55442","geo_score":0.714,"value":2,"id":"a62h21q9vvbo","geo_precision":"zip"},"type":"Feature","geometry":{"type":"Point","coordinates":[-93.431047,45.04674]}},{"properties":{"zip":"57186","geo_score":0.714,"value":2,"id":"a62h21l5ir2t","geo_precision":"zip"},"type":"Feature","geometry":{"type":"Point","coordinates":[-96.730328,43.546642]}},{"properties":{"zip":"60025","geo_score":0.714,"value":2,"id":"a62h21xyqq0n","geo_precision":"zip"},"type":"Feature","geometry":{"type":"Point","coordinates":[-87.875345,42.086694]}},{"properties":{"zip":"60076","geo_score":0.714,"value":2,"id":"a62h21qi6v39","geo_precision":"zip"},"type":"Feature","geometry":{"type":"Point","coordinates":[-87.883566,42.057878]}},{"properties":{"zip":"60123","geo_score":0.714,"value":2,"id":"a62h21ms9igk","geo_precision":"zip"},"type":"Feature","geometry":{"type":"Point","coordinates":[-88.371044,42.036325]}},{"properties":{"zip":"60130","geo_score":0.714,"value":2,"id":"a62h21qadkv6","geo_precision":"zip"},"type":"Feature","geometry":{"type":"Point","coordinates":[-87.68732,41.811929]}},{"properties":{"zip":"60607","geo_score":0.714,"value":2,"id":"a62h21qh3wcc","geo_precision":"zip"},"type":"Feature","geometry":{"type":"Point","coordinates":[-87.81381,41.928881]}},{"properties":{"zip":"60934","geo_score":0.714,"value":2,"id":"a62h21zzo1it","geo_precision":"zip"},"type":"Feature","geometry":{"type":"Point","coordinates":[-88.358928,40.969209]}},{"properties":{"zip":"61548","geo_score":0.714,"value":2,"id":"a62h21tmwzkl","geo_precision":"zip"},"type":"Feature","geometry":{"type":"Point","coordinates":[-89.43759,40.811426]}},{"properties":{"zip":"61605","geo_score":0.714,"value":2,"id":"a62h21qsw1ve","geo_precision":"zip"},"type":"Feature","geometry":{"type":"Point","coordinates":[-89.633787,40.676637]}},{"properties":{"zip":"62025","geo_score":0.714,"value":2,"id":"a62h21pls5v5","geo_precision":"zip"},"type":"Feature","geometry":{"type":"Point","coordinates":[-90.038716,38.834492]}},{"properties":{"zip":"64123","geo_score":0.714,"value":2,"id":"a62h21tnc1ut","geo_precision":"zip"},"type":"Feature","geometry":{"type":"Point","coordinates":[-94.505231,39.068154]}},{"properties":{"zip":"70001","geo_score":0.714,"value":2,"id":"a62h21tcbgvl","geo_precision":"zip"},"type":"Feature","geometry":{"type":"Point","coordinates":[-90.161821,29.984643]}},{"properties":{"zip":"72401","geo_score":0.714,"value":2,"id":"a62h21tuesdm","geo_precision":"zip"},"type":"Feature","geometry":{"type":"Point","coordinates":[-90.900952,35.844241]}},{"properties":{"zip":"72712","geo_score":0.714,"value":2,"id":"a62h21vniff3","geo_precision":"zip"},"type":"Feature","geometry":{"type":"Point","coordinates":[-94.304098,36.315355]}},{"properties":{"zip":"73013","geo_score":0.714,"value":2,"id":"a62h21zgeeml","geo_precision":"zip"},"type":"Feature","geometry":{"type":"Point","coordinates":[-98.384508,35.54644]}},{"properties":{"zip":"74112","geo_score":0.714,"value":2,"id":"a62h220ijt3n","geo_precision":"zip"},"type":"Feature","geometry":{"type":"Point","coordinates":[-96.287789,36.189246]}},{"properties":{"zip":"75034","geo_score":0.714,"value":2,"id":"a62h21wjc492","geo_precision":"zip"},"type":"Feature","geometry":{"type":"Point","coordinates":[-96.930005,33.220674]}},{"properties":{"zip":"76021","geo_score":0.714,"value":2,"id":"a62h21z6xrr9","geo_precision":"zip"},"type":"Feature","geometry":{"type":"Point","coordinates":[-97.136289,32.852546]}},{"properties":{"zip":"76114","geo_score":0.714,"value":2,"id":"a62h21wni5ti","geo_precision":"zip"},"type":"Feature","geometry":{"type":"Point","coordinates":[-97.423846,32.759854]}},{"properties":{"zip":"77803","geo_score":0.714,"value":2,"id":"a62h21lp3tni","geo_precision":"zip"},"type":"Feature","geometry":{"type":"Point","coordinates":[-96.395088,30.677338]}},{"properties":{"zip":"78404","geo_score":0.714,"value":2,"id":"a62h21oc2vhc","geo_precision":"zip"},"type":"Feature","geometry":{"type":"Point","coordinates":[-97.644134,27.773456]}},{"properties":{"zip":"78411","geo_score":0.714,"value":2,"id":"a62h21ujagwq","geo_precision":"zip"},"type":"Feature","geometry":{"type":"Point","coordinates":[-97.385169,27.732089]}},{"properties":{"zip":"78645","geo_score":0.714,"value":2,"id":"a62h21t8apwe","geo_precision":"zip"},"type":"Feature","geometry":{"type":"Point","coordinates":[-97.996124,30.379367]}},{"properties":{"zip":"78704","geo_score":0.714,"value":2,"id":"a62h21lwlrqi","geo_precision":"zip"},"type":"Feature","geometry":{"type":"Point","coordinates":[-97.768832,30.240685]}},{"properties":{"zip":"80113","geo_score":0.714,"value":2,"id":"a62h21qvuxrf","geo_precision":"zip"},"type":"Feature","geometry":{"type":"Point","coordinates":[-104.98776,39.647765]}},{"properties":{"zip":"80133","geo_score":0.714,"value":2,"id":"a62h21l1knls","geo_precision":"zip"},"type":"Feature","geometry":{"type":"Point","coordinates":[-104.908315,39.112492]}},{"properties":{"zip":"80211","geo_score":0.714,"value":2,"id":"a62h21qkpj1b","geo_precision":"zip"},"type":"Feature","geometry":{"type":"Point","coordinates":[-105.018387,39.765291]}},{"properties":{"zip":"80232","geo_score":0.714,"value":2,"id":"a62h21roulps","geo_precision":"zip"},"type":"Feature","geometry":{"type":"Point","coordinates":[-105.089805,39.688533]}},{"properties":{"zip":"80247","geo_score":0.714,"value":2,"id":"a62h21yey134","geo_precision":"zip"},"type":"Feature","geometry":{"type":"Point","coordinates":[-104.881751,39.696961]}},{"properties":{"zip":"80403","geo_score":0.714,"value":2,"id":"a62h21yhr8a5","geo_precision":"zip"},"type":"Feature","geometry":{"type":"Point","coordinates":[-105.34277,39.92832]}},{"properties":{"zip":"80424","geo_score":0.714,"value":2,"id":"a62h21xwvof5","geo_precision":"zip"},"type":"Feature","geometry":{"type":"Point","coordinates":[-106.043907,39.42971]}},{"properties":{"zip":"80521","geo_score":0.714,"value":2,"id":"a62h21qsb5fn","geo_precision":"zip"},"type":"Feature","geometry":{"type":"Point","coordinates":[-105.304708,40.686093]}},{"properties":{"zip":"80526","geo_score":0.714,"value":2,"id":"a62h21vjbrnv","geo_precision":"zip"},"type":"Feature","geometry":{"type":"Point","coordinates":[-105.324268,40.587553]}},{"properties":{"zip":"80537","geo_score":0.714,"value":2,"id":"a62h220bezcv","geo_precision":"zip"},"type":"Feature","geometry":{"type":"Point","coordinates":[-104.950809,40.406649]}},{"properties":{"zip":"81526","geo_score":0.714,"value":2,"id":"a62h21mxjgb3","geo_precision":"zip"},"type":"Feature","geometry":{"type":"Point","coordinates":[-108.299254,39.095369]}},{"properties":{"zip":"84102","geo_score":0.714,"value":2,"id":"a62h21xf6duy","geo_precision":"zip"},"type":"Feature","geometry":{"type":"Point","coordinates":[-111.86259,40.759246]}},{"properties":{"zip":"85027","geo_score":0.714,"value":2,"id":"a62h21wche4p","geo_precision":"zip"},"type":"Feature","geometry":{"type":"Point","coordinates":[-112.135991,33.915869]}},{"properties":{"zip":"85118","geo_score":0.0,"value":2,"id":"a62h21r299lv","geo_precision":"unmatched"},"type":"Feature","geometry":null},{"properties":{"zip":"85255","geo_score":0.714,"value":2,"id":"a62h21wvli06","geo_precision":"zip"},"type":"Feature","geometry":{"type":"Point","coordinates":[-111.901812,33.700041]}},{"properties":{"zip":"85262","geo_score":0.714,"value":2,"id":"a62h21u85vmu","geo_precision":"zip"},"type":"Feature","geometry":{"type":"Point","coordinates":[-111.915298,33.407445]}},{"properties":{"zip":"85282","geo_score":0.714,"value":2,"id":"a62h21ydy2ew","geo_precision":"zip"},"type":"Feature","geometry":{"type":"Point","coordinates":[-111.929253,33.396736]}},{"properties":{"zip":"85374","geo_score":0.714,"value":2,"id":"a62h220ovhfv","geo_precision":"zip"},"type":"Feature","geometry":{"type":"Point","coordinates":[-112.338494,33.647538]}},{"properties":{"zip":"87529","geo_score":0.714,"value":2,"id":"a62h21zbh2d1","geo_precision":"zip"},"type":"Feature","geometry":{"type":"Point","coordinates":[-105.624393,36.349198]}},{"properties":{"zip":"87544","geo_score":0.714,"value":2,"id":"a62h21u37gzz","geo_precision":"zip"},"type":"Feature","geometry":{"type":"Point","coordinates":[-106.175303,35.875581]}},{"properties":{"zip":"89002","geo_score":0.0,"value":2,"id":"a62h21p14gta","geo_precision":"unmatched"},"type":"Feature","geometry":null},{"properties":{"zip":"89102","geo_score":0.714,"value":2,"id":"a62h21ksm172","geo_precision":"zip"},"type":"Feature","geometry":{"type":"Point","coordinates":[-115.390646,36.281327]}},{"properties":{"zip":"89505","geo_score":0.714,"value":2,"id":"a62h21wt02bx","geo_precision":"zip"},"type":"Feature","geometry":{"type":"Point","coordinates":[-119.835275,39.52241]}},{"properties":{"zip":"90034","geo_score":0.714,"value":2,"id":"a62h21tgkyb1","geo_precision":"zip"},"type":"Feature","geometry":{"type":"Point","coordinates":[-118.405633,34.022789]}},{"properties":{"zip":"90066","geo_score":0.714,"value":2,"id":"a62h2210q5gr","geo_precision":"zip"},"type":"Feature","geometry":{"type":"Point","coordinates":[-118.430912,34.004734]}},{"properties":{"zip":"90209","geo_score":0.714,"value":2,"id":"a62h21rcoprw","geo_precision":"zip"},"type":"Feature","geometry":{"type":"Point","coordinates":[-118.298662,33.786594]}},{"properties":{"zip":"90265","geo_score":0.714,"value":2,"id":"a62h21xaedcp","geo_precision":"zip"},"type":"Feature","geometry":{"type":"Point","coordinates":[-118.579527,34.040009]}},{"properties":{"zip":"90266","geo_score":0.714,"value":2,"id":"a62h21mkc1hd","geo_precision":"zip"},"type":"Feature","geometry":{"type":"Point","coordinates":[-118.298662,33.786594]}},{"properties":{"zip":"90275","geo_score":0.714,"value":2,"id":"a62h21q16ilx","geo_precision":"zip"},"type":"Feature","geometry":{"type":"Point","coordinates":[-118.298662,33.786594]}},{"properties":{"zip":"91935","geo_score":0.714,"value":2,"id":"a62h21qxxrcz","geo_precision":"zip"},"type":"Feature","geometry":{"type":"Point","coordinates":[-116.846046,33.016928]}},{"properties":{"zip":"92107","geo_score":0.714,"value":2,"id":"a62h21suc9na","geo_precision":"zip"},"type":"Feature","geometry":{"type":"Point","coordinates":[-117.261982,32.744494]}},{"properties":{"zip":"92253","geo_score":0.714,"value":2,"id":"a62h21ruae6g","geo_precision":"zip"},"type":"Feature","geometry":{"type":"Point","coordinates":[-116.259176,33.670978]}},{"properties":{"zip":"94062","geo_score":0.714,"value":2,"id":"a62h22076ebv","geo_precision":"zip"},"type":"Feature","geometry":{"type":"Point","coordinates":[-122.262745,37.383551]}},{"properties":{"zip":"95338","geo_score":0.714,"value":2,"id":"a62h21x04ayi","geo_precision":"zip"},"type":"Feature","geometry":{"type":"Point","coordinates":[-120.0449,37.507159]}},{"properties":{"zip":"95969","geo_score":0.714,"value":2,"id":"a62h21t0cxpw","geo_precision":"zip"},"type":"Feature","geometry":{"type":"Point","coordinates":[-121.707265,39.654279]}},{"properties":{"zip":"96708","geo_score":0.714,"value":2,"id":"a62h21r166i2","geo_precision":"zip"},"type":"Feature","geometry":{"type":"Point","coordinates":[-156.136389,20.848611]}},{"properties":{"zip":"97266","geo_score":0.714,"value":2,"id":"a62h21zmor09","geo_precision":"zip"},"type":"Feature","geometry":{"type":"Point","coordinates":[-122.557502,45.482949]}},{"properties":{"zip":"97405","geo_score":0.714,"value":2,"id":"a62h21kpx6nj","geo_precision":"zip"},"type":"Feature","geometry":{"type":"Point","coordinates":[-123.011472,43.995403]}},{"properties":{"zip":"97877","geo_score":0.714,"value":2,"id":"a62h21oxnwyo","geo_precision":"zip"},"type":"Feature","geometry":{"type":"Point","coordinates":[-118.290774,44.659321]}},{"properties":{"zip":"98053","geo_score":0.714,"value":2,"id":"a62h21tqglqa","geo_precision":"zip"},"type":"Feature","geometry":{"type":"Point","coordinates":[-122.0804,47.641766]}},{"properties":{"zip":"98155","geo_score":0.714,"value":2,"id":"a62h21qcwwvp","geo_precision":"zip"},"type":"Feature","geometry":{"type":"Point","coordinates":[-122.333736,47.463155]}},{"properties":{"zip":"98422","geo_score":0.714,"value":2,"id":"a62h21unyl9k","geo_precision":"zip"},"type":"Feature","geometry":{"type":"Point","coordinates":[-122.441236,47.300377]}},{"properties":{"zip":"99559","geo_score":0.714,"value":2,"id":"a62h21pv4vy8","geo_precision":"zip"},"type":"Feature","geometry":{"type":"Point","coordinates":[-161.77,60.722778]}}],"is_temporal":false,"author":{"url":"","metadata":"","contact_name":"","contact_address":"","source":"","contact_phone":""},"source":"","pagination":{"sort":null,"start":0,"total":673,"limit":1000000},"state":"complete","tags":"","published":"2014-08-10T17:15:04-04:00","id":64269}