{"type":"FeatureCollection","data_type":"Dataset","url_type":null,"permissions":[{"permissions":{"download":true,"view":true},"group_id":"everyone"}],"classification":null,"title":"GMH CDLs","count":40,"stream_id":64337,"contributor":{"url":"http://geocommons.com/users/16052","name":"hpgenmotors"},"data_attributes":null,"calculation_params":null,"icon_link":null,"link":"http://geocommons.com/overlays/64337.json","extent":[25.57,-41.2865,174.776,37.4563],"geometry_types":["point"],"unique_name":null,"name":"GMH CDLs","feature_count":40,"description":"","next_feature":null,"is_raster":false,"short_classification":"Y","stats":{"latitude":{"max":37.4562557,"mean":-26.31757427075,"variance":262.319519576244,"stdev":16.1962810415306,"min":-41.28648,"median":-33.867139},"longitude":{"max":174.776217,"mean":135.9434867925,"variance":539.942169120812,"stdev":23.2366557215278,"min":25.56995,"median":138.669699}},"features":[{"properties":{"city":"Rayong","cdl":null,"latitude":12.97196108,"country":null,"type":"Plant","service provider":"GM Thailand","longitude":101.2158179,"id":"a64x6272s45m","address":null,"state":"TH"},"type":"Feature","geometry":{"type":"Point","coordinates":[101.2158179,12.97196108]}},{"properties":{"city":"Elizabeth","cdl":"2Y","latitude":-34.714666,"country":null,"type":"Distribution Yard","service provider":"Toll","longitude":138.669666,"id":"a64x62fj471k","address":null,"state":"SA, AUS"},"type":"Feature","geometry":{"type":"Point","coordinates":[138.669666,-34.714666]}},{"properties":{"city":"Elizabeth","cdl":"2Y","latitude":-34.74966131,"country":null,"type":"Plant","service provider":"Holden","longitude":138.6529863,"id":"a64x6270ymgv","address":null,"state":"SA, AUS"},"type":"Feature","geometry":{"type":"Point","coordinates":[138.6529863,-34.74966131]}},{"properties":{"city":"Elizabeth","cdl":"2Y","latitude":-34.714535,"country":null,"type":"Body Builder","service provider":"HSVi","longitude":138.669699,"id":"a64x62aueq2x","address":null,"state":"SA, AUS"},"type":"Feature","geometry":{"type":"Point","coordinates":[138.669699,-34.714535]}},{"properties":{"city":"Darwin","cdl":"HD","latitude":-12.461334,"country":null,"type":"PDi","service provider":"Patrick's Autocare","longitude":130.841904,"id":"a64x62789djc","address":null,"state":"NT, AUS"},"type":"Feature","geometry":{"type":"Point","coordinates":[130.841904,-12.461334]}},{"properties":{"city":"Darwin","cdl":"HD","latitude":-12.461334,"country":null,"type":"Port of Entry for GMH imports","service provider":"Patrick's Autocare","longitude":130.841904,"id":"a64x62a528hn","address":null,"state":"NT, AUS"},"type":"Feature","geometry":{"type":"Point","coordinates":[130.841904,-12.461334]}},{"properties":{"city":"Darwin","cdl":"HD","latitude":-12.461334,"country":null,"type":"PDI","service provider":"Autonexus","longitude":130.841904,"id":"a64x62c9ixva","address":null,"state":"NT, AUS"},"type":"Feature","geometry":{"type":"Point","coordinates":[130.841904,-12.461334]}},{"properties":{"city":"Darwin","cdl":"HD","latitude":-12.461334,"country":null,"type":"Port of Entry for GMH imports","service provider":"Autonexus","longitude":130.841904,"id":"a64x628smhac","address":null,"state":"NT, AUS"},"type":"Feature","geometry":{"type":"Point","coordinates":[130.841904,-12.461334]}},{"properties":{"city":"Dandenong","cdl":"HI","latitude":-37.987271,"country":null,"type":"Upfitter","service provider":"Impco","longitude":145.214317,"id":"a64x62cmx16n","address":null,"state":"VIC, AUS"},"type":"Feature","geometry":{"type":"Point","coordinates":[145.214317,-37.987271]}},{"properties":{"city":"Clayton","cdl":"HS","latitude":-37.925488,"country":null,"type":"Upfitter","service provider":"HSV","longitude":145.119662,"id":"a64x625qxivg","address":null,"state":"VIC, AUS"},"type":"Feature","geometry":{"type":"Point","coordinates":[145.119662,-37.925488]}},{"properties":{"city":"Brisbane","cdl":"I9","latitude":-27.46758,"country":null,"type":"Port of Entry for GMH imports","service provider":"Autonexus","longitude":153.027892,"id":"a64x623krghj","address":null,"state":"QLD, AUS"},"type":"Feature","geometry":{"type":"Point","coordinates":[153.027892,-27.46758]}},{"properties":{"city":"Brisbane","cdl":"I9","latitude":-27.46758,"country":null,"type":"Port of Entry for GMH imports","service provider":"Patrick's Autocare","longitude":153.027892,"id":"a64x62cwulrn","address":null,"state":"QLD, AUS"},"type":"Feature","geometry":{"type":"Point","coordinates":[153.027892,-27.46758]}},{"properties":{"city":"Brisbane","cdl":"I9","latitude":-27.46758,"country":null,"type":"PDI","service provider":"Autonexus","longitude":153.027892,"id":"a64x6251ynok","address":null,"state":"QLD, AUS"},"type":"Feature","geometry":{"type":"Point","coordinates":[153.027892,-27.46758]}},{"properties":{"city":"Brisbane","cdl":"I9","latitude":-27.46758,"country":null,"type":"PDI","service provider":"Patrick's Autocare","longitude":153.027892,"id":"a64x620thtgp","address":null,"state":"QLD, AUS"},"type":"Feature","geometry":{"type":"Point","coordinates":[153.027892,-27.46758]}},{"properties":{"city":"Incheon","cdl":"L4","latitude":37.4562557,"country":null,"type":"Port of Exit for GMH imports","service provider":"Port","longitude":126.7052062,"id":"a64x62aqbolg","address":null,"state":"KR"},"type":"Feature","geometry":{"type":"Point","coordinates":[126.7052062,37.4562557]}},{"properties":{"city":"Laverton","cdl":"LH","latitude":-37.866939,"country":null,"type":"PDI","service provider":"Patrick's Autocare","longitude":144.761748,"id":"a64x62e9slau","address":null,"state":"VIC, AUS"},"type":"Feature","geometry":{"type":"Point","coordinates":[144.761748,-37.866939]}},{"properties":{"city":"Melbourne","cdl":"O4","latitude":-37.814251,"country":null,"type":"Port of Entry for GMH imports","service provider":"Autonexus","longitude":144.963169,"id":"a64x62dl385a","address":null,"state":"VIC, AUS"},"type":"Feature","geometry":{"type":"Point","coordinates":[144.963169,-37.814251]}},{"properties":{"city":"Melbourne","cdl":"O4","latitude":-37.814251,"country":null,"type":"PDI","service provider":"Autonexus","longitude":144.963169,"id":"a64x61zdnuil","address":null,"state":"VIC, AUS"},"type":"Feature","geometry":{"type":"Point","coordinates":[144.963169,-37.814251]}},{"properties":{"city":"Melbourne","cdl":"O4","latitude":-37.814251,"country":null,"type":"Port of Entry for GMH imports","service provider":"Patrick's Autocare","longitude":144.963169,"id":"a64x6210vzuw","address":null,"state":"VIC, AUS"},"type":"Feature","geometry":{"type":"Point","coordinates":[144.963169,-37.814251]}},{"properties":{"city":"Port Elizabeth","cdl":"Q7","latitude":-33.93264,"country":null,"type":"Port of Entry for GMH exports","service provider":"Port","longitude":25.56995,"id":"a64x62011nw7","address":null,"state":"ZA"},"type":"Feature","geometry":{"type":"Point","coordinates":[25.56995,-33.93264]}},{"properties":{"city":"Sydney","cdl":"R1","latitude":-33.867139,"country":null,"type":"Port of Entry for GMH imports","service provider":"Patrick's Autocare","longitude":151.207114,"id":"a64x62807nce","address":null,"state":"NSW, AUS"},"type":"Feature","geometry":{"type":"Point","coordinates":[151.207114,-33.867139]}},{"properties":{"city":"Sydney","cdl":"R1","latitude":-33.867139,"country":null,"type":"Port of Entry for GMH imports","service provider":"Autonexus","longitude":151.207114,"id":"a64x6242w9di","address":null,"state":"NSW, AUS"},"type":"Feature","geometry":{"type":"Point","coordinates":[151.207114,-33.867139]}},{"properties":{"city":"Sydney","cdl":"R1","latitude":-33.867139,"country":null,"type":"PDI","service provider":"Autonexus","longitude":151.207114,"id":"a64x621hb5lr","address":null,"state":"NSW, AUS"},"type":"Feature","geometry":{"type":"Point","coordinates":[151.207114,-33.867139]}},{"properties":{"city":"Sydney","cdl":"R1","latitude":-33.867139,"country":null,"type":"PDI","service provider":"Patrick's Autocare","longitude":151.207114,"id":"a64x62fawf9x","address":null,"state":"NSW, AUS"},"type":"Feature","geometry":{"type":"Point","coordinates":[151.207114,-33.867139]}},{"properties":{"city":"Townsville","cdl":"TA","latitude":-19.258106,"country":null,"type":"Port of Entry for GMH imports","service provider":"Patrick's Autocare","longitude":146.818351,"id":"a64x62a2db7s","address":null,"state":"QLD, AUS"},"type":"Feature","geometry":{"type":"Point","coordinates":[146.818351,-19.258106]}},{"properties":{"city":"Townsville","cdl":"TA","latitude":-19.258106,"country":null,"type":"PDI","service provider":"Patrick's Autocare","longitude":146.818351,"id":"a64x62cpmm87","address":null,"state":"QLD, AUS"},"type":"Feature","geometry":{"type":"Point","coordinates":[146.818351,-19.258106]}},{"properties":{"city":"Townsville","cdl":"TA","latitude":-19.258106,"country":null,"type":"PDI","service provider":"Autonexus","longitude":146.818351,"id":"a64x62axya5h","address":null,"state":"QLD, AUS"},"type":"Feature","geometry":{"type":"Point","coordinates":[146.818351,-19.258106]}},{"properties":{"city":"Townsville","cdl":"TA","latitude":-19.258106,"country":null,"type":"Port of Entry for GMH imports","service provider":"Autonexus","longitude":146.818351,"id":"a64x622f0hhi","address":null,"state":"QLD, AUS"},"type":"Feature","geometry":{"type":"Point","coordinates":[146.818351,-19.258106]}},{"properties":{"city":"Adelaide","cdl":"W3","latitude":-34.92577,"country":null,"type":"PDI","service provider":"Patrick's Autocare","longitude":138.599732,"id":"a64x62dgxpgp","address":null,"state":"SA, AUS"},"type":"Feature","geometry":{"type":"Point","coordinates":[138.599732,-34.92577]}},{"properties":{"city":"Adelaide","cdl":"W3","latitude":-34.92577,"country":null,"type":"PDI","service provider":"Autonexus","longitude":138.599732,"id":"a64x625it52d","address":null,"state":"SA, AUS"},"type":"Feature","geometry":{"type":"Point","coordinates":[138.599732,-34.92577]}},{"properties":{"city":"Adelaide","cdl":"W3","latitude":-34.92577,"country":null,"type":"Port of Entry for GMH imports","service provider":"Autonexus","longitude":138.599732,"id":"a64x6234nwnm","address":null,"state":"SA, AUS"},"type":"Feature","geometry":{"type":"Point","coordinates":[138.599732,-34.92577]}},{"properties":{"city":"Adelaide","cdl":"W3","latitude":-34.92577,"country":null,"type":"Freight Forwarder","service provider":"Dfyoung","longitude":138.599732,"id":"a64x61zctbiw","address":null,"state":"SA, AUS"},"type":"Feature","geometry":{"type":"Point","coordinates":[138.599732,-34.92577]}},{"properties":{"city":"Adelaide","cdl":"W3","latitude":-34.92577,"country":null,"type":"Port of Exit for GMH exports","service provider":"AAT","longitude":138.599732,"id":"a64x62c4t396","address":null,"state":"SA, AUS"},"type":"Feature","geometry":{"type":"Point","coordinates":[138.599732,-34.92577]}},{"properties":{"city":"Adelaide","cdl":"W3","latitude":-34.92577,"country":null,"type":"Port of Entry for GMH imports","service provider":"Patrick's Autocare","longitude":138.599732,"id":"a64x62bppyq5","address":null,"state":"SA, AUS"},"type":"Feature","geometry":{"type":"Point","coordinates":[138.599732,-34.92577]}},{"properties":{"city":"Perth","cdl":"W4","latitude":-31.9554,"country":null,"type":"Port of Entry for GMH imports","service provider":"Autonexus","longitude":115.85859,"id":"a64x62e1obt0","address":null,"state":"WA, AUS"},"type":"Feature","geometry":{"type":"Point","coordinates":[115.85859,-31.9554]}},{"properties":{"city":"Perth","cdl":"W4","latitude":-31.9554,"country":null,"type":"Port of Entry for GMH imports","service provider":"Patrick's Autocare","longitude":115.85859,"id":"a64x6219ek2u","address":null,"state":"WA, AUS"},"type":"Feature","geometry":{"type":"Point","coordinates":[115.85859,-31.9554]}},{"properties":{"city":"Perth","cdl":"W4","latitude":-31.9554,"country":null,"type":"PDI","service provider":"Autonexus","longitude":115.85859,"id":"a64x62126nte","address":null,"state":"WA, AUS"},"type":"Feature","geometry":{"type":"Point","coordinates":[115.85859,-31.9554]}},{"properties":{"city":"Perth","cdl":"W4","latitude":-31.9554,"country":null,"type":"PDI","service provider":"Patrick's Autocare","longitude":115.85859,"id":"a64x62c4gkkf","address":null,"state":"WA, AUS"},"type":"Feature","geometry":{"type":"Point","coordinates":[115.85859,-31.9554]}},{"properties":{"city":"Laem Chabang","cdl":"X9","latitude":13.0821017,"country":null,"type":"Port of Exit for GMH imports","service provider":"Port","longitude":100.8808993,"id":"a64x6213ys0m","address":null,"state":"TH"},"type":"Feature","geometry":{"type":"Point","coordinates":[100.8808993,13.0821017]}},{"properties":{"city":"Wellington","cdl":"Z2","latitude":-41.28648,"country":null,"type":"Port of Entry for GMH exports","service provider":"Car-Haulaway","longitude":174.776217,"id":"a64x620nuglm","address":null,"state":"NZ"},"type":"Feature","geometry":{"type":"Point","coordinates":[174.776217,-41.28648]}}],"is_temporal":false,"author":{"url":"","metadata":"","contact_name":"","contact_address":"","source":"","contact_phone":""},"source":"","pagination":{"sort":null,"start":0,"total":40,"limit":1000000},"state":"complete","tags":"","published":"2014-08-10T17:20:47-04:00","id":64337}