{"type":"FeatureCollection","data_type":"Dataset","url_type":null,"permissions":[{"permissions":{"download":true,"view":true},"group_id":"everyone"}],"classification":null,"title":"Scores = 90-99 94122","count":73,"stream_id":64465,"contributor":{"url":"http://geocommons.com/users/16252","name":"lollymr"},"data_attributes":null,"calculation_params":null,"icon_link":null,"link":"http://geocommons.com/overlays/64465.json","extent":[-122.51,37.7525,-122.463,37.7658],"geometry_types":["point"],"unique_name":null,"name":"Scores = 90-99 94122","feature_count":73,"description":"","next_feature":null,"is_raster":false,"short_classification":"Y","stats":{"inspection score":{"max":98,"mean":94.5068493150685,"variance":7.75342465753424,"stdev":2.78449720013044,"min":90,"median":96}},"features":[{"properties":{"restaurant":"7-ELEVEN","inspection date":"4/7/10","id":"a6h2j5fpe6ze","address":"1388 46TH AVE","inspection score":96},"type":"Feature","geometry":{"type":"Point","coordinates":[-122.505591,37.760687]}},{"properties":{"restaurant":"ALVIN'S SCRUMPTIOUS COFFEE &amp; TEA","inspection date":"7/13/10","id":"a6h2j5nuy8nj","address":"1708 IRVING ST","inspection score":96},"type":"Feature","geometry":{"type":"Point","coordinates":[-122.4763818,37.7636167]}},{"properties":{"restaurant":"AMISHA INDIAN CUISINE","inspection date":"5/5/10","id":"a6h2j5bbrmpy","address":"1924 IRVING ST","inspection score":98},"type":"Feature","geometry":{"type":"Point","coordinates":[-122.4787333,37.7635062]}},{"properties":{"restaurant":"ART'S CAFE","inspection date":"5/27/10","id":"a6h2j5f37hnz","address":"747 IRVING ST","inspection score":96},"type":"Feature","geometry":{"type":"Point","coordinates":[-122.4659817,37.7640427]}},{"properties":{"restaurant":"BASHFUL BULL RESTAURANT","inspection date":"4/13/10","id":"a6h2j5nan2u4","address":"1222 NORIEGA ST","inspection score":98},"type":"Feature","geometry":{"type":"Point","coordinates":[-122.476992,37.754466]}},{"properties":{"restaurant":"BEANERY INC.","inspection date":"7/26/10","id":"a6h2j5huur67","address":"602 IRVING ST","inspection score":98},"type":"Feature","geometry":{"type":"Point","coordinates":[-122.4642323,37.7641496]}},{"properties":{"restaurant":"BEAUTIFULL","inspection date":"7/22/10","id":"a6h2j5pymrzj","address":"816 IRVING ST","inspection score":96},"type":"Feature","geometry":{"type":"Point","coordinates":[-122.4667037,37.7640421]}},{"properties":{"restaurant":"BUN BO HUE","inspection date":"10/8/09","id":"a6h2j5ndshwp","address":"1240 NORIEGA ST","inspection score":92},"type":"Feature","geometry":{"type":"Point","coordinates":[-122.4771847,37.7542293]}},{"properties":{"restaurant":"C &amp; M BAR","inspection date":"4/8/10","id":"a6h2j5h2i9ok","address":"4300 JUDAH ST","inspection score":91},"type":"Feature","geometry":{"type":"Point","coordinates":[-122.5081936,37.7604284]}},{"properties":{"restaurant":"CAFE BAKERY","inspection date":"5/25/10","id":"a6h2j5ozxpe8","address":"1345 NORIEGA ST","inspection score":90},"type":"Feature","geometry":{"type":"Point","coordinates":[-122.478325,37.753954]}},{"properties":{"restaurant":"CAFE BAKERY","inspection date":"5/25/10","id":"a6h2j5bpqw94","address":"1365 NORIEGA ST","inspection score":90},"type":"Feature","geometry":{"type":"Point","coordinates":[-122.4782403,37.7540858]}},{"properties":{"restaurant":"CELIAS RESTAURANT","inspection date":"4/14/10","id":"a6h2j5fvt5wa","address":"4019 JUDAH ST","inspection score":96},"type":"Feature","geometry":{"type":"Point","coordinates":[-122.5052191,37.7604404]}},{"properties":{"restaurant":"CREPEVINE, THE","inspection date":"7/26/10","id":"a6h2j5r91mu3","address":"624 IRVING ST","inspection score":90},"type":"Feature","geometry":{"type":"Point","coordinates":[-122.4646874,37.7641296]}},{"properties":{"restaurant":"DRAGONFLY","inspection date":"6/17/10","id":"a6h2j5jldgzy","address":"420 JUDAH ST","inspection score":92},"type":"Feature","geometry":{"type":"Point","coordinates":[-122.4665636,37.7622103]}},{"properties":{"restaurant":"EDDY'S FOOD MARKET","inspection date":"7/21/10","id":"a6h2j5b71iy1","address":"951 IRVING ST","inspection score":96},"type":"Feature","geometry":{"type":"Point","coordinates":[-122.4682048,37.7639473]}},{"properties":{"restaurant":"ENJOY VEGETARIAN RESTAURANT","inspection date":"6/17/10","id":"a6h2j5nekadw","address":"754 KIRKHAM ST","inspection score":98},"type":"Feature","geometry":{"type":"Point","coordinates":[-122.4691491,37.7602732]}},{"properties":{"restaurant":"EVA'S CATERING","inspection date":"2/9/10","id":"a6h2j5gsl78l","address":"1843 38TH AVE","inspection score":98},"type":"Feature","geometry":{"type":"Point","coordinates":[-122.497104,37.7525]}},{"properties":{"restaurant":"FIREFLY SPORTS BAR","inspection date":"5/11/10","id":"a6h2j5g90end","address":"2457 NORIEGA ST","inspection score":96},"type":"Feature","geometry":{"type":"Point","coordinates":[-122.4902344,37.7536157]}},{"properties":{"restaurant":"FIRESIDE","inspection date":"7/23/10","id":"a6h2j5k0014v","address":"603 IRVING ST","inspection score":90},"type":"Feature","geometry":{"type":"Point","coordinates":[-122.46421,37.7641198]}},{"properties":{"restaurant":"FUJIYAMA-YA","inspection date":"10/5/09","id":"a6h2j5r4iv7s","address":"1234 NORIEGA ST","inspection score":98},"type":"Feature","geometry":{"type":"Point","coordinates":[-122.4771637,37.7543464]}},{"properties":{"restaurant":"GAZEBO CHINESE CUISINE","inspection date":"4/13/10","id":"a6h2j5ocn56h","address":"1310 NORIEGA ST","inspection score":96},"type":"Feature","geometry":{"type":"Point","coordinates":[-122.4778123,37.7542]}},{"properties":{"restaurant":"GOEMON","inspection date":"7/20/10","id":"a6h2j5r2gpva","address":"1524 IRVING ST","inspection score":92},"type":"Feature","geometry":{"type":"Point","coordinates":[-122.474381,37.763933]}},{"properties":{"restaurant":"GOLDEN ISLAND CAFE","inspection date":"4/13/10","id":"a6h2j5pzkxiq","address":"1300 NORIEGA ST","inspection score":98},"type":"Feature","geometry":{"type":"Point","coordinates":[-122.477561,37.7542111]}},{"properties":{"restaurant":"HANDY DELICATESSEN","inspection date":"4/26/10","id":"a6h2j5r3pel1","address":"1815 IRVING ST","inspection score":96},"type":"Feature","geometry":{"type":"Point","coordinates":[-122.4774635,37.7635377]}},{"properties":{"restaurant":"HOLLOW","inspection date":"7/14/10","id":"a6h2j5mqgnxz","address":"1435 IRVING ST","inspection score":98},"type":"Feature","geometry":{"type":"Point","coordinates":[-122.4734506,37.763717]}},{"properties":{"restaurant":"HONG'S KITCHEN","inspection date":"3/23/10","id":"a6h2j5c9zt91","address":"3917 NORIEGA ST","inspection score":94},"type":"Feature","geometry":{"type":"Point","coordinates":[-122.5057677,37.7529295]}},{"properties":{"restaurant":"I CAFE","inspection date":"8/6/10","id":"a6h2j5dgejjz","address":"1916 IRVING ST","inspection score":94},"type":"Feature","geometry":{"type":"Point","coordinates":[-122.4785877,37.7635729]}},{"properties":{"restaurant":"IRVING PIZZA","inspection date":"4/26/10","id":"a6h2j5q2s597","address":"1825 IRVING ST","inspection score":94},"type":"Feature","geometry":{"type":"Point","coordinates":[-122.4776272,37.7634378]}},{"properties":{"restaurant":"JAVA BEACH CAFE","inspection date":"6/2/10","id":"a6h2j5g2twmd","address":"1396 LA PLAYA ST","inspection score":96},"type":"Feature","geometry":{"type":"Point","coordinates":[-122.5089765,37.7604316]}},{"properties":{"restaurant":"JEFFERSON ELEMENTARY SCHOOL","inspection date":"8/31/10","id":"a6h2j5kf93c9","address":"1725 IRVING ST","inspection score":92},"type":"Feature","geometry":{"type":"Point","coordinates":[-122.4763251,37.7635882]}},{"properties":{"restaurant":"JUDAHLICIOUS JUICE","inspection date":"4/14/10","id":"a6h2j5g0g3wt","address":"3906 JUDAH ST","inspection score":96},"type":"Feature","geometry":{"type":"Point","coordinates":[-122.5039154,37.7605911]}},{"properties":{"restaurant":"KENTUCKY FRIED CHICKEN #50","inspection date":"8/11/10","id":"a6h2j5kbnn69","address":"1900 IRVING ST","inspection score":98},"type":"Feature","geometry":{"type":"Point","coordinates":[-122.4784882,37.7636297]}},{"properties":{"restaurant":"KITCHEN KURA","inspection date":"7/14/10","id":"a6h2j5g50g8f","address":"1525 IRVING ST","inspection score":90},"type":"Feature","geometry":{"type":"Point","coordinates":[-122.4743603,37.763557]}},{"properties":{"restaurant":"LA PLAYA TAQUERIA","inspection date":"4/14/10","id":"a6h2j5fb5tan","address":"3817 NORIEGA ST","inspection score":93},"type":"Feature","geometry":{"type":"Point","coordinates":[-122.5047475,37.7529749]}},{"properties":{"restaurant":"LIME TREE","inspection date":"4/7/10","id":"a6h2j5hgqmkw","address":"450 D IRVING ST","inspection score":91},"type":"Feature","geometry":{"type":"Point","coordinates":[-122.4628567,37.7643154]}},{"properties":{"restaurant":"LINCOLN 76","inspection date":"4/7/10","id":"a6h2j5d4fesg","address":"1200 LA PLAYA ST","inspection score":96},"type":"Feature","geometry":{"type":"Point","coordinates":[-122.509036,37.763504]}},{"properties":{"restaurant":"LITTLE PARIS 2","inspection date":"5/24/10","id":"a6h2j5mt9ahh","address":"2305 IRVING ST","inspection score":94},"type":"Feature","geometry":{"type":"Point","coordinates":[-122.4826913,37.7632253]}},{"properties":{"restaurant":"LITTLE SHAMROCK","inspection date":"6/16/10","id":"a6h2j5h3qtdg","address":"807 LINCOLN WAY","inspection score":90},"type":"Feature","geometry":{"type":"Point","coordinates":[-122.4667,37.765649]}},{"properties":{"restaurant":"MACAO FRIENDS RESTAURANT","inspection date":"10/7/09","id":"a6h2j5mhmpx9","address":"2240 IRVING ST","inspection score":98},"type":"Feature","geometry":{"type":"Point","coordinates":[-122.4821983,37.7634761]}},{"properties":{"restaurant":"MARNEE THAI RESTAURANT","inspection date":"4/23/10","id":"a6h2j5h7as3h","address":"2225 IRVING ST","inspection score":96},"type":"Feature","geometry":{"type":"Point","coordinates":[-122.4818722,37.763259]}},{"properties":{"restaurant":"MONGKOK DIM SUM &amp; RESTAURANT","inspection date":"4/12/10","id":"a6h2j5nt2wr7","address":"2438 NORIEGA  ST","inspection score":92},"type":"Feature","geometry":{"type":"Point","coordinates":[-122.4900495,37.7536609]}},{"properties":{"restaurant":"OKAZU YA SAN FRANCISCO","inspection date":"4/16/10","id":"a6h2j5gctqln","address":"2445 NORIEGA ST","inspection score":94},"type":"Feature","geometry":{"type":"Point","coordinates":[-122.4901061,37.7536213]}},{"properties":{"restaurant":"PASQUALES","inspection date":"4/15/10","id":"a6h2j5lzzto3","address":"700 IRVING ST","inspection score":96},"type":"Feature","geometry":{"type":"Point","coordinates":[-122.4652567,37.7641047]}},{"properties":{"restaurant":"PEASANT PIES","inspection date":"7/20/10","id":"a6h2j5q8to01","address":"1039 IRVING ST","inspection score":96},"type":"Feature","geometry":{"type":"Point","coordinates":[-122.4691597,37.7639038]}},{"properties":{"restaurant":"PETE'S UNOCAL 76","inspection date":"3/12/10","id":"a6h2j5eevvlh","address":"3701 NORIEGA ST","inspection score":96},"type":"Feature","geometry":{"type":"Point","coordinates":[-122.503573,37.752808]}},{"properties":{"restaurant":"PITTSBURGH'S PUB","inspection date":"5/3/10","id":"a6h2j5lse322","address":"4207 JUDAH ST","inspection score":94},"type":"Feature","geometry":{"type":"Point","coordinates":[-122.5072092,37.7603523]}},{"properties":{"restaurant":"PLUTO'S","inspection date":"7/26/10","id":"a6h2j5fyfyg6","address":"627 IRVING ST","inspection score":98},"type":"Feature","geometry":{"type":"Point","coordinates":[-122.4647282,37.7640971]}},{"properties":{"restaurant":"QUICKLY","inspection date":"6/3/10","id":"a6h2j5kuebor","address":"2116 IRVING ST","inspection score":96},"type":"Feature","geometry":{"type":"Point","coordinates":[-122.480673,37.7634209]}},{"properties":{"restaurant":"RAIN TREE CAFE","inspection date":"7/23/10","id":"a6h2j5egyjal","address":"654 IRVING ST","inspection score":93},"type":"Feature","geometry":{"type":"Point","coordinates":[-122.4650976,37.7641876]}},{"properties":{"restaurant":"S &amp; T HONG KONG SEAFOOD","inspection date":"4/16/10","id":"a6h2j5ne5x8o","address":"2588 NORIEGA ST","inspection score":90},"type":"Feature","geometry":{"type":"Point","coordinates":[-122.491327,37.753845]}},{"properties":{"restaurant":"SAFEWAY STORE #985","inspection date":"4/12/10","id":"a6h2j5g1h5u4","address":"2350 NORIEGA ST","inspection score":98},"type":"Feature","geometry":{"type":"Point","coordinates":[-122.48882,37.754128]}},{"properties":{"restaurant":"SEA BISCUIT CAFE","inspection date":"4/14/10","id":"a6h2j5dug67z","address":"3815 NORIEGA ST","inspection score":96},"type":"Feature","geometry":{"type":"Point","coordinates":[-122.5046764,37.7528405]}},{"properties":{"restaurant":"SEAVIEW RESTAURANT","inspection date":"5/14/10","id":"a6h2j5ftr0gu","address":"1225 LA PLAYA ST","inspection score":94},"type":"Feature","geometry":{"type":"Point","coordinates":[-122.509596,37.763608]}},{"properties":{"restaurant":"SECRET GARDEN TEA HOUSE","inspection date":"6/16/10","id":"a6h2j5e0a1zp","address":"721 LINCOLN WAY","inspection score":98},"type":"Feature","geometry":{"type":"Point","coordinates":[-122.4658332,37.7658097]}},{"properties":{"restaurant":"SJ CRAWFISH","inspection date":"5/24/10","id":"a6h2j5cfeqn6","address":"2333 IRVING ST","inspection score":94},"type":"Feature","geometry":{"type":"Point","coordinates":[-122.4831032,37.7632834]}},{"properties":{"restaurant":"SOUTH SEA SEAFOOD VILLAGE","inspection date":"7/14/10","id":"a6h2j5qbjvfr","address":"1420 IRVING ST","inspection score":90},"type":"Feature","geometry":{"type":"Point","coordinates":[-122.4732058,37.7638353]}},{"properties":{"restaurant":"STARBUCKS COFFEE","inspection date":"7/12/10","id":"a6h2j5qvkby3","address":"1800 IRVING ST","inspection score":98},"type":"Feature","geometry":{"type":"Point","coordinates":[-122.4772721,37.7635786]}},{"properties":{"restaurant":"SUBWAY","inspection date":"7/6/10","id":"a6h2j5f50ok5","address":"2516 NORIEGA ST","inspection score":92},"type":"Feature","geometry":{"type":"Point","coordinates":[-122.490827,37.7537445]}},{"properties":{"restaurant":"SUNSET RESTAURANT","inspection date":"7/22/10","id":"a6h2j5qty8ys","address":"1243 NORIEGA ST","inspection score":94},"type":"Feature","geometry":{"type":"Point","coordinates":[-122.4772767,37.7541877]}},{"properties":{"restaurant":"SUSHI KAZU","inspection date":"7/22/10","id":"a6h2j5n36vww","address":"841 IRVING ST","inspection score":96},"type":"Feature","geometry":{"type":"Point","coordinates":[-122.4670008,37.7639984]}},{"properties":{"restaurant":"TAK KEE LEE RESTAURANT","inspection date":"4/12/10","id":"a6h2j5fdae5k","address":"2435 NORIEGA ST","inspection score":90},"type":"Feature","geometry":{"type":"Point","coordinates":[-122.4900096,37.7536255]}},{"properties":{"restaurant":"TEN","inspection date":"4/16/10","id":"a6h2j5pyr57m","address":"524 IRVING ST","inspection score":92},"type":"Feature","geometry":{"type":"Point","coordinates":[-122.463612,37.76442]}},{"properties":{"restaurant":"TERRYS LODGE","inspection date":"7/14/10","id":"a6h2j5l3b5af","address":"1368 IRVING ST","inspection score":92},"type":"Feature","geometry":{"type":"Point","coordinates":[-122.4726572,37.7637815]}},{"properties":{"restaurant":"THAI COTTAGE","inspection date":"6/2/10","id":"a6h2j5o1ufe1","address":"4041 JUDAH ST","inspection score":93},"type":"Feature","geometry":{"type":"Point","coordinates":[-122.505564,37.7604249]}},{"properties":{"restaurant":"THANH LONG RESTAURANT","inspection date":"5/28/10","id":"a6h2j5phgv4l","address":"4101 JUDAH ST","inspection score":92},"type":"Feature","geometry":{"type":"Point","coordinates":[-122.506088,37.76017]}},{"properties":{"restaurant":"THE POSH BAGEL","inspection date":"5/27/10","id":"a6h2j5leflew","address":"742 IRVING ST","inspection score":98},"type":"Feature","geometry":{"type":"Point","coordinates":[-122.4659677,37.7640741]}},{"properties":{"restaurant":"THE POT'S LLC","inspection date":"5/11/10","id":"a6h2j5ec3vdr","address":"2652 JUDAH ST","inspection score":94},"type":"Feature","geometry":{"type":"Point","coordinates":[-122.490712,37.7611116]}},{"properties":{"restaurant":"TOASTIES","inspection date":"5/27/10","id":"a6h2j5n5w8rn","address":"836 IRVING ST","inspection score":96},"type":"Feature","geometry":{"type":"Point","coordinates":[-122.467124,37.764106]}},{"properties":{"restaurant":"WON TON HOUSE","inspection date":"5/25/10","id":"a6h2j5m1aoc8","address":"1325 NORIEGA ST","inspection score":90},"type":"Feature","geometry":{"type":"Point","coordinates":[-122.4780399,37.7540895]}},{"properties":{"restaurant":"WONDERFUL DESSERT &amp; CAFE","inspection date":"8/11/10","id":"a6h2j5ejsi30","address":"2035 IRVING ST","inspection score":90},"type":"Feature","geometry":{"type":"Point","coordinates":[-122.4799716,37.7632911]}},{"properties":{"restaurant":"XIAO'S SUSHI HOUSE","inspection date":"5/11/10","id":"a6h2j5jn5qab","address":"3925 IRVING ST","inspection score":98},"type":"Feature","geometry":{"type":"Point","coordinates":[-122.5000874,37.7624561]}},{"properties":{"restaurant":"YAN YAN SEAFOOD RESTAURANT","inspection date":"5/11/10","id":"a6h2j5c44r3c","address":"2241 JUDAH ST","inspection score":96},"type":"Feature","geometry":{"type":"Point","coordinates":[-122.4862873,37.7612233]}},{"properties":{"restaurant":"YANCY'S SALOON","inspection date":"7/23/10","id":"a6h2j5pwo46e","address":"734 IRVING ST","inspection score":96},"type":"Feature","geometry":{"type":"Point","coordinates":[-122.4659015,37.7640769]}}],"is_temporal":false,"author":{"url":"http://sf.everyblock.com","metadata":"","contact_name":"","contact_address":"","source":"EveryBlock","contact_phone":""},"source":"http://sf.everyblock.com","pagination":{"sort":null,"start":0,"total":73,"limit":1000000},"state":"complete","tags":"94122","published":"2010-09-26T16:00:00Z","id":64465}