{"type":"FeatureCollection","data_type":"Dataset","url_type":null,"permissions":[{"permissions":{"download":true,"view":true},"group_id":"everyone"}],"classification":null,"title":"Scores = 99-90 94123 ","count":56,"stream_id":64470,"contributor":{"url":"http://geocommons.com/users/16252","name":"lollymr"},"data_attributes":null,"calculation_params":null,"icon_link":null,"link":"http://geocommons.com/overlays/64470.json","extent":[-122.449,37.7749,-122.419,37.8074],"geometry_types":["point"],"unique_name":null,"name":"Scores = 99-90 94123 ","feature_count":56,"description":"","next_feature":null,"is_raster":false,"short_classification":"Y","stats":{"inspection score":{"max":98,"mean":93.4107142857143,"variance":8.97370129870129,"stdev":2.99561367647788,"min":90,"median":94}},"features":[{"properties":{"restaurant":"ABIGAIL PASTRY &amp; FINE FOODS","inspection date":"3/25/10","id":"a673tlvin2fp","address":"2120 GREENWICH ST","inspection score":91},"type":"Feature","geometry":{"type":"Point","coordinates":[-122.435484,37.799216]}},{"properties":{"restaurant":"ALL STAR DONUTS","inspection date":"4/9/10","id":"a673tlw1p8dj","address":"2095 CHESTNUT ST","inspection score":90},"type":"Feature","geometry":{"type":"Point","coordinates":[-122.4377373,37.8005656]}},{"properties":{"restaurant":"AMERICAN CUPCAKE","inspection date":"8/31/10","id":"a673tm06344s","address":"1919 UNION ST","inspection score":91},"type":"Feature","geometry":{"type":"Point","coordinates":[-122.4310144,37.7976428]}},{"properties":{"restaurant":"ASA SUSHI","inspection date":"5/21/10","id":"a673tm26pj76","address":"2365 CHESTNUT ST","inspection score":94},"type":"Feature","geometry":{"type":"Point","coordinates":[-122.4422786,37.8000344]}},{"properties":{"restaurant":"BALBOA CAFE","inspection date":"5/5/10","id":"a673tlxe175c","address":"3199 FILLMORE ST","inspection score":98},"type":"Feature","geometry":{"type":"Point","coordinates":[-122.436049,37.798825]}},{"properties":{"restaurant":"BARNEY'S GOURMET BURGER","inspection date":"8/5/10","id":"a673tlscwbwj","address":"3344 STEINER ST","inspection score":98},"type":"Feature","geometry":{"type":"Point","coordinates":[-122.4378112,37.8003183]}},{"properties":{"restaurant":"BAY WATCH","inspection date":"9/28/09","id":"a673tm50atcy","address":"2150 LOMBARD ST","inspection score":98},"type":"Feature","geometry":{"type":"Point","coordinates":[-122.4371853,37.7998621]}},{"properties":{"restaurant":"BISTRO AIX","inspection date":"5/24/10","id":"a673tlyr8quu","address":"3340 STEINER ST","inspection score":94},"type":"Feature","geometry":{"type":"Point","coordinates":[-122.4377988,37.8002559]}},{"properties":{"restaurant":"BLUE BARN GOURMET","inspection date":"10/14/09","id":"a673tlvhz1vb","address":"2105 CHESTNUT ST","inspection score":91},"type":"Feature","geometry":{"type":"Point","coordinates":[-122.438016,37.8005772]}},{"properties":{"restaurant":"BRAZEN HEAD RESTAURANT","inspection date":"4/8/10","id":"a673tm14eu6v","address":"3166 BUCHANAN ST","inspection score":90},"type":"Feature","geometry":{"type":"Point","coordinates":[-122.432539,37.7992576]}},{"properties":{"restaurant":"CAFE EXPLORATORIUM","inspection date":"10/9/09","id":"a673tm3h6w0v","address":"3601 LYON ST","inspection score":98},"type":"Feature","geometry":{"type":"Point","coordinates":[-122.4485311,37.8039633]}},{"properties":{"restaurant":"CAFE GOLO","inspection date":"10/1/09","id":"a673tlxp60j6","address":"1602 LOMBARD ST","inspection score":94},"type":"Feature","geometry":{"type":"Point","coordinates":[-122.4280843,37.8010167]}},{"properties":{"restaurant":"CAFE UNION","inspection date":"9/23/09","id":"a673tm4i1yax","address":"1830 UNION ST","inspection score":94},"type":"Feature","geometry":{"type":"Point","coordinates":[-122.4295098,37.7979449]}},{"properties":{"restaurant":"CALIFORNIA WINE MERCHANT","inspection date":"4/7/10","id":"a673tlrvgozh","address":"2113 CHESTNUT ST","inspection score":98},"type":"Feature","geometry":{"type":"Point","coordinates":[-122.4382273,37.8004663]}},{"properties":{"restaurant":"CAPANNINA","inspection date":"10/28/09","id":"a673tlzrvskf","address":"1809 UNION ST","inspection score":90},"type":"Feature","geometry":{"type":"Point","coordinates":[-122.4292398,37.7978718]}},{"properties":{"restaurant":"COCOA BELLA CHOCOLATE","inspection date":"4/5/10","id":"a673tlt1wp3d","address":"2102 UNION ST","inspection score":94},"type":"Feature","geometry":{"type":"Point","coordinates":[-122.433947,37.7973008]}},{"properties":{"restaurant":"CULTIVE FROZEN YOGURT","inspection date":"1/21/10","id":"a673tlyavlep","address":"1998 UNION ST","inspection score":94},"type":"Feature","geometry":{"type":"Point","coordinates":[-122.4322026,37.7975254]}},{"properties":{"restaurant":"DRAGON WELL","inspection date":"6/4/10","id":"a673tlufq922","address":"2142 CHESTNUT ST","inspection score":90},"type":"Feature","geometry":{"type":"Point","coordinates":[-122.4386484,37.8006029]}},{"properties":{"restaurant":"HERITAGE, THE","inspection date":"12/8/09","id":"a673tm1cmlvn","address":"3400 LAGUNA ST","inspection score":96},"type":"Feature","geometry":{"type":"Point","coordinates":[-122.431016,37.802903]}},{"properties":{"restaurant":"JAMBA JUICE","inspection date":"3/23/10","id":"a673tlsjcynk","address":"2066 CHESTNUT ST","inspection score":90},"type":"Feature","geometry":{"type":"Point","coordinates":[-122.4376087,37.800742]}},{"properties":{"restaurant":"KASA INDIAN EATERY","inspection date":"3/25/10","id":"a673tlzem4ac","address":"3115 FILLMORE ST","inspection score":98},"type":"Feature","geometry":{"type":"Point","coordinates":[-122.436018,37.79824]}},{"properties":{"restaurant":"KENTUCKY FRIED CHICKEN","inspection date":"3/2/10","id":"a673tly7ln5o","address":"2101 LOMBARD ST","inspection score":94},"type":"Feature","geometry":{"type":"Point","coordinates":[-122.436278,37.799584]}},{"properties":{"restaurant":"LILLY'S YOGURT","inspection date":"8/20/10","id":"a673tm33efgm","address":"2760 OCTAVIA ST","inspection score":90},"type":"Feature","geometry":{"type":"Point","coordinates":[-122.4287258,37.7976601]}},{"properties":{"restaurant":"LOS HERMANOS","inspection date":"5/12/10","id":"a673tluq35q2","address":"2026 CHESTNUT ST","inspection score":93},"type":"Feature","geometry":{"type":"Point","coordinates":[-122.4369505,37.8007451]}},{"properties":{"restaurant":"LUCKY DOGS","inspection date":"12/2/09","id":"a673tltwfcfg","address":"2211 FILBERT","inspection score":94},"type":"Feature","geometry":{"type":"Point","coordinates":[-122.4359676,37.7979051]}},{"properties":{"restaurant":"MAMACITA","inspection date":"10/9/09","id":"a673tltwxy3m","address":"2317 CHESTNUT ST","inspection score":91},"type":"Feature","geometry":{"type":"Point","coordinates":[-122.4415295,37.8001296]}},{"properties":{"restaurant":"MARENGO ON UNION","inspection date":"6/30/10","id":"a673tlw0bp73","address":"1980 UNION ST UPPER STREET LEVEL","inspection score":92},"type":"Feature","geometry":{"type":"Point","coordinates":[-122.4194155,37.7749295]}},{"properties":{"restaurant":"MARINA DELI","inspection date":"8/10/10","id":"a673tlyz1ko4","address":"2299 CHESTNUT ST","inspection score":92},"type":"Feature","geometry":{"type":"Point","coordinates":[-122.4411652,37.8001759]}},{"properties":{"restaurant":"MARINA GREEN KIOSK","inspection date":"7/23/10","id":"a673tm0rxyg9","address":"110 YACHT RD","inspection score":96},"type":"Feature","geometry":{"type":"Point","coordinates":[-122.444436,37.8074341]}},{"properties":{"restaurant":"MARINA PIZZA &amp; CAFFE","inspection date":"3/2/10","id":"a673tm5ttf6u","address":"2139 LOMBARD ST","inspection score":90},"type":"Feature","geometry":{"type":"Point","coordinates":[-122.4367045,37.7997043]}},{"properties":{"restaurant":"MARINA SUBMARINE","inspection date":"4/5/10","id":"a673tlsbonwi","address":"2299 UNION ST","inspection score":94},"type":"Feature","geometry":{"type":"Point","coordinates":[-122.4371184,37.7968658]}},{"properties":{"restaurant":"MARINA SUPER","inspection date":"5/21/10","id":"a673tm4hnnn5","address":"2323 CHESTNUT ST","inspection score":90},"type":"Feature","geometry":{"type":"Point","coordinates":[-122.4416414,37.8000389]}},{"properties":{"restaurant":"MATRIX FILLMORE","inspection date":"12/2/09","id":"a673tlvpo1kd","address":"3138 FILLMORE ST","inspection score":98},"type":"Feature","geometry":{"type":"Point","coordinates":[-122.4357477,37.798464]}},{"properties":{"restaurant":"NETTI'E CRAB SHACK","inspection date":"10/26/09","id":"a673tltmjprk","address":"2032 UNION ST","inspection score":94},"type":"Feature","geometry":{"type":"Point","coordinates":[-122.432849,37.797554]}},{"properties":{"restaurant":"NOAH'S BAGELS","inspection date":"4/9/10","id":"a673tm3nk1lx","address":"2075 CHESTNUT ST","inspection score":91},"type":"Feature","geometry":{"type":"Point","coordinates":[-122.4373983,37.8005494]}},{"properties":{"restaurant":"PACIFIC CATCH","inspection date":"5/19/10","id":"a673tm09nuyv","address":"2027 CHESTNUT ST","inspection score":96},"type":"Feature","geometry":{"type":"Point","coordinates":[-122.4367919,37.8007347]}},{"properties":{"restaurant":"PACIFIC PUFFS","inspection date":"11/13/09","id":"a673tlsqd995","address":"2201 UNION ST","inspection score":98},"type":"Feature","geometry":{"type":"Point","coordinates":[-122.4355034,37.7970717]}},{"properties":{"restaurant":"PANE E VINO TRATTORIA","inspection date":"10/28/09","id":"a673tlyzat2r","address":"1715 UNION ST","inspection score":91},"type":"Feature","geometry":{"type":"Point","coordinates":[-122.4276449,37.7980752]}},{"properties":{"restaurant":"PATXI'S CHICAGO PIZZA","inspection date":"12/2/09","id":"a673tm2mqlgw","address":"3318 FILLMORE ST","inspection score":93},"type":"Feature","geometry":{"type":"Point","coordinates":[-122.4359747,37.8001978]}},{"properties":{"restaurant":"PIZZA ORGASMICA","inspection date":"5/5/10","id":"a673tm6p9p92","address":"3157 FILLMORE ST","inspection score":96},"type":"Feature","geometry":{"type":"Point","coordinates":[-122.4358469,37.79876]}},{"properties":{"restaurant":"PIZZERIA AVELLINO","inspection date":"7/23/10","id":"a673tlrq3hkr","address":"2769 LOMBARD ST","inspection score":90},"type":"Feature","geometry":{"type":"Point","coordinates":[-122.447071,37.7983059]}},{"properties":{"restaurant":"PRESIDIO THEATRE","inspection date":"10/20/09","id":"a673tlvv91u8","address":"2340 CHESTNUT ST","inspection score":92},"type":"Feature","geometry":{"type":"Point","coordinates":[-122.441968,37.800377]}},{"properties":{"restaurant":"ROAM ARTISAN BURGERS","inspection date":"7/22/10","id":"a673tm5vroa2","address":"1785 UNION ST","inspection score":90},"type":"Feature","geometry":{"type":"Point","coordinates":[-122.4286074,37.7979532]}},{"properties":{"restaurant":"ROUND TABLE PIZZA","inspection date":"6/10/10","id":"a673tlzocm59","address":"1503 NORTHPOINT ST","inspection score":93},"type":"Feature","geometry":{"type":"Point","coordinates":[-122.4319102,37.8042264]}},{"properties":{"restaurant":"RUTILY'S MARKET","inspection date":"11/9/09","id":"a673tm16g4og","address":"1700 FILBERT ST","inspection score":90},"type":"Feature","geometry":{"type":"Point","coordinates":[-122.4274765,37.7990801]}},{"properties":{"restaurant":"SHANGRILA CAFE &amp; GRILL","inspection date":"3/29/10","id":"a673tlsgw9wj","address":"2420 LOMBARD ST","inspection score":94},"type":"Feature","geometry":{"type":"Point","coordinates":[-122.4414922,37.7993077]}},{"properties":{"restaurant":"SHERMAN MARKET","inspection date":"9/30/09","id":"a673tlvlyfvj","address":"2606 FRANKLIN ST","inspection score":92},"type":"Feature","geometry":{"type":"Point","coordinates":[-122.4256218,37.7984391]}},{"properties":{"restaurant":"ST VINCENT DE PAUL","inspection date":"3/24/10","id":"a673tlrnjfbe","address":"2356 GREEN ST","inspection score":98},"type":"Feature","geometry":{"type":"Point","coordinates":[-122.437941,37.795839]}},{"properties":{"restaurant":"THE BLACK HORSE LONDON DELI","inspection date":"10/4/09","id":"a673tm6fgm9o","address":"1514 UNION ST","inspection score":90},"type":"Feature","geometry":{"type":"Point","coordinates":[-122.4239615,37.7985761]}},{"properties":{"restaurant":"THE BRICK YARD","inspection date":"8/20/10","id":"a673tm29lgig","address":"1787 UNION ST","inspection score":90},"type":"Feature","geometry":{"type":"Point","coordinates":[-122.428617,37.797759]}},{"properties":{"restaurant":"THE DRY DOCK","inspection date":"5/5/10","id":"a673tls951dn","address":"2118 GREENWICH ST","inspection score":98},"type":"Feature","geometry":{"type":"Point","coordinates":[-122.4353953,37.7990275]}},{"properties":{"restaurant":"THE GROVE","inspection date":"5/13/10","id":"a673tlyyiw7q","address":"2250 CHESTNUT ST","inspection score":90},"type":"Feature","geometry":{"type":"Point","coordinates":[-122.4403218,37.8003151]}},{"properties":{"restaurant":"THE PLANT CAFE","inspection date":"8/5/10","id":"a673tlwzlbev","address":"3352 STEINER ST","inspection score":96},"type":"Feature","geometry":{"type":"Point","coordinates":[-122.4378307,37.8004155]}},{"properties":{"restaurant":"THE SANDWICH SPOT","inspection date":"2/11/10","id":"a673tlt75pk7","address":"3213 PIERCE ST","inspection score":96},"type":"Feature","geometry":{"type":"Point","coordinates":[-122.4393567,37.7994384]}},{"properties":{"restaurant":"UPTON CATERING","inspection date":"10/15/09","id":"a673tlyts7s9","address":"2435 LOMBARD ST","inspection score":90},"type":"Feature","geometry":{"type":"Point","coordinates":[-122.441503,37.798861]}},{"properties":{"restaurant":"YUKOL PLACE THAI CUISINE","inspection date":"8/12/10","id":"a673tlu48vrp","address":"2380 LOMBARD ST","inspection score":98},"type":"Feature","geometry":{"type":"Point","coordinates":[-122.440679,37.7995329]}}],"is_temporal":false,"author":{"url":"http://sf.everyblock.com","metadata":"","contact_name":"","contact_address":"","source":"EveryBlock","contact_phone":""},"source":"http://sf.everyblock.com","pagination":{"sort":null,"start":0,"total":56,"limit":1000000},"state":"complete","tags":"94123,restaurant inspections,san francisco","published":"2010-09-26T16:00:00Z","id":64470}