{"type":"FeatureCollection","data_type":"Dataset","url_type":null,"permissions":[{"permissions":{"download":true,"view":true},"group_id":"everyone"}],"classification":null,"title":"Scores = 89-80 94133 ","count":84,"stream_id":64504,"contributor":{"url":"http://geocommons.com/users/16252","name":"lollymr"},"data_attributes":null,"calculation_params":null,"icon_link":null,"link":"http://geocommons.com/overlays/64504.json","extent":[-122.419,37.7959,-122.405,37.8094],"geometry_types":["point"],"unique_name":null,"name":"Scores = 89-80 94133 ","feature_count":84,"description":"","next_feature":null,"is_raster":false,"short_classification":"Y","stats":{"inspection score":{"max":89,"mean":84.6428571428571,"variance":7.91910499139416,"stdev":2.8140904376715,"min":80,"median":85}},"features":[{"properties":{"restaurant":"901 COLUMBUS","inspection date":"7/30/10","id":"a64d31s0lmk6","address":"901 Columbus Ave","inspection score":88},"type":"Feature","geometry":{"type":"Point","coordinates":[-122.4141042,37.8027828]}},{"properties":{"restaurant":"BEACH STREET GRILL","inspection date":"7/26/10","id":"a64d32004wmw","address":"380 BEACH ST","inspection score":85},"type":"Feature","geometry":{"type":"Point","coordinates":[-122.415354,37.8073369]}},{"properties":{"restaurant":"BIG STAR GROCERY","inspection date":"5/7/10","id":"a64d31zjynl9","address":"1415 STOCKTON ST","inspection score":84},"type":"Feature","geometry":{"type":"Point","coordinates":[-122.408898,37.7989173]}},{"properties":{"restaurant":"BOHEMIAN CIGAR STORE","inspection date":"7/8/10","id":"a64d31uquvt6","address":"566 Columbus Ave","inspection score":88},"type":"Feature","geometry":{"type":"Point","coordinates":[-122.4099298,37.8002612]}},{"properties":{"restaurant":"BROADWAY CAFE","inspection date":"3/24/10","id":"a64d31xjkynw","address":"670 BROADWAY ST","inspection score":84},"type":"Feature","geometry":{"type":"Point","coordinates":[-122.4081532,37.7978372]}},{"properties":{"restaurant":"BURGER KING","inspection date":"6/2/10","id":"a64d31r3b0vj","address":"2739 TAYLOR ST","inspection score":81},"type":"Feature","geometry":{"type":"Point","coordinates":[-122.4158843,37.8078429]}},{"properties":{"restaurant":"CAFFE GRECO","inspection date":"3/18/10","id":"a64d320ao076","address":"423 COLUMBUS AVE","inspection score":83},"type":"Feature","geometry":{"type":"Point","coordinates":[-122.4085366,37.7989884]}},{"properties":{"restaurant":"CAPITOL KIM TAR","inspection date":"7/20/10","id":"a64d31qt4bbj","address":"758 Pacific Ave","inspection score":86},"type":"Feature","geometry":{"type":"Point","coordinates":[-122.40785,37.796978]}},{"properties":{"restaurant":"CAPP'S CORNER II","inspection date":"7/16/10","id":"a64d31yykag6","address":"1600 Powell St","inspection score":88},"type":"Feature","geometry":{"type":"Point","coordinates":[-122.4106267,37.7993147]}},{"properties":{"restaurant":"CAVALLI CAFFE","inspection date":"5/7/10","id":"a64d322bw6pv","address":"1441 Stockton St","inspection score":86},"type":"Feature","geometry":{"type":"Point","coordinates":[-122.4089435,37.7991827]}},{"properties":{"restaurant":"CHAO KEE MRKET","inspection date":"7/15/10","id":"a64d320xxiwh","address":"724 Broadway","inspection score":86},"type":"Feature","geometry":{"type":"Point","coordinates":[-122.409104,37.797808]}},{"properties":{"restaurant":"CHUNG KING RESTAURANT","inspection date":"3/24/10","id":"a64d31p2ergl","address":"606 JACKSON ST","inspection score":80},"type":"Feature","geometry":{"type":"Point","coordinates":[-122.405489,37.796187]}},{"properties":{"restaurant":"CHURCH KEY","inspection date":"4/27/10","id":"a64d31s50jd4","address":"1402 GRANT AVE","inspection score":80},"type":"Feature","geometry":{"type":"Point","coordinates":[-122.4073908,37.7997471]}},{"properties":{"restaurant":"CINECITTA","inspection date":"4/16/10","id":"a64d31swjw3c","address":"663 UNION ST","inspection score":84},"type":"Feature","geometry":{"type":"Point","coordinates":[-122.4105624,37.8002076]}},{"properties":{"restaurant":"CRAB CAKE &amp; SWEET","inspection date":"8/5/10","id":"a64d31te7yw6","address":"PIER 39","inspection score":88},"type":"Feature","geometry":{"type":"Point","coordinates":[-122.4100923,37.8093576]}},{"properties":{"restaurant":"DA FLORA","inspection date":"5/12/10","id":"a64d31wzo2yp","address":"701 Columbus Ave","inspection score":88},"type":"Feature","geometry":{"type":"Point","coordinates":[-122.4117637,37.8011462]}},{"properties":{"restaurant":"DANILO BAKERY","inspection date":"1/28/10","id":"a64d3201jt83","address":"516 GREEN ST","inspection score":84},"type":"Feature","geometry":{"type":"Point","coordinates":[-122.4077901,37.7997537]}},{"properties":{"restaurant":"DELL'UVA","inspection date":"2/4/10","id":"a64d321m5e1t","address":"565 Green St","inspection score":86},"type":"Feature","geometry":{"type":"Point","coordinates":[-122.4081744,37.7995848]}},{"properties":{"restaurant":"DENNY'S RESTAURANT","inspection date":"7/12/10","id":"a64d31nv6wsc","address":"495 Beach St","inspection score":89},"type":"Feature","geometry":{"type":"Point","coordinates":[-122.4171948,37.8070766]}},{"properties":{"restaurant":"DUPONT THAI","inspection date":"1/15/10","id":"a64d31rn37cn","address":"1356 GRANT AVE","inspection score":86},"type":"Feature","geometry":{"type":"Point","coordinates":[-122.4073473,37.7995404]}},{"properties":{"restaurant":"EAST PARK KIOSK","inspection date":"6/8/10","id":"a64d322nvevy","address":"Pier 39","inspection score":87},"type":"Feature","geometry":{"type":"Point","coordinates":[-122.4100923,37.8093576]}},{"properties":{"restaurant":"ESTIA RESTAURANT","inspection date":"1/26/10","id":"a64d31nw90d1","address":"1224 GRANT AVE","inspection score":80},"type":"Feature","geometry":{"type":"Point","coordinates":[-122.406937,37.798354]}},{"properties":{"restaurant":"FRANCHINO","inspection date":"5/6/10","id":"a64d31p596d8","address":"347 COLUMBUS AVE","inspection score":84},"type":"Feature","geometry":{"type":"Point","coordinates":[-122.4076428,37.7983708]}},{"properties":{"restaurant":"FUSE","inspection date":"11/6/09","id":"a64d31xboopm","address":"493 BROADWAY ST","inspection score":86},"type":"Feature","geometry":{"type":"Point","coordinates":[-122.4053744,37.7980139]}},{"properties":{"restaurant":"GELATO CLASSICO ITALIAN ICE","inspection date":"6/1/10","id":"a64d323nl18v","address":"576 UNION ST","inspection score":85},"type":"Feature","geometry":{"type":"Point","coordinates":[-122.4088413,37.8005922]}},{"properties":{"restaurant":"GINO AND CARLO INC","inspection date":"10/29/09","id":"a64d31yyl4f4","address":"548 GREEN ST","inspection score":80},"type":"Feature","geometry":{"type":"Point","coordinates":[-122.4081291,37.7996792]}},{"properties":{"restaurant":"GIORDANO BROS","inspection date":"3/22/10","id":"a64d31pkl36e","address":"303 Columbus Ave","inspection score":88},"type":"Feature","geometry":{"type":"Point","coordinates":[-122.407288,37.798069]}},{"properties":{"restaurant":"GOLDEN BOY PIZZA","inspection date":"1/11/10","id":"a64d322lmaue","address":"542 GREEN ST","inspection score":82},"type":"Feature","geometry":{"type":"Point","coordinates":[-122.4080764,37.7996962]}},{"properties":{"restaurant":"GOLDEN FLOWER VIETNAMESE RESTAURANT","inspection date":"3/22/10","id":"a64d31y53lcy","address":"667 JACKSON ST","inspection score":80},"type":"Feature","geometry":{"type":"Point","coordinates":[-122.406306,37.7960142]}},{"properties":{"restaurant":"GREAT EASTERN RESTAURANT","inspection date":"3/8/10","id":"a64d323uzfrz","address":"649 Jackson St","inspection score":86},"type":"Feature","geometry":{"type":"Point","coordinates":[-122.4060274,37.796047]}},{"properties":{"restaurant":"GREEN VALLEY RESTAURANT","inspection date":"5/12/10","id":"a64d31qgprmj","address":"510 GREEN ST","inspection score":80},"type":"Feature","geometry":{"type":"Point","coordinates":[-122.4076507,37.799778]}},{"properties":{"restaurant":"HORIZON RESTAURANT","inspection date":"9/3/10","id":"a64d320ps8tf","address":"490-498 Broadway","inspection score":86},"type":"Feature","geometry":{"type":"Point","coordinates":[-122.405282,37.798263]}},{"properties":{"restaurant":"HUNAN HOME'S RESTAURANT","inspection date":"3/8/10","id":"a64d31p2re4j","address":"622 JACKSON ST","inspection score":84},"type":"Feature","geometry":{"type":"Point","coordinates":[-122.4056035,37.7961719]}},{"properties":{"restaurant":"ILUNA BASQUE","inspection date":"7/19/10","id":"a64d31p2qihk","address":"701 UNION ST","inspection score":85},"type":"Feature","geometry":{"type":"Point","coordinates":[-122.4109468,37.8001366]}},{"properties":{"restaurant":"IMPALA","inspection date":"6/18/10","id":"a64d31ww0f2d","address":"501 BROADWAY ST","inspection score":80},"type":"Feature","geometry":{"type":"Point","coordinates":[-122.4056059,37.7977893]}},{"properties":{"restaurant":"JOE DIMAGGIO ITALIAN CHOPHOUSE","inspection date":"6/24/10","id":"a64d321bscyv","address":"601 UNION ST","inspection score":81},"type":"Feature","geometry":{"type":"Point","coordinates":[-122.4091896,37.800424]}},{"properties":{"restaurant":"JOEY AND EDDIE'S","inspection date":"6/25/10","id":"a64d3220ysig","address":"1652 STOCKTON ST","inspection score":83},"type":"Feature","geometry":{"type":"Point","coordinates":[-122.40901,37.801131]}},{"properties":{"restaurant":"KAY CHEUNG RESTAURANT","inspection date":"3/16/10","id":"a64d320ohl6o","address":"615 JACKSON ST","inspection score":82},"type":"Feature","geometry":{"type":"Point","coordinates":[-122.4055503,37.7960936]}},{"properties":{"restaurant":"KIN FAI PRODUCE","inspection date":"8/30/10","id":"a64d31vqzdmh","address":"628-630 Pacific Ave","inspection score":86},"type":"Feature","geometry":{"type":"Point","coordinates":[-122.406249,37.797181]}},{"properties":{"restaurant":"LA BOULANGE","inspection date":"8/18/10","id":"a64d31rlykpz","address":"501-543 Columbus Ave","inspection score":87},"type":"Feature","geometry":{"type":"Point","coordinates":[-122.409665,37.799669]}},{"properties":{"restaurant":"LAS MARGARITAS","inspection date":"9/7/10","id":"a64d31z311cm","address":"2801 LEAVENWORTH ST","inspection score":84},"type":"Feature","geometry":{"type":"Point","coordinates":[-122.419471,37.8072779]}},{"properties":{"restaurant":"LIANG'S FOOD","inspection date":"4/12/10","id":"a64d31v7ch1m","address":"1145 Stockton St","inspection score":86},"type":"Feature","geometry":{"type":"Point","coordinates":[-122.4085095,37.7963878]}},{"properties":{"restaurant":"LITTLE PARADISE, LLC","inspection date":"4/6/10","id":"a64d31vnlw89","address":"1101 STOCKTON ST","inspection score":84},"type":"Feature","geometry":{"type":"Point","coordinates":[-122.408477,37.795904]}},{"properties":{"restaurant":"MAGGIE MCGARRY'S","inspection date":"10/29/09","id":"a64d31thk82c","address":"1353 GRANT AVE","inspection score":84},"type":"Feature","geometry":{"type":"Point","coordinates":[-122.4074283,37.7994469]}},{"properties":{"restaurant":"MAMAS ON WASHINGTON SQUARE","inspection date":"7/23/10","id":"a64d31rige7t","address":"1701 Stockton St","inspection score":86},"type":"Feature","geometry":{"type":"Point","coordinates":[-122.4095118,37.8014684]}},{"properties":{"restaurant":"MAMITA'S MEXICAN GRILL","inspection date":"7/26/10","id":"a64d320mfaxr","address":"358 BEACH ST","inspection score":81},"type":"Feature","geometry":{"type":"Point","coordinates":[-122.4150455,37.8074256]}},{"properties":{"restaurant":"MAN SUNG COMPANY","inspection date":"4/22/10","id":"a64d31r9f1au","address":"1116 Grant Ave","inspection score":86},"type":"Feature","geometry":{"type":"Point","coordinates":[-122.4068764,37.7972044]}},{"properties":{"restaurant":"MO'S GRILL","inspection date":"2/24/10","id":"a64d31rzce2p","address":"1322 Grant Ave","inspection score":88},"type":"Feature","geometry":{"type":"Point","coordinates":[-122.4072611,37.7991327]}},{"properties":{"restaurant":"MOLINARI DELICATESSEN","inspection date":"3/19/10","id":"a64d31v8du4p","address":"373 COLUMBUS AVE","inspection score":82},"type":"Feature","geometry":{"type":"Point","coordinates":[-122.407823,37.7983819]}},{"properties":{"restaurant":"MONA LISA RESTAURANT","inspection date":"2/22/10","id":"a64d31xrrkmy","address":"353 COLUMBUS AVE","inspection score":82},"type":"Feature","geometry":{"type":"Point","coordinates":[-122.4075924,37.798474]}},{"properties":{"restaurant":"MR. BING'S","inspection date":"6/17/10","id":"a64d31ogplbv","address":"201 COLUMBUS AVE","inspection score":82},"type":"Feature","geometry":{"type":"Point","coordinates":[-122.4053062,37.7968833]}},{"properties":{"restaurant":"NAAN 'N' CURRY","inspection date":"9/24/09","id":"a64d31zjsyo4","address":"533 JACKSON ST","inspection score":84},"type":"Feature","geometry":{"type":"Point","coordinates":[-122.4045754,37.7962119]}},{"properties":{"restaurant":"NEW MOON RESTAURANT","inspection date":"7/8/10","id":"a64d31wgoo5g","address":"1247 Stockton St","inspection score":86},"type":"Feature","geometry":{"type":"Point","coordinates":[-122.4085717,37.7972976]}},{"properties":{"restaurant":"NEW OCEAN SEAFOOD &amp; PRODUCE","inspection date":"3/30/10","id":"a64d3207wjcd","address":"826-838 Jackson St","inspection score":86},"type":"Feature","geometry":{"type":"Point","coordinates":[-122.408853,37.795959]}},{"properties":{"restaurant":"NEW SUN HONG KONG RESTAURANT","inspection date":"4/15/10","id":"a64d31rt4j1f","address":"606 BROADWAY ST","inspection score":80},"type":"Feature","geometry":{"type":"Point","coordinates":[-122.407159,37.797989]}},{"properties":{"restaurant":"NIZARIO'S PIZZA NO 4","inspection date":"6/17/10","id":"a64d31ysyekl","address":"279 Columbus Ave","inspection score":86},"type":"Feature","geometry":{"type":"Point","coordinates":[-122.4067089,37.7977012]}},{"properties":{"restaurant":"NOODLE BAR AND GRILL","inspection date":"4/15/10","id":"a64d31u6j6c4","address":"631 Broadway","inspection score":88},"type":"Feature","geometry":{"type":"Point","coordinates":[-122.407479,37.797517]}},{"properties":{"restaurant":"NORTH BEACH MARKET AND DELI","inspection date":"4/5/10","id":"a64d321dnwqj","address":"536 Broadway","inspection score":86},"type":"Feature","geometry":{"type":"Point","coordinates":[-122.4061291,37.7979538]}},{"properties":{"restaurant":"NORTH BEACH RESTAURANT","inspection date":"5/28/10","id":"a64d31qc0pgo","address":"1512 STOCKTON ST","inspection score":85},"type":"Feature","geometry":{"type":"Point","coordinates":[-122.4090362,37.7998013]}},{"properties":{"restaurant":"PIAZA PELLEGRINI","inspection date":"3/30/10","id":"a64d31ob01a0","address":"659 Columbus Ave","inspection score":86},"type":"Feature","geometry":{"type":"Point","coordinates":[-122.4108578,37.8006975]}},{"properties":{"restaurant":"PIZZELLE DI NORTH BEACH","inspection date":"12/9/09","id":"a64d31q0n4x0","address":"314 COLUMBUS AVE","inspection score":85},"type":"Feature","geometry":{"type":"Point","coordinates":[-122.4069745,37.7980962]}},{"properties":{"restaurant":"RAINFOREST CAFE","inspection date":"7/22/10","id":"a64d320pm9tu","address":"145 Jefferson St","inspection score":89},"type":"Feature","geometry":{"type":"Point","coordinates":[-122.4157234,37.8082094]}},{"properties":{"restaurant":"RISTORANTE IDEALE","inspection date":"4/28/10","id":"a64d31vugamy","address":"1309 Grant Ave","inspection score":88},"type":"Feature","geometry":{"type":"Point","coordinates":[-122.4072272,37.7987857]}},{"properties":{"restaurant":"ROSE PISTOLA","inspection date":"1/29/10","id":"a64d31rqu9a5","address":"532 COLUMBUS AVE","inspection score":82},"type":"Feature","geometry":{"type":"Point","coordinates":[-122.4095576,37.8000366]}},{"properties":{"restaurant":"S. F. GOURMET HOT DOG CART","inspection date":"8/2/10","id":"a64d3206ery4","address":"Pier 39","inspection score":89},"type":"Feature","geometry":{"type":"Point","coordinates":[-122.4100923,37.8093576]}},{"properties":{"restaurant":"SAFEWAY STORES","inspection date":null,"id":"a64d31zvc5ol","address":"300 Bay St","inspection score":88},"type":"Feature","geometry":{"type":"Point","coordinates":[-122.4119703,37.8058522]}},{"properties":{"restaurant":"STELLA PASTRY","inspection date":"7/20/10","id":"a64d31ozdpe9","address":"446 COLUMBUS AVE","inspection score":88},"type":"Feature","geometry":{"type":"Point","coordinates":[-122.4087278,37.7993513]}},{"properties":{"restaurant":"SUBWAY ON JEFFERSON","inspection date":"7/6/10","id":"a64d31tln6ep","address":"125 Jefferson St","inspection score":88},"type":"Feature","geometry":{"type":"Point","coordinates":[-122.415696,37.8082132]}},{"properties":{"restaurant":"SUEDE","inspection date":"4/12/10","id":"a64d322rmwqe","address":"383 BAY ST","inspection score":84},"type":"Feature","geometry":{"type":"Point","coordinates":[-122.4132921,37.8056455]}},{"properties":{"restaurant":"SUTRA A","inspection date":"6/29/10","id":"a64d31wgsw25","address":"443 BROADWAY ST","inspection score":85},"type":"Feature","geometry":{"type":"Point","coordinates":[-122.404508,37.7980719]}},{"properties":{"restaurant":"TANDOORI MAHAL","inspection date":"3/22/10","id":"a64d31w66i79","address":"941 KEARNY ST","inspection score":81},"type":"Feature","geometry":{"type":"Point","coordinates":[-122.40526,37.7966561]}},{"properties":{"restaurant":"THE DOGFATHER","inspection date":"5/4/10","id":"a64d31tum8pa","address":"532 GREEN ST","inspection score":81},"type":"Feature","geometry":{"type":"Point","coordinates":[-122.4079661,37.799644]}},{"properties":{"restaurant":"THE FUDGE HOUSE","inspection date":"8/5/10","id":"a64d31srzdsq","address":"PIER 39","inspection score":89},"type":"Feature","geometry":{"type":"Point","coordinates":[-122.4100923,37.8093576]}},{"properties":{"restaurant":"THE STINKING ROSE","inspection date":"3/25/10","id":"a64d31s8f88n","address":"325 Columbus Ave","inspection score":88},"type":"Feature","geometry":{"type":"Point","coordinates":[-122.4074305,37.7983615]}},{"properties":{"restaurant":"TONY'S PIZZA","inspection date":"1/13/10","id":"a64d31t1if24","address":"1570 STOCKTON ST","inspection score":84},"type":"Feature","geometry":{"type":"Point","coordinates":[-122.4090792,37.8003429]}},{"properties":{"restaurant":"TONYONG THAI CAFE","inspection date":"3/5/10","id":"a64d31qs3ma2","address":"901 KEARNY ST","inspection score":84},"type":"Feature","geometry":{"type":"Point","coordinates":[-122.4051663,37.7962212]}},{"properties":{"restaurant":"TRATTORIA PINOCCHIO","inspection date":"4/6/10","id":"a64d31w7j6v6","address":"401 COLUMBUS AVE","inspection score":80},"type":"Feature","geometry":{"type":"Point","coordinates":[-122.4079094,37.7986858]}},{"properties":{"restaurant":"TRATTORIA VOLARE CAFFE","inspection date":"5/11/10","id":"a64d31r9ck0l","address":"549-561 Columbus Ave","inspection score":88},"type":"Feature","geometry":{"type":"Point","coordinates":[-122.409906,37.799921]}},{"properties":{"restaurant":"VESUVIO CAFE","inspection date":"3/19/10","id":"a64d321kbcw1","address":"253-255 Columbus Ave","inspection score":88},"type":"Feature","geometry":{"type":"Point","coordinates":[-122.406442,37.79748]}},{"properties":{"restaurant":"VIENI-VIENI","inspection date":"4/19/10","id":"a64d31qhktk1","address":"1431 STOCKTON ST","inspection score":80},"type":"Feature","geometry":{"type":"Point","coordinates":[-122.4089148,37.7989999]}},{"properties":{"restaurant":"VIP COFFEE &amp; CAKE SHOP","inspection date":"3/25/10","id":"a64d31whp0r9","address":"671 BROADWAY ST","inspection score":84},"type":"Feature","geometry":{"type":"Point","coordinates":[-122.40808,37.797589]}},{"properties":{"restaurant":"WASHINGTON SQUARE BAR &amp; GRILL","inspection date":"4/26/10","id":"a64d31wy6y32","address":"1707 POWELL ST","inspection score":80},"type":"Feature","geometry":{"type":"Point","coordinates":[-122.4109102,37.800478]}},{"properties":{"restaurant":"WING SING BAKERY","inspection date":"4/7/10","id":"a64d323oy4t1","address":"1125 Stockton St","inspection score":87},"type":"Feature","geometry":{"type":"Point","coordinates":[-122.4084537,37.7961441]}},{"properties":{"restaurant":"YEE'S RESTAURANT","inspection date":"4/8/10","id":"a64d31y4peek","address":"1131 GRANT AVE","inspection score":82},"type":"Feature","geometry":{"type":"Point","coordinates":[-122.406933,37.7972868]}}],"is_temporal":false,"author":{"url":"http://sf.everyblock.com","metadata":"","contact_name":"","contact_address":"","source":"EveryBlock","contact_phone":""},"source":"http://sf.everyblock.com","pagination":{"sort":null,"start":0,"total":84,"limit":1000000},"state":"complete","tags":"94133,restaurant inspections,san francisco","published":"2010-09-26T16:00:00Z","id":64504}