{"type":"FeatureCollection","data_type":"Dataset","url_type":null,"permissions":[{"permissions":{"download":true,"view":true},"group_id":"everyone"}],"classification":null,"title":"2dclistcsv2","count":70,"stream_id":65142,"contributor":{"url":"http://geocommons.com/users/16409","name":"b375404"},"data_attributes":null,"calculation_params":null,"icon_link":null,"link":"http://geocommons.com/overlays/65142.json","extent":[-132.636,27.7952,-68.789,55.5567],"geometry_types":["point"],"unique_name":null,"name":"2dclistcsv2","feature_count":70,"description":"","next_feature":null,"is_raster":false,"short_classification":"Y","stats":{"postcode":{"max":null,"min":null,"median":null},"geo_score":{"max":0.902,"mean":0.512071428571429,"variance":0.0834114875776397,"stdev":0.288810469993108,"min":0.0,"median":0.607}},"features":[{"properties":{"postcode":"5000","country":"Australia","geo_score":0.0,"suburb":"Adelaide","street":"45 Pirie St","id":"a6fudx51rxon","geo_precision":"unmatched","location":"AAPT","state":"SA"},"type":"Feature","geometry":null},{"properties":{"postcode":"3000","country":"Australia","geo_score":0.71,"suburb":"Melbourne","street":"530 Collins Street","id":"a6fudx27mdo6","geo_precision":"street","location":"AAPT","state":"VIC"},"type":"Feature","geometry":{"type":"Point","coordinates":[-80.48837,27.79516]}},{"properties":{"postcode":"2753","country":"Australia","geo_score":0.714,"suburb":"Richmond","street":"Burnley St","id":"a6fudwwz95ey","geo_precision":"city","location":"AAPT","state":"VIC"},"type":"Feature","geometry":{"type":"Point","coordinates":[-122.347749,37.935758]}},{"properties":{"postcode":"4001","country":"Australia","geo_score":0.636,"suburb":"Brisbane","street":"123 Eagle Street","id":"a6fudx0qyb30","geo_precision":"range","location":"AAPT - Brisbane","state":"QLD"},"type":"Feature","geometry":{"type":"Point","coordinates":[-70.927177,43.557777]}},{"properties":{"postcode":"4006","country":"Australia","geo_score":0.711,"suburb":"Fortitude Valley","street":"100 Wickham Street","id":"a6fudx6icbdk","geo_precision":"street","location":"AAPT - Fortitude Valley","state":"QLD"},"type":"Feature","geometry":{"type":"Point","coordinates":[-70.388036,43.655743]}},{"properties":{"postcode":"2037","country":"Australia","geo_score":0.454,"suburb":"Glebe","street":"30 Ross Street","id":"a6fudwybvmco","geo_precision":"street","location":"AAPT - Glebe","state":"NSW"},"type":"Feature","geometry":{"type":"Point","coordinates":[-84.076639,33.834837]}},{"properties":{"postcode":"1240","country":"Australia","geo_score":0.712,"suburb":"Haymarket","street":"87 Thomas Street","id":"a6fudx3tfd2e","geo_precision":"street","location":"AAPT - Haymarket","state":"NSW"},"type":"Feature","geometry":{"type":"Point","coordinates":[-73.198495,42.709592]}},{"properties":{"postcode":"1044","country":"Australia","geo_score":0.61,"suburb":"Sydney","street":"20 Bond St","id":"a6fudx7278pp","geo_precision":"street","location":"ANC","state":"NSW"},"type":"Feature","geometry":{"type":"Point","coordinates":[-87.691356,30.616954]}},{"properties":{"postcode":"6000","country":"Australia","geo_score":0.0,"suburb":"Perth","street":"45 St Georges Tce","id":"a6fudx3k2ag3","geo_precision":"unmatched","location":"Acure","state":"WA"},"type":"Feature","geometry":null},{"properties":{"postcode":"6004","country":"Australia","geo_score":0.54,"suburb":"East Perth","street":"7 Murchison Terrace","id":"a6fudxbmtak2","geo_precision":"city","location":"Acure","state":"WA"},"type":"Feature","geometry":{"type":"Point","coordinates":[-122.624303,47.523429]}},{"properties":{"postcode":"6000","country":"Australia","geo_score":0.0,"suburb":"Perth","street":null,"id":"a6fudx52h5my","geo_precision":"unmatched","location":"Amcom","state":"WA"},"type":"Feature","geometry":null},{"properties":{"postcode":"6000","country":"Australia","geo_score":0.0,"suburb":"Perth","street":"44 St Georges Tce","id":"a6fudx3fu4kp","geo_precision":"unmatched","location":"Amcom","state":"WA"},"type":"Feature","geometry":null},{"properties":{"postcode":"5000","country":"Australia","geo_score":0.0,"suburb":"Adelaide","street":null,"id":"a6fudwvt51z7","geo_precision":"unmatched","location":"Amcom","state":"SA"},"type":"Feature","geometry":null},{"properties":{"postcode":"6000","country":"Australia","geo_score":0.0,"suburb":"Perth","street":"1 Adelaide Tce","id":"a6fudx96zv18","geo_precision":"unmatched","location":"Amnet","state":"WA"},"type":"Feature","geometry":null},{"properties":{"postcode":"3002","country":"Australia","geo_score":0.659,"suburb":"East Melbourne","street":"Huntingdale Rd","id":"a6fudwvr91u2","geo_precision":"street","location":"Australian Data Centres","state":"VIC"},"type":"Feature","geometry":{"type":"Point","coordinates":[-80.734815,28.336563]}},{"properties":{"postcode":"832","country":"Australia","geo_score":0.714,"suburb":"Mitchell","street":null,"id":"a6fudx7s55yf","geo_precision":"city","location":"Australian Data Centres","state":"ACT"},"type":"Feature","geometry":{"type":"Point","coordinates":[-85.937734,32.246255]}},{"properties":{"postcode":"7000","country":"Australia","geo_score":0.849,"suburb":"Hobart","street":"29 Elizabeth Street","id":"a6fudx8xhpp4","geo_precision":"range","location":"BBW Telecom","state":"TAS"},"type":"Feature","geometry":{"type":"Point","coordinates":[-94.248253,36.468764]}},{"properties":{"postcode":"7250","country":"Australia","geo_score":0.743,"suburb":"Launceston","street":null,"id":"a6fudxbhrvqy","geo_precision":"zip","location":"BBW Telecom","state":"TAS"},"type":"Feature","geometry":{"type":"Point","coordinates":[-74.210701,40.663992]}},{"properties":{"postcode":"4006","country":"Australia","geo_score":0.857,"suburb":"Fortitude Valley","street":"Amelia St","id":"a6fudwxyqzt4","geo_precision":"street","location":"Brennan","state":"QLD"},"type":"Feature","geometry":{"type":"Point","coordinates":[-70.79044,43.45642]}},{"properties":{"postcode":"2620","country":"Australia","geo_score":0.449,"suburb":"Hume","street":"54 Sheppard St","id":"a6fudwzbrelu","geo_precision":"city","location":"CDC (Canberra Data Centres)","state":"ACT"},"type":"Feature","geometry":{"type":"Point","coordinates":[-90.719535,29.59577]}},{"properties":{"postcode":"3168","country":"Australia","geo_score":0.668,"suburb":"Clayton","street":"310 Ferntree Gully Rd","id":"a6fudx749bv6","geo_precision":"range","location":"CSC","state":"VIC"},"type":"Feature","geometry":{"type":"Point","coordinates":[-71.483857,42.99513]}},{"properties":{"postcode":"5000","country":"Australia","geo_score":0.0,"suburb":"Adelaide","street":"247 Pulteney Street","id":"a6fudwvft6x0","geo_precision":"unmatched","location":"Colocity","state":"SA"},"type":"Feature","geometry":null},{"properties":{"postcode":"1460","country":"Australia","geo_score":0.449,"suburb":"Mascot","street":"Unit B, 639 Gardeners Rd","id":"a6fudwvvts26","geo_precision":"street","location":"Equinix - International Business Exchange Centre","state":"NSW"},"type":"Feature","geometry":{"type":"Point","coordinates":[-72.009643,42.495636]}},{"properties":{"postcode":"3207","country":"Australia","geo_score":0.67,"suburb":"Port Melbourne","street":null,"id":"a6fudx89sq0t","geo_precision":"city","location":"Frontline Systems - Harbour MSP","state":"VIC"},"type":"Feature","geometry":{"type":"Point","coordinates":[-80.608109,28.083627]}},{"properties":{"postcode":"2140","country":"Australia","geo_score":0.707,"suburb":"Homebush","street":"4 Figtree Drv","id":"a6fudww5blho","geo_precision":"range","location":"Fujitsu","state":"NSW"},"type":"Feature","geometry":{"type":"Point","coordinates":[-71.056157,42.295775]}},{"properties":{"postcode":"4113","country":"Australia","geo_score":0.756,"suburb":"Eight Mile Plains","street":"7 Brandl St","id":"a6fudx6pqxj7","geo_precision":"range","location":"Fujitsu","state":"QLD"},"type":"Feature","geometry":{"type":"Point","coordinates":[-70.281832,43.605605]}},{"properties":{"postcode":"6000","country":"Australia","geo_score":0.0,"suburb":"Perth","street":"191 St George Terrace","id":"a6fudwvv1xa8","geo_precision":"unmatched","location":"Fujitsu","state":"WA"},"type":"Feature","geometry":null},{"properties":{"postcode":"2113","country":"Australia","geo_score":0.844,"suburb":"North Ryde","street":"25 Waterloo Rd","id":"a6fudxbmijrz","geo_precision":"range","location":"Fujitsu Data Centre","state":"NSW"},"type":"Feature","geometry":{"type":"Point","coordinates":[-71.132514,42.243262]}},{"properties":{"postcode":"3006","country":"Australia","geo_score":0.336,"suburb":"Southbank","street":"190 City Rd","id":"a6fudx3wyw8e","geo_precision":"street","location":"Global Centre (Datacom)","state":"VIC"},"type":"Feature","geometry":{"type":"Point","coordinates":[-68.789047,44.565245]}},{"properties":{"postcode":"1755","country":"Australia","geo_score":0.604,"suburb":"Baulkham Hills","street":null,"id":"a6fudx1p94ur","geo_precision":"city","location":"Global Switch","state":"NSW"},"type":"Feature","geometry":{"type":"Point","coordinates":[-132.636389,55.556667]}},{"properties":{"postcode":"2007","country":"Australia","geo_score":0.0,"suburb":"Ultimo","street":"400 Harris St","id":"a6fudwyc9bke","geo_precision":"unmatched","location":"Global Switch","state":"NSW"},"type":"Feature","geometry":null},{"properties":{"postcode":"2756","country":"Australia","geo_score":0.433,"suburb":"Windsor","street":"22 Cox Rd","id":"a6fudx1xemdo","geo_precision":"city","location":"HDS","state":"QLD"},"type":"Feature","geometry":{"type":"Point","coordinates":[-86.793878,33.46844]}},{"properties":{"postcode":"4069","country":"Australia","geo_score":0.504,"suburb":"Kenmore","street":"2070 Moggill Rd","id":"a6fudxbgmxlv","geo_precision":"zip","location":"HPCC (Digital Sense)","state":"QLD"},"type":"Feature","geometry":{"type":"Point","coordinates":[-70.185329,43.8923]}},{"properties":{"postcode":"6005","country":"Australia","geo_score":0.611,"suburb":"West Perth","street":"2 Mill Street","id":"a6fudxbxoqhl","geo_precision":"street","location":"Hewlett Packard","state":"WA"},"type":"Feature","geometry":{"type":"Point","coordinates":[-122.030669,47.160557]}},{"properties":{"postcode":"5025","country":"Australia","geo_score":0.0,"suburb":"Kidman Park","street":"340 Findon Rd","id":"a6fudxaxb3np","geo_precision":"unmatched","location":"Hostworks / Classic Blue","state":"SA"},"type":"Feature","geometry":null},{"properties":{"postcode":"2125","country":"Australia","geo_score":0.727,"suburb":"West Pennant Hills","street":"55 Coonara Avenue","id":"a6fudx2ppgrt","geo_precision":"range","location":"IBM","state":"NSW"},"type":"Feature","geometry":{"type":"Point","coordinates":[-71.128688,42.312267]}},{"properties":{"postcode":"3000","country":"Australia","geo_score":0.714,"suburb":"Melbourne","street":null,"id":"a6fudwy8nfnd","geo_precision":"city","location":"IP eXchange","state":"VIC"},"type":"Feature","geometry":{"type":"Point","coordinates":[-80.608109,28.083627]}},{"properties":{"postcode":"1590","country":"Australia","geo_score":0.761,"suburb":"St Leonards","street":"39 Herbert St","id":"a6fudwxsbtlb","geo_precision":"range","location":"Interactive","state":"NSW"},"type":"Feature","geometry":{"type":"Point","coordinates":[-71.722275,42.170493]}},{"properties":{"postcode":"3207","country":"Australia","geo_score":0.458,"suburb":"Port Melbourne","street":"437 Williamstown Rd","id":"a6fudx8zef86","geo_precision":"city","location":"Interactive","state":"VIC"},"type":"Feature","geometry":{"type":"Point","coordinates":[-80.608109,28.083627]}},{"properties":{"postcode":"4113","country":"Australia","geo_score":0.514,"suburb":"Eight Mile Plains","street":"19 McKechnie Drive","id":"a6fudx38h6ci","geo_precision":"zip","location":"Interactive - Eight Mile Plains Technology Park","state":"QLD"},"type":"Feature","geometry":{"type":"Point","coordinates":[-70.255326,43.661471]}},{"properties":{"postcode":"5000","country":"Australia","geo_score":0.0,"suburb":"Adelaide","street":null,"id":"a6fudx9jyjlr","geo_precision":"unmatched","location":"Intervolve","state":"SA"},"type":"Feature","geometry":null},{"properties":{"postcode":"2280","country":"Australia","geo_score":0.857,"suburb":"Belmont","street":null,"id":"a6fudwyk71wr","geo_precision":"city","location":"MetroiX (Datacom)","state":"WA"},"type":"Feature","geometry":{"type":"Point","coordinates":[-117.176954,47.079345]}},{"properties":{"postcode":"3137","country":"Australia","geo_score":0.496,"suburb":"Kilsyth South","street":"2 2/5-7 Eastspur Ct","id":"a6fudxbtc4hq","geo_precision":"zip","location":"Micron21","state":"VIC"},"type":"Feature","geometry":{"type":"Point","coordinates":[-71.454789,42.99564]}},{"properties":{"postcode":"1044","country":"Australia","geo_score":0.78,"suburb":"Sydney","street":"549 Harris St","id":"a6fudwwxouu2","geo_precision":"range","location":"Optus","state":"NSW"},"type":"Feature","geometry":{"type":"Point","coordinates":[-87.2576,30.999872]}},{"properties":{"postcode":"4001","country":"Australia","geo_score":0.59,"suburb":"Brisbane","street":"24 Upper Edward St Spring Hill","id":"a6fudxbvhvpv","geo_precision":"street","location":"Over The Wire","state":"QLD"},"type":"Feature","geometry":{"type":"Point","coordinates":[-69.97907,43.791941]}},{"properties":{"postcode":"4001","country":"Australia","geo_score":0.542,"suburb":"Brisbane","street":"127 Creek St","id":"a6fudx22322s","geo_precision":"street","location":"PIPE Networks","state":"QLD"},"type":"Feature","geometry":{"type":"Point","coordinates":[-70.801502,43.465493]}},{"properties":{"postcode":"4006","country":"Australia","geo_score":0.607,"suburb":"Fortitude Valley","street":"148 Brunswick St","id":"a6fudwyxncs9","geo_precision":"street","location":"PIPE Networks","state":"QLD"},"type":"Feature","geometry":{"type":"Point","coordinates":[-70.076781,43.894037]}},{"properties":{"postcode":"1044","country":"Australia","geo_score":0.398,"suburb":"Sydney","street":"2 Park St","id":"a6fudx00mp1c","geo_precision":"street","location":"PIPE Networks","state":"NSW"},"type":"Feature","geometry":{"type":"Point","coordinates":[-88.233885,31.087882]}},{"properties":{"postcode":"7000","country":"Australia","geo_score":0.849,"suburb":"Hobart","street":"29 Elizabeth St","id":"a6fudx6nhzs3","geo_precision":"range","location":"PIPE Networks","state":"TAS"},"type":"Feature","geometry":{"type":"Point","coordinates":[-94.248253,36.468764]}},{"properties":{"postcode":"5000","country":"Australia","geo_score":0.0,"suburb":"Adelaide","street":"132 Franklin St","id":"a6fudwy279y3","geo_precision":"unmatched","location":"PIPE Networks","state":"SA"},"type":"Feature","geometry":null},{"properties":{"postcode":"4001","country":"Australia","geo_score":0.721,"suburb":"Brisbane","street":"20 Wharf St","id":"a6fudxb86qpu","geo_precision":"street","location":"Pegasus Datacenter","state":"QLD"},"type":"Feature","geometry":{"type":"Point","coordinates":[-70.444234,43.495987]}},{"properties":{"postcode":"6000","country":"Australia","geo_score":0.0,"suburb":"Perth","street":"1 William Street","id":"a6fudxa2w9c8","geo_precision":"unmatched","location":"PerthiX (Datacom)","state":"WA"},"type":"Feature","geometry":null},{"properties":{"postcode":"2250","country":"Australia","geo_score":0.714,"suburb":"Springfield","street":null,"id":"a6fudx1pzux1","geo_precision":"city","location":"Polaris","state":"QLD"},"type":"Feature","geometry":{"type":"Point","coordinates":[-72.589811,42.101483]}},{"properties":{"postcode":"4001","country":"Australia","geo_score":0.902,"suburb":"Brisbane","street":"344 Queen St","id":"a6fudx47gl4l","geo_precision":"range","location":"Powertel","state":"QLD"},"type":"Feature","geometry":{"type":"Point","coordinates":[-70.432952,43.70265]}},{"properties":{"postcode":"1044","country":"Australia","geo_score":0.472,"suburb":"Sydney","street":"55 Clarence St","id":"a6fudx44wett","geo_precision":"city","location":"Powertel","state":"NSW"},"type":"Feature","geometry":{"type":"Point","coordinates":[-88.234451,31.067957]}},{"properties":{"postcode":"3000","country":"Australia","geo_score":0.815,"suburb":"Melbourne","street":"376 Flinders St","id":"a6fudx2fhfum","geo_precision":"range","location":"Powertel","state":"VIC"},"type":"Feature","geometry":{"type":"Point","coordinates":[-80.580147,28.10592]}},{"properties":{"postcode":"3000","country":"Australia","geo_score":0.902,"suburb":"Melbourne","street":"55 King St","id":"a6fudww7wce7","geo_precision":"range","location":"Primus","state":"VIC"},"type":"Feature","geometry":{"type":"Point","coordinates":[-80.724667,28.355888]}},{"properties":{"postcode":"1044","country":"Australia","geo_score":0.69,"suburb":"Sydney","street":null,"id":"a6fudx9ne6hf","geo_precision":"city","location":"Primus","state":"NSW"},"type":"Feature","geometry":{"type":"Point","coordinates":[-88.234451,31.067957]}},{"properties":{"postcode":"3000","country":"Australia","geo_score":0.71,"suburb":"Melbourne","street":"525 Collins St","id":"a6fudxad684v","geo_precision":"street","location":"Securiton","state":"VIC"},"type":"Feature","geometry":{"type":"Point","coordinates":[-80.48837,27.79516]}},{"properties":{"postcode":"2620","country":"Australia","geo_score":0.657,"suburb":"Hume","street":null,"id":"a6fudx446kt1","geo_precision":"city","location":"TRE - Canberra Technology Centre - In development","state":"ACT"},"type":"Feature","geometry":{"type":"Point","coordinates":[-90.719535,29.59577]}},{"properties":{"postcode":"1570","country":"Australia","geo_score":0.837,"suburb":"Artarmon","street":"4 Herbert St","id":"a6fudx7siuzp","geo_precision":"range","location":"Telstra","state":"NSW"},"type":"Feature","geometry":{"type":"Point","coordinates":[-71.721825,42.170506]}},{"properties":{"postcode":"3152","country":"Australia","geo_score":0.509,"suburb":"Knox City Centre","street":"573 Burwood Highway","id":"a6fudx64qmmd","geo_precision":"zip","location":"Telstra","state":"VIC"},"type":"Feature","geometry":{"type":"Point","coordinates":[-71.454789,42.99564]}},{"properties":{"postcode":"3168","country":"Australia","geo_score":0.507,"suburb":"Clayton","street":"1822 Dandenong Rd","id":"a6fudx92rz56","geo_precision":"zip","location":"Telstra - SRMS","state":"VIC"},"type":"Feature","geometry":{"type":"Point","coordinates":[-71.454789,42.99564]}},{"properties":{"postcode":"2600","country":"Australia","geo_score":0.427,"suburb":"Canberra","street":"470 Northbourne Ave","id":"a6fudwys7duk","geo_precision":"city","location":"TransACT DC","state":"ACT"},"type":"Feature","geometry":{"type":"Point","coordinates":[-95.487227,43.825795]}},{"properties":{"postcode":"2259","country":"Australia","geo_score":0.657,"suburb":"Wyong","street":null,"id":"a6fudwy4ak42","geo_precision":"city","location":"Verb IT","state":"NSW"},"type":"Feature","geometry":{"type":"Point","coordinates":[-86.337492,39.610324]}},{"properties":{"postcode":"2009","country":"Australia","geo_score":0.39,"suburb":"Pyrmont","street":"55 Pyrmont Bridge Rd","id":"a6fudwvzjyvv","geo_precision":"street","location":"Verizon","state":"NSW"},"type":"Feature","geometry":{"type":"Point","coordinates":[-86.103479,40.436389]}},{"properties":{"postcode":"3000","country":"Australia","geo_score":0.488,"suburb":"Melbourne","street":"330 Spencer St","id":"a6fudx6c6gce","geo_precision":"city","location":"Verizon","state":"VIC"},"type":"Feature","geometry":{"type":"Point","coordinates":[-80.608109,28.083627]}},{"properties":{"postcode":"2600","country":"Australia","geo_score":0.625,"suburb":"Canberra","street":"Battye St","id":"a6fudx83c9bh","geo_precision":"city","location":"Verizon - Bruce Data Centre","state":"ACT"},"type":"Feature","geometry":{"type":"Point","coordinates":[-95.487227,43.825795]}},{"properties":{"postcode":"6017","country":"Australia","geo_score":0.0,"suburb":"Osborne Park","street":"24 Sangiorgio Court","id":"a6fudx07b97p","geo_precision":"unmatched","location":"iiNet","state":"WA"},"type":"Feature","geometry":null},{"properties":{"postcode":"4007","country":"Australia","geo_score":0.589,"suburb":"Banksia Place","street":"Cnr Lomandra Drive &amp; Qantas Drive","id":"a6fudx8bl9wf","geo_precision":"street","location":"iseek Communications","state":"QLD"},"type":"Feature","geometry":{"type":"Point","coordinates":[-70.359944,43.668725]}}],"is_temporal":false,"author":{"url":"","metadata":"","contact_name":"","contact_address":"","source":"","contact_phone":""},"source":"","pagination":{"sort":null,"start":0,"total":70,"limit":1000000},"state":"complete","tags":"","published":"2014-08-10T18:09:20-04:00","id":65142}