{"type":"FeatureCollection","data_type":"Dataset","url_type":null,"permissions":[{"permissions":{"download":true,"view":true},"group_id":"everyone"}],"classification":null,"title":"99-90 94102","count":225,"stream_id":65162,"contributor":{"url":"http://geocommons.com/users/16294","name":"lisette.me@gmail.com"},"data_attributes":null,"calculation_params":null,"icon_link":null,"link":"http://geocommons.com/overlays/65162.json","extent":[-122.427,37.772,-122.406,37.7892],"geometry_types":["point"],"unique_name":null,"name":"99-90 94102","feature_count":225,"description":"","next_feature":null,"is_raster":false,"short_classification":"Y","stats":{"inspection score":{"max":98,"mean":93.7155555555556,"variance":8.07051587301587,"stdev":2.84086533876843,"min":90,"median":94}},"features":[{"properties":{"restaurant":"21 CLUB","inspection date":"1/12/2010","id":"a63d3y2ecngj","address":"98 TURK","inspection score":93},"type":"Feature","geometry":{"type":"Point","coordinates":[-122.4106695,37.7832347]}},{"properties":{"restaurant":"ABSINTHE BRASSERIE &amp; BAR","inspection date":"5/12/2010","id":"a63d3xwe07ft","address":"398 HAYES ST","inspection score":92},"type":"Feature","geometry":{"type":"Point","coordinates":[-122.4229647,37.7769011]}},{"properties":{"restaurant":"ABSINTHE PASTRY","inspection date":"2/2/2010","id":"a63d3y8rp0br","address":"201 IVY ST","inspection score":92},"type":"Feature","geometry":{"type":"Point","coordinates":[-122.4214428,37.7775532]}},{"properties":{"restaurant":"AJISEN RAMEN","inspection date":"8/23/2010","id":"a63d3y0wgllx","address":"865 MARKET ST #STC-12","inspection score":90},"type":"Feature","geometry":null},{"properties":{"restaurant":"AKIKO'S SUSHI BAR","inspection date":"8/4/2010","id":"a63d3xujkp8n","address":"542A MASON ST","inspection score":90},"type":"Feature","geometry":{"type":"Point","coordinates":[-122.409935,37.788737]}},{"properties":{"restaurant":"ALLSTARS DONUTS &amp; BURGERS","inspection date":"4/27/2010","id":"a63d3y37yuw5","address":"290 GOLDEN GATE AVE","inspection score":96},"type":"Feature","geometry":{"type":"Point","coordinates":[-122.415442,37.7816807]}},{"properties":{"restaurant":"ANANDA FUARA","inspection date":"12/22/2009","id":"a63d3xw85b2i","address":"1298 MARKET ST","inspection score":90},"type":"Feature","geometry":{"type":"Point","coordinates":[-122.4162528,37.7778121]}},{"properties":{"restaurant":"ANZU RESTAURANT","inspection date":"3/24/2010","id":"a63d3xu1q64w","address":"222 MASON ST, 2ND FLOOR","inspection score":96},"type":"Feature","geometry":{"type":"Point","coordinates":[-122.40931,37.7861515]}},{"properties":{"restaurant":"AR ROI","inspection date":"5/24/2010","id":"a63d3y6nff3j","address":"643 POST ST","inspection score":96},"type":"Feature","geometry":{"type":"Point","coordinates":[-122.4124798,37.7877577]}},{"properties":{"restaurant":"AZAAL MARKET","inspection date":"12/7/2009","id":"a63d3xz4qo2a","address":"200 LEAVENWORTH ST","inspection score":90},"type":"Feature","geometry":{"type":"Point","coordinates":[-122.413913,37.783031]}},{"properties":{"restaurant":"BAHN THAI BBQ AND NOODLES","inspection date":"4/21/2010","id":"a63d3xwq06q7","address":"639 POST ST","inspection score":96},"type":"Feature","geometry":{"type":"Point","coordinates":[-122.4123872,37.7877691]}},{"properties":{"restaurant":"BAR JULES","inspection date":"4/15/2010","id":"a63d3xyimlgk","address":"609 HAYES ST","inspection score":92},"type":"Feature","geometry":{"type":"Point","coordinates":[-122.426525,37.7763396]}},{"properties":{"restaurant":"BAYSUBWAY 02","inspection date":"8/24/2010","id":"a63d3y6nn61k","address":"125 ELLIS ST","inspection score":96},"type":"Feature","geometry":{"type":"Point","coordinates":[-122.4084794,37.7854057]}},{"properties":{"restaurant":"BEARD PAPA SWEETS CAFE","inspection date":"3/24/2010","id":"a63d3xx424oj","address":"845 MARKET ST FE16","inspection score":96},"type":"Feature","geometry":{"type":"Point","coordinates":[-122.4194155,37.7749295]}},{"properties":{"restaurant":"BELLA LUCCA","inspection date":"7/6/2010","id":"a63d3xwebk3n","address":"418 GEARY ST","inspection score":96},"type":"Feature","geometry":{"type":"Point","coordinates":[-122.4100338,37.7871475]}},{"properties":{"restaurant":"BEN &amp; JERRY'S","inspection date":"4/7/2010","id":"a63d3xzksasy","address":"170 O'FARRELL ST BASEMENT","inspection score":96},"type":"Feature","geometry":{"type":"Point","coordinates":[-122.4194155,37.7749295]}},{"properties":{"restaurant":"BOHEMIAN CLUB","inspection date":"7/7/2010","id":"a63d3xzy7qkl","address":"624 TAYLOR ST","inspection score":94},"type":"Feature","geometry":{"type":"Point","coordinates":[-122.411472,37.788247]}},{"properties":{"restaurant":"BOUDIN PETIT CAFE","inspection date":"5/26/2010","id":"a63d3y73vyrg","address":"170 O'FARRELL ST, 1ST FLOOR","inspection score":90},"type":"Feature","geometry":{"type":"Point","coordinates":[-122.407363,37.786796]}},{"properties":{"restaurant":"BULLFEATHERS QUAIL","inspection date":"6/16/2010","id":"a63d3xvbxrf1","address":"1 UNITED NATIONS PL","inspection score":92},"type":"Feature","geometry":{"type":"Point","coordinates":[-122.413212,37.780535]}},{"properties":{"restaurant":"BURGER HOUSE/ POWELL STREET PIZZA &amp; PASTA","inspection date":"5/4/2010","id":"a63d3xya9if9","address":"239 POWELL ST","inspection score":96},"type":"Feature","geometry":{"type":"Point","coordinates":[-122.4083284,37.7870696]}},{"properties":{"restaurant":"CABLE CAR COFFEE CO","inspection date":"1/25/2010","id":"a63d3y5n6tza","address":"1 HALLIDIE PLAZA","inspection score":94},"type":"Feature","geometry":{"type":"Point","coordinates":[-122.408646,37.784137]}},{"properties":{"restaurant":"CAFE ALTANO","inspection date":"8/11/2010","id":"a63d3y5gks8o","address":"602 HAYES ST","inspection score":92},"type":"Feature","geometry":{"type":"Point","coordinates":[-122.42662,37.776498]}},{"properties":{"restaurant":"CAFE ASIA","inspection date":"8/5/2010","id":"a63d3xyoc3y8","address":"200 LARKIN ST 1ST FLOOR","inspection score":92},"type":"Feature","geometry":{"type":"Point","coordinates":[-122.416706,37.779365]}},{"properties":{"restaurant":"CAFE BELLATRIX","inspection date":"8/2/2010","id":"a63d3xteh2f7","address":"325 MASON ST SPACE #10","inspection score":92},"type":"Feature","geometry":{"type":"Point","coordinates":[-122.409752,37.7864354]}},{"properties":{"restaurant":"CAFE BELLINI","inspection date":"5/4/2010","id":"a63d3y3lq6ct","address":"235 POWELL ST","inspection score":94},"type":"Feature","geometry":{"type":"Point","coordinates":[-122.4081653,37.7869574]}},{"properties":{"restaurant":"CAFE ENCORE","inspection date":"8/11/2010","id":"a63d3xy4iyvg","address":"488 POST ST","inspection score":94},"type":"Feature","geometry":{"type":"Point","coordinates":[-122.4097247,37.7882465]}},{"properties":{"restaurant":"CAFE LA TAZA","inspection date":"2/3/2010","id":"a63d3y0t3qyd","address":"470 POST ST","inspection score":94},"type":"Feature","geometry":{"type":"Point","coordinates":[-122.4095961,37.7881562]}},{"properties":{"restaurant":"CAFE LA VIE","inspection date":"1/11/2010","id":"a63d3xz4mozo","address":"514 OCTAVIA ST","inspection score":96},"type":"Feature","geometry":{"type":"Point","coordinates":[-122.4246805,37.7769815]}},{"properties":{"restaurant":"CAFFE BELLA VENEZIA","inspection date":"6/2/2010","id":"a63d3y4vwi5w","address":"720 POST ST","inspection score":90},"type":"Feature","geometry":{"type":"Point","coordinates":[-122.4137118,37.7876338]}},{"properties":{"restaurant":"CAKO BAKERY","inspection date":"11/16/2009","id":"a63d3y2p7h6l","address":"211 O'FARRELL ST","inspection score":90},"type":"Feature","geometry":{"type":"Point","coordinates":[-122.4083205,37.7863681]}},{"properties":{"restaurant":"CANTINA","inspection date":"1/19/2010","id":"a63d3xw8apvl","address":"580 SUTTER ST","inspection score":98},"type":"Feature","geometry":{"type":"Point","coordinates":[-122.4098465,37.7891567]}},{"properties":{"restaurant":"CENTRAL TOWERS MARKET","inspection date":"2/9/2010","id":"a63d3xxszwm5","address":"352 TURK ST","inspection score":94},"type":"Feature","geometry":{"type":"Point","coordinates":[-122.4149035,37.7827007]}},{"properties":{"restaurant":"CESARIO","inspection date":"4/5/2010","id":"a63d3xuqxo00","address":"601 SUTTER ST","inspection score":98},"type":"Feature","geometry":{"type":"Point","coordinates":[-122.4102976,37.7889293]}},{"properties":{"restaurant":"CHABAA THAI CUSINE 420","inspection date":"8/2/2010","id":"a63d3xsbjf5l","address":"420 GEARY ST","inspection score":90},"type":"Feature","geometry":{"type":"Point","coordinates":[-122.4103251,37.7871836]}},{"properties":{"restaurant":"CHIPOTLE MAXICAN GRILL #1230","inspection date":"5/25/2010","id":"a63d3y1on1rj","address":"232 O'FARRELL ST","inspection score":98},"type":"Feature","geometry":{"type":"Point","coordinates":[-122.4085554,37.7863768]}},{"properties":{"restaurant":"CITY HALL CAFE","inspection date":"6/7/2010","id":"a63d3y434rc4","address":"1 DR CARLTON B GOODLETT PL","inspection score":98},"type":"Feature","geometry":{"type":"Point","coordinates":[-122.4184094,37.7793133]}},{"properties":{"restaurant":"CITY SUPERMARKET","inspection date":"5/17/2010","id":"a63d3y0scjd0","address":"667 GEARY ST","inspection score":94},"type":"Feature","geometry":{"type":"Point","coordinates":[-122.414266,37.7865702]}},{"properties":{"restaurant":"CLIFT HOTEL - BANQUET KITCHEN","inspection date":"5/18/2010","id":"a63d3y4ppax6","address":"495 GEARY ST MEZZANINE","inspection score":94},"type":"Feature","geometry":{"type":"Point","coordinates":[-122.4194155,37.7749295]}},{"properties":{"restaurant":"CONCESSION STAND LARKIN STREET","inspection date":"12/29/2009","id":"a63d3y81ls9o","address":"99 GROVE ST","inspection score":96},"type":"Feature","geometry":{"type":"Point","coordinates":[-122.417473,37.778479]}},{"properties":{"restaurant":"CONCESSION STAND POLK STREET","inspection date":"12/29/2009","id":"a63d3xzfdw88","address":"99 GROVE ST","inspection score":96},"type":"Feature","geometry":{"type":"Point","coordinates":[-122.417473,37.778479]}},{"properties":{"restaurant":"CURRAN THEATRE","inspection date":"6/8/2010","id":"a63d3xu075sd","address":"445 GEARY ST","inspection score":96},"type":"Feature","geometry":{"type":"Point","coordinates":[-122.410581,37.7867729]}},{"properties":{"restaurant":"CVE, INC. (409 )","inspection date":"8/10/2010","id":"a63d3y3j85pq","address":"101 GROVE ST","inspection score":98},"type":"Feature","geometry":{"type":"Point","coordinates":[-122.4182447,37.7784747]}},{"properties":{"restaurant":"DAILY GRILL","inspection date":"6/8/2010","id":"a63d3xy28gy1","address":"347 GEARY ST","inspection score":96},"type":"Feature","geometry":{"type":"Point","coordinates":[-122.4088933,37.7871581]}},{"properties":{"restaurant":"DOJIMA-ANN","inspection date":"3/1/2010","id":"a63d3xxurzhr","address":"219 O'FARRELL ST","inspection score":92},"type":"Feature","geometry":{"type":"Point","coordinates":[-122.408539,37.7863216]}},{"properties":{"restaurant":"DOTTIE'S TRUE BLUE CAFE","inspection date":"2/22/2010","id":"a63d3xvsczzn","address":"522 JONES ST","inspection score":92},"type":"Feature","geometry":{"type":"Point","coordinates":[-122.4129226,37.7862382]}},{"properties":{"restaurant":"DOUBLE DECKER","inspection date":"12/17/2009","id":"a63d3y39bd6s","address":"465 GROVE ST","inspection score":98},"type":"Feature","geometry":{"type":"Point","coordinates":[-122.424091,37.777451]}},{"properties":{"restaurant":"DUONG DONG COFFEE","inspection date":"7/12/2010","id":"a63d3y8j0yv6","address":"315 LEAVENWORTH ST","inspection score":90},"type":"Feature","geometry":{"type":"Point","coordinates":[-122.4143029,37.7839083]}},{"properties":{"restaurant":"EDEN'S TURKISH  RESTAURANT","inspection date":"4/5/2010","id":"a63d3y2xn9fc","address":"552 JONES ST","inspection score":90},"type":"Feature","geometry":{"type":"Point","coordinates":[-122.413098,37.7865171]}},{"properties":{"restaurant":"EDITH'S GOURMET BAKING CO","inspection date":"7/21/2010","id":"a63d3y7s25g8","address":"1 UNITED NATIONS PL","inspection score":94},"type":"Feature","geometry":{"type":"Point","coordinates":[-122.413212,37.780535]}},{"properties":{"restaurant":"EL CASTILLITO TAQUERIA STAR","inspection date":"8/9/2010","id":"a63d3xtngnll","address":"250 GOLDEN GATE AVE","inspection score":94},"type":"Feature","geometry":{"type":"Point","coordinates":[-122.414733,37.781961]}},{"properties":{"restaurant":"ELDORADO MARKET","inspection date":"10/28/2009","id":"a63d3y0v7w2w","address":"124 JONES ST","inspection score":92},"type":"Feature","geometry":{"type":"Point","coordinates":[-122.4122119,37.7825113]}},{"properties":{"restaurant":"ELKS CLUB","inspection date":"2/9/2010","id":"a63d3y5xe48w","address":"450 POST ST, 3RD FLOOR","inspection score":94},"type":"Feature","geometry":{"type":"Point","coordinates":[-122.4094636,37.7882363]}},{"properties":{"restaurant":"EM'S PLACE","inspection date":"6/15/2010","id":"a63d3y5fmz7q","address":"154 MCALLISTER ST","inspection score":92},"type":"Feature","geometry":{"type":"Point","coordinates":[-122.4148412,37.780972]}},{"properties":{"restaurant":"EMPIRE MARKET","inspection date":"2/3/2010","id":"a63d3xteef5v","address":"399 EDDY ST","inspection score":98},"type":"Feature","geometry":{"type":"Point","coordinates":[-122.4142294,37.78371]}},{"properties":{"restaurant":"ESPETUS","inspection date":"4/6/2010","id":"a63d3xu8m7zj","address":"1686 MARKET ST","inspection score":92},"type":"Feature","geometry":{"type":"Point","coordinates":[-122.4233261,37.7720675]}},{"properties":{"restaurant":"FIRST CRUSH RESTAURANT &amp; BAR OF SF INC","inspection date":"4/28/2010","id":"a63d3y30khcb","address":"101 CYRIL MAGNIN ST","inspection score":98},"type":"Feature","geometry":{"type":"Point","coordinates":[-122.408926,37.785658]}},{"properties":{"restaurant":"FISH &amp; FARM","inspection date":"3/31/2010","id":"a63d3y7h6deu","address":"339 TAYLOR ST","inspection score":92},"type":"Feature","geometry":{"type":"Point","coordinates":[-122.411253,37.785621]}},{"properties":{"restaurant":"FRANCISCA CLUB","inspection date":"3/3/2010","id":"a63d3xy818cp","address":"595 SUTTER ST","inspection score":92},"type":"Feature","geometry":{"type":"Point","coordinates":[-122.409962,37.788869]}},{"properties":{"restaurant":"FRENCH CLUB","inspection date":"7/14/2010","id":"a63d3xwruah3","address":"414 MASON ST  8TH FLOOR","inspection score":98},"type":"Feature","geometry":{"type":"Point","coordinates":[-122.4097409,37.7875069]}},{"properties":{"restaurant":"FRESH &amp; NATURAL CAFE","inspection date":"2/18/2010","id":"a63d3xzo7bpn","address":"455 GOLDEN GATE AVE 2ND FLOOR","inspection score":94},"type":"Feature","geometry":{"type":"Point","coordinates":[-122.417994,37.78101]}},{"properties":{"restaurant":"FUJISAN SUSHI","inspection date":"1/6/2010","id":"a63d3xyip0gm","address":"380 GOLDEN GATE AVE","inspection score":90},"type":"Feature","geometry":{"type":"Point","coordinates":[-122.416955,37.78149]}},{"properties":{"restaurant":"GALAXY PIZZA","inspection date":"8/9/2010","id":"a63d3xuqo73g","address":"288 GOLDEN GATE AVE","inspection score":92},"type":"Feature","geometry":{"type":"Point","coordinates":[-122.4154279,37.781685]}},{"properties":{"restaurant":"GATEWAY CROISSANTS","inspection date":"4/15/2010","id":"a63d3xtacdi7","address":"390 GOLDEN GATE AVE","inspection score":92},"type":"Feature","geometry":{"type":"Point","coordinates":[-122.4170612,37.7814765]}},{"properties":{"restaurant":"GLOBAL BAZAAR","inspection date":"3/16/2010","id":"a63d3y0k8jpe","address":"401 O'FARRELL ST","inspection score":96},"type":"Feature","geometry":{"type":"Point","coordinates":[-122.4113252,37.7859766]}},{"properties":{"restaurant":"GODIVA CHOCOLATIER AT MACYS","inspection date":"6/2/2010","id":"a63d3xxul9cz","address":"170 O'FARRELL ST","inspection score":94},"type":"Feature","geometry":{"type":"Point","coordinates":[-122.407363,37.786796]}},{"properties":{"restaurant":"GOLDEN ERA VEGETARIAN RESTAURANT","inspection date":"2/24/2010","id":"a63d3y1xl485","address":"572 O'FARRELL ST","inspection score":92},"type":"Feature","geometry":{"type":"Point","coordinates":[-122.414145,37.785701]}},{"properties":{"restaurant":"GOLDEN HOUSE RESTAURANT","inspection date":"8/10/2010","id":"a63d3y2maxz4","address":"366 GOLDEN GATE AVE","inspection score":92},"type":"Feature","geometry":{"type":"Point","coordinates":[-122.4168062,37.7815088]}},{"properties":{"restaurant":"GRACIE'S CAFE","inspection date":"3/15/2010","id":"a63d3y83hczs","address":"1455 MARKET  STREET","inspection score":92},"type":"Feature","geometry":{"type":"Point","coordinates":[-122.4181496,37.7760095]}},{"properties":{"restaurant":"GRAND CAFE/PETIT CAFE","inspection date":"8/24/2010","id":"a63d3y59zwvl","address":"501 GEARY ST","inspection score":98},"type":"Feature","geometry":{"type":"Point","coordinates":[-122.4115205,37.7869206]}},{"properties":{"restaurant":"GREEN VALLEY MARKET","inspection date":"11/16/2009","id":"a63d3xwavs05","address":"491 ELLIS ST","inspection score":90},"type":"Feature","geometry":{"type":"Point","coordinates":[-122.4143117,37.7846563]}},{"properties":{"restaurant":"GROVE ST. EAST CONCESSION  (LARKIN)","inspection date":"12/29/2009","id":"a63d3y7rdi30","address":"99 GROVE ST","inspection score":92},"type":"Feature","geometry":{"type":"Point","coordinates":[-122.417473,37.778479]}},{"properties":{"restaurant":"GROVE ST. MARKET","inspection date":"8/26/2010","id":"a63d3y2ifgtb","address":"500 GROVE ST","inspection score":90},"type":"Feature","geometry":{"type":"Point","coordinates":[-122.4250075,37.7776902]}},{"properties":{"restaurant":"GYRO KING, INC","inspection date":"2/17/2010","id":"a63d3y1lua8c","address":"25 GROVE ST","inspection score":92},"type":"Feature","geometry":{"type":"Point","coordinates":[-122.4157336,37.7787629]}},{"properties":{"restaurant":"HAYES STREET GRILL","inspection date":"12/2/2009","id":"a63d3xygeqfv","address":"324 HAYES ST","inspection score":92},"type":"Feature","geometry":{"type":"Point","coordinates":[-122.4218382,37.7770434]}},{"properties":{"restaurant":"HERBERT'S MEXICAN GRILL","inspection date":"4/13/2010","id":"a63d3y7k4409","address":"161 POWELL ST","inspection score":90},"type":"Feature","geometry":{"type":"Point","coordinates":[-122.4080215,37.7862446]}},{"properties":{"restaurant":"HILTON HOTELS CORP - LOBBY BAR","inspection date":"12/7/2009","id":"a63d3y6g0xcw","address":"333 O'FARRELL ST LOBBY","inspection score":98},"type":"Feature","geometry":{"type":"Point","coordinates":[-122.4194155,37.7749295]}},{"properties":{"restaurant":"HONEY HONEY CAFE","inspection date":"2/16/2010","id":"a63d3y3u9ica","address":"599 POST ST","inspection score":94},"type":"Feature","geometry":{"type":"Point","coordinates":[-122.4116795,37.7878589]}},{"properties":{"restaurant":"HOTEL ADAGIO - BAR ADAGIO","inspection date":"4/21/2010","id":"a63d3xv16of0","address":"550 GEARY ST","inspection score":90},"type":"Feature","geometry":{"type":"Point","coordinates":[-122.412538,37.787098]}},{"properties":{"restaurant":"HOTEL NIKKO SF - BANQUET PREP/SERVICE ROOM","inspection date":"3/24/2010","id":"a63d3xzoildv","address":"222 MASON ST, 3RD FLOOR","inspection score":98},"type":"Feature","geometry":{"type":"Point","coordinates":[-122.40931,37.7861515]}},{"properties":{"restaurant":"HOTEL NIKKO-SAN FRANCISCO - HARMONY ROOM","inspection date":"3/24/2010","id":"a63d3xx30ok7","address":"222 MASON ST,  B1ST FLOOR","inspection score":96},"type":"Feature","geometry":{"type":"Point","coordinates":[-122.40931,37.7861515]}},{"properties":{"restaurant":"HOTEL REX - CAFE ANDREE","inspection date":"5/25/2010","id":"a63d3xyqhzhk","address":"562 SUTTER ST","inspection score":90},"type":"Feature","geometry":{"type":"Point","coordinates":[-122.4097,37.7891873]}},{"properties":{"restaurant":"HOWIE'S","inspection date":"6/9/2010","id":"a63d3y5qc4ic","address":"1170 MARKET ST BASEMENT","inspection score":94},"type":"Feature","geometry":{"type":"Point","coordinates":[-122.4194155,37.7749295]}},{"properties":{"restaurant":"HYATT UNION SQUARE MAIN KITCHEN","inspection date":"7/1/2010","id":"a63d3y7iuq23","address":"345 STOCKTON ST FLR 3B","inspection score":90},"type":"Feature","geometry":{"type":"Point","coordinates":[-122.4194155,37.7749295]}},{"properties":{"restaurant":"IL BORGO","inspection date":"3/16/2010","id":"a63d3y690qqu","address":"500 FELL ST","inspection score":94},"type":"Feature","geometry":{"type":"Point","coordinates":[-122.426252,37.775669]}},{"properties":{"restaurant":"INFUSION LOUNGE","inspection date":"6/29/2010","id":"a63d3xz0rags","address":"124 ELLIS ST","inspection score":92},"type":"Feature","geometry":{"type":"Point","coordinates":[-122.4081942,37.7854726]}},{"properties":{"restaurant":"JACK IN THE BOX #545","inspection date":"3/16/2010","id":"a63d3xy30t0g","address":"400 GEARY ST","inspection score":96},"type":"Feature","geometry":{"type":"Point","coordinates":[-122.4098814,37.7871669]}},{"properties":{"restaurant":"JARDINIERE RESTAURANT","inspection date":"12/29/2009","id":"a63d3y1c0eh5","address":"300 GROVE ST","inspection score":92},"type":"Feature","geometry":{"type":"Point","coordinates":[-122.421775,37.778184]}},{"properties":{"restaurant":"JODY MARONI'S SAUSAGE KINGDOM","inspection date":"3/16/2010","id":"a63d3y4e2xug","address":"845 MARKET ST FE8","inspection score":90},"type":"Feature","geometry":{"type":"Point","coordinates":[-122.4194155,37.7749295]}},{"properties":{"restaurant":"JOHNNY FOLEY'S IRISH HOUSE","inspection date":"5/24/2010","id":"a63d3y2rtntq","address":"243 O'FARRELL ST","inspection score":96},"type":"Feature","geometry":{"type":"Point","coordinates":[-122.40877,37.7863129]}},{"properties":{"restaurant":"JUICE ZONE","inspection date":"3/23/2010","id":"a63d3xwa5t8w","address":"608 GEARY ST","inspection score":98},"type":"Feature","geometry":{"type":"Point","coordinates":[-122.4135443,37.7866999]}},{"properties":{"restaurant":"JW MARRIOTT-BANQUET FACILITY","inspection date":"4/14/2010","id":"a63d3y7vb9zs","address":"500 POST ST, 2ND FLOOR","inspection score":98},"type":"Feature","geometry":{"type":"Point","coordinates":[-122.410472,37.788324]}},{"properties":{"restaurant":"JW MARRIOTT-CONCIERGE CLUB LOUNGE","inspection date":"4/14/2010","id":"a63d3y36xjdk","address":"500 POST ST, 21ST FLOOR","inspection score":98},"type":"Feature","geometry":{"type":"Point","coordinates":[-122.410472,37.788324]}},{"properties":{"restaurant":"JW MARRIOTT-EMPLOYEE CAFETERIA","inspection date":"4/14/2010","id":"a63d3y4mzg9y","address":"500 POST ST, 4TH FLOOR","inspection score":92},"type":"Feature","geometry":{"type":"Point","coordinates":[-122.410472,37.788324]}},{"properties":{"restaurant":"JW MARRIOTT-MAIN KITCHEN &amp; STORAGE","inspection date":"4/14/2010","id":"a63d3y0kd2ge","address":"500 POST ST,  LEVEL A","inspection score":98},"type":"Feature","geometry":{"type":"Point","coordinates":[-122.4194155,37.7749295]}},{"properties":{"restaurant":"JW MARRIOTT-RESTAURANT &amp; BAR","inspection date":"4/14/2010","id":"a63d3y2bkrfm","address":"500 POST ST, 3RD FLOOR","inspection score":92},"type":"Feature","geometry":{"type":"Point","coordinates":[-122.410472,37.788324]}},{"properties":{"restaurant":"KATANA-YA","inspection date":"7/27/2010","id":"a63d3xu70zbp","address":"430 GEARY ST","inspection score":92},"type":"Feature","geometry":{"type":"Point","coordinates":[-122.4104019,37.7870702]}},{"properties":{"restaurant":"KEBABS OF HAYES VALLEY","inspection date":"3/30/2010","id":"a63d3y5i9d7l","address":"406 HAYES ST","inspection score":94},"type":"Feature","geometry":{"type":"Point","coordinates":[-122.4232299,37.7768671]}},{"properties":{"restaurant":"KIM HOANG CAFE &amp; FAST FOOD","inspection date":"2/3/2010","id":"a63d3xuy8zpp","address":"246-250 LEAVENWORTH ST","inspection score":90},"type":"Feature","geometry":{"type":"Point","coordinates":[-122.4141579,37.7834257]}},{"properties":{"restaurant":"KIM HUONG","inspection date":"7/12/2010","id":"a63d3y80kvli","address":"325 1A LEAVENWORTH ST","inspection score":90},"type":"Feature","geometry":{"type":"Point","coordinates":[-122.413663,37.780927]}},{"properties":{"restaurant":"KING LING","inspection date":"8/2/2010","id":"a63d3xvxbikb","address":"683 GEARY ST","inspection score":94},"type":"Feature","geometry":{"type":"Point","coordinates":[-122.4145141,37.7865385]}},{"properties":{"restaurant":"KING LIQUOR STORE","inspection date":"6/14/2010","id":"a63d3y0ql6ze","address":"693 POST ST","inspection score":98},"type":"Feature","geometry":{"type":"Point","coordinates":[-122.4131837,37.7876696]}},{"properties":{"restaurant":"KING MARKET","inspection date":"5/13/2010","id":"a63d3y58cmi6","address":"94 TURK ST","inspection score":96},"type":"Feature","geometry":{"type":"Point","coordinates":[-122.4106377,37.7833087]}},{"properties":{"restaurant":"L'OTTAVO RISTORANTE ITALIANO","inspection date":"5/25/2010","id":"a63d3xwldjkh","address":"692 SUTTER ST","inspection score":90},"type":"Feature","geometry":{"type":"Point","coordinates":[-122.4117011,37.7888468]}},{"properties":{"restaurant":"L.A. CAFE","inspection date":"3/4/2010","id":"a63d3y4zzmv0","address":"201 TURK ST","inspection score":94},"type":"Feature","geometry":{"type":"Point","coordinates":[-122.4131173,37.7827798]}},{"properties":{"restaurant":"LA BOULANGE","inspection date":"5/17/2010","id":"a63d3y7sraz1","address":"500 HAYES ST","inspection score":92},"type":"Feature","geometry":{"type":"Point","coordinates":[-122.4248178,37.776724]}},{"properties":{"restaurant":"LA SCENE CAFE &amp; BAR","inspection date":"4/7/2010","id":"a63d3y5mfvrg","address":"490 GEARY ST","inspection score":94},"type":"Feature","geometry":{"type":"Point","coordinates":[-122.4113032,37.7870298]}},{"properties":{"restaurant":"LALITA THAI RESTAURANT &amp; BAR","inspection date":"7/21/2010","id":"a63d3xusuxli","address":"96 MCALLISTER ST","inspection score":90},"type":"Feature","geometry":{"type":"Point","coordinates":[-122.4135597,37.7810556]}},{"properties":{"restaurant":"LAS ESTRELLAS STELLINE","inspection date":"6/22/2010","id":"a63d3y5mov9n","address":"330-332 GOUGH ST","inspection score":94},"type":"Feature","geometry":{"type":"Point","coordinates":[-122.4228729,37.7764548]}},{"properties":{"restaurant":"LEATHERNECK STEAKHOUSE - MARINES' MEMORIAL ASSN","inspection date":"6/23/2010","id":"a63d3xxck0z7","address":"609 SUTTER ST,  12TH FLOOR","inspection score":94},"type":"Feature","geometry":{"type":"Point","coordinates":[-122.410458,37.788678]}},{"properties":{"restaurant":"LORI'S DINER","inspection date":"4/28/2010","id":"a63d3y83i2zp","address":"149 POWELL ST","inspection score":96},"type":"Feature","geometry":{"type":"Point","coordinates":[-122.4080089,37.7861815]}},{"properties":{"restaurant":"LORI'S DINER","inspection date":"5/26/2010","id":"a63d3xtxy1cq","address":"500 SUTTER ST","inspection score":92},"type":"Feature","geometry":{"type":"Point","coordinates":[-122.408854,37.789194]}},{"properties":{"restaurant":"LORI'S DINER","inspection date":"2/16/2010","id":"a63d3y10ql0s","address":"336 MASON ST","inspection score":92},"type":"Feature","geometry":{"type":"Point","coordinates":[-122.409537,37.786838]}},{"properties":{"restaurant":"LUQUES RESTAURANT &amp; BAR","inspection date":"8/23/2010","id":"a63d3y3jwl4q","address":"433 POWELL ST","inspection score":90},"type":"Feature","geometry":{"type":"Point","coordinates":[-122.408742,37.788664]}},{"properties":{"restaurant":"MACY'S CELLAR","inspection date":"6/2/2010","id":"a63d3xvzr0vi","address":"170 O'FARRELL ST BASEMENT","inspection score":90},"type":"Feature","geometry":{"type":"Point","coordinates":[-122.4194155,37.7749295]}},{"properties":{"restaurant":"MACY'S WEST - STARBUCKS COFFEE COMPANY","inspection date":"5/26/2010","id":"a63d3y3lxdon","address":"251 GEARY ST 4TH FLOOR","inspection score":92},"type":"Feature","geometry":{"type":"Point","coordinates":[-122.4074538,37.7874416]}},{"properties":{"restaurant":"MANGOS CAFE","inspection date":"8/10/2010","id":"a63d3y2pahhy","address":"577 GEARY ST","inspection score":98},"type":"Feature","geometry":{"type":"Point","coordinates":[-122.412727,37.786564]}},{"properties":{"restaurant":"MARINES MEMORIAL CLUB - BANQUET","inspection date":"6/23/2010","id":"a63d3y1rbqe1","address":"609 SUTTER ST, 10TH FLOOR","inspection score":98},"type":"Feature","geometry":{"type":"Point","coordinates":[-122.410458,37.788678]}},{"properties":{"restaurant":"MARRAKECH","inspection date":"4/27/2010","id":"a63d3y0t943h","address":"419 O'FARRELL ST","inspection score":96},"type":"Feature","geometry":{"type":"Point","coordinates":[-122.4118239,37.785881]}},{"properties":{"restaurant":"MARTY'S LIQUOR AND GOURMET","inspection date":"8/3/2010","id":"a63d3xt971ty","address":"657 SUTTER ST","inspection score":96},"type":"Feature","geometry":{"type":"Point","coordinates":[-122.4111571,37.7888448]}},{"properties":{"restaurant":"MAX'S ON THE SQUARE","inspection date":"3/2/2010","id":"a63d3y2mpbig","address":"398 GEARY ST","inspection score":96},"type":"Feature","geometry":{"type":"Point","coordinates":[-122.4097731,37.7872577]}},{"properties":{"restaurant":"MCALLISTER GROCERY &amp; DELI","inspection date":"6/15/2010","id":"a63d3y52q00g","address":"136 MCALLISTER ST","inspection score":96},"type":"Feature","geometry":{"type":"Point","coordinates":[-122.4143809,37.7809218]}},{"properties":{"restaurant":"MCDONALDS","inspection date":"3/17/2010","id":"a63d3y0ghm86","address":"1455 MARKET ST 1/F","inspection score":92},"type":"Feature","geometry":{"type":"Point","coordinates":[-122.4181496,37.7760095]}},{"properties":{"restaurant":"MELT GELATO &amp; CREPE CAFE","inspection date":"3/24/2010","id":"a63d3y78m84m","address":"845 MARKET ST FE14","inspection score":94},"type":"Feature","geometry":{"type":"Point","coordinates":[-122.4194155,37.7749295]}},{"properties":{"restaurant":"MINI CAFE","inspection date":"11/23/2009","id":"a63d3y5sgxtw","address":"28 VAN NESS","inspection score":90},"type":"Feature","geometry":{"type":"Point","coordinates":[-122.4193203,37.7759183]}},{"properties":{"restaurant":"MINT","inspection date":"6/15/2010","id":"a63d3xxvjfex","address":"100 LARKIN ST","inspection score":92},"type":"Feature","geometry":{"type":"Point","coordinates":[-122.415808,37.779159]}},{"properties":{"restaurant":"MIXED GREENS PREP KITCHEN","inspection date":"4/16/2010","id":"a63d3y0l701m","address":"170 O'FARRELL ST 8TH FLOOR","inspection score":96},"type":"Feature","geometry":{"type":"Point","coordinates":[-122.407363,37.786796]}},{"properties":{"restaurant":"MOISHE'S PIPPIC","inspection date":"5/26/2010","id":"a63d3xutv70f","address":"425A HAYES ST","inspection score":96},"type":"Feature","geometry":{"type":"Point","coordinates":[-122.423395,37.776567]}},{"properties":{"restaurant":"MOMI TOBY'S REVOLUTION CAFE","inspection date":"8/25/2010","id":"a63d3xszofmk","address":"528 LAGUNA ST","inspection score":96},"type":"Feature","geometry":{"type":"Point","coordinates":[-122.4261511,37.7759905]}},{"properties":{"restaurant":"MUANG THAI THAI CUISINE","inspection date":"7/20/2010","id":"a63d3y5a15av","address":"385 TAYLOR ST","inspection score":92},"type":"Feature","geometry":{"type":"Point","coordinates":[-122.4113776,37.7857304]}},{"properties":{"restaurant":"MUNCH HAVEN","inspection date":"6/15/2010","id":"a63d3y288lch","address":"1244 MARKET ST","inspection score":94},"type":"Feature","geometry":{"type":"Point","coordinates":[-122.4156801,37.7782544]}},{"properties":{"restaurant":"NEIMAN MARCUS ON THE SQUARE","inspection date":"6/3/2010","id":"a63d3y7bi1gj","address":"150 STOCKTON ST, GROUND FLOOR","inspection score":92},"type":"Feature","geometry":{"type":"Point","coordinates":[-122.4194155,37.7749295]}},{"properties":{"restaurant":"NEW DELHI RESTAURANT","inspection date":"5/11/2010","id":"a63d3xtr51po","address":"160 ELLIS ST","inspection score":90},"type":"Feature","geometry":{"type":"Point","coordinates":[-122.4089669,37.7855172]}},{"properties":{"restaurant":"NEW YORK TOBACCO","inspection date":"8/9/2010","id":"a63d3y5kpddz","address":"29 GROVE ST","inspection score":98},"type":"Feature","geometry":{"type":"Point","coordinates":[-122.4158441,37.7786679]}},{"properties":{"restaurant":"NILE CAFE","inspection date":"9/1/2010","id":"a63d3y0zfuf6","address":"544 JONES ST","inspection score":96},"type":"Feature","geometry":{"type":"Point","coordinates":[-122.4130724,37.7863907]}},{"properties":{"restaurant":"NINA'S CAFE","inspection date":"6/22/2010","id":"a63d3y0gkv68","address":"201 FELL ST","inspection score":98},"type":"Feature","geometry":{"type":"Point","coordinates":[-122.4212566,37.7759912]}},{"properties":{"restaurant":"OCTAVIA LOUNGE","inspection date":"8/17/2010","id":"a63d3xtvg3uz","address":"1772 MARKET STREET","inspection score":90},"type":"Feature","geometry":{"type":"Point","coordinates":[-122.4233871,37.7720183]}},{"properties":{"restaurant":"ORIGINAL PERFECT HAMBURGER","inspection date":"6/1/2010","id":"a63d3y4yusbl","address":"601 GEARY ST","inspection score":90},"type":"Feature","geometry":{"type":"Point","coordinates":[-122.4133356,37.7866337]}},{"properties":{"restaurant":"ORPHEUM THEATRE","inspection date":"8/11/2010","id":"a63d3xych9sx","address":"1192 MARKET ST","inspection score":96},"type":"Feature","geometry":{"type":"Point","coordinates":[-122.4145805,37.7791928]}},{"properties":{"restaurant":"OSHA THAI NOODLE CAFE","inspection date":"7/28/2010","id":"a63d3y8c89ak","address":"696 GEARY ST","inspection score":90},"type":"Feature","geometry":{"type":"Point","coordinates":[-122.4146773,37.786696]}},{"properties":{"restaurant":"OVATION","inspection date":"2/5/2010","id":"a63d3y6rqgb5","address":"333 FULTON ST","inspection score":94},"type":"Feature","geometry":{"type":"Point","coordinates":[-122.4222374,37.7788071]}},{"properties":{"restaurant":"PARIS CAFE","inspection date":"6/22/2010","id":"a63d3y4oddl9","address":"704 POST ST","inspection score":98},"type":"Feature","geometry":{"type":"Point","coordinates":[-122.4134412,37.7876684]}},{"properties":{"restaurant":"PATXI'S CHICAGO PIZZA","inspection date":"8/25/2010","id":"a63d3xv6ucdu","address":"511 HAYES ST","inspection score":96},"type":"Feature","geometry":{"type":"Point","coordinates":[-122.4250379,37.7766077]}},{"properties":{"restaurant":"PEARL'S DELUXE BURGERS","inspection date":"3/31/2010","id":"a63d3y7z1c1s","address":"708 POST ST","inspection score":98},"type":"Feature","geometry":{"type":"Point","coordinates":[-122.4135088,37.7876597]}},{"properties":{"restaurant":"PEET'S COFFEE &amp; TEA","inspection date":"6/11/2010","id":"a63d3y6fja6f","address":"601 VAN NESS AVE SUITE A","inspection score":98},"type":"Feature","geometry":{"type":"Point","coordinates":[-122.421406,37.781386]}},{"properties":{"restaurant":"PHO HANAMNINH","inspection date":"3/1/2010","id":"a63d3y09bd7q","address":"337 JONES ST","inspection score":92},"type":"Feature","geometry":{"type":"Point","coordinates":[-122.4128489,37.7845188]}},{"properties":{"restaurant":"PHO TAN HOA, INC","inspection date":"4/20/2010","id":"a63d3y76zllv","address":"431 JONES ST","inspection score":94},"type":"Feature","geometry":{"type":"Point","coordinates":[-122.412996,37.7853746]}},{"properties":{"restaurant":"PINECREST DINER","inspection date":"5/19/2010","id":"a63d3y09wtuh","address":"401 GEARY ST","inspection score":90},"type":"Feature","geometry":{"type":"Point","coordinates":[-122.4098739,37.7871302]}},{"properties":{"restaurant":"PIRAAT PIZZA","inspection date":"3/30/2010","id":"a63d3xxznm0e","address":"696 SUTTER ST","inspection score":98},"type":"Feature","geometry":{"type":"Point","coordinates":[-122.4117937,37.7889703]}},{"properties":{"restaurant":"PONZU","inspection date":"7/13/2010","id":"a63d3xvmia22","address":"401 TAYLOR ST","inspection score":94},"type":"Feature","geometry":{"type":"Point","coordinates":[-122.411462,37.7861516]}},{"properties":{"restaurant":"POSTRIO RESTAURANT","inspection date":"6/3/2010","id":"a63d3y50x5yu","address":"545 POST ST","inspection score":90},"type":"Feature","geometry":{"type":"Point","coordinates":[-122.410708,37.787712]}},{"properties":{"restaurant":"QUINCYS","inspection date":"11/23/2009","id":"a63d3xz5cu1e","address":"1408 MARKET ST","inspection score":96},"type":"Feature","geometry":{"type":"Point","coordinates":[-122.4177166,37.7764058]}},{"properties":{"restaurant":"QUIZNO`S","inspection date":"7/6/2010","id":"a63d3xvi2snz","address":"422 GEARY ST","inspection score":98},"type":"Feature","geometry":{"type":"Point","coordinates":[-122.4100677,37.7871432]}},{"properties":{"restaurant":"RAINBOW PIZZA","inspection date":"4/1/2010","id":"a63d3xusru26","address":"1083 MARKET ST","inspection score":92},"type":"Feature","geometry":{"type":"Point","coordinates":[-122.4116663,37.7811502]}},{"properties":{"restaurant":"RAZAN DELI &amp; GROCERY","inspection date":"2/10/2010","id":"a63d3y0uv15r","address":"391 ELLIS ST","inspection score":90},"type":"Feature","geometry":{"type":"Point","coordinates":[-122.412593,37.7848744]}},{"properties":{"restaurant":"RICKSHAW STOP","inspection date":"2/24/2010","id":"a63d3y8sso89","address":"155 FELL ST","inspection score":92},"type":"Feature","geometry":{"type":"Point","coordinates":[-122.4204504,37.7759504]}},{"properties":{"restaurant":"RIGHT WAY MARKET &amp; DELI","inspection date":"6/15/2010","id":"a63d3y1tyup2","address":"596 O'FARRELL ST","inspection score":90},"type":"Feature","geometry":{"type":"Point","coordinates":[-122.4145608,37.7856079]}},{"properties":{"restaurant":"RYE","inspection date":"2/8/2010","id":"a63d3y2lcxpx","address":"688 GEARY ST","inspection score":94},"type":"Feature","geometry":{"type":"Point","coordinates":[-122.414526,37.7865746]}},{"properties":{"restaurant":"RYOKO'S","inspection date":"5/24/2010","id":"a63d3y2kpoph","address":"619 TAYLOR ST","inspection score":96},"type":"Feature","geometry":{"type":"Point","coordinates":[-122.4119574,37.7881948]}},{"properties":{"restaurant":"SAKANA","inspection date":"8/10/2010","id":"a63d3y658127","address":"605 POST ST","inspection score":90},"type":"Feature","geometry":{"type":"Point","coordinates":[-122.4119135,37.7877799]}},{"properties":{"restaurant":"SALAMA HALAL MEAT","inspection date":"8/2/2010","id":"a63d3xxi0aky","address":"604 GEARY ST","inspection score":90},"type":"Feature","geometry":{"type":"Point","coordinates":[-122.4133912,37.7867194]}},{"properties":{"restaurant":"SAM'S DINER","inspection date":"5/11/2010","id":"a63d3xyzz2yf","address":"1220 MARKET STREET","inspection score":90},"type":"Feature","geometry":{"type":"Point","coordinates":[-122.4154843,37.7784287]}},{"properties":{"restaurant":"SAN FRANCISCO SENIOR CENTER DOWNTOWN BRANCH","inspection date":"8/17/2010","id":"a63d3y2lvhnp","address":"481 O'FARRELL ST","inspection score":96},"type":"Feature","geometry":{"type":"Point","coordinates":[-122.4125358,37.7857509]}},{"properties":{"restaurant":"SANTORINI MEDITERRANEAN CUISINE","inspection date":"4/20/2010","id":"a63d3y46g69e","address":"242 O'FARRELL ST","inspection score":90},"type":"Feature","geometry":{"type":"Point","coordinates":[-122.4087585,37.7863519]}},{"properties":{"restaurant":"SEATTLE'S BEST COFFEE","inspection date":"7/12/2010","id":"a63d3y5dwyjb","address":"400 POST ST, SUITE A","inspection score":96},"type":"Feature","geometry":{"type":"Point","coordinates":[-122.40883,37.788494]}},{"properties":{"restaurant":"SEBO","inspection date":"8/25/2010","id":"a63d3xvovx8k","address":"517 HAYES ST","inspection score":90},"type":"Feature","geometry":{"type":"Point","coordinates":[-122.4250775,37.7766026]}},{"properties":{"restaurant":"SEGAFREDO","inspection date":"10/21/2009","id":"a63d3y0h6kzw","address":"15 POWELL ST","inspection score":96},"type":"Feature","geometry":{"type":"Point","coordinates":[-122.4077172,37.7848443]}},{"properties":{"restaurant":"SF HILTON -  EMPLOYEES CAFETERIA","inspection date":"8/25/2010","id":"a63d3y0kn8r0","address":"333 O'FARRELL ST LEVEL B","inspection score":92},"type":"Feature","geometry":{"type":"Point","coordinates":[-122.4194155,37.7749295]}},{"properties":{"restaurant":"SF HILTON - BANQUET KITCHEN","inspection date":"8/25/2010","id":"a63d3xtnpol6","address":"333 O'FARRELL ST FLOOR F","inspection score":96},"type":"Feature","geometry":{"type":"Point","coordinates":[-122.410225,37.7860682]}},{"properties":{"restaurant":"SF HILTON - MAIN KITCHEN","inspection date":"8/25/2010","id":"a63d3xw1keb3","address":"333 O'FARRELL ST LOBBY LEVEL","inspection score":96},"type":"Feature","geometry":{"type":"Point","coordinates":[-122.4194155,37.7749295]}},{"properties":{"restaurant":"SF HILTON - PASTRY/BAKERY","inspection date":"8/25/2010","id":"a63d3y25ik8k","address":"333 O'FARRELL ST LEVEL S","inspection score":96},"type":"Feature","geometry":null},{"properties":{"restaurant":"SHIMA SUSHI","inspection date":"6/11/2010","id":"a63d3y8tz7fq","address":"601 VAN NESS AVE UNIT F &amp; G","inspection score":90},"type":"Feature","geometry":null},{"properties":{"restaurant":"SIAM THAI RESTAURANT","inspection date":"9/28/2009","id":"a63d3y45zpmh","address":"55 CYRIL MAGNIN ST","inspection score":90},"type":"Feature","geometry":{"type":"Point","coordinates":[-122.408965,37.784878]}},{"properties":{"restaurant":"SKY HIGH CAFE","inspection date":"3/17/2010","id":"a63d3xvmxkv7","address":"1455 MARKET ST","inspection score":90},"type":"Feature","geometry":{"type":"Point","coordinates":[-122.4181496,37.7760095]}},{"properties":{"restaurant":"SODEXO AT ACADEMY OF ART UNIVERSITY","inspection date":"8/3/2010","id":"a63d3y37bbeu","address":"655 SUTTER ST","inspection score":98},"type":"Feature","geometry":{"type":"Point","coordinates":[-122.411046,37.788628]}},{"properties":{"restaurant":"STACKS RESTAURANT","inspection date":"5/17/2010","id":"a63d3xulkoqv","address":"501 HAYES ST","inspection score":96},"type":"Feature","geometry":{"type":"Point","coordinates":[-122.424756,37.776393]}},{"properties":{"restaurant":"STARBUCKS COFFEE","inspection date":"8/25/2010","id":"a63d3y6wxodl","address":"333 O'FARRELL ST LOBBY LEVEL","inspection score":98},"type":"Feature","geometry":{"type":"Point","coordinates":[-122.4194155,37.7749295]}},{"properties":{"restaurant":"STARBUCKS COFFEE","inspection date":"5/26/2010","id":"a63d3y2343qy","address":"780 MARKET ST","inspection score":96},"type":"Feature","geometry":{"type":"Point","coordinates":[-122.4057633,37.7858543]}},{"properties":{"restaurant":"STARBUCKS COFFEE","inspection date":"2/22/2010","id":"a63d3y75y9hc","address":"442 GEARY ST","inspection score":98},"type":"Feature","geometry":{"type":"Point","coordinates":[-122.4102371,37.7871217]}},{"properties":{"restaurant":"SUBWAY SANDWICHES #5669","inspection date":"12/3/2009","id":"a63d3xxuu277","address":"1250 MARKET ST","inspection score":92},"type":"Feature","geometry":{"type":"Point","coordinates":[-122.4157696,37.7781828]}},{"properties":{"restaurant":"SUGAR CAFE","inspection date":"6/3/2010","id":"a63d3xshlcy3","address":"679 SUTTER ST","inspection score":94},"type":"Feature","geometry":{"type":"Point","coordinates":[-122.4115121,37.7888396]}},{"properties":{"restaurant":"SUNFLOWER CAFE","inspection date":"2/16/2010","id":"a63d3xynrj6k","address":"284 O'FARRELL ST","inspection score":90},"type":"Feature","geometry":{"type":"Point","coordinates":[-122.409359,37.786374]}},{"properties":{"restaurant":"SUPPENKUCHE","inspection date":"8/4/2010","id":"a63d3y33r6n8","address":"525 LAGUNA ST","inspection score":94},"type":"Feature","geometry":{"type":"Point","coordinates":[-122.426394,37.776259]}},{"properties":{"restaurant":"SUSHI BOAT RESTAURANT","inspection date":"2/17/2010","id":"a63d3xvgsnmx","address":"389 GEARY ST","inspection score":90},"type":"Feature","geometry":{"type":"Point","coordinates":[-122.4095719,37.7871687]}},{"properties":{"restaurant":"SWIG","inspection date":"6/8/2010","id":"a63d3xsca93r","address":"561 GEARY ST","inspection score":92},"type":"Feature","geometry":{"type":"Point","coordinates":[-122.4125181,37.7867831]}},{"properties":{"restaurant":"TAQUERIA CASTILLO B","inspection date":"7/22/2010","id":"a63d3y2i21nr","address":"86 MCALLISTER ST","inspection score":94},"type":"Feature","geometry":{"type":"Point","coordinates":[-122.4134062,37.7810289]}},{"properties":{"restaurant":"TAQUERIA CASTILLO B","inspection date":"3/11/2010","id":"a63d3xx7utwx","address":"10 MASON ST","inspection score":92},"type":"Feature","geometry":{"type":"Point","coordinates":[-122.4090437,37.783282]}},{"properties":{"restaurant":"TAQUERIA EL CASTILLITO","inspection date":"8/9/2010","id":"a63d3y79vm4c","address":"370 GOLDEN GATE AVE","inspection score":94},"type":"Feature","geometry":{"type":"Point","coordinates":[-122.4168487,37.7815034]}},{"properties":{"restaurant":"TAQUERIA EL SOL #2","inspection date":"7/13/2010","id":"a63d3xx1bb95","address":"595 GEARY ST","inspection score":94},"type":"Feature","geometry":{"type":"Point","coordinates":[-122.4130708,37.7867227]}},{"properties":{"restaurant":"TAQUERIA LA PAZ","inspection date":"12/7/2009","id":"a63d3y85ef16","address":"305 TURK ST","inspection score":90},"type":"Feature","geometry":{"type":"Point","coordinates":[-122.414202,37.7827556]}},{"properties":{"restaurant":"TENDERLOIN GROCERY","inspection date":"5/13/2010","id":"a63d3y5jnpvo","address":"62 TURK","inspection score":94},"type":"Feature","geometry":{"type":"Point","coordinates":[-122.4101207,37.7833121]}},{"properties":{"restaurant":"TERRA BAKERY &amp; CAFE","inspection date":"5/17/2010","id":"a63d3y130wzc","address":"401 GOUGH ST","inspection score":90},"type":"Feature","geometry":{"type":"Point","coordinates":[-122.4230021,37.7768854]}},{"properties":{"restaurant":"THE BEER CELLAR","inspection date":"8/5/2010","id":"a63d3xu6bmku","address":"685 SUTTER ST","inspection score":96},"type":"Feature","geometry":{"type":"Point","coordinates":[-122.4115647,37.7887485]}},{"properties":{"restaurant":"THE CAKEMAKER","inspection date":"4/19/2010","id":"a63d3xsbrbzy","address":"509 LAGUNA ST","inspection score":96},"type":"Feature","geometry":{"type":"Point","coordinates":[-122.4261761,37.7759216]}},{"properties":{"restaurant":"THE CLIFT HOTEL (CAFETERIA)","inspection date":"5/18/2010","id":"a63d3y65pkar","address":"495 GEARY ST LOWER LEVEL","inspection score":90},"type":"Feature","geometry":{"type":"Point","coordinates":[-122.4194155,37.7749295]}},{"properties":{"restaurant":"THE CLIFT HOTEL (SPANISH SUITE)","inspection date":"5/18/2010","id":"a63d3xtq595g","address":"495 GEARY ST 15TH FLOOR","inspection score":94},"type":"Feature","geometry":{"type":"Point","coordinates":[-122.4112062,37.786841]}},{"properties":{"restaurant":"THE GREEN ROOM","inspection date":"8/11/2010","id":"a63d3y82h2pw","address":"1182 MARKET ST","inspection score":96},"type":"Feature","geometry":{"type":"Point","coordinates":[-122.414653,37.7793319]}},{"properties":{"restaurant":"THE OLD SIAM THAI RESTAURANT","inspection date":"6/28/2010","id":"a63d3xyvgruq","address":"201 ELLIS ST","inspection score":96},"type":"Feature","geometry":{"type":"Point","coordinates":[-122.4095113,37.7852657]}},{"properties":{"restaurant":"THE OLYMPIC CLUB RESTAURANT","inspection date":"8/30/2010","id":"a63d3y00rw9e","address":"524 POST ST 2ND FLOOR","inspection score":96},"type":"Feature","geometry":{"type":"Point","coordinates":[-122.4110322,37.7880878]}},{"properties":{"restaurant":"THE OWL TREE","inspection date":"12/22/2009","id":"a63d3xviu0r4","address":"601 POST ST","inspection score":96},"type":"Feature","geometry":{"type":"Point","coordinates":[-122.411985,37.787687]}},{"properties":{"restaurant":"THE RRAZZ ROOM","inspection date":"5/17/2010","id":"a63d3y6xjt1m","address":"222 MASON ST 2ND FOOR","inspection score":94},"type":"Feature","geometry":{"type":"Point","coordinates":[-122.40931,37.7861515]}},{"properties":{"restaurant":"THE THAI STICK","inspection date":"3/16/2010","id":"a63d3y5qm0sx","address":"698 POST ST","inspection score":90},"type":"Feature","geometry":{"type":"Point","coordinates":[-122.4133508,37.7876799]}},{"properties":{"restaurant":"THE WHITE HORSE","inspection date":"4/29/2010","id":"a63d3y15ozse","address":"637 SUTTER ST","inspection score":98},"type":"Feature","geometry":{"type":"Point","coordinates":[-122.4109133,37.7889152]}},{"properties":{"restaurant":"THEATRE TOO","inspection date":"7/12/2010","id":"a63d3xsub35w","address":"539 SUTTER ST","inspection score":94},"type":"Feature","geometry":{"type":"Point","coordinates":[-122.409299,37.7890446]}},{"properties":{"restaurant":"TIAN SING CHINESE RESTAURANT","inspection date":"5/11/2010","id":"a63d3y4grxp5","address":"138 CYRIL MAGNIN ST","inspection score":90},"type":"Feature","geometry":{"type":"Point","coordinates":[-122.4088491,37.7859264]}},{"properties":{"restaurant":"TURK &amp; LARKIN DELI","inspection date":"2/9/2010","id":"a63d3y55po6q","address":"476 TURK ST","inspection score":92},"type":"Feature","geometry":{"type":"Point","coordinates":[-122.4172278,37.782412]}},{"properties":{"restaurant":"UNION SQUARE SPORTS BAR","inspection date":"12/7/2009","id":"a63d3xxcrqm5","address":"115 MASON ST","inspection score":92},"type":"Feature","geometry":{"type":"Point","coordinates":[-122.40962,37.784578]}},{"properties":{"restaurant":"UNITED NATIONS CAFE","inspection date":"9/24/2009","id":"a63d3xw8cbzj","address":"1 UNITED NATIONS PLAZA","inspection score":92},"type":"Feature","geometry":{"type":"Point","coordinates":[-122.413212,37.780535]}},{"properties":{"restaurant":"URBAN TAVERN","inspection date":"8/25/2010","id":"a63d3xy83on6","address":"333 O'FARRELL ST LOBBY LEVEL","inspection score":96},"type":"Feature","geometry":{"type":"Point","coordinates":[-122.4194155,37.7749295]}},{"properties":{"restaurant":"VAN NESS KENO ICE CREAM","inspection date":"6/7/2010","id":"a63d3xx3nrw8","address":"26 VAN NESS","inspection score":98},"type":"Feature","geometry":{"type":"Point","coordinates":[-122.4193112,37.775871]}},{"properties":{"restaurant":"VARIETY CONVENIENCE STORE","inspection date":"8/16/2010","id":"a63d3y14jwu0","address":"1546 MARKET ST","inspection score":90},"type":"Feature","geometry":{"type":"Point","coordinates":[-122.4189399,37.7754362]}},{"properties":{"restaurant":"VIETNAMES SANDWICHES","inspection date":"2/16/2010","id":"a63d3y74agf3","address":"426 LARKIN ST","inspection score":90},"type":"Feature","geometry":{"type":"Point","coordinates":[-122.4171941,37.7817743]}},{"properties":{"restaurant":"VILLA FLORENCE HOTEL-BAR NORCINI","inspection date":"5/5/2010","id":"a63d3y0n2m3a","address":"225 POWELL ST","inspection score":98},"type":"Feature","geometry":{"type":"Point","coordinates":[-122.4081424,37.7868442]}},{"properties":{"restaurant":"VN COFFEE","inspection date":"4/19/2010","id":"a63d3y49198a","address":"411 ELLIS ST","inspection score":92},"type":"Feature","geometry":{"type":"Point","coordinates":[-122.412991,37.7848239]}},{"properties":{"restaurant":"WESTIN ST FRANCIS - CARUSO","inspection date":"8/31/2010","id":"a63d3xxsej40","address":"335 POWELL ST LOBBY","inspection score":98},"type":"Feature","geometry":{"type":"Point","coordinates":[-122.4194155,37.7749295]}},{"properties":{"restaurant":"WESTIN ST FRANCIS - EMPLOYEE'S CAFETERIA","inspection date":"8/31/2010","id":"a63d3xsl2pjf","address":"335 POWELL ST BASEMENT","inspection score":90},"type":"Feature","geometry":{"type":"Point","coordinates":[-122.4194155,37.7749295]}},{"properties":{"restaurant":"WESTIN ST FRANCIS - IMPERIAL FOOD KITCHEN","inspection date":"8/31/2010","id":"a63d3y6jn5bn","address":"335 POWELL ST 32ND FLOOR","inspection score":98},"type":"Feature","geometry":{"type":"Point","coordinates":[-122.4083075,37.7876835]}},{"properties":{"restaurant":"WESTIN ST FRANCIS - MAIN KITCHEN","inspection date":"8/31/2010","id":"a63d3xxsos4o","address":"335 POWELL ST 2ND FLOOR","inspection score":94},"type":"Feature","geometry":{"type":"Point","coordinates":[-122.4083075,37.7876835]}},{"properties":{"restaurant":"WESTIN ST FRANCIS - MICHAEL MINA","inspection date":"12/22/2009","id":"a63d3xw738oi","address":"335 POWELL ST 1ST FLOOR","inspection score":90},"type":"Feature","geometry":{"type":"Point","coordinates":[-122.4083075,37.7876835]}},{"properties":{"restaurant":"WESTIN ST FRANCIS - OAK ROOM/BANQUET","inspection date":"8/31/2010","id":"a63d3xvilsi6","address":"335 POWELL ST LOBBY","inspection score":98},"type":"Feature","geometry":{"type":"Point","coordinates":[-122.4194155,37.7749295]}},{"properties":{"restaurant":"WESTIN ST FRANCIS - PASTRY SHOP","inspection date":"8/31/2010","id":"a63d3xwx2h4f","address":"335 POWELL ST BASEMENT","inspection score":98},"type":"Feature","geometry":{"type":"Point","coordinates":[-122.4194155,37.7749295]}},{"properties":{"restaurant":"WETZEL'S PRETZELS","inspection date":"4/23/2010","id":"a63d3y3stdo8","address":"865 MARKETS ST C-18","inspection score":98},"type":"Feature","geometry":{"type":"Point","coordinates":[-122.4194155,37.7749295]}},{"properties":{"restaurant":"WHAT'S UP DOGS! EXPRESS #2","inspection date":"3/31/2010","id":"a63d3y1mmadk","address":"1210 MARKET ST","inspection score":96},"type":"Feature","geometry":{"type":"Point","coordinates":[-122.415138,37.7784505]}},{"properties":{"restaurant":"WINDSOR TEAROOM","inspection date":"5/24/2010","id":"a63d3y1rg092","address":"334 MASON ST","inspection score":94},"type":"Feature","geometry":{"type":"Point","coordinates":[-122.4096078,37.7868018]}},{"properties":{"restaurant":"WOLFGANG PUCK EXPRESS","inspection date":"4/7/2010","id":"a63d3y0bb7hx","address":"170 O'FARRELL ST, BASEMENT","inspection score":90},"type":"Feature","geometry":{"type":"Point","coordinates":[-122.4194155,37.7749295]}},{"properties":{"restaurant":"ZINGARI","inspection date":"3/17/2010","id":"a63d3y7rijem","address":"501 POST ST","inspection score":91},"type":"Feature","geometry":{"type":"Point","coordinates":[-122.410371,37.787825]}}],"is_temporal":false,"author":{"url":"http://sf.everyblock.com","metadata":"","contact_name":"","contact_address":"","source":"EveryBlock","contact_phone":""},"source":"http://sf.everyblock.com","pagination":{"sort":null,"start":0,"total":225,"limit":1000000},"state":"complete","tags":"94102,restaurant inspections,san francisco","published":"2010-09-30T05:29:51Z","id":65162}