{"type":"FeatureCollection","data_type":"Dataset","url_type":null,"permissions":[{"permissions":{"download":true,"view":true},"group_id":"everyone"}],"classification":null,"title":"99-90 94105F","count":55,"stream_id":65282,"contributor":{"url":"http://geocommons.com/users/16294","name":"lisette.me@gmail.com"},"data_attributes":null,"calculation_params":null,"icon_link":null,"link":"http://geocommons.com/overlays/65282.json","extent":[-122.402,37.7855,-122.389,37.7981],"geometry_types":["point"],"unique_name":null,"name":"99-90 94105F","feature_count":55,"description":"","next_feature":null,"is_raster":false,"short_classification":"Y","stats":{"inspection score":{"max":98,"mean":93.5818181818182,"variance":8.13670033670033,"stdev":2.8524901992295,"min":90,"median":94}},"features":[{"properties":{"restaurant":"ACME BREAD COMPANY","inspection date":"2/23/10","id":"a673srqjhms8","address":"1 FERRY BUILDING  #15","inspection score":98},"type":"Feature","geometry":{"type":"Point","coordinates":[-122.392985,37.795559]}},{"properties":{"restaurant":"BEALE ST. BAR &amp; GRILL","inspection date":"7/15/10","id":"a673srrygx3q","address":"133 BEALE ST","inspection score":90},"type":"Feature","geometry":{"type":"Point","coordinates":[-122.3952715,37.7907425]}},{"properties":{"restaurant":"BISTRO BURGER","inspection date":"7/16/10","id":"a673sri0ko1n","address":"201 MISSION ST","inspection score":92},"type":"Feature","geometry":{"type":"Point","coordinates":[-122.394768,37.791034]}},{"properties":{"restaurant":"BOUDIN BAKERY","inspection date":"3/12/10","id":"a673srw1fm45","address":"4 EMBARCADERO CENTER","inspection score":90},"type":"Feature","geometry":{"type":"Point","coordinates":[-122.396063,37.7950299]}},{"properties":{"restaurant":"BUCKHORN GRILL","inspection date":"3/12/10","id":"a673srsui41s","address":"4 EMBARCADERO CENTER","inspection score":90},"type":"Feature","geometry":{"type":"Point","coordinates":[-122.396063,37.7950299]}},{"properties":{"restaurant":"CAFE LEAH 3","inspection date":"7/15/10","id":"a673srk7e2ho","address":"77 BEALE ST","inspection score":96},"type":"Feature","geometry":{"type":"Point","coordinates":[-122.395916,37.7914839]}},{"properties":{"restaurant":"CANE ROSSO","inspection date":"12/22/09","id":"a673srid16vo","address":"1 FERRY BUILDING  #41","inspection score":92},"type":"Feature","geometry":{"type":"Point","coordinates":[-122.392985,37.795559]}},{"properties":{"restaurant":"CANTEEN CORP.","inspection date":"2/12/10","id":"a673srsa67ma","address":"101 MARKET ST 4/FL","inspection score":94},"type":"Feature","geometry":null},{"properties":{"restaurant":"COFFEE BEAN AND TEA LEAF","inspection date":"5/13/10","id":"a673srgduyvt","address":"4 EMBARCADERO CENTER  #SL9","inspection score":96},"type":"Feature","geometry":null},{"properties":{"restaurant":"CONFETTI LE CHOCOLATIER","inspection date":"4/1/10","id":"a673srigh4kc","address":"525 MARKET ST","inspection score":90},"type":"Feature","geometry":{"type":"Point","coordinates":[-122.399276,37.790407]}},{"properties":{"restaurant":"COWGIRL CREAMERY/ARTISAN CHEESE","inspection date":"5/17/10","id":"a673srnw6mgj","address":"1 FERRY BUILDING  #17","inspection score":96},"type":"Feature","geometry":{"type":"Point","coordinates":[-122.392985,37.795559]}},{"properties":{"restaurant":"CREPERIE SANIT GERMAIN","inspection date":"12/23/09","id":"a673sroltvhs","address":"546 HOWARD ST","inspection score":96},"type":"Feature","geometry":{"type":"Point","coordinates":[-122.397363,37.787811]}},{"properties":{"restaurant":"DELICA RF-1","inspection date":"1/6/10","id":"a673srmegbxk","address":"FERRY BUILDING E-8","inspection score":90},"type":"Feature","geometry":{"type":"Point","coordinates":[-122.392985,37.795559]}},{"properties":{"restaurant":"FARM FRESH TO YOU","inspection date":"2/26/10","id":"a673srpv86ui","address":"1 FERRY BUILDING  #9","inspection score":90},"type":"Feature","geometry":{"type":"Point","coordinates":[-122.392985,37.795559]}},{"properties":{"restaurant":"GABBY CAFE &amp; DELI","inspection date":"4/12/10","id":"a673sruwkzut","address":"201 HARRISON ST C","inspection score":98},"type":"Feature","geometry":{"type":"Point","coordinates":[-122.390472,37.787588]}},{"properties":{"restaurant":"GOLDEN GATE MEAT CO","inspection date":"5/17/10","id":"a673srlfllki","address":"1 FERRY BUILDING  #13","inspection score":96},"type":"Feature","geometry":{"type":"Point","coordinates":[-122.392985,37.795559]}},{"properties":{"restaurant":"GORDON BIERSCH BREWERY RESTAURANT","inspection date":"4/16/10","id":"a673srthg650","address":"2 HARRISON ST","inspection score":96},"type":"Feature","geometry":{"type":"Point","coordinates":[-122.389757,37.789803]}},{"properties":{"restaurant":"HOG ISLAND OYSTER CO","inspection date":"8/9/10","id":"a673sri7sb98","address":"1 FERRY BUILDING #11A","inspection score":96},"type":"Feature","geometry":{"type":"Point","coordinates":[-122.392985,37.795559]}},{"properties":{"restaurant":"HORNBLOWER - SANTA ROSA","inspection date":"9/30/09","id":"a673srl76h8c","address":"PIER 3  THE EMBARCADERO","inspection score":92},"type":"Feature","geometry":{"type":"Point","coordinates":[-122.390979,37.792592]}},{"properties":{"restaurant":"HOTEL VITALE/AMERICANO","inspection date":"7/15/10","id":"a673srjtdw2i","address":"8 MISSION STREET","inspection score":90},"type":"Feature","geometry":{"type":"Point","coordinates":[-122.392733,37.7936245]}},{"properties":{"restaurant":"I PREFERITI DI BORIANA-MONTEPULCIANO","inspection date":"2/4/10","id":"a673srrqy9li","address":"1 FERRY BUILDING #33","inspection score":90},"type":"Feature","geometry":{"type":"Point","coordinates":[-122.392985,37.795559]}},{"properties":{"restaurant":"IMPERIAL TEA COURT","inspection date":"1/8/10","id":"a673srmfkial","address":"1 FERRY BUILDING #27","inspection score":94},"type":"Feature","geometry":{"type":"Point","coordinates":[-122.392985,37.795559]}},{"properties":{"restaurant":"JAMBA JUICE #138","inspection date":"5/18/10","id":"a673srjiki2y","address":"74 NEW MONTGOMERY ST","inspection score":96},"type":"Feature","geometry":{"type":"Point","coordinates":[-122.40131,37.787458]}},{"properties":{"restaurant":"JRL CONCESSIONS/AUNTIE ANNE'S","inspection date":"9/28/09","id":"a673srh64oh9","address":"4 EMBARCADERO CENTER","inspection score":94},"type":"Feature","geometry":{"type":"Point","coordinates":[-122.396063,37.7950299]}},{"properties":{"restaurant":"KATZ BAGELS","inspection date":"3/24/10","id":"a673srjdb6ab","address":"606 MISSION ST","inspection score":98},"type":"Feature","geometry":{"type":"Point","coordinates":[-122.4000953,37.7878071]}},{"properties":{"restaurant":"LEE'S DELI","inspection date":"5/18/10","id":"a673srmxsmen","address":"115 NEW MONTGOMERY ST","inspection score":96},"type":"Feature","geometry":{"type":"Point","coordinates":[-122.4001077,37.7872414]}},{"properties":{"restaurant":"MASTRELLI'S DELICATESSEN \"LLC\"","inspection date":"10/15/09","id":"a673srlod9ol","address":"FERRY BUILDING #47","inspection score":94},"type":"Feature","geometry":{"type":"Point","coordinates":[-122.392985,37.795559]}},{"properties":{"restaurant":"MUSKAAN CUISINE OF INDIA","inspection date":"9/24/09","id":"a673srvoevmd","address":"101 SPEAR ST 22","inspection score":90},"type":"Feature","geometry":{"type":"Point","coordinates":[-122.392834,37.792295]}},{"properties":{"restaurant":"NAS COFFEE","inspection date":"5/25/10","id":"a673srkt14rv","address":"101 SPEAR ST A-9","inspection score":96},"type":"Feature","geometry":{"type":"Point","coordinates":[-122.392834,37.792295]}},{"properties":{"restaurant":"PASTA PARADISO","inspection date":"12/21/09","id":"a673srprsdpr","address":"1 MARKET ST","inspection score":92},"type":"Feature","geometry":{"type":"Point","coordinates":[-122.3945102,37.7931763]}},{"properties":{"restaurant":"PEET'S COFFEE &amp; TEA","inspection date":"10/6/09","id":"a673srj6mmge","address":"595 MARKET ST  SUITE #143","inspection score":91},"type":"Feature","geometry":{"type":"Point","coordinates":[-122.400655,37.789318]}},{"properties":{"restaurant":"PEET'S COFFEE &amp; TEA","inspection date":"9/7/10","id":"a673srrnws8k","address":"405 HOWARD ST","inspection score":96},"type":"Feature","geometry":{"type":"Point","coordinates":[-122.395144,37.78853]}},{"properties":{"restaurant":"PEET'S COFFEE &amp; TEA","inspection date":"5/3/10","id":"a673srr9p1fc","address":"FERRY BUILDING  C3","inspection score":92},"type":"Feature","geometry":{"type":"Point","coordinates":[-122.392985,37.795559]}},{"properties":{"restaurant":"PEET'S COFFEE &amp; TEA","inspection date":"12/23/09","id":"a673srmyeqcd","address":"680 MISSION ST","inspection score":94},"type":"Feature","geometry":{"type":"Point","coordinates":[-122.401974,37.786761]}},{"properties":{"restaurant":"PEPE'S TAQUERIA","inspection date":"9/25/09","id":"a673sruyj95b","address":"101 SPEAR ST A15","inspection score":92},"type":"Feature","geometry":{"type":"Point","coordinates":[-122.392834,37.792295]}},{"properties":{"restaurant":"PRATHER RANCH MEAT CO","inspection date":"5/24/10","id":"a673srlghscq","address":"1 FERRY BUILDING  #32","inspection score":90},"type":"Feature","geometry":{"type":"Point","coordinates":[-122.392985,37.795559]}},{"properties":{"restaurant":"RUBIO'S FRESH MEXICAN GRILL","inspection date":"5/21/10","id":"a673srmamurd","address":"4 EMBARCADERO CENTER  STREET LEVEL","inspection score":98},"type":"Feature","geometry":null},{"properties":{"restaurant":"SAN FRANCISCO BELLE","inspection date":"9/30/09","id":"a673srhpan7u","address":"PIER 3","inspection score":92},"type":"Feature","geometry":{"type":"Point","coordinates":[-122.3948112,37.7981392]}},{"properties":{"restaurant":"SAN FRANCISCO SOUP COMPANY","inspection date":"10/9/09","id":"a673srl5wx4n","address":"301 HOWARD ST","inspection score":92},"type":"Feature","geometry":{"type":"Point","coordinates":[-122.3943175,37.789728]}},{"properties":{"restaurant":"SAN FRANCISCO SOUP COMPANY","inspection date":"12/21/09","id":"a673srv6fbww","address":"1 MARKET ST","inspection score":96},"type":"Feature","geometry":{"type":"Point","coordinates":[-122.3945102,37.7931763]}},{"properties":{"restaurant":"SENS RESTAURANT","inspection date":"12/7/09","id":"a673srhbol1e","address":"4 EMBARCADERO CENTER  PROMENADE LEVEL","inspection score":96},"type":"Feature","geometry":null},{"properties":{"restaurant":"SOUP FREAKS","inspection date":"11/4/09","id":"a673srpatkba","address":"90 NEW MONTGOMERY ST","inspection score":90},"type":"Feature","geometry":{"type":"Point","coordinates":[-122.400932,37.787422]}},{"properties":{"restaurant":"TAN'S CAFE","inspection date":"4/21/10","id":"a673sriaqxmw","address":"631 HOWARD ST","inspection score":98},"type":"Feature","geometry":{"type":"Point","coordinates":[-122.398556,37.786043]}},{"properties":{"restaurant":"TASSILI CAFE","inspection date":"4/16/10","id":"a673srjwhjvz","address":"345 SPEAR ST 123","inspection score":94},"type":"Feature","geometry":{"type":"Point","coordinates":[-122.389757,37.789803]}},{"properties":{"restaurant":"TAYLOR'S AUTOMATIC REFRESHER","inspection date":"2/26/10","id":"a673srswv00i","address":"1 FERRY BUILDING #6","inspection score":98},"type":"Feature","geometry":{"type":"Point","coordinates":[-122.392985,37.795559]}},{"properties":{"restaurant":"THE GAP CAFE","inspection date":"3/26/10","id":"a673srjj4ywf","address":"1 HARRISON ST","inspection score":98},"type":"Feature","geometry":{"type":"Point","coordinates":[-122.388783,37.788935]}},{"properties":{"restaurant":"THE GROVE","inspection date":"4/6/10","id":"a673sruztn2e","address":"690 MISSION ST","inspection score":90},"type":"Feature","geometry":{"type":"Point","coordinates":[-122.4019424,37.7865392]}},{"properties":{"restaurant":"THE POSH BAGEL","inspection date":"2/5/10","id":"a673srjekiym","address":"4 EMBARCADERO CENTER","inspection score":92},"type":"Feature","geometry":{"type":"Point","coordinates":[-122.396063,37.7950299]}},{"properties":{"restaurant":"THE TOASTER OVEN SANDWICH SHOP","inspection date":"3/31/10","id":"a673sroxskkb","address":"3 EMBARCADERO CENTER  LOBBY LEVEL","inspection score":92},"type":"Feature","geometry":null},{"properties":{"restaurant":"WHAT'S UP DOG","inspection date":"12/10/09","id":"a673srmvmt53","address":"195 BEALE ST","inspection score":90},"type":"Feature","geometry":{"type":"Point","coordinates":[-122.394277,37.790178]}},{"properties":{"restaurant":"WORKING GIRLS' CAFE III","inspection date":"9/24/09","id":"a673srtp2oq3","address":"100 SPEAR ST 140","inspection score":94},"type":"Feature","geometry":{"type":"Point","coordinates":[-122.394,37.7921509]}},{"properties":{"restaurant":"YANK SING RESTAURANT","inspection date":"9/24/09","id":"a673srvgb4zj","address":"101 SPEAR ST A-16","inspection score":90},"type":"Feature","geometry":{"type":"Point","coordinates":[-122.392834,37.792295]}},{"properties":{"restaurant":"YOCUP YOGURT","inspection date":"12/18/09","id":"a673srnsodmz","address":"101 SPEAR ST A10","inspection score":96},"type":"Feature","geometry":{"type":"Point","coordinates":[-122.392834,37.792295]}},{"properties":{"restaurant":"YOGEN FRUZ","inspection date":"1/29/10","id":"a673srusnuqt","address":"3 EMBARCADERO CENTER  STREET LEVEL","inspection score":96},"type":"Feature","geometry":null},{"properties":{"restaurant":"ZARE AT FLY TRAP","inspection date":"4/29/10","id":"a673srpw2x8p","address":"606 FOLSOM ST","inspection score":92},"type":"Feature","geometry":{"type":"Point","coordinates":[-122.397125,37.785535]}}],"is_temporal":false,"author":{"url":"http://sf.everyblock.com","metadata":"","contact_name":"","contact_address":"","source":"EveryBlock","contact_phone":""},"source":"http://sf.everyblock.com","pagination":{"sort":null,"start":0,"total":55,"limit":1000000},"state":"complete","tags":"94105,restaurant inspections,san francisco","published":"2010-09-30T14:30:00Z","id":65282}