{"type":"FeatureCollection","data_type":"Dataset","url_type":null,"permissions":[{"permissions":{"download":true,"view":true},"group_id":"everyone"}],"classification":null,"title":"Digital Cable TV Providers","count":53,"stream_id":65378,"contributor":{"url":"http://geocommons.com/users/16553","name":"hairsalondivas"},"data_attributes":null,"calculation_params":null,"icon_link":null,"link":"http://geocommons.com/overlays/65378.json","extent":[-122.676,26.0629,-71.0598,47.6062],"geometry_types":["point"],"unique_name":null,"name":"Digital Cable TV Providers","feature_count":53,"description":"Digital Cable TV Providers for cable, comcast, television, tv, digital, service, internet, phone","next_feature":null,"is_raster":false,"short_classification":"Y","stats":{"geo_score":{"max":0.857,"mean":0.84666037735849,"variance":0.000712228592162553,"stdev":0.0266876112112447,"min":0.73,"median":0.857}},"features":[{"properties":{"city":"Austin","title":"Digital Cable TV Dealer","street1":"815 Brazos Street","zipcode":"78701","street2":null,"country":"USA","geo_score":0.857,"website":"http://localcabletvprovider.info/austin-cable.html","description":"Do you need Cable, Internet or Phone service? Choose from the Premiere cable service providers in your city.","id":"a62jeq3i4iie","phone number":"(512) 501-2329","geo_precision":"city","state":"TX"},"type":"Feature","geometry":{"type":"Point","coordinates":[-97.743061,30.267153]}},{"properties":{"city":"Buffalo","title":"Digital Cable TV Dealer","street1":"266 Elmwood Ave","zipcode":"14222","street2":null,"country":"USA","geo_score":0.857,"website":"http://localcabletvprovider.info/buffalo-cable.html","description":"Do you need Cable, Internet or Phone service? Choose from the Premiere cable service providers in your city.","id":"a62jeppzkbu4","phone number":"(716) 332-5940","geo_precision":"city","state":"NY"},"type":"Feature","geometry":{"type":"Point","coordinates":[-78.878369,42.886447]}},{"properties":{"city":"Charlotte","title":"Digital Cable TV Dealer","street1":"1800 Camden Road","zipcode":"28203","street2":null,"country":"USA","geo_score":0.857,"website":"http://localcabletvprovider.info/charlotte-cable.html","description":"Do you need Cable, Internet or Phone service? Choose from the Premiere cable service providers in your city.","id":"a62jeptou2py","phone number":"(704) 625-0274","geo_precision":"city","state":"NC"},"type":"Feature","geometry":{"type":"Point","coordinates":[-80.843127,35.227087]}},{"properties":{"city":"Denver","title":"Digital Cable TV Dealer","street1":"13918 East Mississippi Avenue","zipcode":"80012","street2":null,"country":"USA","geo_score":0.857,"website":"http://localcabletvprovider.info/denver-cable.html","description":"Do you need Cable, Internet or Phone service? Choose from the Premiere cable service providers in your city.","id":"a62jeq1uxufu","phone number":"(720) 356-0167","geo_precision":"city","state":"CO"},"type":"Feature","geometry":{"type":"Point","coordinates":[-104.984703,39.739154]}},{"properties":{"city":"Fort Lauderdale","title":"Digital Cable TV Dealer","street1":"401 E Las Olas Blvd","zipcode":"33301","street2":null,"country":"USA","geo_score":0.857,"website":"http://localcabletvprovider.info/fort-lauderdale-cable.html","description":"Do you need Cable, Internet or Phone service? Choose from the Premiere cable service providers in your city.","id":"a62jepqxtqau","phone number":"(954) 678-0783","geo_precision":"city","state":"FL"},"type":"Feature","geometry":{"type":"Point","coordinates":[-80.143379,26.122308]}},{"properties":{"city":"Las Vegas","title":"Digital Cable TV Dealer","street1":"1350 East Flamingo Road","zipcode":"89119","street2":null,"country":"USA","geo_score":0.857,"website":"http://localcabletvprovider.info/las-vegas-cable.html","description":"Do you need Cable, Internet or Phone service? Choose from the Premiere cable service providers in your city.","id":"a62jeppzx6pp","phone number":"(702) 920-0937","geo_precision":"city","state":"NV"},"type":"Feature","geometry":{"type":"Point","coordinates":[-115.137223,36.174971]}},{"properties":{"city":"Providence","title":"Digital Cable TV Dealer","street1":"68 Dorrance Street","zipcode":"02903","street2":null,"country":"USA","geo_score":0.857,"website":"http://localcabletvprovider.info/providence-cable.html","description":"Do you need Cable, Internet or Phone service? Choose from the Premiere cable service providers in your city.","id":"a62jepuq00vz","phone number":"(401) 648-0619","geo_precision":"city","state":"RI"},"type":"Feature","geometry":{"type":"Point","coordinates":[-71.412834,41.823989]}},{"properties":{"city":"Richmond","title":"Digital Cable TV Dealer","street1":"3126 West Cary Street","zipcode":"23221","street2":null,"country":"USA","geo_score":0.857,"website":"http://localcabletvprovider.info/richmond-cable.html","description":"Do you need Cable, Internet or Phone service? Choose from the Premiere cable service providers in your city.","id":"a62jepwz14bm","phone number":"(804) 381-0490","geo_precision":"city","state":"VA"},"type":"Feature","geometry":{"type":"Point","coordinates":[-77.460262,37.553758]}},{"properties":{"city":"San Francisco","title":"Digital Cable TV Dealer","street1":"3145 Geary Boulevard","zipcode":"94118","street2":null,"country":"USA","geo_score":0.857,"website":"http://localcabletvprovider.info/san-francisco-cable.html","description":"Do you need Cable, Internet or Phone service? Choose from the Premiere cable service providers in your city.","id":"a62jepus5sbw","phone number":"(415) 735-3775","geo_precision":"city","state":"CA"},"type":"Feature","geometry":{"type":"Point","coordinates":[-122.419416,37.77493]}},{"properties":{"city":"Tallahassee","title":"Digital Cable TV Dealer","street1":"800 Ocala Rd","zipcode":"32304","street2":null,"country":"USA","geo_score":0.857,"website":"http://localcabletvprovider.info/tallahassee-cable.html","description":"Do you need Cable, Internet or Phone service? Choose from the Premiere cable service providers in your city.","id":"a62jeptty8k2","phone number":"(850) 523-4042","geo_precision":"city","state":"FL"},"type":"Feature","geometry":{"type":"Point","coordinates":[-84.280733,30.438256]}},{"properties":{"city":"University Park","title":"Digital Cable TV Dealer","street1":"210 West Hamilton, University Park, PA 16801","zipcode":"16801","street2":null,"country":"USA","geo_score":0.796,"website":"http://localcabletvprovider.info/university-park-cable.html","description":"Do you need Cable, Internet or Phone service? Choose from the Premiere cable service providers in your city.","id":"a62jeppmmib3","phone number":"(814) 206-0135","geo_precision":"city","state":"PA"},"type":"Feature","geometry":{"type":"Point","coordinates":[-79.796714,40.473124]}},{"properties":{"city":"Cleveland","title":"Digital Cable TV Dealer","street1":"11470 Euclid Avenue","zipcode":"44106","street2":null,"country":"USA","geo_score":0.857,"website":"http://cabletvprovider.info/cleveland-cable.html","description":"Do you need Cable, Internet or Phone service? Choose from the Premiere cable service providers in your city.","id":"a62jeprudjhp","phone number":"(216) 456-0208","geo_precision":"city","state":"OH"},"type":"Feature","geometry":{"type":"Point","coordinates":[-81.695409,41.499495]}},{"properties":{"city":"Davie","title":"Digital Cable TV Dealer","street1":"4611 South University Drive","zipcode":"33328","street2":null,"country":"USA","geo_score":0.857,"website":"http://cabletvprovider.info/davie-cable.html","description":"Do you need Cable, Internet or Phone service? Choose from the Premiere cable service providers in your city.","id":"a62jeps73hxp","phone number":"(954) 604-6969","geo_precision":"city","state":"FL"},"type":"Feature","geometry":{"type":"Point","coordinates":[-80.233104,26.062867]}},{"properties":{"city":"Gainesville","title":"Digital Cable TV Dealer","street1":"3324 W University Ave","zipcode":"32607","street2":null,"country":"USA","geo_score":0.818,"website":"http://cabletvprovider.info/gainesville-cable.html","description":"Do you need Cable, Internet or Phone service? Choose from the Premiere cable service providers in your city.","id":"a62jepwbsxhp","phone number":"(352) 505-7608","geo_precision":"city","state":"FL"},"type":"Feature","geometry":{"type":"Point","coordinates":[-85.354651,30.731305]}},{"properties":{"city":"Houston","title":"Digital Cable TV Dealer","street1":"1707 Post Oak Boulevard","zipcode":"77056","street2":null,"country":"USA","geo_score":0.816,"website":"http://cabletvprovider.info/houston-cable.html","description":"Do you need Cable, Internet or Phone service? Choose from the Premiere cable service providers in your city.","id":"a62jepyi71y2","phone number":"(713) 338-2051","geo_precision":"city","state":"TX"},"type":"Feature","geometry":{"type":"Point","coordinates":[-96.919704,29.845783]}},{"properties":{"city":"Jacksonville","title":"Digital Cable TV Dealer","street1":"221 N Hogan St","zipcode":"32202","street2":null,"country":"USA","geo_score":0.857,"website":"http://cabletvprovider.info/jacksonville-cable.html","description":"Do you need Cable, Internet or Phone service? Choose from the Premiere cable service providers in your city.","id":"a62jepshto63","phone number":"(904) 525-8873","geo_precision":"city","state":"FL"},"type":"Feature","geometry":{"type":"Point","coordinates":[-81.655651,30.332184]}},{"properties":{"city":"Nashville","title":"Digital Cable TV Dealer","street1":"533 Church Street","zipcode":"37219","street2":null,"country":"USA","geo_score":0.857,"website":"http://cabletvprovider.info/nashville-cable.html","description":"Do you need Cable, Internet or Phone service? Choose from the Premiere cable service providers in your city.","id":"a62jepxlw9u7","phone number":"(615) 622-2554","geo_precision":"city","state":"TN"},"type":"Feature","geometry":{"type":"Point","coordinates":[-86.784443,36.16589]}},{"properties":{"city":"New Orleans","title":"Digital Cable TV Dealer","street1":"1319 Ursulines Avenue","zipcode":"70116","street2":null,"country":"USA","geo_score":0.857,"website":"http://cabletvprovider.info/new-orleans-cable.html","description":"Do you need Cable, Internet or Phone service? Choose from the Premiere cable service providers in your city.","id":"a62jeq3gs81v","phone number":"(504) 613-4749","geo_precision":"city","state":"LA"},"type":"Feature","geometry":{"type":"Point","coordinates":[-89.930956,30.068812]}},{"properties":{"city":"New York","title":"Digital Cable TV Dealer","street1":"342 Broadway","zipcode":"10013","street2":null,"country":"USA","geo_score":0.857,"website":"http://cabletvprovider.info/new-york-cable.html","description":"Do you need Cable, Internet or Phone service? Choose from the Premiere cable service providers in your city.","id":"a62jepzgxl1u","phone number":"(646) 368-8428","geo_precision":"city","state":"NY"},"type":"Feature","geometry":{"type":"Point","coordinates":[-74.005973,40.714269]}},{"properties":{"city":"Norfolk","title":"Digital Cable TV Dealer","street1":"7870 Tidewater Dr","zipcode":"23505","street2":null,"country":"USA","geo_score":0.857,"website":"http://cabletvprovider.info/norfolk-cable.html","description":"Do you need Cable, Internet or Phone service? Choose from the Premiere cable service providers in your city.","id":"a62jeq05lng2","phone number":"(757) 687-0669","geo_precision":"city","state":"VA"},"type":"Feature","geometry":{"type":"Point","coordinates":[-76.285218,36.846815]}},{"properties":{"city":"Santa Rosa","title":"Digital Cable TV Dealer","street1":"612 5th St","zipcode":"95404","street2":null,"country":"USA","geo_score":0.73,"website":"http://cabletvprovider.info/santa-rosa-cable.html","description":"Do you need Cable, Internet or Phone service? Choose from the Premiere cable service providers in your city.","id":"a62jeq04iq9o","phone number":"(707) 969-3125","geo_precision":"city","state":"CA"},"type":"Feature","geometry":{"type":"Point","coordinates":[-114.849692,34.083625]}},{"properties":{"city":"Seattle","title":"Digital Cable TV Dealer","street1":"1425 Broadway","zipcode":"98122","street2":null,"country":"USA","geo_score":0.857,"website":"http://cabletvprovider.info/seattle-cable.html","description":"Do you need Cable, Internet or Phone service? Choose from the Premiere cable service providers in your city.","id":"a62jepqm21ap","phone number":"(206) 219-0955","geo_precision":"city","state":"WA"},"type":"Feature","geometry":{"type":"Point","coordinates":[-122.332071,47.60621]}},{"properties":{"city":"Champaign","title":"Digital Cable TV Dealer","street1":"1717 West Kirby Avenue","zipcode":"61821","street2":null,"country":"USA","geo_score":0.857,"website":"http://digitalcableprovider.info/champaign-cable.html","description":"Do you need Cable, Internet or Phone service? Choose from the Premiere cable service providers in your city.","id":"a62jeq3437bn","phone number":"(217) 903-2980","geo_precision":"city","state":"IL"},"type":"Feature","geometry":{"type":"Point","coordinates":[-88.243383,40.116421]}},{"properties":{"city":"Chicago","title":"Digital Cable TV Dealer","street1":"6263 N Mccormick Dr","zipcode":"60659","street2":null,"country":"USA","geo_score":0.857,"website":"http://digitalcableprovider.info/chicago-cable.html","description":"Do you need Cable, Internet or Phone service? Choose from the Premiere cable service providers in your city.","id":"a62jepqc1y4i","phone number":"(773) 942-2658","geo_precision":"city","state":"IL"},"type":"Feature","geometry":{"type":"Point","coordinates":[-87.650052,41.850033]}},{"properties":{"city":"Columbus","title":"Digital Cable TV Dealer","street1":"4719 Reed Rd","zipcode":"43220","street2":null,"country":"USA","geo_score":0.776,"website":"http://digitalcableprovider.info/columbus-cable.html","description":"Do you need Cable, Internet or Phone service? Choose from the Premiere cable service providers in your city.","id":"a62jepxvaaih","phone number":"(614) 360-2609","geo_precision":"city","state":"OH"},"type":"Feature","geometry":{"type":"Point","coordinates":[-82.695724,39.998397]}},{"properties":{"city":"Detroit","title":"Digital Cable TV Dealer","street1":"5345 Griswold St","zipcode":"48226","street2":null,"country":"USA","geo_score":0.857,"website":"http://digitalcableprovider.info/detroit-cable.html","description":"Do you need Cable, Internet or Phone service? Choose from the Premiere cable service providers in your city.","id":"a62jepokvst4","phone number":"(313) 483-6157","geo_precision":"city","state":"MI"},"type":"Feature","geometry":{"type":"Point","coordinates":[-83.045754,42.331427]}},{"properties":{"city":"Milwaukee","title":"Digital Cable TV Dealer","street1":"544 East Ogden Avenue","zipcode":"53202","street2":null,"country":"USA","geo_score":0.857,"website":"http://digitalcableprovider.info/milwuakee-cable.html","description":"Do you need Cable, Internet or Phone service? Choose from the Premiere cable service providers in your city.","id":"a62jepqf6wga","phone number":"(262) 922-9752","geo_precision":"city","state":"WI"},"type":"Feature","geometry":{"type":"Point","coordinates":[-87.906474,43.038903]}},{"properties":{"city":"Orlando","title":"Digital Cable TV Dealer","street1":"3208 East Colonial Drive","zipcode":"32803","street2":null,"country":"USA","geo_score":0.857,"website":"http://digitalcableprovider.info/orlando-cable.html","description":"Do you need Cable, Internet or Phone service? Choose from the Premiere cable service providers in your city.","id":"a62jept59nga","phone number":"(407) 505-4268","geo_precision":"city","state":"FL"},"type":"Feature","geometry":{"type":"Point","coordinates":[-81.379237,28.538336]}},{"properties":{"city":"Philadelphia","title":"Digital Cable TV Dealer","street1":"3720 Spruce St","zipcode":"19104","street2":null,"country":"USA","geo_score":0.857,"website":"http://digitalcableprovider.info/Philadelphia-cable.html","description":"Do you need Cable, Internet or Phone service? Choose from the Premiere cable service providers in your city.","id":"a62jeq225npz","phone number":"(215) 525-6829","geo_precision":"city","state":"PA"},"type":"Feature","geometry":{"type":"Point","coordinates":[-75.163789,39.952335]}},{"properties":{"city":"Portland","title":"Digital Cable TV Dealer","street1":"818 Southwest 3rd Avenue","zipcode":"97204","street2":null,"country":"USA","geo_score":0.857,"website":"http://digitalcableprovider.info/Portland-cable.html","description":"Do you need Cable, Internet or Phone service? Choose from the Premiere cable service providers in your city.","id":"a62jepoegyhy","phone number":"(503) 715-1738","geo_precision":"city","state":"OR"},"type":"Feature","geometry":{"type":"Point","coordinates":[-122.676207,45.523452]}},{"properties":{"city":"Sacramento","title":"Digital Cable TV Dealer","street1":"915 L Street","zipcode":"95814","street2":null,"country":"USA","geo_score":0.857,"website":"http://digitalcableprovider.info/sacramento-cable.html","description":"Do you need Cable, Internet or Phone service? Choose from the Premiere cable service providers in your city.","id":"a62jepqqcok3","phone number":"(916) 374-5056","geo_precision":"city","state":"CA"},"type":"Feature","geometry":{"type":"Point","coordinates":[-121.4944,38.581572]}},{"properties":{"city":"St Paul","title":"Digital Cable TV Dealer","street1":"1043 Grand Ave","zipcode":"55105","street2":null,"country":"USA","geo_score":0.762,"website":"http://digitalcableprovider.info/saint-paul-cable.html","description":"Do you need Cable, Internet or Phone service? Choose from the Premiere cable service providers in your city.","id":"a62jepoduuoe","phone number":"(952) 486-7006","geo_precision":"city","state":"MN"},"type":"Feature","geometry":{"type":"Point","coordinates":[-92.259625,47.415205]}},{"properties":{"city":"Atlanta","title":"Digital Cable TV Dealer","street1":"165 Courtland St","zipcode":"30303","street2":null,"country":"USA","geo_score":0.857,"website":"http://digitalcabletv.info/atlanta-cable.html","description":"Do you need Cable, Internet or Phone service? Choose from the Premiere cable service providers in your city.","id":"a62jeprspje8","phone number":"(404) 891-5204","geo_precision":"city","state":"GA"},"type":"Feature","geometry":{"type":"Point","coordinates":[-84.387982,33.748995]}},{"properties":{"city":"East Lansing","title":"Digital Cable TV Dealer","street1":"2843 E Grand River","zipcode":"48823","street2":null,"country":"USA","geo_score":0.805,"website":"http://digitalcabletv.info/east-lansing-cable.html","description":"Do you need Cable, Internet or Phone service? Choose from the Premiere cable service providers in your city.","id":"a62jeprimbne","phone number":"(517) 507-3839","geo_precision":"city","state":"MI"},"type":"Feature","geometry":{"type":"Point","coordinates":[-84.555535,42.732535]}},{"properties":{"city":"Indianapolis","title":"Digital Cable TV Dealer","street1":"110 N Talbott St","zipcode":"46204","street2":null,"country":"USA","geo_score":0.857,"website":"http://digitalcabletv.info/indianapolis-cable.html","description":"Do you need Cable, Internet or Phone service? Choose from the Premiere cable service providers in your city.","id":"a62jepxcqbln","phone number":"(317) 536-2253","geo_precision":"city","state":"IN"},"type":"Feature","geometry":{"type":"Point","coordinates":[-86.158042,39.768377]}},{"properties":{"city":"Memphis","title":"Digital Cable TV Dealer","street1":"99 South 2nd Street","zipcode":"38103","street2":null,"country":"USA","geo_score":0.857,"website":"http://digitalcabletv.info/memphis-cable.html","description":"Do you need Cable, Internet or Phone service? Choose from the Premiere cable service providers in your city.","id":"a62jepos4hrv","phone number":"(901) 584-0427","geo_precision":"city","state":"TN"},"type":"Feature","geometry":{"type":"Point","coordinates":[-90.04898,35.149534]}},{"properties":{"city":"Minneapolis","title":"Digital Cable TV Dealer","street1":"2751 Hennepin Ave S","zipcode":"55408","street2":null,"country":"USA","geo_score":0.857,"website":"http://digitalcabletv.info/minneapolis-cable.html","description":"Do you need Cable, Internet or Phone service? Choose from the Premiere cable service providers in your city.","id":"a62jepv9psql","phone number":"(612) 216-3111","geo_precision":"city","state":"MN"},"type":"Feature","geometry":{"type":"Point","coordinates":[-93.263836,44.979965]}},{"properties":{"city":"Oklahoma City","title":"Digital Cable TV Dealer","street1":"4 Northeast 10th Street","zipcode":"73104","street2":null,"country":"USA","geo_score":0.857,"website":"http://digitalcabletv.info/oklahoma-city-cable.html","description":"Do you need Cable, Internet or Phone service? Choose from the Premiere cable service providers in your city.","id":"a62jepqeh1au","phone number":"(405) 212-4591","geo_precision":"city","state":"OK"},"type":"Feature","geometry":{"type":"Point","coordinates":[-97.516428,35.46756]}},{"properties":{"city":"Pittsburgh","title":"Digital Cable TV Dealer","street1":"3945 Forbes Ave","zipcode":"15212","street2":null,"country":"USA","geo_score":0.857,"website":"http://digitalcabletv.info/pittsburgh-cable.html","description":"Do you need Cable, Internet or Phone service? Choose from the Premiere cable service providers in your city.","id":"a62jepp0wb6n","phone number":"(412) 446-2803","geo_precision":"city","state":"PA"},"type":"Feature","geometry":{"type":"Point","coordinates":[-79.995886,40.440625]}},{"properties":{"city":"Provo","title":"Digital Cable TV Dealer","street1":"223 Bulldog Blvd","zipcode":"84604","street2":null,"country":"USA","geo_score":0.857,"website":"http://digitalcabletv.info/provo-cable.html","description":"Do you need Cable, Internet or Phone service? Choose from the Premiere cable service providers in your city.","id":"a62jeq1h6tyh","phone number":"(801) 877-5398","geo_precision":"city","state":"UT"},"type":"Feature","geometry":{"type":"Point","coordinates":[-111.695558,40.235053]}},{"properties":{"city":"Saint Louis","title":"Digital Cable TV Dealer","street1":"4570 Laclede Ave","zipcode":"63108","street2":null,"country":"USA","geo_score":0.857,"website":"http://digitalcabletv.info/saint-louis-cable.html","description":"Do you need Cable, Internet or Phone service? Choose from the Premiere cable service providers in your city.","id":"a62jepy67wk1","phone number":"(314) 558-6972","geo_precision":"city","state":"MO"},"type":"Feature","geometry":{"type":"Point","coordinates":[-90.197889,38.627273]}},{"properties":{"city":"San Jose","title":"Digital Cable TV Dealer","street1":"88 S Third St","zipcode":"95113","street2":null,"country":"USA","geo_score":0.857,"website":"http://digitalcabletv.info/san-jose-cable.html","description":"Do you need Cable, Internet or Phone service? Choose from the Premiere cable service providers in your city.","id":"a62jepoeptnx","phone number":"(408) 404-0979","geo_precision":"city","state":"CA"},"type":"Feature","geometry":{"type":"Point","coordinates":[-121.894956,37.339386]}},{"properties":{"city":"Washington DC","title":"Digital Cable TV Dealer","street1":"1220 L Street Northwest","zipcode":"20005","street2":null,"country":"USA","geo_score":0.833,"website":"http://digitalcabletv.info/washington-dc-cable.html","description":"Do you need Cable, Internet or Phone service? Choose from the Premiere cable service providers in your city.","id":"a62jeq3re787","phone number":"(202) 600-2181","geo_precision":"city","state":"DC"},"type":"Feature","geometry":{"type":"Point","coordinates":[-77.036366,38.895112]}},{"properties":{"city":"Baltimore","title":"Digital Cable TV Dealer","street1":"401 W Pratt St","zipcode":"21201","street2":null,"country":"USA","geo_score":0.857,"website":"http://localcableprovider.info/baltimore-cable.html","description":"Do you need Cable, Internet or Phone service? Choose from the Premiere cable service providers in your city.","id":"a62jepoigwke","phone number":"(443) 224-9087","geo_precision":"city","state":"MD"},"type":"Feature","geometry":{"type":"Point","coordinates":[-76.612189,39.290385]}},{"properties":{"city":"Boston","title":"Digital Cable TV Dealer","street1":"139 Charles Street","zipcode":"02114","street2":null,"country":"USA","geo_score":0.857,"website":"http://localcableprovider.info/boston-cable.html","description":"Do you need Cable, Internet or Phone service? Choose from the Premiere cable service providers in your city.","id":"a62jepufsxqx","phone number":"(617) 517-4183","geo_precision":"city","state":"MA"},"type":"Feature","geometry":{"type":"Point","coordinates":[-71.059773,42.358431]}},{"properties":{"city":"Brooklyn","title":"Digital Cable TV Dealer","street1":"137 Montague Street","zipcode":"11201","street2":null,"country":"USA","geo_score":0.857,"website":"http://localcableprovider.info/brooklyn-cable.html","description":"Do you need Cable, Internet or Phone service? Choose from the Premiere cable service providers in your city.","id":"a62jepowt02a","phone number":"(347) 342-0127","geo_precision":"city","state":"NY"},"type":"Feature","geometry":{"type":"Point","coordinates":[-78.748363,42.433118]}},{"properties":{"city":"Cincinatti","title":"Digital Cable TV Dealer","street1":"2692 Madison Rd","zipcode":"45208","street2":null,"country":"USA","geo_score":0.829,"website":"http://localcableprovider.info/cincinatti-cable.html","description":"Do you need Cable, Internet or Phone service? Choose from the Premiere cable service providers in your city.","id":"a62jepr1k5um","phone number":"(513) 297-3984","geo_precision":"city","state":"OH"},"type":"Feature","geometry":{"type":"Point","coordinates":[-84.456886,39.162004]}},{"properties":{"city":"Louisville","title":"Digital Cable TV Dealer","street1":"325 W Main St","zipcode":"40202","street2":null,"country":"USA","geo_score":0.857,"website":"http://localcableprovider.info/louisville-cable.html","description":"Do you need Cable, Internet or Phone service? Choose from the Premiere cable service providers in your city.","id":"a62jeq38tizn","phone number":"(502) 805-1544","geo_precision":"city","state":"KY"},"type":"Feature","geometry":{"type":"Point","coordinates":[-85.759407,38.254238]}},{"properties":{"city":"Salt Lake City","title":"Digital Cable TV Dealer","street1":"358 South 700 East","zipcode":"84102","street2":null,"country":"USA","geo_score":0.857,"website":"http://localcableprovider.info/salt-lake-city-cable.html","description":"Do you need Cable, Internet or Phone service? Choose from the Premiere cable service providers in your city.","id":"a62jepp0zoof","phone number":"(801) 618-0116","geo_precision":"city","state":"UT"},"type":"Feature","geometry":{"type":"Point","coordinates":[-111.891047,40.760779]}},{"properties":{"city":"San Antonio","title":"Digital Cable TV Dealer","street1":"200 East Market Street","zipcode":"78205","street2":null,"country":"USA","geo_score":0.857,"website":"http://localcableprovider.info/san-antonio-cable.html","description":"Do you need Cable, Internet or Phone service? Choose from the Premiere cable service providers in your city.","id":"a62jepr7s2xu","phone number":"(210) 853-2720","geo_precision":"city","state":"TX"},"type":"Feature","geometry":{"type":"Point","coordinates":[-98.493628,29.424122]}},{"properties":{"city":"Tucson","title":"Digital Cable TV Dealer","street1":"1830 E Broadway","zipcode":"85719","street2":null,"country":"USA","geo_score":0.857,"website":"http://localcableprovider.info/tucson-cable.html","description":"Do you need Cable, Internet or Phone service? Choose from the Premiere cable service providers in your city.","id":"a62jepzbs12t","phone number":"(520) 339-6819","geo_precision":"city","state":"AZ"},"type":"Feature","geometry":{"type":"Point","coordinates":[-110.926479,32.221743]}},{"properties":{"city":"Tampa","title":"Digital Cable TV Dealer","street1":"701 S Howard Ave","zipcode":"33606","street2":null,"country":"USA","geo_score":0.857,"website":"http://localcableprovider.info/tampa-cable.htmlvider.info","description":"Do you need Cable, Internet or Phone service? Choose from the Premiere cable service providers in your city.","id":"a62jepxsvjx1","phone number":"(813) 344-3355","geo_precision":"city","state":"FL"},"type":"Feature","geometry":{"type":"Point","coordinates":[-82.458428,27.947522]}},{"properties":{"city":"Kansas City","title":"Digital Cable TV Dealer","street1":"223 North James Street","zipcode":"66118","street2":null,"country":"USA","geo_score":0.857,"website":"http://localcabletvprovider.info/kansas-city-cable.html","description":"Do you need Cable, Internet or Phone service? Choose from the Premiere cable service providers in your city.","id":"a62jepzodugd","phone number":"(816) 841-4185","geo_precision":"city","state":"MO"},"type":"Feature","geometry":{"type":"Point","coordinates":[-94.598583,39.102404]}}],"is_temporal":false,"author":{"url":"","metadata":"","contact_name":"","contact_address":"","source":"","contact_phone":""},"source":"","pagination":{"sort":null,"start":0,"total":53,"limit":1000000},"state":"complete","tags":"cable,comcast,digital,internet,phone,service,television,tv","published":"2010-10-01T20:37:10Z","id":65378}