{"type":"FeatureCollection","data_type":"Dataset","url_type":null,"permissions":[{"permissions":{"download":true,"view":true},"group_id":"everyone"}],"classification":null,"title":"Prop19DonationsOpposingUPDATED10/04","count":20,"stream_id":65909,"contributor":{"url":"http://geocommons.com/users/15859","name":"jessicalum"},"data_attributes":null,"calculation_params":null,"icon_link":null,"link":"http://geocommons.com/overlays/65909.json","extent":[-122.366,33.7982,-117.156,38.8074],"geometry_types":["point"],"unique_name":null,"name":"Prop19DonationsOpposingUPDATED10/04","feature_count":20,"description":"Donations opposing the passage of California Proposition 19, which could legalize marijuana","next_feature":null,"is_raster":false,"short_classification":"Y","stats":{"amount":{"max":30000.0,"mean":8805.0,"variance":75997342.1052632,"stdev":8717.64544503062,"min":100.0,"median":7500.0}},"features":[{"properties":{"city":"Sacramento","zip":"95814","amount":1000.0,"id":"a62i3uerwd7j","donor":"Association of Calif. School Administrators Issues PAC","state":"CA"},"type":"Feature","geometry":{"type":"Point","coordinates":[-121.492217,38.58033]}},{"properties":{"city":"SACRAMENTO","zip":"95812","amount":16000.0,"id":"a62i3uf9t0zh","donor":"CALBUSPAC","state":"CA"},"type":"Feature","geometry":{"type":"Point","coordinates":[-121.49,38.58]}},{"properties":{"city":"SACRAMENTO","zip":"95814","amount":10000.0,"id":"a62i3un4sede","donor":"CALIF BEER &amp; BEVERAGE DISTRIBUTORS STATE ISSUES","state":"CA"},"type":"Feature","geometry":{"type":"Point","coordinates":[-121.488748,38.57668]}},{"properties":{"city":"ESCALON","zip":"95320","amount":7500.0,"id":"a62i3up15288","donor":"CALIF CORRECTIONAL SUPERVISORS ORGANIZATION, INC.","state":"CA"},"type":"Feature","geometry":{"type":"Point","coordinates":[-120.996603,37.797427]}},{"properties":{"city":"BERNARDINO","zip":"92415","amount":1000.0,"id":"a62i3ulrgjh6","donor":"CALIF. DISTRICT ATTORNEY INVESTIGATORS' ASSOC.","state":"CA"},"type":"Feature","geometry":{"type":"Point","coordinates":[-117.27202,34.098556]}},{"properties":{"city":"SANTA CLARITA","zip":"91355","amount":20500.0,"id":"a62i3ul3gqwd","donor":"CALIF. NARCOTIC OFFICERS' ASSOC.","state":"CA"},"type":"Feature","geometry":{"type":"Point","coordinates":[-118.588183,34.438122]}},{"properties":{"city":"SACRAMENTO","zip":"95815","amount":5000.0,"id":"a62i3ub4szx7","donor":"CALIF. PEACE OFFICERS ASSOC.","state":"CA"},"type":"Feature","geometry":{"type":"Point","coordinates":[-121.438552,38.598008]}},{"properties":{"city":"SACRAMENTO","zip":"95814","amount":30000.0,"id":"a62i3uqu5es5","donor":"CALIF. POLICE CHIEFS ASSOC.","state":"CA"},"type":"Feature","geometry":{"type":"Point","coordinates":[-121.492797,38.578371]}},{"properties":{"city":"Sacramento","zip":"95814","amount":16000.0,"id":"a62i3uezghgg","donor":"Calif. Hospital Assoc. PAC","state":"CA"},"type":"Feature","geometry":{"type":"Point","coordinates":[-121.48982,38.578031]}},{"properties":{"city":"Woodside","zip":"94062","amount":100.0,"id":"a62i3uhz21k7","donor":"Christy Brown","state":"CA"},"type":"Feature","geometry":{"type":"Point","coordinates":[-122.253856,37.429939]}},{"properties":{"city":"BAKERSFIELD","zip":"93309","amount":5000.0,"id":"a62i3ubg873m","donor":"Diane Lake","state":"CA"},"type":"Feature","geometry":{"type":"Point","coordinates":[-119.05763,35.351561]}},{"properties":{"city":"Anaheim","zip":"92869","amount":10000.0,"id":"a62i3uoem01v","donor":"George Adams","state":"CA"},"type":"Feature","geometry":{"type":"Point","coordinates":[-117.795971,33.798177]}},{"properties":{"city":"Burlingame","zip":"94010","amount":10000.0,"id":"a62i3ubeqq82","donor":"Greg Munks for Sheriff 2010","state":"CA"},"type":"Feature","geometry":{"type":"Point","coordinates":[-122.366082,37.584103]}},{"properties":{"city":"Elk Grove","zip":"95624","amount":1000.0,"id":"a62i3uexgwe9","donor":"Jan Scully for Dist. Atty.","state":"CA"},"type":"Feature","geometry":{"type":"Point","coordinates":[-121.371618,38.408799]}},{"properties":{"city":"Fresno","zip":"93712","amount":1000.0,"id":"a62i3ufdpmm1","donor":"Margaret Mims for Sheriff","state":"CA"},"type":"Feature","geometry":{"type":"Point","coordinates":[-119.78,36.73]}},{"properties":{"city":"LOS ANGELES","zip":"90012","amount":5000.0,"id":"a62i3uds3f4l","donor":"PEACE OFFICERS ASSOC. OF LOS ANGELES COUNTY FDTN","state":"CA"},"type":"Feature","geometry":{"type":"Point","coordinates":[-118.244329,34.055722]}},{"properties":{"city":"LOOMIS","zip":"95650","amount":1000.0,"id":"a62i3ukfwnq6","donor":"PLACER COUNTY DEPUTY SHERIFF'S ASSOCIATION PAC","state":"CA"},"type":"Feature","geometry":{"type":"Point","coordinates":[-121.159584,38.807413]}},{"properties":{"city":"Redlands","zip":"92374","amount":1000.0,"id":"a62i3ubc4pql","donor":"Ramos Gretchen","state":"CA"},"type":"Feature","geometry":{"type":"Point","coordinates":[-117.155887,34.060565]}},{"properties":{"city":"Highlands","zip":"92346","amount":25000.0,"id":"a62i3ugjqs0y","donor":"San Manuel Band of Mission Indians","state":"CA"},"type":"Feature","geometry":{"type":"Point","coordinates":[-117.169722,34.109722]}},{"properties":{"city":"San Mateo","zip":"94403","amount":10000.0,"id":"a62i3uomd5dp","donor":"San Mateo County Deputy Sheriff's Assoc. PAC","state":"CA"},"type":"Feature","geometry":{"type":"Point","coordinates":[-122.291704,37.552616]}}],"is_temporal":false,"author":{"url":"http://www.sos.ca.gov","metadata":"","contact_name":"","contact_address":"","source":"California Secretary of State Campaign Finance","contact_phone":""},"source":"http://www.sos.ca.gov","pagination":{"sort":null,"start":0,"total":20,"limit":1000000},"state":"complete","tags":"donation,marijuana,political","published":"2010-10-05T05:37:50Z","id":65909}