{"type":"FeatureCollection","data_type":"Dataset","url_type":null,"permissions":[{"permissions":{"download":true,"view":true},"group_id":"everyone"}],"classification":null,"title":"tier2","count":8,"stream_id":65992,"contributor":{"url":"http://geocommons.com/users/10935","name":"mattmcm"},"data_attributes":null,"calculation_params":null,"icon_link":null,"link":"http://geocommons.com/overlays/65992.json","extent":[-90.5269,-29.3167,33.7833,14.6211],"geometry_types":["point"],"unique_name":null,"name":"tier2","feature_count":8,"description":"","next_feature":null,"is_raster":false,"short_classification":"Y","stats":{},"features":[{"properties":{"city":"Bamako","country":"Mali","id":"a6j6ni5cfi3w"},"type":"Feature","geometry":{"type":"Point","coordinates":[-8.0,12.65]}},{"properties":{"city":"Guatemala City","country":"Guatemala","id":"a6j6ni1qz7o8"},"type":"Feature","geometry":{"type":"Point","coordinates":[-90.52694,14.62111]}},{"properties":{"city":"Juba","country":"Sudan","id":"a6j6nhyay78n"},"type":"Feature","geometry":{"type":"Point","coordinates":[24.45,12.15]}},{"properties":{"city":"Kampala","country":"Uganda","id":"a6j6ni34tjha"},"type":"Feature","geometry":{"type":"Point","coordinates":[32.5655556,0.3155556]}},{"properties":{"city":"Lilongwe","country":"Malawi","id":"a6j6ni1m0ty3"},"type":"Feature","geometry":{"type":"Point","coordinates":[33.7833333,-13.9833333]}},{"properties":{"city":"Lusaka","country":"Zambia","id":"a6j6ni6y8ux6"},"type":"Feature","geometry":{"type":"Point","coordinates":[28.2833333,-15.4166667]}},{"properties":{"city":"Maseru","country":"Lesotho","id":"a6j6ni0jd1wn"},"type":"Feature","geometry":{"type":"Point","coordinates":[27.4833333,-29.3166667]}},{"properties":{"city":"Mbabane","country":"Swaziland","id":"a6j6nhzxvgtg"},"type":"Feature","geometry":{"type":"Point","coordinates":[31.1333333,-26.3166667]}}],"is_temporal":false,"author":{"url":"","metadata":"","contact_name":"","contact_address":"","source":"","contact_phone":""},"source":"","pagination":{"sort":null,"start":0,"total":8,"limit":1000000},"state":"complete","tags":"","published":"2014-08-10T19:14:21-04:00","id":65992}