{"type":"FeatureCollection","data_type":"Dataset","url_type":null,"permissions":[{"permissions":{"download":true,"view":true},"group_id":"everyone"}],"classification":null,"title":"Wawa Locations - St. Mary's County Maryland","count":5,"stream_id":66341,"contributor":{"url":"http://geocommons.com/users/793","name":"geobabbler"},"data_attributes":null,"calculation_params":null,"icon_link":null,"link":"http://geocommons.com/overlays/66341.json","extent":[-76.7748,38.2505,-76.4761,38.4977],"geometry_types":["point"],"unique_name":null,"name":"Wawa Locations - St. Mary's County Maryland","feature_count":5,"description":"Geocoded locations of Wawa stores in St. Mary's County, Maryland. This data was load primarily as a test of the GeoCommons geocoding feature.","next_feature":null,"is_raster":false,"short_classification":"Y","stats":{"geo_score":{"max":0.909,"mean":0.7518,"variance":0.0224972,"stdev":0.149990666376278,"min":0.594,"median":0.78},"store":{"max":592,"mean":585.8,"variance":24.7,"stdev":4.96990945591567,"min":579,"median":587}},"features":[{"properties":{"city":"Lexington Park","zip":"20653","geo_score":0.909,"store":579,"id":"a629nqz0xbvx","address":"21265 Great Mills Road","geo_precision":"range","state":"MD"},"type":"Feature","geometry":{"type":"Point","coordinates":[-76.487563,38.250512]}},{"properties":{"city":"Mechanicsville","zip":"20659","geo_score":0.78,"store":583,"id":"a629nr6ivq4g","address":"27605 Three Notch Road","geo_precision":"range","state":"MD"},"type":"Feature","geometry":{"type":"Point","coordinates":[-76.716733,38.427617]}},{"properties":{"city":"Lexington Park","zip":"20653","geo_score":0.598,"store":587,"id":"a629nr87gdfh","address":"22530 Three Notch Road","geo_precision":"street","state":"MD"},"type":"Feature","geometry":{"type":"Point","coordinates":[-76.476075,38.285596]}},{"properties":{"city":"Charlotte Hall","zip":"20622","geo_score":0.594,"store":588,"id":"a629nr3u9fzj","address":"30320 Three Notch Road","geo_precision":"street","state":"MD"},"type":"Feature","geometry":{"type":"Point","coordinates":[-76.774847,38.497738]}},{"properties":{"city":"California","zip":"20619","geo_score":0.878,"store":592,"id":"a629nr3cq0wh","address":"23141 Three Notch Road","geo_precision":"range","state":"MD"},"type":"Feature","geometry":{"type":"Point","coordinates":[-76.520009,38.303649]}}],"is_temporal":false,"author":{"url":"http://www.wawa.com/WawaWeb/StoreLocator.aspx","metadata":"","contact_name":"William Dollins","contact_address":"c/o Zekiah Technologies, Inc.\n103 Centennial Street\nSuite G\nLa Plata, MD 20622","source":"Wawa","contact_phone":""},"source":"http://www.wawa.com/WawaWeb/StoreLocator.aspx","pagination":{"sort":null,"start":0,"total":5,"limit":1000000},"state":"complete","tags":"business,commerce,maryland","published":"2014-08-10T19:46:04-04:00","id":66341}