{"type":"FeatureCollection","data_type":"Dataset","url_type":null,"permissions":[{"permissions":{"download":true,"view":true},"group_id":"everyone"}],"classification":null,"title":"Indiana Ethanol","count":105,"stream_id":67408,"contributor":{"url":"http://geocommons.com/users/16554","name":"bushzach"},"data_attributes":null,"calculation_params":null,"icon_link":null,"link":"http://geocommons.com/overlays/67408.json","extent":[-87.5296,38.3156,-84.8887,41.7604],"geometry_types":["point"],"unique_name":null,"name":"Indiana Ethanol","feature_count":105,"description":"","next_feature":null,"is_raster":false,"short_classification":"Y","stats":{"geo_score":{"max":1.0,"mean":0.793895238095238,"variance":0.0210484023809524,"stdev":0.145080675422168,"min":0.362,"median":0.805}},"features":[{"properties":{"city":"Anderson","place":"Meijer","geo_score":0.805,"zip code":"46011","id":"a6lgh559ii8u","address":"6630 Scatterfield Rd","geo_precision":"range","state":"Indiana"},"type":"Feature","geometry":{"type":"Point","coordinates":[-85.652524,40.04826]}},{"properties":{"city":"Angola","place":"Gas America","geo_score":0.846,"zip code":"46703","id":"a6lgh53xnc9r","address":"2865 W HWY 20","geo_precision":"range","state":"Indiana"},"type":"Feature","geometry":{"type":"Point","coordinates":[-85.042599,41.634931]}},{"properties":{"city":"Angola","place":"GasAmerica","geo_score":0.886,"zip code":"46703","id":"a6lgh51trfus","address":"809 Maumee St","geo_precision":"range","state":"Indiana"},"type":"Feature","geometry":{"type":"Point","coordinates":[-85.009031,41.635176]}},{"properties":{"city":"Auburn","place":"Marathon","geo_score":0.75,"zip code":"46706","id":"a6lgh50i5thr","address":"190 Smaltz Way","geo_precision":"street","state":"Indiana"},"type":"Feature","geometry":{"type":"Point","coordinates":[-85.08433,41.364962]}},{"properties":{"city":"Avon","place":"Meijer","geo_score":0.916,"zip code":"46123","id":"a6lgh57so79l","address":"10935 Hwy 36","geo_precision":"range","state":"Indiana"},"type":"Feature","geometry":{"type":"Point","coordinates":[-86.328564,39.763612]}},{"properties":{"city":"Bargersville","place":"Gas America","geo_score":0.919,"zip code":"46106","id":"a6lgh59med4c","address":"211 South State Road 135","geo_precision":"range","state":"Indiana"},"type":"Feature","geometry":{"type":"Point","coordinates":[-86.15791,39.467459]}},{"properties":{"city":"Blufton","place":"Short Stop Station","geo_score":0.624,"zip code":"46714","id":"a6lgh52tdmqq","address":"1009 N Main","geo_precision":"street","state":"Indiana"},"type":"Feature","geometry":{"type":"Point","coordinates":[-85.171252,40.742478]}},{"properties":{"city":"Bremen","place":"LaPorte Bellmart","geo_score":0.805,"zip code":"46506","id":"a6lgh528tdoh","address":"550 2nd street East","geo_precision":"range","state":"Indiana"},"type":"Feature","geometry":{"type":"Point","coordinates":[-86.142167,41.453827]}},{"properties":{"city":"Cambridge City","place":"Gas America","geo_score":0.885,"zip code":"47327","id":"a6lgh5ajc3o8","address":"1589 N State Road 1","geo_precision":"range","state":"Indiana"},"type":"Feature","geometry":{"type":"Point","coordinates":[-85.144461,39.850249]}},{"properties":{"city":"Camby","place":"Meijer","geo_score":0.707,"zip code":"46113","id":"a6lgh588j4cn","address":"10501 Heartland Blvd","geo_precision":"street","state":"Indiana"},"type":"Feature","geometry":{"type":"Point","coordinates":[-86.303145,39.629203]}},{"properties":{"city":"Carmel","place":"Crystal Flash","geo_score":0.916,"zip code":"46032","id":"a6lgh54xpgzr","address":"545 S Rangeline Rd","geo_precision":"range","state":"Indiana"},"type":"Feature","geometry":{"type":"Point","coordinates":[-86.127039,39.973572]}},{"properties":{"city":"Carmel","place":"Meijer","geo_score":0.851,"zip code":"46032","id":"a6lgh5aplzuv","address":"1426 W Carmel Rd","geo_precision":"range","state":"Indiana"},"type":"Feature","geometry":{"type":"Point","coordinates":[-86.140067,39.965251]}},{"properties":{"city":"Chesterton","place":"Family Express","geo_score":0.902,"zip code":"46304","id":"a6lgh55k3f1z","address":"1681 Pioneer Trail","geo_precision":"range","state":"Indiana"},"type":"Feature","geometry":{"type":"Point","coordinates":[-87.043372,41.593809]}},{"properties":{"city":"Columbia City","place":"Travel Plaza","geo_score":0.915,"zip code":"46725","id":"a6lgh59a2xpe","address":"5126 W County Line Rd","geo_precision":"range","state":"Indiana"},"type":"Feature","geometry":{"type":"Point","coordinates":[-85.337599,41.126317]}},{"properties":{"city":"Columbus","place":"Energy 24","geo_score":0.738,"zip code":"47201","id":"a6lgh547i82i","address":"867 East 2nd Street","geo_precision":"range","state":"Indiana"},"type":"Feature","geometry":{"type":"Point","coordinates":[-85.914378,39.200548]}},{"properties":{"city":"Culver","place":"Culver Express","geo_score":0.915,"zip code":"46511","id":"a6lgh55uk3d4","address":"203 N Main St","geo_precision":"range","state":"Indiana"},"type":"Feature","geometry":{"type":"Point","coordinates":[-86.423701,41.217434]}},{"properties":{"city":"Demotte","place":"Gas City","geo_score":0.887,"zip code":"46310","id":"a6lgh50j27nr","address":"11166 W State Rd 10","geo_precision":"range","state":"Indiana"},"type":"Feature","geometry":{"type":"Point","coordinates":[-87.198323,41.175909]}},{"properties":{"city":"Demotte","place":"Family Express","geo_score":0.887,"zip code":"46310","id":"a6lgh56z5npj","address":"11880 W State Rd 10","geo_precision":"range","state":"Indiana"},"type":"Feature","geometry":{"type":"Point","coordinates":[-87.198484,41.18424]}},{"properties":{"city":"Dyer","place":"Gas City","geo_score":0.849,"zip code":"46311","id":"a6lgh54t4z75","address":"10061 Sheffield","geo_precision":"range","state":"Indiana"},"type":"Feature","geometry":{"type":"Point","coordinates":[-87.517985,41.436587]}},{"properties":{"city":"Elkhart","place":"Yoder Mart","geo_score":0.846,"zip code":"46514","id":"a6lgh5d2uqkw","address":"1129 Johnson","geo_precision":"range","state":"Indiana"},"type":"Feature","geometry":{"type":"Point","coordinates":[-85.966044,41.697381]}},{"properties":{"city":"Etna Green","place":"Freedom Express","geo_score":0.963,"zip code":"46524","id":"a6lgh57kys48","address":"109 State Street","geo_precision":"range","state":"Indiana"},"type":"Feature","geometry":{"type":"Point","coordinates":[-86.046961,41.278513]}},{"properties":{"city":"Fishers","place":"Crystal Flash","geo_score":1.0,"zip code":"46038","id":"a6lgh5eq9h97","address":"11544 Allisonville  Road","geo_precision":"range","state":"Indiana"},"type":"Feature","geometry":{"type":"Point","coordinates":[-86.040466,39.955867]}},{"properties":{"city":"Fort Wayne","place":"Citgo","geo_score":0.537,"zip code":"46801","id":"a6lgh5gchoxa","address":"3202 E State Street","geo_precision":"street","state":"Indiana"},"type":"Feature","geometry":{"type":"Point","coordinates":[-85.188324,41.098444]}},{"properties":{"city":"Fort Wayne","place":"Travel Plaza","geo_score":0.805,"zip code":"46801","id":"a6lgh58s5qb4","address":"5126 W County Line Rd","geo_precision":"range","state":"Indiana"},"type":"Feature","geometry":{"type":"Point","coordinates":[-85.337,41.087851]}},{"properties":{"city":"Fort Wayne","place":"Handy Dandy","geo_score":0.805,"zip code":"46801","id":"a6lgh5ae32jh","address":"8830 Coldwater Rd","geo_precision":"range","state":"Indiana"},"type":"Feature","geometry":{"type":"Point","coordinates":[-85.135126,41.161323]}},{"properties":{"city":"Fort Wayne","place":"Meijer","geo_score":0.805,"zip code":"46801","id":"a6lgh525pi2y","address":"6327 Lima Rd","geo_precision":"range","state":"Indiana"},"type":"Feature","geometry":{"type":"Point","coordinates":[-85.161746,41.136821]}},{"properties":{"city":"Fort Wayne","place":"Meijer","geo_score":0.805,"zip code":"46801","id":"a6lgh5adkdto","address":"5903 Illinois Rd","geo_precision":"range","state":"Indiana"},"type":"Feature","geometry":{"type":"Point","coordinates":[-85.21713,41.074437]}},{"properties":{"city":"Fort Wayne","place":"North Point Marathon","geo_score":0.805,"zip code":"46801","id":"a6lgh572tbrs","address":"1828 W Dupont RD","geo_precision":"range","state":"Indiana"},"type":"Feature","geometry":{"type":"Point","coordinates":[-85.167423,41.177667]}},{"properties":{"city":"Frankfort","place":"Energy Plus","geo_score":0.585,"zip code":"46401","id":"a6lgh55lbz08","address":"411 E Kelly Rd","geo_precision":"range","state":"Indiana"},"type":"Feature","geometry":{"type":"Point","coordinates":[-87.278885,41.601452]}},{"properties":{"city":"Gas City","place":"McClure","geo_score":1.0,"zip code":"46933","id":"a6lgh5d6pnhm","address":"6422 E 500 S","geo_precision":"range","state":"Indiana"},"type":"Feature","geometry":{"type":"Point","coordinates":[-85.551484,40.480483]}},{"properties":{"city":"Goshen","place":"Martins","geo_score":0.716,"zip code":"46526","id":"a6lgh5dioqw7","address":"1551 Bashor Rd","geo_precision":"street","state":"Indiana"},"type":"Feature","geometry":{"type":"Point","coordinates":[-85.860205,41.595187]}},{"properties":{"city":"Goshen","place":"Meijer","geo_score":0.589,"zip code":"46526","id":"a6lgh5ary0nk","address":"23062 US 33","geo_precision":"street","state":"Indiana"},"type":"Feature","geometry":{"type":"Point","coordinates":[-85.882793,41.611485]}},{"properties":{"city":"Goshen","place":"NC Cooperative","geo_score":0.775,"zip code":"46526","id":"a6lgh55su1n7","address":"806 East Logan St","geo_precision":"range","state":"Indiana"},"type":"Feature","geometry":{"type":"Point","coordinates":[-85.822914,41.58568]}},{"properties":{"city":"Granger","place":"Martins","geo_score":0.561,"zip code":"46530","id":"a6lgh516obmc","address":"7020 Heritage Sq Drive","geo_precision":"street","state":"Indiana"},"type":"Feature","geometry":{"type":"Point","coordinates":[-85.729723,41.666495]}},{"properties":{"city":"Greencastle","place":"Gas America","geo_score":0.925,"zip code":"46135","id":"a6lgh54oizud","address":"1157E Indianapolis Rd","geo_precision":"range","state":"Indiana"},"type":"Feature","geometry":{"type":"Point","coordinates":[-86.833493,39.646256]}},{"properties":{"city":"Greencastle","place":"McClure","geo_score":0.925,"zip code":"46135","id":"a6lgh5dki2k0","address":"1148 South Bloomington Street","geo_precision":"range","state":"Indiana"},"type":"Feature","geometry":{"type":"Point","coordinates":[-86.852221,39.633082]}},{"properties":{"city":"Greenfield","place":"Gas America","geo_score":0.505,"zip code":"46140","id":"a6lgh577uz41","address":"SR 9 North &amp; I 70","geo_precision":"street","state":"Indiana"},"type":"Feature","geometry":{"type":"Point","coordinates":[-85.77828,39.793074]}},{"properties":{"city":"Greensburg","place":"Energy 24","geo_score":0.919,"zip code":"47240","id":"a6lgh53ws4l4","address":"766 West Main Street","geo_precision":"range","state":"Indiana"},"type":"Feature","geometry":{"type":"Point","coordinates":[-85.494787,39.336501]}},{"properties":{"city":"Greenwood","place":"Meijer","geo_score":0.783,"zip code":"46142","id":"a6lgh50vywnx","address":"72 N SR 135","geo_precision":"range","state":"Indiana"},"type":"Feature","geometry":{"type":"Point","coordinates":[-86.158459,39.612829]}},{"properties":{"city":"Hammond","place":"Gas City selling E85","geo_score":0.522,"zip code":"46230","id":"a6lgh57cdsj9","address":"7405 Calumet Ave","geo_precision":"street","state":"Indiana"},"type":"Feature","geometry":{"type":"Point","coordinates":[-85.960226,39.915017]}},{"properties":{"city":"Highland","place":"Meijer","geo_score":1.0,"zip code":"46322","id":"a6lgh56pmkrl","address":"10240 Indianapolis Blvd","geo_precision":"range","state":"Indiana"},"type":"Feature","geometry":{"type":"Point","coordinates":[-87.471156,41.527435]}},{"properties":{"city":"Hobart","place":"Family Express","geo_score":0.922,"zip code":"46342","id":"a6lgh5eyytbu","address":"9521 E Ridge Rd","geo_precision":"range","state":"Indiana"},"type":"Feature","geometry":{"type":"Point","coordinates":[-87.222544,41.550634]}},{"properties":{"city":"Hobart","place":"Gas City","geo_score":0.471,"zip code":"46342","id":"a6lgh55dwm9i","address":"6325 E US 30","geo_precision":"street","state":"Indiana"},"type":"Feature","geometry":{"type":"Point","coordinates":[-87.227535,41.563137]}},{"properties":{"city":"Huntertown","place":"Citgo","geo_score":1.0,"zip code":"46748","id":"a6lgh57je18d","address":"15509 Lima Rd","geo_precision":"range","state":"Indiana"},"type":"Feature","geometry":{"type":"Point","coordinates":[-85.172133,41.227287]}},{"properties":{"city":"Indianapolis","place":"Meijer","geo_score":0.561,"zip code":"46202","id":"a6lgh515nyvl","address":"5347 Pike Rd","geo_precision":"street","state":"Indiana"},"type":"Feature","geometry":{"type":"Point","coordinates":[-86.17187,39.780907]}},{"properties":{"city":"Indianapolis","place":"Citgo","geo_score":0.726,"zip code":"46202","id":"a6lgh50zqlqx","address":"2501 N College","geo_precision":"street","state":"Indiana"},"type":"Feature","geometry":{"type":"Point","coordinates":[-86.144748,39.797658]}},{"properties":{"city":"Indianapolis","place":"Joe's Junction","geo_score":0.805,"zip code":"46202","id":"a6lgh51fxov0","address":"2210 Kentucky Ave","geo_precision":"range","state":"Indiana"},"type":"Feature","geometry":{"type":"Point","coordinates":[-86.197453,39.736174]}},{"properties":{"city":"Indianapolis","place":"Gas America","geo_score":0.768,"zip code":"46202","id":"a6lgh5fnq7bt","address":"8101 E 21rst Street","geo_precision":"street","state":"Indiana"},"type":"Feature","geometry":{"type":"Point","coordinates":[-86.135475,39.796147]}},{"properties":{"city":"Indianapolis","place":"Meijer","geo_score":0.805,"zip code":"46202","id":"a6lgh53l0fy6","address":"11349 E Washington St","geo_precision":"street","state":"Indiana"},"type":"Feature","geometry":{"type":"Point","coordinates":[-86.135108,39.767015]}},{"properties":{"city":"Indianapolis","place":"Meijer E85 Fuel","geo_score":0.805,"zip code":"46202","id":"a6lgh50o9khj","address":"5303 E Southport Rd","geo_precision":"range","state":"Indiana"},"type":"Feature","geometry":{"type":"Point","coordinates":[-86.080625,39.665969]}},{"properties":{"city":"Indianapolis","place":"Meijer Station","geo_score":0.721,"zip code":"46202","id":"a6lgh594wt1j","address":"8225 E 96th Street","geo_precision":"range","state":"Indiana"},"type":"Feature","geometry":{"type":"Point","coordinates":[-86.02167,39.927248]}},{"properties":{"city":"Indianapolis","place":"Citgo","geo_score":0.806,"zip code":"46202","id":"a6lgh5csz8tr","address":"2501 N College Ave","geo_precision":"street","state":"Indiana"},"type":"Feature","geometry":{"type":"Point","coordinates":[-86.144748,39.797658]}},{"properties":{"city":"Jasper","place":"Circle A","geo_score":0.602,"zip code":"47546","id":"a6lgh5faxuus","address":"1921 S Lube Rd","geo_precision":"zip","state":"Indiana"},"type":"Feature","geometry":{"type":"Point","coordinates":[-86.978335,38.499496]}},{"properties":{"city":"Jeffersonville","place":"Makowsky","geo_score":0.923,"zip code":"47130","id":"a6lgh52lkv4k","address":"1626 Fabricon Blvd","geo_precision":"range","state":"Indiana"},"type":"Feature","geometry":{"type":"Point","coordinates":[-85.745829,38.315572]}},{"properties":{"city":"Jeffersonville","place":"Meijer E8 5Fuel","geo_score":0.923,"zip code":"47130","id":"a6lgh5fhuopo","address":"2752 Allison Lane","geo_precision":"range","state":"Indiana"},"type":"Feature","geometry":{"type":"Point","coordinates":[-85.712209,38.322182]}},{"properties":{"city":"Kokomo","place":"Country Mark","geo_score":0.913,"zip code":"46901","id":"a6lgh5bgvzx7","address":"1820 Touby Pike","geo_precision":"range","state":"Indiana"},"type":"Feature","geometry":{"type":"Point","coordinates":[-86.103077,40.503817]}},{"properties":{"city":"Kokomo","place":"McClure Oil","geo_score":0.689,"zip code":"46901","id":"a6lgh508pvad","address":"State Road 18 &amp; US 31","geo_precision":"street","state":"Indiana"},"type":"Feature","geometry":{"type":"Point","coordinates":[-86.107608,40.487376]}},{"properties":{"city":"Kokomo","place":"Meijer","geo_score":0.913,"zip code":"46901","id":"a6lgh57dkj0i","address":"2297 E Markland Ave","geo_precision":"range","state":"Indiana"},"type":"Feature","geometry":{"type":"Point","coordinates":[-86.100118,40.476717]}},{"properties":{"city":"Kouts","place":"Family Express","geo_score":0.921,"zip code":"46347","id":"a6lgh54rnzrk","address":"104 S Main St","geo_precision":"range","state":"Indiana"},"type":"Feature","geometry":{"type":"Point","coordinates":[-87.025861,41.318318]}},{"properties":{"city":"LaGrange","place":"Millers","geo_score":0.866,"zip code":"46761","id":"a6lgh57gjjqs","address":"421 S Detroit S","geo_precision":"range","state":"Indiana"},"type":"Feature","geometry":{"type":"Point","coordinates":[-85.417992,41.64701]}},{"properties":{"city":"LaPorte","place":"Bellmart","geo_score":0.916,"zip code":"46350","id":"a6lgh5fa29l9","address":"1302 Lincoln Way","geo_precision":"range","state":"Indiana"},"type":"Feature","geometry":{"type":"Point","coordinates":[-86.726171,41.608669]}},{"properties":{"city":"LaPorte","place":"Family Express E85","geo_score":0.741,"zip code":"46350","id":"a6lgh5g15hg4","address":"1209 Pine Lake Ave","geo_precision":"street","state":"Indiana"},"type":"Feature","geometry":{"type":"Point","coordinates":[-86.739105,41.631944]}},{"properties":{"city":"Lafayette","place":"Meijer","geo_score":0.756,"zip code":"47905","id":"a6lgh56wb24g","address":"4901 SR 26 E","geo_precision":"range","state":"Indiana"},"type":"Feature","geometry":{"type":"Point","coordinates":[-86.81181,40.417526]}},{"properties":{"city":"Lafayette","place":"Smart Shop","geo_score":0.685,"zip code":"47905","id":"a6lgh56sxomn","address":"323 Sagamore Parkway","geo_precision":"street","state":"Indiana"},"type":"Feature","geometry":{"type":"Point","coordinates":[-86.857937,40.410194]}},{"properties":{"city":"Lafayette","place":"Family Express","geo_score":0.624,"zip code":"47905","id":"a6lgh56eczt6","address":"3983 State Rd","geo_precision":"street","state":"Indiana"},"type":"Feature","geometry":{"type":"Point","coordinates":[-86.867144,40.39986]}},{"properties":{"city":"Lafayette","place":"Fred's Mini Mart","geo_score":0.59,"zip code":"47905","id":"a6lgh5f1u134","address":"2523 St 25 W","geo_precision":"street","state":"Indiana"},"type":"Feature","geometry":{"type":"Point","coordinates":[-86.899568,40.363331]}},{"properties":{"city":"Lafayette","place":"Family Express","geo_score":0.815,"zip code":"47905","id":"a6lgh5cwsfbb","address":"3015 ST RD 25 North","geo_precision":"range","state":"Indiana"},"type":"Feature","geometry":{"type":"Point","coordinates":[-86.843415,40.459587]}},{"properties":{"city":"Lebanon","place":"MClure Oil","geo_score":0.93,"zip code":"46052","id":"a6lgh545hjdw","address":"530 Friend Way","geo_precision":"range","state":"Indiana"},"type":"Feature","geometry":{"type":"Point","coordinates":[-86.491266,40.046978]}},{"properties":{"city":"Lebanon","place":"Country Mark","geo_score":0.784,"zip code":"46052","id":"a6lgh5bf68x5","address":"817 W South Street","geo_precision":"range","state":"Indiana"},"type":"Feature","geometry":{"type":"Point","coordinates":[-86.47573,40.04661]}},{"properties":{"city":"Lowell","place":"Wilco","geo_score":0.911,"zip code":"46356","id":"a6lgh54gtdlx","address":"2080 E Commercial Ave","geo_precision":"range","state":"Indiana"},"type":"Feature","geometry":{"type":"Point","coordinates":[-87.393458,41.289827]}},{"properties":{"city":"Marion","place":"McClure","geo_score":0.512,"zip code":"46592","id":"a6lgh50t03m1","address":"1509 S Western Ave","geo_precision":"street","state":"Indiana"},"type":"Feature","geometry":{"type":"Point","coordinates":[-85.681787,40.046493]}},{"properties":{"city":"Marion","place":"Citgo","geo_score":0.512,"zip code":"46592","id":"a6lgh59nwx7n","address":"2246 W 2nd Street","geo_precision":"street","state":"Indiana"},"type":"Feature","geometry":{"type":"Point","coordinates":[-86.515487,40.270054]}},{"properties":{"city":"Michigan City","place":"Gas City","geo_score":0.805,"zip code":"46360","id":"a6lgh5ass534","address":"2884 N US Road 421","geo_precision":"range","state":"Indiana"},"type":"Feature","geometry":{"type":"Point","coordinates":[-86.894043,41.649978]}},{"properties":{"city":"Michigan City","place":"Marathon","geo_score":0.902,"zip code":"46360","id":"a6lgh54af0oi","address":"2101 E Michigan Blvd","geo_precision":"range","state":"Indiana"},"type":"Feature","geometry":{"type":"Point","coordinates":[-86.872787,41.709431]}},{"properties":{"city":"Michigan City","place":"Family Express","geo_score":0.876,"zip code":"46360","id":"a6lgh53x21ep","address":"3201 S Franklin Street","geo_precision":"range","state":"Indiana"},"type":"Feature","geometry":{"type":"Point","coordinates":[-86.893729,41.694838]}},{"properties":{"city":"Michigan City","place":"Family Express","geo_score":0.876,"zip code":"46360","id":"a6lgh52cdfi0","address":"5822 S Franklin Street","geo_precision":"range","state":"Indiana"},"type":"Feature","geometry":{"type":"Point","coordinates":[-86.894033,41.66714]}},{"properties":{"city":"Michigan City","place":"Meijer","geo_score":0.876,"zip code":"46360","id":"a6lgh5bogjpl","address":"5150 S Franklin St","geo_precision":"range","state":"Indiana"},"type":"Feature","geometry":{"type":"Point","coordinates":[-86.893985,41.672369]}},{"properties":{"city":"Mishawaka","place":"Bell Mart","geo_score":0.805,"zip code":"46544","id":"a6lgh56m5hkl","address":"12495 Mckinley HWY","geo_precision":"range","state":"Indiana"},"type":"Feature","geometry":{"type":"Point","coordinates":[-86.109495,41.684906]}},{"properties":{"city":"Mishawaka","place":"Meijer","geo_score":0.971,"zip code":"46544","id":"a6lgh5cf6s2j","address":"3602 S Bremen Hwy","geo_precision":"range","state":"Indiana"},"type":"Feature","geometry":{"type":"Point","coordinates":[-86.176746,41.62775]}},{"properties":{"city":"Monon","place":"Family Express","geo_score":1.0,"zip code":"47959","id":"a6lgh58qfro7","address":"429 N Market St","geo_precision":"range","state":"Indiana"},"type":"Feature","geometry":{"type":"Point","coordinates":[-86.879057,40.863245]}},{"properties":{"city":"Monticello","place":"Family Express","geo_score":0.82,"zip code":"47960","id":"a6lgh5burku5","address":"112 N 6th Street","geo_precision":"range","state":"Indiana"},"type":"Feature","geometry":{"type":"Point","coordinates":[-86.775171,40.74512]}},{"properties":{"city":"Noblesville","place":"Energy Plus 24","geo_score":0.954,"zip code":"46060","id":"a6lgh55hjz0i","address":"16222 Allisonviille Rd","geo_precision":"range","state":"Indiana"},"type":"Feature","geometry":{"type":"Point","coordinates":[-86.011872,40.02268]}},{"properties":{"city":"Noblesville","place":"Meijer","geo_score":0.974,"zip code":"46060","id":"a6lgh51j7ph8","address":"17000 Mercantile Blvd","geo_precision":"range","state":"Indiana"},"type":"Feature","geometry":{"type":"Point","coordinates":[-85.994886,40.035616]}},{"properties":{"city":"Peru","place":"Gallahan's Citgo Station","geo_score":0.838,"zip code":"46970","id":"a6lgh5cyk8os","address":"903 West Main","geo_precision":"range","state":"Indiana"},"type":"Feature","geometry":{"type":"Point","coordinates":[-86.093003,40.744766]}},{"properties":{"city":"Portage","place":"Family Express","geo_score":0.709,"zip code":"46368","id":"a6lgh5d414vn","address":"6250 Ameriplex Dr","geo_precision":"street","state":"Indiana"},"type":"Feature","geometry":{"type":"Point","coordinates":[-87.169744,41.607715]}},{"properties":{"city":"Porter","place":"Gas City","geo_score":0.804,"zip code":"46304","id":"a6lgh5ghqbry","address":"1441 West US 20","geo_precision":"range","state":"Indiana"},"type":"Feature","geometry":{"type":"Point","coordinates":[-87.096292,41.612949]}},{"properties":{"city":"Reynolds","place":"Green Gables","geo_score":0.837,"zip code":"47980","id":"a6lgh5cidpf5","address":"102 N Kenton","geo_precision":"range","state":"Indiana"},"type":"Feature","geometry":{"type":"Point","coordinates":[-86.87505,40.749317]}},{"properties":{"city":"Richmond","place":"Meijer","geo_score":0.718,"zip code":"47374","id":"a6lgh57xg5i4","address":"2505 Chester Blvd","geo_precision":"street","state":"Indiana"},"type":"Feature","geometry":{"type":"Point","coordinates":[-84.888656,39.860772]}},{"properties":{"city":"Shipshewana","place":"Gas America","geo_score":0.638,"zip code":"46565","id":"a6lgh54bom0k","address":"720 South VanBuren","geo_precision":"street","state":"Indiana"},"type":"Feature","geometry":{"type":"Point","coordinates":[-85.580504,41.669775]}},{"properties":{"city":"South Bend","place":"McClure Oil","geo_score":0.512,"zip code":"46601","id":"a6lgh59y2vjz","address":"2304 E Edison","geo_precision":"street","state":"Indiana"},"type":"Feature","geometry":{"type":"Point","coordinates":[-86.371889,41.693713]}},{"properties":{"city":"South Bend","place":"Martins","geo_score":0.695,"zip code":"46601","id":"a6lgh5e5ksz6","address":"760 West Cotter","geo_precision":"range","state":"Indiana"},"type":"Feature","geometry":{"type":"Point","coordinates":[-86.260509,41.660744]}},{"properties":{"city":"South Bend","place":"Murphy","geo_score":0.61,"zip code":"46601","id":"a6lgh54k5o8j","address":"3701 Portage Rd","geo_precision":"street","state":"Indiana"},"type":"Feature","geometry":{"type":"Point","coordinates":[-86.303827,41.760397]}},{"properties":{"city":"South Bend","place":"McClure Oil","geo_score":0.362,"zip code":"46601","id":"a6lgh55yfitd","address":"6220 US 31","geo_precision":"street","state":"Indiana"},"type":"Feature","geometry":{"type":"Point","coordinates":[-86.251835,41.621652]}},{"properties":{"city":"Sullivan","place":"Goodmans","geo_score":0.902,"zip code":"47882","id":"a6lgh553isf0","address":"975 S section St","geo_precision":"range","state":"Indiana"},"type":"Feature","geometry":{"type":"Point","coordinates":[-87.409427,39.081579]}},{"properties":{"city":"Terre Haute","place":"Jiffy Mini Mart","geo_score":0.429,"zip code":"47803","id":"a6lgh57ktu1j","address":"501 3rd Street S","geo_precision":"street","state":"Indiana"},"type":"Feature","geometry":{"type":"Point","coordinates":[-87.263742,39.491728]}},{"properties":{"city":"Terre Haute","place":"Jiffy Mini Mart","geo_score":0.628,"zip code":"47803","id":"a6lgh55cvqzx","address":"1131 N 3rd Street","geo_precision":"street","state":"Indiana"},"type":"Feature","geometry":{"type":"Point","coordinates":[-87.414008,39.490748]}},{"properties":{"city":"Tipton","place":"Country Mark","geo_score":0.89,"zip code":"46072","id":"a6lgh569q7m4","address":"905 N Berryman Pike","geo_precision":"range","state":"Indiana"},"type":"Feature","geometry":{"type":"Point","coordinates":[-86.045913,40.294302]}},{"properties":{"city":"Trafalgar","place":"Joe's Junction","geo_score":0.732,"zip code":"46181","id":"a6lgh5ecsryn","address":"214 North State Road","geo_precision":"range","state":"Indiana"},"type":"Feature","geometry":{"type":"Point","coordinates":[-86.075403,39.551201]}},{"properties":{"city":"Valparaiso","place":"Market Place Family Express","geo_score":0.912,"zip code":"46383","id":"a6lgh56m9ps6","address":"204 Silhavy Rd","geo_precision":"range","state":"Indiana"},"type":"Feature","geometry":{"type":"Point","coordinates":[-87.027097,41.469342]}},{"properties":{"city":"Vincennes","place":"Quick Stop","geo_score":0.848,"zip code":"47591","id":"a6lgh565dskg","address":"29 S 6th St","geo_precision":"range","state":"Indiana"},"type":"Feature","geometry":{"type":"Point","coordinates":[-87.529614,38.676605]}},{"properties":{"city":"Wabash","place":"JM Reynolds","geo_score":0.92,"zip code":"46992","id":"a6lgh5ar2hse","address":"395 S Huntington Street","geo_precision":"range","state":"Indiana"},"type":"Feature","geometry":{"type":"Point","coordinates":[-85.818267,40.795347]}},{"properties":{"city":"Warsaw","place":"Freedom Expressway","geo_score":0.74,"zip code":"46582","id":"a6lgh55pez4a","address":"425 Argonne","geo_precision":"range","state":"Indiana"},"type":"Feature","geometry":{"type":"Point","coordinates":[-85.823155,41.234924]}},{"properties":{"city":"Warsaw","place":"Freedom Express","geo_score":0.805,"zip code":"46582","id":"a6lgh5epgd06","address":"425 Argonne Road","geo_precision":"range","state":"Indiana"},"type":"Feature","geometry":{"type":"Point","coordinates":[-85.823155,41.234924]}},{"properties":{"city":"Warsaw","place":"Country Mark","geo_score":1.0,"zip code":"46582","id":"a6lgh57pzyew","address":"333 West 250 North","geo_precision":"range","state":"Indiana"},"type":"Feature","geometry":{"type":"Point","coordinates":[-85.853499,41.270235]}},{"properties":{"city":"loogootee","place":"Marathon","geo_score":0.876,"zip code":"47553","id":"a6lgh59fp0vl","address":"113 Broadway Street","geo_precision":"range","state":"Indiana"},"type":"Feature","geometry":{"type":"Point","coordinates":[-86.912861,38.675338]}}],"is_temporal":false,"author":{"url":"","metadata":"","contact_name":"","contact_address":"","source":"","contact_phone":""},"source":"","pagination":{"sort":null,"start":0,"total":105,"limit":1000000},"state":"complete","tags":"","published":"2014-08-10T20:52:42-04:00","id":67408}