{"type":"FeatureCollection","data_type":"Dataset","url_type":null,"permissions":[{"permissions":{"download":true,"view":true},"group_id":"everyone"}],"classification":null,"title":"FL data v1","count":469,"stream_id":67892,"contributor":{"url":"http://geocommons.com/users/16194","name":"twisecar"},"data_attributes":null,"calculation_params":null,"icon_link":null,"link":"http://geocommons.com/overlays/67892.json","extent":[-87.4275,24.5671,-80.0356,30.9885],"geometry_types":["point"],"unique_name":null,"name":"FL data v1","feature_count":469,"description":"","next_feature":null,"is_raster":false,"short_classification":"Y","stats":{"geo_score":{"max":0.857,"mean":0.855172707889135,"variance":0.0015659893390192,"stdev":0.0395725831734447,"min":0.0,"median":0.857},"ivr call volume":{"max":4583,"mean":364.422174840085,"variance":264629.36412261,"stdev":514.421387699433,"min":1,"median":187}},"features":[{"properties":{"geo_score":0.0,"zip code":"32003","ivr call volume":394,"id":"a68xyklxld4u","geo_precision":"unmatched","state":"Florida"},"type":"Feature","geometry":null},{"properties":{"geo_score":0.857,"zip code":"32008","ivr call volume":101,"id":"a68xykrpjcbc","geo_precision":"zip","state":"Florida"},"type":"Feature","geometry":{"type":"Point","coordinates":[-82.805402,29.952732]}},{"properties":{"geo_score":0.857,"zip code":"32011","ivr call volume":98,"id":"a68xykjrirx0","geo_precision":"zip","state":"Florida"},"type":"Feature","geometry":{"type":"Point","coordinates":[-81.837594,30.556322]}},{"properties":{"geo_score":0.857,"zip code":"32034","ivr call volume":289,"id":"a68xykfhykqo","geo_precision":"zip","state":"Florida"},"type":"Feature","geometry":{"type":"Point","coordinates":[-81.51426,30.61746]}},{"properties":{"geo_score":0.857,"zip code":"32040","ivr call volume":27,"id":"a68xykpqf5za","geo_precision":"zip","state":"Florida"},"type":"Feature","geometry":{"type":"Point","coordinates":[-82.190828,30.302616]}},{"properties":{"geo_score":0.857,"zip code":"32043","ivr call volume":159,"id":"a68xykej2h1w","geo_precision":"zip","state":"Florida"},"type":"Feature","geometry":{"type":"Point","coordinates":[-81.617308,29.850244]}},{"properties":{"geo_score":0.857,"zip code":"32046","ivr call volume":47,"id":"a68xykrm3rxp","geo_precision":"zip","state":"Florida"},"type":"Feature","geometry":{"type":"Point","coordinates":[-81.777051,30.725235]}},{"properties":{"geo_score":0.857,"zip code":"32052","ivr call volume":33,"id":"a68xykonhupn","geo_precision":"zip","state":"Florida"},"type":"Feature","geometry":{"type":"Point","coordinates":[-82.760407,30.428277]}},{"properties":{"geo_score":0.857,"zip code":"32053","ivr call volume":36,"id":"a68xykr248ax","geo_precision":"zip","state":"Florida"},"type":"Feature","geometry":{"type":"Point","coordinates":[-83.148179,30.555263]}},{"properties":{"geo_score":0.857,"zip code":"32054","ivr call volume":48,"id":"a68xykovf57l","geo_precision":"zip","state":"Florida"},"type":"Feature","geometry":{"type":"Point","coordinates":[-82.265387,29.961074]}},{"properties":{"geo_score":0.857,"zip code":"32055","ivr call volume":465,"id":"a68xykhu8ktz","geo_precision":"zip","state":"Florida"},"type":"Feature","geometry":{"type":"Point","coordinates":[-82.685958,30.263007]}},{"properties":{"geo_score":0.857,"zip code":"32059","ivr call volume":34,"id":"a68xykcsnrzd","geo_precision":"zip","state":"Florida"},"type":"Feature","geometry":{"type":"Point","coordinates":[-83.361506,30.498591]}},{"properties":{"geo_score":0.857,"zip code":"32060","ivr call volume":27,"id":"a68xykcmtkee","geo_precision":"zip","state":"Florida"},"type":"Feature","geometry":{"type":"Point","coordinates":[-82.937354,30.39411]}},{"properties":{"geo_score":0.857,"zip code":"32063","ivr call volume":163,"id":"a68xykftsata","geo_precision":"zip","state":"Florida"},"type":"Feature","geometry":{"type":"Point","coordinates":[-82.160139,30.284628]}},{"properties":{"geo_score":0.857,"zip code":"32064","ivr call volume":160,"id":"a68xykjij862","geo_precision":"zip","state":"Florida"},"type":"Feature","geometry":{"type":"Point","coordinates":[-82.957151,30.331517]}},{"properties":{"geo_score":0.857,"zip code":"32065","ivr call volume":153,"id":"a68xykd4s1di","geo_precision":"zip","state":"Florida"},"type":"Feature","geometry":{"type":"Point","coordinates":[-81.883212,29.986046]}},{"properties":{"geo_score":0.857,"zip code":"32068","ivr call volume":482,"id":"a68xykn5spvo","geo_precision":"zip","state":"Florida"},"type":"Feature","geometry":{"type":"Point","coordinates":[-81.847794,30.078597]}},{"properties":{"geo_score":0.857,"zip code":"32071","ivr call volume":31,"id":"a68xykj1y2b0","geo_precision":"zip","state":"Florida"},"type":"Feature","geometry":{"type":"Point","coordinates":[-82.932228,30.036193]}},{"properties":{"geo_score":0.857,"zip code":"32082","ivr call volume":189,"id":"a68xykiw914d","geo_precision":"zip","state":"Florida"},"type":"Feature","geometry":{"type":"Point","coordinates":[-81.323687,30.022467]}},{"properties":{"geo_score":0.857,"zip code":"32084","ivr call volume":9,"id":"a68xykks2but","geo_precision":"zip","state":"Florida"},"type":"Feature","geometry":{"type":"Point","coordinates":[-81.29285,29.918858]}},{"properties":{"geo_score":0.857,"zip code":"32086","ivr call volume":379,"id":"a68xykquu03w","geo_precision":"zip","state":"Florida"},"type":"Feature","geometry":{"type":"Point","coordinates":[-81.315509,29.844257]}},{"properties":{"geo_score":0.857,"zip code":"32091","ivr call volume":123,"id":"a68xykmc4x8y","geo_precision":"zip","state":"Florida"},"type":"Feature","geometry":{"type":"Point","coordinates":[-82.070658,29.835243]}},{"properties":{"geo_score":0.857,"zip code":"32092","ivr call volume":105,"id":"a68xykfv6yhd","geo_precision":"zip","state":"Florida"},"type":"Feature","geometry":{"type":"Point","coordinates":[-81.504509,29.921998]}},{"properties":{"geo_score":0.857,"zip code":"32094","ivr call volume":25,"id":"a68xykimj78l","geo_precision":"zip","state":"Florida"},"type":"Feature","geometry":{"type":"Point","coordinates":[-82.857328,30.194651]}},{"properties":{"geo_score":0.857,"zip code":"32095","ivr call volume":455,"id":"a68xykco2dtk","geo_precision":"zip","state":"Florida"},"type":"Feature","geometry":{"type":"Point","coordinates":[-81.450583,29.983058]}},{"properties":{"geo_score":0.857,"zip code":"32096","ivr call volume":26,"id":"a68xykd5rjjh","geo_precision":"zip","state":"Florida"},"type":"Feature","geometry":{"type":"Point","coordinates":[-82.791518,30.365779]}},{"properties":{"geo_score":0.857,"zip code":"32097","ivr call volume":73,"id":"a68xykflb8f7","geo_precision":"zip","state":"Florida"},"type":"Feature","geometry":{"type":"Point","coordinates":[-81.655933,30.617181]}},{"properties":{"geo_score":0.857,"zip code":"32102","ivr call volume":1,"id":"a68xyklju8oa","geo_precision":"zip","state":"Florida"},"type":"Feature","geometry":{"type":"Point","coordinates":[-81.575044,29.174011]}},{"properties":{"geo_score":0.857,"zip code":"32110","ivr call volume":122,"id":"a68xyklx06mj","geo_precision":"zip","state":"Florida"},"type":"Feature","geometry":{"type":"Point","coordinates":[-81.33425,29.402177]}},{"properties":{"geo_score":0.857,"zip code":"32112","ivr call volume":49,"id":"a68xykr9051m","geo_precision":"zip","state":"Florida"},"type":"Feature","geometry":{"type":"Point","coordinates":[-81.681387,29.511518]}},{"properties":{"geo_score":0.857,"zip code":"32113","ivr call volume":43,"id":"a68xyksnx4rt","geo_precision":"zip","state":"Florida"},"type":"Feature","geometry":{"type":"Point","coordinates":[-82.084651,29.411299]}},{"properties":{"geo_score":0.857,"zip code":"32114","ivr call volume":56,"id":"a68xykowiqyn","geo_precision":"zip","state":"Florida"},"type":"Feature","geometry":{"type":"Point","coordinates":[-81.053368,29.146163]}},{"properties":{"geo_score":0.857,"zip code":"32117","ivr call volume":1092,"id":"a68xykrg3jxu","geo_precision":"zip","state":"Florida"},"type":"Feature","geometry":{"type":"Point","coordinates":[-81.037556,29.243592]}},{"properties":{"geo_score":0.857,"zip code":"32118","ivr call volume":1,"id":"a68xykq18mu3","geo_precision":"zip","state":"Florida"},"type":"Feature","geometry":{"type":"Point","coordinates":[-81.00227,29.208908]}},{"properties":{"geo_score":0.857,"zip code":"32119","ivr call volume":611,"id":"a68xykh1lzch","geo_precision":"zip","state":"Florida"},"type":"Feature","geometry":{"type":"Point","coordinates":[-80.968944,29.108039]}},{"properties":{"geo_score":0.857,"zip code":"32129","ivr call volume":454,"id":"a68xykefpoma","geo_precision":"zip","state":"Florida"},"type":"Feature","geometry":{"type":"Point","coordinates":[-81.172169,29.022729]}},{"properties":{"geo_score":0.857,"zip code":"32130","ivr call volume":34,"id":"a68xyke710ub","geo_precision":"zip","state":"Florida"},"type":"Feature","geometry":{"type":"Point","coordinates":[-81.329387,29.183646]}},{"properties":{"geo_score":0.857,"zip code":"32134","ivr call volume":48,"id":"a68xykqmzgry","geo_precision":"zip","state":"Florida"},"type":"Feature","geometry":{"type":"Point","coordinates":[-81.735081,29.351084]}},{"properties":{"geo_score":0.857,"zip code":"32136","ivr call volume":151,"id":"a68xykirq8ug","geo_precision":"zip","state":"Florida"},"type":"Feature","geometry":{"type":"Point","coordinates":[-81.18295,29.509845]}},{"properties":{"geo_score":0.857,"zip code":"32137","ivr call volume":714,"id":"a68xykcusfnv","geo_precision":"zip","state":"Florida"},"type":"Feature","geometry":{"type":"Point","coordinates":[-81.201389,29.564391]}},{"properties":{"geo_score":0.857,"zip code":"32140","ivr call volume":13,"id":"a68xykd0vkhz","geo_precision":"zip","state":"Florida"},"type":"Feature","geometry":{"type":"Point","coordinates":[-81.73499,29.611384]}},{"properties":{"geo_score":0.857,"zip code":"32145","ivr call volume":32,"id":"a68xykdw192m","geo_precision":"zip","state":"Florida"},"type":"Feature","geometry":{"type":"Point","coordinates":[-81.406081,29.68875]}},{"properties":{"geo_score":0.857,"zip code":"32148","ivr call volume":80,"id":"a68xykocgk78","geo_precision":"zip","state":"Florida"},"type":"Feature","geometry":{"type":"Point","coordinates":[-81.762249,29.598959]}},{"properties":{"geo_score":0.857,"zip code":"32159","ivr call volume":389,"id":"a68xykkb83am","geo_precision":"zip","state":"Florida"},"type":"Feature","geometry":{"type":"Point","coordinates":[-81.894367,28.923468]}},{"properties":{"geo_score":0.857,"zip code":"32162","ivr call volume":881,"id":"a68xyksqj9y8","geo_precision":"zip","state":"Florida"},"type":"Feature","geometry":{"type":"Point","coordinates":[-81.983397,28.940109]}},{"properties":{"geo_score":0.857,"zip code":"32164","ivr call volume":83,"id":"a68xyksot222","geo_precision":"zip","state":"Florida"},"type":"Feature","geometry":{"type":"Point","coordinates":[-81.204491,29.486141]}},{"properties":{"geo_score":0.857,"zip code":"32169","ivr call volume":491,"id":"a68xyks3fzxy","geo_precision":"zip","state":"Florida"},"type":"Feature","geometry":{"type":"Point","coordinates":[-81.133519,29.131714]}},{"properties":{"geo_score":0.857,"zip code":"32176","ivr call volume":110,"id":"a68xykgi03bt","geo_precision":"zip","state":"Florida"},"type":"Feature","geometry":{"type":"Point","coordinates":[-81.249977,29.335111]}},{"properties":{"geo_score":0.857,"zip code":"32177","ivr call volume":390,"id":"a68xykgp01az","geo_precision":"zip","state":"Florida"},"type":"Feature","geometry":{"type":"Point","coordinates":[-81.785957,29.611093]}},{"properties":{"geo_score":0.857,"zip code":"32179","ivr call volume":74,"id":"a68xyksc38hq","geo_precision":"zip","state":"Florida"},"type":"Feature","geometry":{"type":"Point","coordinates":[-81.905259,29.086882]}},{"properties":{"geo_score":0.857,"zip code":"32180","ivr call volume":18,"id":"a68xykikk3b3","geo_precision":"zip","state":"Florida"},"type":"Feature","geometry":{"type":"Point","coordinates":[-81.471982,29.244623]}},{"properties":{"geo_score":0.857,"zip code":"32181","ivr call volume":107,"id":"a68xykcda1ua","geo_precision":"zip","state":"Florida"},"type":"Feature","geometry":{"type":"Point","coordinates":[-81.613183,29.539751]}},{"properties":{"geo_score":0.857,"zip code":"32195","ivr call volume":23,"id":"a68xykg9mtto","geo_precision":"zip","state":"Florida"},"type":"Feature","geometry":{"type":"Point","coordinates":[-81.87785,29.006144]}},{"properties":{"geo_score":0.857,"zip code":"32202","ivr call volume":2734,"id":"a68xyknb2m9s","geo_precision":"zip","state":"Florida"},"type":"Feature","geometry":{"type":"Point","coordinates":[-81.65602,30.328439]}},{"properties":{"geo_score":0.857,"zip code":"32204","ivr call volume":8,"id":"a68xykmjzxux","geo_precision":"zip","state":"Florida"},"type":"Feature","geometry":{"type":"Point","coordinates":[-81.684263,30.312184]}},{"properties":{"geo_score":0.857,"zip code":"32205","ivr call volume":666,"id":"a68xykfhqppg","geo_precision":"zip","state":"Florida"},"type":"Feature","geometry":{"type":"Point","coordinates":[-81.741489,30.365239]}},{"properties":{"geo_score":0.857,"zip code":"32207","ivr call volume":282,"id":"a68xykpzryap","geo_precision":"zip","state":"Florida"},"type":"Feature","geometry":{"type":"Point","coordinates":[-81.609537,30.296351]}},{"properties":{"geo_score":0.857,"zip code":"32208","ivr call volume":546,"id":"a68xykjfnil6","geo_precision":"zip","state":"Florida"},"type":"Feature","geometry":{"type":"Point","coordinates":[-81.68732,30.406072]}},{"properties":{"geo_score":0.857,"zip code":"32210","ivr call volume":437,"id":"a68xykpvblkf","geo_precision":"zip","state":"Florida"},"type":"Feature","geometry":{"type":"Point","coordinates":[-81.715375,30.283851]}},{"properties":{"geo_score":0.857,"zip code":"32211","ivr call volume":312,"id":"a68xykcugd2a","geo_precision":"zip","state":"Florida"},"type":"Feature","geometry":{"type":"Point","coordinates":[-81.659818,30.311906]}},{"properties":{"geo_score":0.857,"zip code":"32216","ivr call volume":108,"id":"a68xykskrj82","geo_precision":"zip","state":"Florida"},"type":"Feature","geometry":{"type":"Point","coordinates":[-81.558146,30.298296]}},{"properties":{"geo_score":0.857,"zip code":"32217","ivr call volume":921,"id":"a68xykj7ieb6","geo_precision":"zip","state":"Florida"},"type":"Feature","geometry":{"type":"Point","coordinates":[-81.615926,30.242741]}},{"properties":{"geo_score":0.857,"zip code":"32218","ivr call volume":206,"id":"a68xykgjb8ic","geo_precision":"zip","state":"Florida"},"type":"Feature","geometry":{"type":"Point","coordinates":[-81.621208,30.534404]}},{"properties":{"geo_score":0.857,"zip code":"32223","ivr call volume":439,"id":"a68xykq9qghl","geo_precision":"zip","state":"Florida"},"type":"Feature","geometry":{"type":"Point","coordinates":[-81.578701,30.206074]}},{"properties":{"geo_score":0.857,"zip code":"32224","ivr call volume":320,"id":"a68xykob9kjk","geo_precision":"zip","state":"Florida"},"type":"Feature","geometry":{"type":"Point","coordinates":[-81.54481,30.171908]}},{"properties":{"geo_score":0.857,"zip code":"32227","ivr call volume":62,"id":"a68xyker0ob4","geo_precision":"zip","state":"Florida"},"type":"Feature","geometry":{"type":"Point","coordinates":[-81.430642,30.393296]}},{"properties":{"geo_score":0.857,"zip code":"32234","ivr call volume":52,"id":"a68xykcgi8ie","geo_precision":"zip","state":"Florida"},"type":"Feature","geometry":{"type":"Point","coordinates":[-81.975387,30.302738]}},{"properties":{"geo_score":0.857,"zip code":"32246","ivr call volume":863,"id":"a68xykee833k","geo_precision":"zip","state":"Florida"},"type":"Feature","geometry":{"type":"Point","coordinates":[-81.50916,30.293273]}},{"properties":{"geo_score":0.857,"zip code":"32250","ivr call volume":315,"id":"a68xyketl65u","geo_precision":"zip","state":"Florida"},"type":"Feature","geometry":{"type":"Point","coordinates":[-81.437586,30.295519]}},{"properties":{"geo_score":0.857,"zip code":"32256","ivr call volume":126,"id":"a68xykgjvedq","geo_precision":"zip","state":"Florida"},"type":"Feature","geometry":{"type":"Point","coordinates":[-81.539129,30.213733]}},{"properties":{"geo_score":0.857,"zip code":"32259","ivr call volume":181,"id":"a68xykh9nfp3","geo_precision":"zip","state":"Florida"},"type":"Feature","geometry":{"type":"Point","coordinates":[-81.582558,30.076654]}},{"properties":{"geo_score":0.857,"zip code":"32277","ivr call volume":226,"id":"a68xykp4a8j7","geo_precision":"zip","state":"Florida"},"type":"Feature","geometry":{"type":"Point","coordinates":[-81.586394,30.370439]}},{"properties":{"geo_score":0.857,"zip code":"32301","ivr call volume":343,"id":"a68xykcokm5u","geo_precision":"zip","state":"Florida"},"type":"Feature","geometry":{"type":"Point","coordinates":[-84.065726,30.505201]}},{"properties":{"geo_score":0.857,"zip code":"32303","ivr call volume":256,"id":"a68xykhiq0c5","geo_precision":"zip","state":"Florida"},"type":"Feature","geometry":{"type":"Point","coordinates":[-84.247698,30.535698]}},{"properties":{"geo_score":0.857,"zip code":"32304","ivr call volume":117,"id":"a68xyklw028k","geo_precision":"zip","state":"Florida"},"type":"Feature","geometry":{"type":"Point","coordinates":[-84.656852,30.181867]}},{"properties":{"geo_score":0.857,"zip code":"32305","ivr call volume":18,"id":"a68xyki4xvtr","geo_precision":"zip","state":"Florida"},"type":"Feature","geometry":{"type":"Point","coordinates":[-84.327675,30.08076]}},{"properties":{"geo_score":0.857,"zip code":"32306","ivr call volume":289,"id":"a68xykqd4eym","geo_precision":"zip","state":"Florida"},"type":"Feature","geometry":{"type":"Point","coordinates":[-84.29855,30.442499]}},{"properties":{"geo_score":0.857,"zip code":"32312","ivr call volume":162,"id":"a68xykp9hsp1","geo_precision":"zip","state":"Florida"},"type":"Feature","geometry":{"type":"Point","coordinates":[-84.21548,30.572171]}},{"properties":{"geo_score":0.857,"zip code":"32320","ivr call volume":37,"id":"a68xykcnudft","geo_precision":"zip","state":"Florida"},"type":"Feature","geometry":{"type":"Point","coordinates":[-85.020467,29.7566]}},{"properties":{"geo_score":0.857,"zip code":"32321","ivr call volume":28,"id":"a68xykl4kw5s","geo_precision":"zip","state":"Florida"},"type":"Feature","geometry":{"type":"Point","coordinates":[-84.980194,30.347419]}},{"properties":{"geo_score":0.857,"zip code":"32322","ivr call volume":13,"id":"a68xykng1w17","geo_precision":"zip","state":"Florida"},"type":"Feature","geometry":{"type":"Point","coordinates":[-84.684071,29.832154]}},{"properties":{"geo_score":0.857,"zip code":"32324","ivr call volume":170,"id":"a68xykpswz3l","geo_precision":"zip","state":"Florida"},"type":"Feature","geometry":{"type":"Point","coordinates":[-84.80853,30.65547]}},{"properties":{"geo_score":0.857,"zip code":"32327","ivr call volume":86,"id":"a68xykfuobmq","geo_precision":"zip","state":"Florida"},"type":"Feature","geometry":{"type":"Point","coordinates":[-84.259062,30.109372]}},{"properties":{"geo_score":0.857,"zip code":"32328","ivr call volume":29,"id":"a68xykl6rw3v","geo_precision":"zip","state":"Florida"},"type":"Feature","geometry":{"type":"Point","coordinates":[-84.816238,29.749548]}},{"properties":{"geo_score":0.857,"zip code":"32331","ivr call volume":18,"id":"a68xykdq6jrf","geo_precision":"zip","state":"Florida"},"type":"Feature","geometry":{"type":"Point","coordinates":[-83.65682,30.350764]}},{"properties":{"geo_score":0.857,"zip code":"32333","ivr call volume":94,"id":"a68xykjekj9p","geo_precision":"zip","state":"Florida"},"type":"Feature","geometry":{"type":"Point","coordinates":[-84.486854,30.588252]}},{"properties":{"geo_score":0.857,"zip code":"32334","ivr call volume":5,"id":"a68xykn18gqa","geo_precision":"zip","state":"Florida"},"type":"Feature","geometry":{"type":"Point","coordinates":[-84.848444,30.288896]}},{"properties":{"geo_score":0.857,"zip code":"32340","ivr call volume":94,"id":"a68xykrfzpwj","geo_precision":"zip","state":"Florida"},"type":"Feature","geometry":{"type":"Point","coordinates":[-83.444592,30.382156]}},{"properties":{"geo_score":0.857,"zip code":"32344","ivr call volume":66,"id":"a68xykqu1axw","geo_precision":"zip","state":"Florida"},"type":"Feature","geometry":{"type":"Point","coordinates":[-83.952943,30.411315]}},{"properties":{"geo_score":0.857,"zip code":"32346","ivr call volume":10,"id":"a68xykrx9vn9","geo_precision":"zip","state":"Florida"},"type":"Feature","geometry":{"type":"Point","coordinates":[-84.398788,30.029094]}},{"properties":{"geo_score":0.857,"zip code":"32347","ivr call volume":171,"id":"a68xykf7nkhb","geo_precision":"zip","state":"Florida"},"type":"Feature","geometry":{"type":"Point","coordinates":[-83.964051,30.150485]}},{"properties":{"geo_score":0.857,"zip code":"32350","ivr call volume":19,"id":"a68xykjz1zy3","geo_precision":"zip","state":"Florida"},"type":"Feature","geometry":{"type":"Point","coordinates":[-83.328781,30.584683]}},{"properties":{"geo_score":0.857,"zip code":"32351","ivr call volume":111,"id":"a68xykh4554h","geo_precision":"zip","state":"Florida"},"type":"Feature","geometry":{"type":"Point","coordinates":[-84.885746,30.219088]}},{"properties":{"geo_score":0.857,"zip code":"32352","ivr call volume":38,"id":"a68xyklmp73i","geo_precision":"zip","state":"Florida"},"type":"Feature","geometry":{"type":"Point","coordinates":[-84.75363,30.665715]}},{"properties":{"geo_score":0.857,"zip code":"32356","ivr call volume":7,"id":"a68xykjgh12c","geo_precision":"zip","state":"Florida"},"type":"Feature","geometry":{"type":"Point","coordinates":[-83.325971,29.778002]}},{"properties":{"geo_score":0.857,"zip code":"32399","ivr call volume":358,"id":"a68xykhyh52n","geo_precision":"zip","state":"Florida"},"type":"Feature","geometry":{"type":"Point","coordinates":[-84.29095,30.449428]}},{"properties":{"geo_score":0.857,"zip code":"32401","ivr call volume":897,"id":"a68xykrlmd6w","geo_precision":"zip","state":"Florida"},"type":"Feature","geometry":{"type":"Point","coordinates":[-85.664651,30.325754]}},{"properties":{"geo_score":0.857,"zip code":"32403","ivr call volume":19,"id":"a68xykl8lba3","geo_precision":"zip","state":"Florida"},"type":"Feature","geometry":{"type":"Point","coordinates":[-85.607307,30.085346]}},{"properties":{"geo_score":0.857,"zip code":"32404","ivr call volume":75,"id":"a68xykfsyrq2","geo_precision":"zip","state":"Florida"},"type":"Feature","geometry":{"type":"Point","coordinates":[-85.60326,30.131035]}},{"properties":{"geo_score":0.857,"zip code":"32407","ivr call volume":176,"id":"a68xykd0fzw8","geo_precision":"zip","state":"Florida"},"type":"Feature","geometry":{"type":"Point","coordinates":[-85.859656,30.291867]}},{"properties":{"geo_score":0.857,"zip code":"32420","ivr call volume":37,"id":"a68xykf313n7","geo_precision":"zip","state":"Florida"},"type":"Feature","geometry":{"type":"Point","coordinates":[-85.375585,30.641158]}},{"properties":{"geo_score":0.857,"zip code":"32421","ivr call volume":19,"id":"a68xykca7z9m","geo_precision":"zip","state":"Florida"},"type":"Feature","geometry":{"type":"Point","coordinates":[-85.118253,30.505195]}},{"properties":{"geo_score":0.857,"zip code":"32424","ivr call volume":78,"id":"a68xykqats7n","geo_precision":"zip","state":"Florida"},"type":"Feature","geometry":{"type":"Point","coordinates":[-85.131583,30.295475]}},{"properties":{"geo_score":0.857,"zip code":"32425","ivr call volume":100,"id":"a68xykfwvqc0","geo_precision":"zip","state":"Florida"},"type":"Feature","geometry":{"type":"Point","coordinates":[-85.646599,30.96546]}},{"properties":{"geo_score":0.857,"zip code":"32428","ivr call volume":127,"id":"a68xykqhnr4s","geo_precision":"zip","state":"Florida"},"type":"Feature","geometry":{"type":"Point","coordinates":[-85.551596,30.655193]}},{"properties":{"geo_score":0.857,"zip code":"32431","ivr call volume":28,"id":"a68xykqy5sy3","geo_precision":"zip","state":"Florida"},"type":"Feature","geometry":{"type":"Point","coordinates":[-85.354651,30.731305]}},{"properties":{"geo_score":0.857,"zip code":"32433","ivr call volume":114,"id":"a68xykgk1a6h","geo_precision":"zip","state":"Florida"},"type":"Feature","geometry":{"type":"Point","coordinates":[-86.147441,30.648525]}},{"properties":{"geo_score":0.857,"zip code":"32435","ivr call volume":44,"id":"a68xyke5l9mb","geo_precision":"zip","state":"Florida"},"type":"Feature","geometry":{"type":"Point","coordinates":[-86.120984,30.712686]}},{"properties":{"geo_score":0.857,"zip code":"32438","ivr call volume":46,"id":"a68xykl0ytmx","geo_precision":"zip","state":"Florida"},"type":"Feature","geometry":{"type":"Point","coordinates":[-85.491959,30.45245]}},{"properties":{"geo_score":0.857,"zip code":"32439","ivr call volume":45,"id":"a68xykjlqoko","geo_precision":"zip","state":"Florida"},"type":"Feature","geometry":{"type":"Point","coordinates":[-86.195776,30.512418]}},{"properties":{"geo_score":0.857,"zip code":"32440","ivr call volume":61,"id":"a68xykl417so","geo_precision":"zip","state":"Florida"},"type":"Feature","geometry":{"type":"Point","coordinates":[-85.467155,30.982405]}},{"properties":{"geo_score":0.857,"zip code":"32442","ivr call volume":69,"id":"a68xykhi0ups","geo_precision":"zip","state":"Florida"},"type":"Feature","geometry":{"type":"Point","coordinates":[-84.996311,30.652971]}},{"properties":{"geo_score":0.857,"zip code":"32444","ivr call volume":149,"id":"a68xykheo04p","geo_precision":"zip","state":"Florida"},"type":"Feature","geometry":{"type":"Point","coordinates":[-85.537104,30.094456]}},{"properties":{"geo_score":0.857,"zip code":"32445","ivr call volume":22,"id":"a68xykeolppd","geo_precision":"zip","state":"Florida"},"type":"Feature","geometry":{"type":"Point","coordinates":[-85.187828,30.963462]}},{"properties":{"geo_score":0.857,"zip code":"32446","ivr call volume":176,"id":"a68xykqhxott","geo_precision":"zip","state":"Florida"},"type":"Feature","geometry":{"type":"Point","coordinates":[-85.151591,30.622694]}},{"properties":{"geo_score":0.857,"zip code":"32456","ivr call volume":48,"id":"a68xykjbud3f","geo_precision":"zip","state":"Florida"},"type":"Feature","geometry":{"type":"Point","coordinates":[-85.284918,29.788543]}},{"properties":{"geo_score":0.857,"zip code":"32459","ivr call volume":50,"id":"a68xykjmqzwe","geo_precision":"zip","state":"Florida"},"type":"Feature","geometry":{"type":"Point","coordinates":[-86.32189,30.372422]}},{"properties":{"geo_score":0.857,"zip code":"32462","ivr call volume":67,"id":"a68xyklcce5m","geo_precision":"zip","state":"Florida"},"type":"Feature","geometry":{"type":"Point","coordinates":[-85.808822,30.577971]}},{"properties":{"geo_score":0.857,"zip code":"32464","ivr call volume":52,"id":"a68xykpsqs4k","geo_precision":"zip","state":"Florida"},"type":"Feature","geometry":{"type":"Point","coordinates":[-85.997716,30.975737]}},{"properties":{"geo_score":0.857,"zip code":"32465","ivr call volume":56,"id":"a68xyknfhst0","geo_precision":"zip","state":"Florida"},"type":"Feature","geometry":{"type":"Point","coordinates":[-85.189916,30.05798]}},{"properties":{"geo_score":0.857,"zip code":"32466","ivr call volume":3,"id":"a68xykpvx8g0","geo_precision":"zip","state":"Florida"},"type":"Feature","geometry":{"type":"Point","coordinates":[-85.532148,30.391863]}},{"properties":{"geo_score":0.857,"zip code":"32501","ivr call volume":943,"id":"a68xyki8cj6l","geo_precision":"zip","state":"Florida"},"type":"Feature","geometry":{"type":"Point","coordinates":[-87.196637,30.542695]}},{"properties":{"geo_score":0.857,"zip code":"32502","ivr call volume":114,"id":"a68xykkf26nk","geo_precision":"zip","state":"Florida"},"type":"Feature","geometry":{"type":"Point","coordinates":[-87.225691,30.474288]}},{"properties":{"geo_score":0.857,"zip code":"32505","ivr call volume":17,"id":"a68xykgr3a4a","geo_precision":"zip","state":"Florida"},"type":"Feature","geometry":{"type":"Point","coordinates":[-87.279695,30.426587]}},{"properties":{"geo_score":0.857,"zip code":"32506","ivr call volume":339,"id":"a68xykk7ooy4","geo_precision":"zip","state":"Florida"},"type":"Feature","geometry":{"type":"Point","coordinates":[-87.356087,30.417976]}},{"properties":{"geo_score":0.857,"zip code":"32511","ivr call volume":51,"id":"a68xykgskrck","geo_precision":"zip","state":"Florida"},"type":"Feature","geometry":{"type":"Point","coordinates":[-87.275772,30.61428]}},{"properties":{"geo_score":0.857,"zip code":"32512","ivr call volume":59,"id":"a68xykkb5ax7","geo_precision":"zip","state":"Florida"},"type":"Feature","geometry":{"type":"Point","coordinates":[-87.299129,30.394327]}},{"properties":{"geo_score":0.857,"zip code":"32514","ivr call volume":567,"id":"a68xykr5a1nx","geo_precision":"zip","state":"Florida"},"type":"Feature","geometry":{"type":"Point","coordinates":[-87.212471,30.510196]}},{"properties":{"geo_score":0.857,"zip code":"32526","ivr call volume":129,"id":"a68xykfedl3y","geo_precision":"zip","state":"Florida"},"type":"Feature","geometry":{"type":"Point","coordinates":[-87.314974,30.461586]}},{"properties":{"geo_score":0.857,"zip code":"32531","ivr call volume":41,"id":"a68xykm2w1tb","geo_precision":"zip","state":"Florida"},"type":"Feature","geometry":{"type":"Point","coordinates":[-86.567453,30.924905]}},{"properties":{"geo_score":0.857,"zip code":"32533","ivr call volume":112,"id":"a68xykgaezm0","geo_precision":"zip","state":"Florida"},"type":"Feature","geometry":{"type":"Point","coordinates":[-87.338865,30.717968]}},{"properties":{"geo_score":0.857,"zip code":"32535","ivr call volume":27,"id":"a68xykpikph1","geo_precision":"zip","state":"Florida"},"type":"Feature","geometry":{"type":"Point","coordinates":[-87.32692,30.966294]}},{"properties":{"geo_score":0.857,"zip code":"32536","ivr call volume":236,"id":"a68xykqzp5cj","geo_precision":"zip","state":"Florida"},"type":"Feature","geometry":{"type":"Point","coordinates":[-86.552452,30.806576]}},{"properties":{"geo_score":0.857,"zip code":"32541","ivr call volume":15,"id":"a68xykmwclag","geo_precision":"zip","state":"Florida"},"type":"Feature","geometry":{"type":"Point","coordinates":[-86.344669,30.372422]}},{"properties":{"geo_score":0.857,"zip code":"32547","ivr call volume":131,"id":"a68xykpnz9yi","geo_precision":"zip","state":"Florida"},"type":"Feature","geometry":{"type":"Point","coordinates":[-86.62545,30.448726]}},{"properties":{"geo_score":0.857,"zip code":"32548","ivr call volume":366,"id":"a68xykmtcs6t","geo_precision":"zip","state":"Florida"},"type":"Feature","geometry":{"type":"Point","coordinates":[-86.613564,30.441032]}},{"properties":{"geo_score":0.857,"zip code":"32550","ivr call volume":139,"id":"a68xykshpyhv","geo_precision":"zip","state":"Florida"},"type":"Feature","geometry":{"type":"Point","coordinates":[-86.344604,30.385269]}},{"properties":{"geo_score":0.857,"zip code":"32561","ivr call volume":185,"id":"a68xykjmjgp2","geo_precision":"zip","state":"Florida"},"type":"Feature","geometry":{"type":"Point","coordinates":[-86.990797,30.388255]}},{"properties":{"geo_score":0.857,"zip code":"32565","ivr call volume":41,"id":"a68xykcllqld","geo_precision":"zip","state":"Florida"},"type":"Feature","geometry":{"type":"Point","coordinates":[-87.200805,30.83852]}},{"properties":{"geo_score":0.857,"zip code":"32566","ivr call volume":122,"id":"a68xykis07hk","geo_precision":"zip","state":"Florida"},"type":"Feature","geometry":{"type":"Point","coordinates":[-86.281889,30.988514]}},{"properties":{"geo_score":0.857,"zip code":"32567","ivr call volume":56,"id":"a68xykixsmvt","geo_precision":"zip","state":"Florida"},"type":"Feature","geometry":{"type":"Point","coordinates":[-86.403282,30.967681]}},{"properties":{"geo_score":0.857,"zip code":"32568","ivr call volume":25,"id":"a68xykdjfq70","geo_precision":"zip","state":"Florida"},"type":"Feature","geometry":{"type":"Point","coordinates":[-87.42748,30.908796]}},{"properties":{"geo_score":0.857,"zip code":"32569","ivr call volume":43,"id":"a68xykcn188f","geo_precision":"zip","state":"Florida"},"type":"Feature","geometry":{"type":"Point","coordinates":[-86.78218,30.410199]}},{"properties":{"geo_score":0.857,"zip code":"32571","ivr call volume":179,"id":"a68xyknnuu5f","geo_precision":"zip","state":"Florida"},"type":"Feature","geometry":{"type":"Point","coordinates":[-87.161081,30.59936]}},{"properties":{"geo_score":0.857,"zip code":"32577","ivr call volume":42,"id":"a68xykoso32o","geo_precision":"zip","state":"Florida"},"type":"Feature","geometry":{"type":"Point","coordinates":[-87.385248,30.690231]}},{"properties":{"geo_score":0.857,"zip code":"32578","ivr call volume":72,"id":"a68xykhewtds","geo_precision":"zip","state":"Florida"},"type":"Feature","geometry":{"type":"Point","coordinates":[-86.409948,30.479087]}},{"properties":{"geo_score":0.857,"zip code":"32579","ivr call volume":79,"id":"a68xykn39hb2","geo_precision":"zip","state":"Florida"},"type":"Feature","geometry":{"type":"Point","coordinates":[-86.588564,30.460754]}},{"properties":{"geo_score":0.857,"zip code":"32580","ivr call volume":117,"id":"a68xykicqpn2","geo_precision":"zip","state":"Florida"},"type":"Feature","geometry":{"type":"Point","coordinates":[-86.49706,30.50821]}},{"properties":{"geo_score":0.857,"zip code":"32583","ivr call volume":368,"id":"a68xykhb1qaw","geo_precision":"zip","state":"Florida"},"type":"Feature","geometry":{"type":"Point","coordinates":[-86.966835,30.577638]}},{"properties":{"geo_score":0.857,"zip code":"32601","ivr call volume":884,"id":"a68xykn3vmht","geo_precision":"zip","state":"Florida"},"type":"Feature","geometry":{"type":"Point","coordinates":[-82.186211,29.646635]}},{"properties":{"geo_score":0.857,"zip code":"32607","ivr call volume":124,"id":"a68xykqaq9hf","geo_precision":"zip","state":"Florida"},"type":"Feature","geometry":{"type":"Point","coordinates":[-82.440667,29.653042]}},{"properties":{"geo_score":0.857,"zip code":"32612","ivr call volume":364,"id":"a68xykcgwzfw","geo_precision":"zip","state":"Florida"},"type":"Feature","geometry":{"type":"Point","coordinates":[-82.353862,29.681312]}},{"properties":{"geo_score":0.857,"zip code":"32615","ivr call volume":81,"id":"a68xykrivxmj","geo_precision":"zip","state":"Florida"},"type":"Feature","geometry":{"type":"Point","coordinates":[-82.430391,29.883575]}},{"properties":{"geo_score":0.857,"zip code":"32618","ivr call volume":44,"id":"a68xyke0mvml","geo_precision":"zip","state":"Florida"},"type":"Feature","geometry":{"type":"Point","coordinates":[-82.523443,29.587745]}},{"properties":{"geo_score":0.857,"zip code":"32621","ivr call volume":62,"id":"a68xykqnk5be","geo_precision":"zip","state":"Florida"},"type":"Feature","geometry":{"type":"Point","coordinates":[-82.549823,29.431045]}},{"properties":{"geo_score":0.857,"zip code":"32622","ivr call volume":25,"id":"a68xyknaqpi8","geo_precision":"zip","state":"Florida"},"type":"Feature","geometry":{"type":"Point","coordinates":[-82.298477,29.905008]}},{"properties":{"geo_score":0.857,"zip code":"32625","ivr call volume":11,"id":"a68xykrkmkua","geo_precision":"zip","state":"Florida"},"type":"Feature","geometry":{"type":"Point","coordinates":[-82.991541,29.188034]}},{"properties":{"geo_score":0.857,"zip code":"32626","ivr call volume":90,"id":"a68xykha5ay5","geo_precision":"zip","state":"Florida"},"type":"Feature","geometry":{"type":"Point","coordinates":[-82.863731,29.491628]}},{"properties":{"geo_score":0.857,"zip code":"32631","ivr call volume":65,"id":"a68xykrgn8sq","geo_precision":"zip","state":"Florida"},"type":"Feature","geometry":{"type":"Point","coordinates":[-82.097095,29.730413]}},{"properties":{"geo_score":0.857,"zip code":"32643","ivr call volume":112,"id":"a68xykcf8xy7","geo_precision":"zip","state":"Florida"},"type":"Feature","geometry":{"type":"Point","coordinates":[-82.62595,29.773296]}},{"properties":{"geo_score":0.857,"zip code":"32648","ivr call volume":8,"id":"a68xyknz6uvy","geo_precision":"zip","state":"Florida"},"type":"Feature","geometry":{"type":"Point","coordinates":[-83.19261,29.538213]}},{"properties":{"geo_score":0.857,"zip code":"32656","ivr call volume":126,"id":"a68xykonxp07","geo_precision":"zip","state":"Florida"},"type":"Feature","geometry":{"type":"Point","coordinates":[-81.946556,29.813555]}},{"properties":{"geo_score":0.857,"zip code":"32666","ivr call volume":57,"id":"a68xykq1twx9","geo_precision":"zip","state":"Florida"},"type":"Feature","geometry":{"type":"Point","coordinates":[-81.97397,29.697588]}},{"properties":{"geo_score":0.857,"zip code":"32667","ivr call volume":19,"id":"a68xykf15932","geo_precision":"zip","state":"Florida"},"type":"Feature","geometry":{"type":"Point","coordinates":[-82.390938,29.556635]}},{"properties":{"geo_score":0.857,"zip code":"32669","ivr call volume":83,"id":"a68xykfzmu90","geo_precision":"zip","state":"Florida"},"type":"Feature","geometry":{"type":"Point","coordinates":[-82.5715,29.599133]}},{"properties":{"geo_score":0.857,"zip code":"32680","ivr call volume":122,"id":"a68xykph78u5","geo_precision":"zip","state":"Florida"},"type":"Feature","geometry":{"type":"Point","coordinates":[-83.004951,29.669866]}},{"properties":{"geo_score":0.857,"zip code":"32686","ivr call volume":53,"id":"a68xykdf8jl3","geo_precision":"zip","state":"Florida"},"type":"Feature","geometry":{"type":"Point","coordinates":[-82.25121,29.405527]}},{"properties":{"geo_score":0.857,"zip code":"32693","ivr call volume":85,"id":"a68xykp8r1ev","geo_precision":"zip","state":"Florida"},"type":"Feature","geometry":{"type":"Point","coordinates":[-82.921513,29.611069]}},{"properties":{"geo_score":0.857,"zip code":"32694","ivr call volume":50,"id":"a68xykhnx8q7","geo_precision":"zip","state":"Florida"},"type":"Feature","geometry":{"type":"Point","coordinates":[-82.231216,29.837465]}},{"properties":{"geo_score":0.857,"zip code":"32696","ivr call volume":140,"id":"a68xykmonlye","geo_precision":"zip","state":"Florida"},"type":"Feature","geometry":{"type":"Point","coordinates":[-82.466216,29.441636]}},{"properties":{"geo_score":0.857,"zip code":"32703","ivr call volume":467,"id":"a68xykfjv4aq","geo_precision":"zip","state":"Florida"},"type":"Feature","geometry":{"type":"Point","coordinates":[-81.509517,28.661943]}},{"properties":{"geo_score":0.857,"zip code":"32707","ivr call volume":231,"id":"a68xykji1xhc","geo_precision":"zip","state":"Florida"},"type":"Feature","geometry":{"type":"Point","coordinates":[-81.313989,28.661468]}},{"properties":{"geo_score":0.857,"zip code":"32709","ivr call volume":37,"id":"a68xykmc9d7t","geo_precision":"zip","state":"Florida"},"type":"Feature","geometry":{"type":"Point","coordinates":[-81.009032,28.486379]}},{"properties":{"geo_score":0.857,"zip code":"32713","ivr call volume":232,"id":"a68xykqa6279","geo_precision":"zip","state":"Florida"},"type":"Feature","geometry":{"type":"Point","coordinates":[-81.32951,28.865268]}},{"properties":{"geo_score":0.857,"zip code":"32714","ivr call volume":522,"id":"a68xyks3xmwd","geo_precision":"zip","state":"Florida"},"type":"Feature","geometry":{"type":"Point","coordinates":[-81.443344,28.666776]}},{"properties":{"geo_score":0.857,"zip code":"32720","ivr call volume":502,"id":"a68xykfigwkk","geo_precision":"zip","state":"Florida"},"type":"Feature","geometry":{"type":"Point","coordinates":[-81.488958,29.013874]}},{"properties":{"geo_score":0.857,"zip code":"32724","ivr call volume":275,"id":"a68xykjbec8r","geo_precision":"zip","state":"Florida"},"type":"Feature","geometry":{"type":"Point","coordinates":[-81.096461,29.056227]}},{"properties":{"geo_score":0.857,"zip code":"32725","ivr call volume":214,"id":"a68xykrewvc7","geo_precision":"zip","state":"Florida"},"type":"Feature","geometry":{"type":"Point","coordinates":[-81.298674,28.948876]}},{"properties":{"geo_score":0.857,"zip code":"32726","ivr call volume":371,"id":"a68xykq5w1sc","geo_precision":"zip","state":"Florida"},"type":"Feature","geometry":{"type":"Point","coordinates":[-81.465347,28.889434]}},{"properties":{"geo_score":0.857,"zip code":"32732","ivr call volume":64,"id":"a68xykoon33z","geo_precision":"zip","state":"Florida"},"type":"Feature","geometry":{"type":"Point","coordinates":[-81.107884,28.751078]}},{"properties":{"geo_score":0.857,"zip code":"32738","ivr call volume":223,"id":"a68xykn29jdk","geo_precision":"zip","state":"Florida"},"type":"Feature","geometry":{"type":"Point","coordinates":[-81.233099,28.939718]}},{"properties":{"geo_score":0.857,"zip code":"32746","ivr call volume":140,"id":"a68xyklcls56","geo_precision":"zip","state":"Florida"},"type":"Feature","geometry":{"type":"Point","coordinates":[-81.372245,28.763333]}},{"properties":{"geo_score":0.857,"zip code":"32751","ivr call volume":35,"id":"a68xykihlwfh","geo_precision":"zip","state":"Florida"},"type":"Feature","geometry":{"type":"Point","coordinates":[-81.380625,28.614722]}},{"properties":{"geo_score":0.857,"zip code":"32757","ivr call volume":228,"id":"a68xyknfvhum","geo_precision":"zip","state":"Florida"},"type":"Feature","geometry":{"type":"Point","coordinates":[-81.34566,27.317754]}},{"properties":{"geo_score":0.857,"zip code":"32759","ivr call volume":25,"id":"a68xykq42ywj","geo_precision":"zip","state":"Florida"},"type":"Feature","geometry":{"type":"Point","coordinates":[-80.993118,28.853312]}},{"properties":{"geo_score":0.857,"zip code":"32763","ivr call volume":372,"id":"a68xykjm3sb0","geo_precision":"zip","state":"Florida"},"type":"Feature","geometry":{"type":"Point","coordinates":[-81.296174,28.928877]}},{"properties":{"geo_score":0.857,"zip code":"32765","ivr call volume":380,"id":"a68xykryqdl9","geo_precision":"zip","state":"Florida"},"type":"Feature","geometry":{"type":"Point","coordinates":[-81.238676,28.699996]}},{"properties":{"geo_score":0.857,"zip code":"32771","ivr call volume":1003,"id":"a68xykokr1r0","geo_precision":"zip","state":"Florida"},"type":"Feature","geometry":{"type":"Point","coordinates":[-81.252287,28.789715]}},{"properties":{"geo_score":0.857,"zip code":"32778","ivr call volume":278,"id":"a68xykd7mbhm","geo_precision":"zip","state":"Florida"},"type":"Feature","geometry":{"type":"Point","coordinates":[-81.757577,28.772214]}},{"properties":{"geo_score":0.857,"zip code":"32784","ivr call volume":123,"id":"a68xykdls9v4","geo_precision":"zip","state":"Florida"},"type":"Feature","geometry":{"type":"Point","coordinates":[-81.658686,28.95082]}},{"properties":{"geo_score":0.857,"zip code":"32789","ivr call volume":1977,"id":"a68xykfcdq6h","geo_precision":"zip","state":"Florida"},"type":"Feature","geometry":{"type":"Point","coordinates":[-81.35874,28.602327]}},{"properties":{"geo_score":0.857,"zip code":"32792","ivr call volume":418,"id":"a68xyks4nb2r","geo_precision":"zip","state":"Florida"},"type":"Feature","geometry":{"type":"Point","coordinates":[-81.306457,28.600833]}},{"properties":{"geo_score":0.857,"zip code":"32796","ivr call volume":596,"id":"a68xykfscie8","geo_precision":"zip","state":"Florida"},"type":"Feature","geometry":{"type":"Point","coordinates":[-80.831574,28.509529]}},{"properties":{"geo_score":0.857,"zip code":"32801","ivr call volume":3906,"id":"a68xykrq1ivf","geo_precision":"zip","state":"Florida"},"type":"Feature","geometry":{"type":"Point","coordinates":[-81.373291,28.545179]}},{"properties":{"geo_score":0.857,"zip code":"32803","ivr call volume":303,"id":"a68xykpy7qdw","geo_precision":"zip","state":"Florida"},"type":"Feature","geometry":{"type":"Point","coordinates":[-81.33664,28.556479]}},{"properties":{"geo_score":0.857,"zip code":"32805","ivr call volume":36,"id":"a68xykmoujai","geo_precision":"zip","state":"Florida"},"type":"Feature","geometry":{"type":"Point","coordinates":[-81.477294,28.483893]}},{"properties":{"geo_score":0.857,"zip code":"32807","ivr call volume":1148,"id":"a68xykdm237j","geo_precision":"zip","state":"Florida"},"type":"Feature","geometry":{"type":"Point","coordinates":[-81.300624,28.541113]}},{"properties":{"geo_score":0.857,"zip code":"32808","ivr call volume":976,"id":"a68xykefqd4k","geo_precision":"zip","state":"Florida"},"type":"Feature","geometry":{"type":"Point","coordinates":[-81.453405,28.557779]}},{"properties":{"geo_score":0.857,"zip code":"32809","ivr call volume":1380,"id":"a68xykppjyyx","geo_precision":"zip","state":"Florida"},"type":"Feature","geometry":{"type":"Point","coordinates":[-81.445905,28.455839]}},{"properties":{"geo_score":0.857,"zip code":"32810","ivr call volume":356,"id":"a68xyknpgt0v","geo_precision":"zip","state":"Florida"},"type":"Feature","geometry":{"type":"Point","coordinates":[-81.442571,28.619444]}},{"properties":{"geo_score":0.857,"zip code":"32821","ivr call volume":3,"id":"a68xykglp3vf","geo_precision":"zip","state":"Florida"},"type":"Feature","geometry":{"type":"Point","coordinates":[-81.442849,28.414451]}},{"properties":{"geo_score":0.857,"zip code":"32833","ivr call volume":77,"id":"a68xykhfiam7","geo_precision":"zip","state":"Florida"},"type":"Feature","geometry":{"type":"Point","coordinates":[-81.070334,28.508779]}},{"properties":{"geo_score":0.857,"zip code":"32836","ivr call volume":65,"id":"a68xyklbcfg9","geo_precision":"zip","state":"Florida"},"type":"Feature","geometry":{"type":"Point","coordinates":[-81.525044,28.411534]}},{"properties":{"geo_score":0.857,"zip code":"32901","ivr call volume":1633,"id":"a68xykkrjsnd","geo_precision":"zip","state":"Florida"},"type":"Feature","geometry":{"type":"Point","coordinates":[-80.653388,28.071683]}},{"properties":{"geo_score":0.857,"zip code":"32922","ivr call volume":1832,"id":"a68xykmpzedf","geo_precision":"zip","state":"Florida"},"type":"Feature","geometry":{"type":"Point","coordinates":[-80.762832,28.448336]}},{"properties":{"geo_score":0.857,"zip code":"32931","ivr call volume":233,"id":"a68xykn9dytr","geo_precision":"zip","state":"Florida"},"type":"Feature","geometry":{"type":"Point","coordinates":[-80.623424,28.325685]}},{"properties":{"geo_score":0.857,"zip code":"32934","ivr call volume":741,"id":"a68xykijom5f","geo_precision":"zip","state":"Florida"},"type":"Feature","geometry":{"type":"Point","coordinates":[-80.62782,28.088526]}},{"properties":{"geo_score":0.857,"zip code":"32937","ivr call volume":217,"id":"a68xykn6bpj9","geo_precision":"zip","state":"Florida"},"type":"Feature","geometry":{"type":"Point","coordinates":[-80.609497,28.202234]}},{"properties":{"geo_score":0.857,"zip code":"32948","ivr call volume":21,"id":"a68xykpmxbjs","geo_precision":"zip","state":"Florida"},"type":"Feature","geometry":{"type":"Point","coordinates":[-80.609403,27.775251]}},{"properties":{"geo_score":0.857,"zip code":"32958","ivr call volume":345,"id":"a68xykrhiwxx","geo_precision":"zip","state":"Florida"},"type":"Feature","geometry":{"type":"Point","coordinates":[-80.483098,27.799123]}},{"properties":{"geo_score":0.857,"zip code":"32960","ivr call volume":1079,"id":"a68xykp1kaoa","geo_precision":"zip","state":"Florida"},"type":"Feature","geometry":{"type":"Point","coordinates":[-80.527832,27.745307]}},{"properties":{"geo_score":0.857,"zip code":"32963","ivr call volume":134,"id":"a68xykoz3moe","geo_precision":"zip","state":"Florida"},"type":"Feature","geometry":{"type":"Point","coordinates":[-80.384217,27.716696]}},{"properties":{"geo_score":0.857,"zip code":"32976","ivr call volume":98,"id":"a68xykiy7umv","geo_precision":"zip","state":"Florida"},"type":"Feature","geometry":{"type":"Point","coordinates":[-80.500331,27.880579]}},{"properties":{"geo_score":0.857,"zip code":"33010","ivr call volume":553,"id":"a68xykhyxs9e","geo_precision":"zip","state":"Florida"},"type":"Feature","geometry":{"type":"Point","coordinates":[-80.378108,25.895095]}},{"properties":{"geo_score":0.857,"zip code":"33014","ivr call volume":1350,"id":"a68xykj3sqkc","geo_precision":"zip","state":"Florida"},"type":"Feature","geometry":{"type":"Point","coordinates":[-80.308662,25.908706]}},{"properties":{"geo_score":0.857,"zip code":"33020","ivr call volume":1472,"id":"a68xykp5adpp","geo_precision":"zip","state":"Florida"},"type":"Feature","geometry":{"type":"Point","coordinates":[-80.155017,26.022217]}},{"properties":{"geo_score":0.857,"zip code":"33023","ivr call volume":911,"id":"a68xyknzcq5u","geo_precision":"zip","state":"Florida"},"type":"Feature","geometry":{"type":"Point","coordinates":[-80.183102,25.977592]}},{"properties":{"geo_score":0.857,"zip code":"33025","ivr call volume":1131,"id":"a68xykga0mxg","geo_precision":"zip","state":"Florida"},"type":"Feature","geometry":{"type":"Point","coordinates":[-80.231595,26.142322]}},{"properties":{"geo_score":0.857,"zip code":"33030","ivr call volume":798,"id":"a68xykm316nb","geo_precision":"zip","state":"Florida"},"type":"Feature","geometry":{"type":"Point","coordinates":[-80.14949,26.011201]}},{"properties":{"geo_score":0.857,"zip code":"33032","ivr call volume":95,"id":"a68xyknxoqh9","geo_precision":"zip","state":"Florida"},"type":"Feature","geometry":{"type":"Point","coordinates":[-80.477557,25.468722]}},{"properties":{"geo_score":0.857,"zip code":"33035","ivr call volume":31,"id":"a68xyko0nmyf","geo_precision":"zip","state":"Florida"},"type":"Feature","geometry":{"type":"Point","coordinates":[-80.439114,25.453604]}},{"properties":{"geo_score":0.857,"zip code":"33036","ivr call volume":89,"id":"a68xykdr5kt8","geo_precision":"zip","state":"Florida"},"type":"Feature","geometry":{"type":"Point","coordinates":[-80.560895,24.984853]}},{"properties":{"geo_score":0.857,"zip code":"33037","ivr call volume":108,"id":"a68xykph9e1z","geo_precision":"zip","state":"Florida"},"type":"Feature","geometry":{"type":"Point","coordinates":[-80.431168,25.104014]}},{"properties":{"geo_score":0.857,"zip code":"33040","ivr call volume":187,"id":"a68xykivffek","geo_precision":"zip","state":"Florida"},"type":"Feature","geometry":{"type":"Point","coordinates":[-81.738424,24.567091]}},{"properties":{"geo_score":0.857,"zip code":"33042","ivr call volume":77,"id":"a68xyki8cw3n","geo_precision":"zip","state":"Florida"},"type":"Feature","geometry":{"type":"Point","coordinates":[-81.003803,24.860066]}},{"properties":{"geo_score":0.857,"zip code":"33043","ivr call volume":77,"id":"a68xykj75bzd","geo_precision":"zip","state":"Florida"},"type":"Feature","geometry":{"type":"Point","coordinates":[-80.460336,25.076793]}},{"properties":{"geo_score":0.857,"zip code":"33050","ivr call volume":81,"id":"a68xykpn9uvv","geo_precision":"zip","state":"Florida"},"type":"Feature","geometry":{"type":"Point","coordinates":[-80.912014,24.770972]}},{"properties":{"geo_score":0.857,"zip code":"33054","ivr call volume":282,"id":"a68xyklvfgkd","geo_precision":"zip","state":"Florida"},"type":"Feature","geometry":{"type":"Point","coordinates":[-80.477557,25.468722]}},{"properties":{"geo_score":0.857,"zip code":"33060","ivr call volume":331,"id":"a68xykkoqlqb","geo_precision":"zip","state":"Florida"},"type":"Feature","geometry":{"type":"Point","coordinates":[-80.143378,26.252304]}},{"properties":{"geo_score":0.857,"zip code":"33062","ivr call volume":619,"id":"a68xykpz7z1k","geo_precision":"zip","state":"Florida"},"type":"Feature","geometry":{"type":"Point","coordinates":[-80.078932,26.293969]}},{"properties":{"geo_score":0.857,"zip code":"33064","ivr call volume":31,"id":"a68xyke34bdl","geo_precision":"zip","state":"Florida"},"type":"Feature","geometry":{"type":"Point","coordinates":[-80.106988,26.282858]}},{"properties":{"geo_score":0.857,"zip code":"33065","ivr call volume":762,"id":"a68xykewu9ia","geo_precision":"zip","state":"Florida"},"type":"Feature","geometry":{"type":"Point","coordinates":[-80.270604,26.271192]}},{"properties":{"geo_score":0.857,"zip code":"33066","ivr call volume":881,"id":"a68xykq5aah8","geo_precision":"zip","state":"Florida"},"type":"Feature","geometry":{"type":"Point","coordinates":[-80.165406,26.251906]}},{"properties":{"geo_score":0.857,"zip code":"33069","ivr call volume":116,"id":"a68xykip9f6r","geo_precision":"zip","state":"Florida"},"type":"Feature","geometry":{"type":"Point","coordinates":[-80.191713,26.206194]}},{"properties":{"geo_score":0.857,"zip code":"33070","ivr call volume":63,"id":"a68xykju6g71","geo_precision":"zip","state":"Florida"},"type":"Feature","geometry":{"type":"Point","coordinates":[-80.49256,25.042351]}},{"properties":{"geo_score":0.857,"zip code":"33071","ivr call volume":631,"id":"a68xykp740iq","geo_precision":"zip","state":"Florida"},"type":"Feature","geometry":{"type":"Point","coordinates":[-80.399775,26.100365]}},{"properties":{"geo_score":0.857,"zip code":"33109","ivr call volume":12,"id":"a68xykewaco6","geo_precision":"zip","state":"Florida"},"type":"Feature","geometry":{"type":"Point","coordinates":[-80.141003,25.761042]}},{"properties":{"geo_score":0.857,"zip code":"33122","ivr call volume":102,"id":"a68xykj0vv7h","geo_precision":"zip","state":"Florida"},"type":"Feature","geometry":{"type":"Point","coordinates":[-80.319002,25.799306]}},{"properties":{"geo_score":0.857,"zip code":"33126","ivr call volume":69,"id":"a68xykp26mfv","geo_precision":"zip","state":"Florida"},"type":"Feature","geometry":{"type":"Point","coordinates":[-80.294302,25.786724]}},{"properties":{"geo_score":0.857,"zip code":"33127","ivr call volume":331,"id":"a68xykhu3pz5","geo_precision":"zip","state":"Florida"},"type":"Feature","geometry":{"type":"Point","coordinates":[-80.205611,25.813321]}},{"properties":{"geo_score":0.857,"zip code":"33128","ivr call volume":705,"id":"a68xykfh58jt","geo_precision":"zip","state":"Florida"},"type":"Feature","geometry":{"type":"Point","coordinates":[-80.20411,25.776711]}},{"properties":{"geo_score":0.857,"zip code":"33131","ivr call volume":4583,"id":"a68xyknwr8q5","geo_precision":"zip","state":"Florida"},"type":"Feature","geometry":{"type":"Point","coordinates":[-80.252552,25.378169]}},{"properties":{"geo_score":0.857,"zip code":"33132","ivr call volume":171,"id":"a68xykkd4rkc","geo_precision":"zip","state":"Florida"},"type":"Feature","geometry":{"type":"Point","coordinates":[-80.17365,25.777024]}},{"properties":{"geo_score":0.857,"zip code":"33134","ivr call volume":807,"id":"a68xykmoh09i","geo_precision":"zip","state":"Florida"},"type":"Feature","geometry":{"type":"Point","coordinates":[-80.193659,25.774266]}},{"properties":{"geo_score":0.857,"zip code":"33135","ivr call volume":913,"id":"a68xyklvrew4","geo_precision":"zip","state":"Florida"},"type":"Feature","geometry":{"type":"Point","coordinates":[-80.235025,25.766564]}},{"properties":{"geo_score":0.857,"zip code":"33136","ivr call volume":330,"id":"a68xykl9afph","geo_precision":"zip","state":"Florida"},"type":"Feature","geometry":{"type":"Point","coordinates":[-80.204773,25.78718]}},{"properties":{"geo_score":0.857,"zip code":"33138","ivr call volume":285,"id":"a68xykoxcx6f","geo_precision":"zip","state":"Florida"},"type":"Feature","geometry":{"type":"Point","coordinates":[-80.193659,25.774266]}},{"properties":{"geo_score":0.857,"zip code":"33139","ivr call volume":385,"id":"a68xyknwh94m","geo_precision":"zip","state":"Florida"},"type":"Feature","geometry":{"type":"Point","coordinates":[-80.193659,25.774266]}},{"properties":{"geo_score":0.857,"zip code":"33141","ivr call volume":339,"id":"a68xyknapzk7","geo_precision":"zip","state":"Florida"},"type":"Feature","geometry":{"type":"Point","coordinates":[-80.193659,25.774266]}},{"properties":{"geo_score":0.857,"zip code":"33142","ivr call volume":336,"id":"a68xykjugvnx","geo_precision":"zip","state":"Florida"},"type":"Feature","geometry":{"type":"Point","coordinates":[-80.193659,25.774266]}},{"properties":{"geo_score":0.857,"zip code":"33144","ivr call volume":508,"id":"a68xykenrser","geo_precision":"zip","state":"Florida"},"type":"Feature","geometry":{"type":"Point","coordinates":[-80.296162,25.763433]}},{"properties":{"geo_score":0.857,"zip code":"33145","ivr call volume":332,"id":"a68xykk7r1pt","geo_precision":"zip","state":"Florida"},"type":"Feature","geometry":{"type":"Point","coordinates":[-80.193659,25.774266]}},{"properties":{"geo_score":0.857,"zip code":"33146","ivr call volume":678,"id":"a68xykjxjqx8","geo_precision":"zip","state":"Florida"},"type":"Feature","geometry":{"type":"Point","coordinates":[-80.272902,25.720498]}},{"properties":{"geo_score":0.857,"zip code":"33147","ivr call volume":358,"id":"a68xykn3dfzm","geo_precision":"zip","state":"Florida"},"type":"Feature","geometry":{"type":"Point","coordinates":[-80.238173,25.851779]}},{"properties":{"geo_score":0.857,"zip code":"33149","ivr call volume":52,"id":"a68xykcjush9","geo_precision":"zip","state":"Florida"},"type":"Feature","geometry":{"type":"Point","coordinates":[-80.193659,25.774266]}},{"properties":{"geo_score":0.857,"zip code":"33157","ivr call volume":1592,"id":"a68xykldsxps","geo_precision":"zip","state":"Florida"},"type":"Feature","geometry":{"type":"Point","coordinates":[-80.193659,25.774266]}},{"properties":{"geo_score":0.857,"zip code":"33161","ivr call volume":245,"id":"a68xykp5jxmp","geo_precision":"zip","state":"Florida"},"type":"Feature","geometry":{"type":"Point","coordinates":[-80.193659,25.774266]}},{"properties":{"geo_score":0.857,"zip code":"33162","ivr call volume":2737,"id":"a68xykm3by1u","geo_precision":"zip","state":"Florida"},"type":"Feature","geometry":{"type":"Point","coordinates":[-80.176713,25.962314]}},{"properties":{"geo_score":0.857,"zip code":"33165","ivr call volume":1211,"id":"a68xykcfuyxt","geo_precision":"zip","state":"Florida"},"type":"Feature","geometry":{"type":"Point","coordinates":[-80.372831,25.729268]}},{"properties":{"geo_score":0.857,"zip code":"33167","ivr call volume":54,"id":"a68xykpfpegh","geo_precision":"zip","state":"Florida"},"type":"Feature","geometry":{"type":"Point","coordinates":[-80.236526,25.885479]}},{"properties":{"geo_score":0.857,"zip code":"33169","ivr call volume":432,"id":"a68xykmusuzt","geo_precision":"zip","state":"Florida"},"type":"Feature","geometry":{"type":"Point","coordinates":[-80.21227,25.948982]}},{"properties":{"geo_score":0.857,"zip code":"33172","ivr call volume":39,"id":"a68xykldcduw","geo_precision":"zip","state":"Florida"},"type":"Feature","geometry":{"type":"Point","coordinates":[-80.359727,25.786922]}},{"properties":{"geo_score":0.857,"zip code":"33173","ivr call volume":791,"id":"a68xykq5fd7q","geo_precision":"zip","state":"Florida"},"type":"Feature","geometry":{"type":"Point","coordinates":[-80.357892,25.701518]}},{"properties":{"geo_score":0.857,"zip code":"33178","ivr call volume":440,"id":"a68xyksn7e5l","geo_precision":"zip","state":"Florida"},"type":"Feature","geometry":{"type":"Point","coordinates":[-80.381857,25.859963]}},{"properties":{"geo_score":0.857,"zip code":"33179","ivr call volume":61,"id":"a68xykmiz9ws","geo_precision":"zip","state":"Florida"},"type":"Feature","geometry":{"type":"Point","coordinates":[-80.179804,25.958396]}},{"properties":{"geo_score":0.857,"zip code":"33180","ivr call volume":35,"id":"a68xykn4og2r","geo_precision":"zip","state":"Florida"},"type":"Feature","geometry":{"type":"Point","coordinates":[-80.193659,25.774266]}},{"properties":{"geo_score":0.857,"zip code":"33306","ivr call volume":359,"id":"a68xykf3hqhw","geo_precision":"zip","state":"Florida"},"type":"Feature","geometry":{"type":"Point","coordinates":[-80.111766,26.165612]}},{"properties":{"geo_score":0.857,"zip code":"33308","ivr call volume":133,"id":"a68xykn5r7p8","geo_precision":"zip","state":"Florida"},"type":"Feature","geometry":{"type":"Point","coordinates":[-80.100877,26.189806]}},{"properties":{"geo_score":0.857,"zip code":"33309","ivr call volume":4,"id":"a68xykp1ljne","geo_precision":"zip","state":"Florida"},"type":"Feature","geometry":{"type":"Point","coordinates":[-80.249771,26.212861]}},{"properties":{"geo_score":0.857,"zip code":"33311","ivr call volume":27,"id":"a68xykqz4ucq","geo_precision":"zip","state":"Florida"},"type":"Feature","geometry":{"type":"Point","coordinates":[-80.192547,26.128697]}},{"properties":{"geo_score":0.857,"zip code":"33312","ivr call volume":73,"id":"a68xykcf9r8y","geo_precision":"zip","state":"Florida"},"type":"Feature","geometry":{"type":"Point","coordinates":[-80.189257,26.097197]}},{"properties":{"geo_score":0.857,"zip code":"33313","ivr call volume":587,"id":"a68xyknwyggb","geo_precision":"zip","state":"Florida"},"type":"Feature","geometry":{"type":"Point","coordinates":[-80.1131,26.133975]}},{"properties":{"geo_score":0.857,"zip code":"33315","ivr call volume":26,"id":"a68xykl879wk","geo_precision":"zip","state":"Florida"},"type":"Feature","geometry":{"type":"Point","coordinates":[-80.162266,26.08329]}},{"properties":{"geo_score":0.857,"zip code":"33316","ivr call volume":25,"id":"a68xykcmkfml","geo_precision":"zip","state":"Florida"},"type":"Feature","geometry":{"type":"Point","coordinates":[-80.127267,26.097032]}},{"properties":{"geo_score":0.857,"zip code":"33317","ivr call volume":519,"id":"a68xykrbrbo4","geo_precision":"zip","state":"Florida"},"type":"Feature","geometry":{"type":"Point","coordinates":[-80.233104,26.127586]}},{"properties":{"geo_score":0.857,"zip code":"33324","ivr call volume":630,"id":"a68xykfxt7wt","geo_precision":"zip","state":"Florida"},"type":"Feature","geometry":{"type":"Point","coordinates":[-80.264371,26.125463]}},{"properties":{"geo_score":0.857,"zip code":"33325","ivr call volume":83,"id":"a68xykev76d9","geo_precision":"zip","state":"Florida"},"type":"Feature","geometry":{"type":"Point","coordinates":[-80.24417,26.070747]}},{"properties":{"geo_score":0.857,"zip code":"33326","ivr call volume":225,"id":"a68xyki9jvbh","geo_precision":"zip","state":"Florida"},"type":"Feature","geometry":{"type":"Point","coordinates":[-80.281527,26.202757]}},{"properties":{"geo_score":0.857,"zip code":"33328","ivr call volume":193,"id":"a68xykgw9nl6","geo_precision":"zip","state":"Florida"},"type":"Feature","geometry":{"type":"Point","coordinates":[-80.233104,26.062867]}},{"properties":{"geo_score":0.857,"zip code":"33334","ivr call volume":373,"id":"a68xykdxlx28","geo_precision":"zip","state":"Florida"},"type":"Feature","geometry":{"type":"Point","coordinates":[-80.138934,26.160363]}},{"properties":{"geo_score":0.857,"zip code":"33351","ivr call volume":553,"id":"a68xykj16let","geo_precision":"zip","state":"Florida"},"type":"Feature","geometry":{"type":"Point","coordinates":[-80.266437,26.108554]}},{"properties":{"geo_score":0.857,"zip code":"33394","ivr call volume":3259,"id":"a68xykimn602","geo_precision":"zip","state":"Florida"},"type":"Feature","geometry":{"type":"Point","coordinates":[-80.138967,26.122063]}},{"properties":{"geo_score":0.857,"zip code":"33401","ivr call volume":77,"id":"a68xyklfaten","geo_precision":"zip","state":"Florida"},"type":"Feature","geometry":{"type":"Point","coordinates":[-80.098098,26.702565]}},{"properties":{"geo_score":0.857,"zip code":"33403","ivr call volume":11,"id":"a68xykhmi7mf","geo_precision":"zip","state":"Florida"},"type":"Feature","geometry":{"type":"Point","coordinates":[-80.066431,26.80034]}},{"properties":{"geo_score":0.857,"zip code":"33404","ivr call volume":404,"id":"a68xykiqoalq","geo_precision":"zip","state":"Florida"},"type":"Feature","geometry":{"type":"Point","coordinates":[-80.035596,26.778118]}},{"properties":{"geo_score":0.857,"zip code":"33405","ivr call volume":851,"id":"a68xykik1sw9","geo_precision":"zip","state":"Florida"},"type":"Feature","geometry":{"type":"Point","coordinates":[-80.430269,26.645895]}},{"properties":{"geo_score":0.857,"zip code":"33406","ivr call volume":1270,"id":"a68xyke4h8mn","geo_precision":"zip","state":"Florida"},"type":"Feature","geometry":{"type":"Point","coordinates":[-80.073653,26.760341]}},{"properties":{"geo_score":0.857,"zip code":"33410","ivr call volume":928,"id":"a68xykde71xd","geo_precision":"zip","state":"Florida"},"type":"Feature","geometry":{"type":"Point","coordinates":[-80.138655,26.823395]}},{"properties":{"geo_score":0.857,"zip code":"33411","ivr call volume":619,"id":"a68xykf510hh","geo_precision":"zip","state":"Florida"},"type":"Feature","geometry":{"type":"Point","coordinates":[-80.230602,26.708398]}},{"properties":{"geo_score":0.857,"zip code":"33417","ivr call volume":913,"id":"a68xykqnnw1r","geo_precision":"zip","state":"Florida"},"type":"Feature","geometry":{"type":"Point","coordinates":[-80.430269,26.645895]}},{"properties":{"geo_score":0.857,"zip code":"33418","ivr call volume":10,"id":"a68xykezgj20","geo_precision":"zip","state":"Florida"},"type":"Feature","geometry":{"type":"Point","coordinates":[-80.430269,26.645895]}},{"properties":{"geo_score":0.857,"zip code":"33430","ivr call volume":221,"id":"a68xyksgmpcb","geo_precision":"zip","state":"Florida"},"type":"Feature","geometry":{"type":"Point","coordinates":[-80.682836,26.657567]}},{"properties":{"geo_score":0.857,"zip code":"33432","ivr call volume":1328,"id":"a68xykjhyg0i","geo_precision":"zip","state":"Florida"},"type":"Feature","geometry":{"type":"Point","coordinates":[-80.187546,26.339245]}},{"properties":{"geo_score":0.857,"zip code":"33434","ivr call volume":1017,"id":"a68xykf0nrww","geo_precision":"zip","state":"Florida"},"type":"Feature","geometry":{"type":"Point","coordinates":[-80.170567,26.381132]}},{"properties":{"geo_score":0.857,"zip code":"33435","ivr call volume":2031,"id":"a68xyklf5m4v","geo_precision":"zip","state":"Florida"},"type":"Feature","geometry":{"type":"Point","coordinates":[-80.048375,26.527016]}},{"properties":{"geo_score":0.857,"zip code":"33440","ivr call volume":108,"id":"a68xykop10jf","geo_precision":"zip","state":"Florida"},"type":"Feature","geometry":{"type":"Point","coordinates":[-80.902008,26.709788]}},{"properties":{"geo_score":0.857,"zip code":"33441","ivr call volume":982,"id":"a68xykrxrik6","geo_precision":"zip","state":"Florida"},"type":"Feature","geometry":{"type":"Point","coordinates":[-80.099488,26.303413]}},{"properties":{"geo_score":0.857,"zip code":"33442","ivr call volume":268,"id":"a68xykrpp518","geo_precision":"zip","state":"Florida"},"type":"Feature","geometry":{"type":"Point","coordinates":[-80.138516,26.301407]}},{"properties":{"geo_score":0.857,"zip code":"33455","ivr call volume":187,"id":"a68xyknohq2u","geo_precision":"zip","state":"Florida"},"type":"Feature","geometry":{"type":"Point","coordinates":[-80.101431,27.031444]}},{"properties":{"geo_score":0.857,"zip code":"33458","ivr call volume":641,"id":"a68xykrw6hyu","geo_precision":"zip","state":"Florida"},"type":"Feature","geometry":{"type":"Point","coordinates":[-80.430269,26.645895]}},{"properties":{"geo_score":0.857,"zip code":"33471","ivr call volume":39,"id":"a68xykdga8q4","geo_precision":"zip","state":"Florida"},"type":"Feature","geometry":{"type":"Point","coordinates":[-81.127291,26.976445]}},{"properties":{"geo_score":0.857,"zip code":"33476","ivr call volume":25,"id":"a68xyko7pv9l","geo_precision":"zip","state":"Florida"},"type":"Feature","geometry":{"type":"Point","coordinates":[-80.17864,26.623067]}},{"properties":{"geo_score":0.857,"zip code":"33480","ivr call volume":2056,"id":"a68xykmxqne6","geo_precision":"zip","state":"Florida"},"type":"Feature","geometry":{"type":"Point","coordinates":[-80.038652,26.588958]}},{"properties":{"geo_score":0.857,"zip code":"33483","ivr call volume":905,"id":"a68xykrg4es2","geo_precision":"zip","state":"Florida"},"type":"Feature","geometry":{"type":"Point","coordinates":[-80.064844,26.464145]}},{"properties":{"geo_score":0.857,"zip code":"33484","ivr call volume":1446,"id":"a68xykl8z5vh","geo_precision":"zip","state":"Florida"},"type":"Feature","geometry":{"type":"Point","coordinates":[-80.13473,26.454218]}},{"properties":{"geo_score":0.857,"zip code":"33487","ivr call volume":579,"id":"a68xykixn8pr","geo_precision":"zip","state":"Florida"},"type":"Feature","geometry":{"type":"Point","coordinates":[-80.065598,26.39952]}},{"properties":{"geo_score":0.857,"zip code":"33510","ivr call volume":899,"id":"a68xyks27ict","geo_precision":"zip","state":"Florida"},"type":"Feature","geometry":{"type":"Point","coordinates":[-82.356458,27.83083]}},{"properties":{"geo_score":0.857,"zip code":"33513","ivr call volume":226,"id":"a68xykkksdn9","geo_precision":"zip","state":"Florida"},"type":"Feature","geometry":{"type":"Point","coordinates":[-82.138141,28.610272]}},{"properties":{"geo_score":0.857,"zip code":"33523","ivr call volume":44,"id":"a68xykiztjof","geo_precision":"zip","state":"Florida"},"type":"Feature","geometry":{"type":"Point","coordinates":[-82.322756,28.36886]}},{"properties":{"geo_score":0.857,"zip code":"33525","ivr call volume":179,"id":"a68xykgdcf5y","geo_precision":"zip","state":"Florida"},"type":"Feature","geometry":{"type":"Point","coordinates":[-82.286754,28.375835]}},{"properties":{"geo_score":0.857,"zip code":"33534","ivr call volume":290,"id":"a68xykklh026","geo_precision":"zip","state":"Florida"},"type":"Feature","geometry":{"type":"Point","coordinates":[-82.38176,27.846415]}},{"properties":{"geo_score":0.857,"zip code":"33540","ivr call volume":584,"id":"a68xykke18p6","geo_precision":"zip","state":"Florida"},"type":"Feature","geometry":{"type":"Point","coordinates":[-82.827603,27.909466]}},{"properties":{"geo_score":0.857,"zip code":"33544","ivr call volume":219,"id":"a68xykl80viq","geo_precision":"zip","state":"Florida"},"type":"Feature","geometry":{"type":"Point","coordinates":[-82.284738,28.271989]}},{"properties":{"geo_score":0.857,"zip code":"33547","ivr call volume":65,"id":"a68xykf2u40u","geo_precision":"zip","state":"Florida"},"type":"Feature","geometry":{"type":"Point","coordinates":[-82.104254,27.836139]}},{"properties":{"geo_score":0.857,"zip code":"33548","ivr call volume":196,"id":"a68xykdg3u05","geo_precision":"zip","state":"Florida"},"type":"Feature","geometry":{"type":"Point","coordinates":[-82.438841,27.871964]}},{"properties":{"geo_score":0.857,"zip code":"33556","ivr call volume":81,"id":"a68xykrq4ycm","geo_precision":"zip","state":"Florida"},"type":"Feature","geometry":{"type":"Point","coordinates":[-82.591764,28.193901]}},{"properties":{"geo_score":0.857,"zip code":"33563","ivr call volume":184,"id":"a68xykjz27jb","geo_precision":"zip","state":"Florida"},"type":"Feature","geometry":{"type":"Point","coordinates":[-82.771768,28.101404]}},{"properties":{"geo_score":0.857,"zip code":"33566","ivr call volume":423,"id":"a68xykedcofz","geo_precision":"zip","state":"Florida"},"type":"Feature","geometry":{"type":"Point","coordinates":[-82.06814,28.025299]}},{"properties":{"geo_score":0.857,"zip code":"33570","ivr call volume":124,"id":"a68xykqej3jz","geo_precision":"zip","state":"Florida"},"type":"Feature","geometry":{"type":"Point","coordinates":[-82.461761,27.705864]}},{"properties":{"geo_score":0.857,"zip code":"33573","ivr call volume":546,"id":"a68xykrzlnai","geo_precision":"zip","state":"Florida"},"type":"Feature","geometry":{"type":"Point","coordinates":[-82.35742,27.704046]}},{"properties":{"geo_score":0.857,"zip code":"33576","ivr call volume":66,"id":"a68xykiby63y","geo_precision":"zip","state":"Florida"},"type":"Feature","geometry":{"type":"Point","coordinates":[-82.300982,28.331729]}},{"properties":{"geo_score":0.857,"zip code":"33602","ivr call volume":2651,"id":"a68xykceodb7","geo_precision":"zip","state":"Florida"},"type":"Feature","geometry":{"type":"Point","coordinates":[-82.461517,27.950898]}},{"properties":{"geo_score":0.857,"zip code":"33603","ivr call volume":231,"id":"a68xykspaxpl","geo_precision":"zip","state":"Florida"},"type":"Feature","geometry":{"type":"Point","coordinates":[-82.463804,27.986147]}},{"properties":{"geo_score":0.857,"zip code":"33604","ivr call volume":303,"id":"a68xykq37h2u","geo_precision":"zip","state":"Florida"},"type":"Feature","geometry":{"type":"Point","coordinates":[-82.450928,28.025297]}},{"properties":{"geo_score":0.857,"zip code":"33605","ivr call volume":203,"id":"a68xykouhp3v","geo_precision":"zip","state":"Florida"},"type":"Feature","geometry":{"type":"Point","coordinates":[-82.435094,27.965021]}},{"properties":{"geo_score":0.857,"zip code":"33606","ivr call volume":218,"id":"a68xykivq549","geo_precision":"zip","state":"Florida"},"type":"Feature","geometry":{"type":"Point","coordinates":[-82.465326,27.930552]}},{"properties":{"geo_score":0.857,"zip code":"33607","ivr call volume":447,"id":"a68xykq57gnd","geo_precision":"zip","state":"Florida"},"type":"Feature","geometry":{"type":"Point","coordinates":[-82.556868,27.966697]}},{"properties":{"geo_score":0.857,"zip code":"33609","ivr call volume":257,"id":"a68xykq00vy2","geo_precision":"zip","state":"Florida"},"type":"Feature","geometry":{"type":"Point","coordinates":[-82.513067,27.942648]}},{"properties":{"geo_score":0.857,"zip code":"33611","ivr call volume":286,"id":"a68xykjpkw3z","geo_precision":"zip","state":"Florida"},"type":"Feature","geometry":{"type":"Point","coordinates":[-82.512017,27.942099]}},{"properties":{"geo_score":0.857,"zip code":"33614","ivr call volume":176,"id":"a68xyki64mk8","geo_precision":"zip","state":"Florida"},"type":"Feature","geometry":{"type":"Point","coordinates":[-82.372871,27.972521]}},{"properties":{"geo_score":0.857,"zip code":"33617","ivr call volume":286,"id":"a68xykjs2oks","geo_precision":"zip","state":"Florida"},"type":"Feature","geometry":{"type":"Point","coordinates":[-82.399816,28.009187]}},{"properties":{"geo_score":0.857,"zip code":"33618","ivr call volume":478,"id":"a68xykpap8j9","geo_precision":"zip","state":"Florida"},"type":"Feature","geometry":{"type":"Point","coordinates":[-82.508985,28.040018]}},{"properties":{"geo_score":0.857,"zip code":"33619","ivr call volume":1076,"id":"a68xykk1yasm","geo_precision":"zip","state":"Florida"},"type":"Feature","geometry":{"type":"Point","coordinates":[-82.364537,27.900302]}},{"properties":{"geo_score":0.857,"zip code":"33620","ivr call volume":443,"id":"a68xykkeylv5","geo_precision":"zip","state":"Florida"},"type":"Feature","geometry":{"type":"Point","coordinates":[-82.436093,28.069196]}},{"properties":{"geo_score":0.857,"zip code":"33624","ivr call volume":68,"id":"a68xykq0vqyc","geo_precision":"zip","state":"Florida"},"type":"Feature","geometry":{"type":"Point","coordinates":[-82.505611,28.093903]}},{"properties":{"geo_score":0.857,"zip code":"33625","ivr call volume":143,"id":"a68xykn4755t","geo_precision":"zip","state":"Florida"},"type":"Feature","geometry":{"type":"Point","coordinates":[-82.569819,28.07835]}},{"properties":{"geo_score":0.857,"zip code":"33634","ivr call volume":496,"id":"a68xykcri20y","geo_precision":"zip","state":"Florida"},"type":"Feature","geometry":{"type":"Point","coordinates":[-82.545466,28.002755]}},{"properties":{"geo_score":0.857,"zip code":"33635","ivr call volume":235,"id":"a68xyks8jz63","geo_precision":"zip","state":"Florida"},"type":"Feature","geometry":{"type":"Point","coordinates":[-82.613819,28.026337]}},{"properties":{"geo_score":0.857,"zip code":"33637","ivr call volume":128,"id":"a68xykqjzwew","geo_precision":"zip","state":"Florida"},"type":"Feature","geometry":{"type":"Point","coordinates":[-82.363024,28.047044]}},{"properties":{"geo_score":0.857,"zip code":"33647","ivr call volume":21,"id":"a68xykh41i6p","geo_precision":"zip","state":"Florida"},"type":"Feature","geometry":{"type":"Point","coordinates":[-82.350338,28.127834]}},{"properties":{"geo_score":0.857,"zip code":"33701","ivr call volume":708,"id":"a68xykiiz4mr","geo_precision":"zip","state":"Florida"},"type":"Feature","geometry":{"type":"Point","coordinates":[-82.64092,27.775654]}},{"properties":{"geo_score":0.857,"zip code":"33702","ivr call volume":203,"id":"a68xykm81ctx","geo_precision":"zip","state":"Florida"},"type":"Feature","geometry":{"type":"Point","coordinates":[-82.631509,27.863201]}},{"properties":{"geo_score":0.857,"zip code":"33706","ivr call volume":165,"id":"a68xykhk7sh1","geo_precision":"zip","state":"Florida"},"type":"Feature","geometry":{"type":"Point","coordinates":[-82.754223,27.749529]}},{"properties":{"geo_score":0.857,"zip code":"33708","ivr call volume":854,"id":"a68xykeqnn6i","geo_precision":"zip","state":"Florida"},"type":"Feature","geometry":{"type":"Point","coordinates":[-82.778435,27.776971]}},{"properties":{"geo_score":0.857,"zip code":"33709","ivr call volume":451,"id":"a68xykcvta4n","geo_precision":"zip","state":"Florida"},"type":"Feature","geometry":{"type":"Point","coordinates":[-82.7201,27.815581]}},{"properties":{"geo_score":0.857,"zip code":"33710","ivr call volume":357,"id":"a68xykj6whpu","geo_precision":"zip","state":"Florida"},"type":"Feature","geometry":{"type":"Point","coordinates":[-82.699621,27.788853]}},{"properties":{"geo_score":0.857,"zip code":"33711","ivr call volume":243,"id":"a68xykkv5ul2","geo_precision":"zip","state":"Florida"},"type":"Feature","geometry":{"type":"Point","coordinates":[-82.690035,27.733448]}},{"properties":{"geo_score":0.857,"zip code":"33712","ivr call volume":258,"id":"a68xykhni27r","geo_precision":"zip","state":"Florida"},"type":"Feature","geometry":{"type":"Point","coordinates":[-82.672426,27.735925]}},{"properties":{"geo_score":0.857,"zip code":"33714","ivr call volume":388,"id":"a68xykq6x8jr","geo_precision":"zip","state":"Florida"},"type":"Feature","geometry":{"type":"Point","coordinates":[-82.68324,27.817335]}},{"properties":{"geo_score":0.857,"zip code":"33716","ivr call volume":324,"id":"a68xykddt63d","geo_precision":"zip","state":"Florida"},"type":"Feature","geometry":{"type":"Point","coordinates":[-82.692961,27.890727]}},{"properties":{"geo_score":0.857,"zip code":"33755","ivr call volume":604,"id":"a68xykj3ulc7","geo_precision":"zip","state":"Florida"},"type":"Feature","geometry":{"type":"Point","coordinates":[-82.781523,27.978147]}},{"properties":{"geo_score":0.857,"zip code":"33756","ivr call volume":1679,"id":"a68xykmj955v","geo_precision":"zip","state":"Florida"},"type":"Feature","geometry":{"type":"Point","coordinates":[-82.794324,27.946998]}},{"properties":{"geo_score":0.857,"zip code":"33759","ivr call volume":562,"id":"a68xykr338f5","geo_precision":"zip","state":"Florida"},"type":"Feature","geometry":{"type":"Point","coordinates":[-82.704321,27.984851]}},{"properties":{"geo_score":0.857,"zip code":"33760","ivr call volume":337,"id":"a68xyklgz3ni","geo_precision":"zip","state":"Florida"},"type":"Feature","geometry":{"type":"Point","coordinates":[-82.715166,27.90045]}},{"properties":{"geo_score":0.857,"zip code":"33761","ivr call volume":542,"id":"a68xykf6i1yo","geo_precision":"zip","state":"Florida"},"type":"Feature","geometry":{"type":"Point","coordinates":[-82.725852,27.925501]}},{"properties":{"geo_score":0.857,"zip code":"33762","ivr call volume":693,"id":"a68xykdmegmo","geo_precision":"zip","state":"Florida"},"type":"Feature","geometry":{"type":"Point","coordinates":[-82.674571,27.89417]}},{"properties":{"geo_score":0.857,"zip code":"33801","ivr call volume":1157,"id":"a68xyknhgm4o","geo_precision":"zip","state":"Florida"},"type":"Feature","geometry":{"type":"Point","coordinates":[-81.90508,28.157516]}},{"properties":{"geo_score":0.857,"zip code":"33803","ivr call volume":75,"id":"a68xykgwx6lx","geo_precision":"zip","state":"Florida"},"type":"Feature","geometry":{"type":"Point","coordinates":[-82.014806,28.031688]}},{"properties":{"geo_score":0.857,"zip code":"33809","ivr call volume":481,"id":"a68xykoyili1","geo_precision":"zip","state":"Florida"},"type":"Feature","geometry":{"type":"Point","coordinates":[-81.959132,28.176194]}},{"properties":{"geo_score":0.857,"zip code":"33813","ivr call volume":382,"id":"a68xykrnyktu","geo_precision":"zip","state":"Florida"},"type":"Feature","geometry":{"type":"Point","coordinates":[-81.917604,27.963896]}},{"properties":{"geo_score":0.857,"zip code":"33825","ivr call volume":168,"id":"a68xykhohegt","geo_precision":"zip","state":"Florida"},"type":"Feature","geometry":{"type":"Point","coordinates":[-81.521742,27.633922]}},{"properties":{"geo_score":0.857,"zip code":"33827","ivr call volume":47,"id":"a68xykrgizl4","geo_precision":"zip","state":"Florida"},"type":"Feature","geometry":{"type":"Point","coordinates":[-81.530631,27.821138]}},{"properties":{"geo_score":0.857,"zip code":"33830","ivr call volume":268,"id":"a68xyki6vmwu","geo_precision":"zip","state":"Florida"},"type":"Feature","geometry":{"type":"Point","coordinates":[-81.761192,27.890582]}},{"properties":{"geo_score":0.857,"zip code":"33838","ivr call volume":125,"id":"a68xykq1gcky","geo_precision":"zip","state":"Florida"},"type":"Feature","geometry":{"type":"Point","coordinates":[-81.677776,28.009099]}},{"properties":{"geo_score":0.857,"zip code":"33841","ivr call volume":47,"id":"a68xykjxpm3h","geo_precision":"zip","state":"Florida"},"type":"Feature","geometry":{"type":"Point","coordinates":[-81.625634,27.661144]}},{"properties":{"geo_score":0.857,"zip code":"33843","ivr call volume":69,"id":"a68xykhekstq","geo_precision":"zip","state":"Florida"},"type":"Feature","geometry":{"type":"Point","coordinates":[-81.546187,27.71503]}},{"properties":{"geo_score":0.857,"zip code":"33844","ivr call volume":420,"id":"a68xykid8d9y","geo_precision":"zip","state":"Florida"},"type":"Feature","geometry":{"type":"Point","coordinates":[-81.686188,28.159183]}},{"properties":{"geo_score":0.857,"zip code":"33852","ivr call volume":246,"id":"a68xykgmf90q","geo_precision":"zip","state":"Florida"},"type":"Feature","geometry":{"type":"Point","coordinates":[-81.36628,27.336002]}},{"properties":{"geo_score":0.857,"zip code":"33853","ivr call volume":60,"id":"a68xykrsxvhf","geo_precision":"zip","state":"Florida"},"type":"Feature","geometry":{"type":"Point","coordinates":[-81.6423,27.92058]}},{"properties":{"geo_score":0.857,"zip code":"33859","ivr call volume":266,"id":"a68xykpzs76l","geo_precision":"zip","state":"Florida"},"type":"Feature","geometry":{"type":"Point","coordinates":[-81.522998,27.885359]}},{"properties":{"geo_score":0.857,"zip code":"33860","ivr call volume":90,"id":"a68xykod7qh4","geo_precision":"zip","state":"Florida"},"type":"Feature","geometry":{"type":"Point","coordinates":[-82.017862,27.916136]}},{"properties":{"geo_score":0.857,"zip code":"33868","ivr call volume":77,"id":"a68xykfrhyfy","geo_precision":"zip","state":"Florida"},"type":"Feature","geometry":{"type":"Point","coordinates":[-81.833411,28.326398]}},{"properties":{"geo_score":0.857,"zip code":"33870","ivr call volume":784,"id":"a68xykqgjsgw","geo_precision":"zip","state":"Florida"},"type":"Feature","geometry":{"type":"Point","coordinates":[-81.405073,27.442538]}},{"properties":{"geo_score":0.857,"zip code":"33873","ivr call volume":125,"id":"a68xyke6ewsk","geo_precision":"zip","state":"Florida"},"type":"Feature","geometry":{"type":"Point","coordinates":[-81.871473,27.482261]}},{"properties":{"geo_score":0.857,"zip code":"33880","ivr call volume":34,"id":"a68xyklw9tus","geo_precision":"zip","state":"Florida"},"type":"Feature","geometry":{"type":"Point","coordinates":[-81.727024,27.952802]}},{"properties":{"geo_score":0.857,"zip code":"33881","ivr call volume":1060,"id":"a68xykjfl7in","geo_precision":"zip","state":"Florida"},"type":"Feature","geometry":{"type":"Point","coordinates":[-81.716745,28.043632]}},{"properties":{"geo_score":0.857,"zip code":"33884","ivr call volume":255,"id":"a68xykkq8icp","geo_precision":"zip","state":"Florida"},"type":"Feature","geometry":{"type":"Point","coordinates":[-81.690078,27.993911]}},{"properties":{"geo_score":0.857,"zip code":"33890","ivr call volume":13,"id":"a68xykf837ky","geo_precision":"zip","state":"Florida"},"type":"Feature","geometry":{"type":"Point","coordinates":[-81.796749,27.454762]}},{"properties":{"geo_score":0.857,"zip code":"33896","ivr call volume":170,"id":"a68xykkwkg6y","geo_precision":"zip","state":"Florida"},"type":"Feature","geometry":{"type":"Point","coordinates":[-81.568136,28.237898]}},{"properties":{"geo_score":0.857,"zip code":"33901","ivr call volume":57,"id":"a68xyks8ll8f","geo_precision":"zip","state":"Florida"},"type":"Feature","geometry":{"type":"Point","coordinates":[-81.995924,26.519245]}},{"properties":{"geo_score":0.857,"zip code":"33903","ivr call volume":433,"id":"a68xykgk0bip","geo_precision":"zip","state":"Florida"},"type":"Feature","geometry":{"type":"Point","coordinates":[-81.868975,26.711736]}},{"properties":{"geo_score":0.857,"zip code":"33904","ivr call volume":416,"id":"a68xykpf5aqb","geo_precision":"zip","state":"Florida"},"type":"Feature","geometry":{"type":"Point","coordinates":[-81.95016,26.606491]}},{"properties":{"geo_score":0.857,"zip code":"33908","ivr call volume":37,"id":"a68xykfkp7wl","geo_precision":"zip","state":"Florida"},"type":"Feature","geometry":{"type":"Point","coordinates":[-81.911422,26.561955]}},{"properties":{"geo_score":0.857,"zip code":"33916","ivr call volume":2577,"id":"a68xyks7lqlt","geo_precision":"zip","state":"Florida"},"type":"Feature","geometry":{"type":"Point","coordinates":[-81.843807,26.635461]}},{"properties":{"geo_score":0.857,"zip code":"33919","ivr call volume":23,"id":"a68xyknuy5p6","geo_precision":"zip","state":"Florida"},"type":"Feature","geometry":{"type":"Point","coordinates":[-81.937186,26.572627]}},{"properties":{"geo_score":0.857,"zip code":"33922","ivr call volume":126,"id":"a68xyknji95s","geo_precision":"zip","state":"Florida"},"type":"Feature","geometry":{"type":"Point","coordinates":[-82.128052,26.624433]}},{"properties":{"geo_score":0.857,"zip code":"33931","ivr call volume":47,"id":"a68xykmr8uns","geo_precision":"zip","state":"Florida"},"type":"Feature","geometry":{"type":"Point","coordinates":[-82.071178,26.5761]}},{"properties":{"geo_score":0.857,"zip code":"33935","ivr call volume":99,"id":"a68xykh5zrld","geo_precision":"zip","state":"Florida"},"type":"Feature","geometry":{"type":"Point","coordinates":[-81.405075,26.756455]}},{"properties":{"geo_score":0.857,"zip code":"33936","ivr call volume":260,"id":"a68xyknxhzi3","geo_precision":"zip","state":"Florida"},"type":"Feature","geometry":{"type":"Point","coordinates":[-81.661922,26.593573]}},{"properties":{"geo_score":0.857,"zip code":"33946","ivr call volume":191,"id":"a68xykj3wfl1","geo_precision":"zip","state":"Florida"},"type":"Feature","geometry":{"type":"Point","coordinates":[-82.294261,26.850343]}},{"properties":{"geo_score":0.857,"zip code":"33948","ivr call volume":407,"id":"a68xykh4gqkp","geo_precision":"zip","state":"Florida"},"type":"Feature","geometry":{"type":"Point","coordinates":[-82.20688,26.94099]}},{"properties":{"geo_score":0.857,"zip code":"33950","ivr call volume":381,"id":"a68xykeo4h09","geo_precision":"zip","state":"Florida"},"type":"Feature","geometry":{"type":"Point","coordinates":[-81.990921,26.842009]}},{"properties":{"geo_score":0.857,"zip code":"33952","ivr call volume":653,"id":"a68xykofq2kk","geo_precision":"zip","state":"Florida"},"type":"Feature","geometry":{"type":"Point","coordinates":[-82.156128,26.994048]}},{"properties":{"geo_score":0.857,"zip code":"33957","ivr call volume":41,"id":"a68xykpy6b0p","geo_precision":"zip","state":"Florida"},"type":"Feature","geometry":{"type":"Point","coordinates":[-82.100065,26.458308]}},{"properties":{"geo_score":0.857,"zip code":"33990","ivr call volume":402,"id":"a68xykdl4j0x","geo_precision":"zip","state":"Florida"},"type":"Feature","geometry":{"type":"Point","coordinates":[-81.967657,26.6265]}},{"properties":{"geo_score":0.857,"zip code":"34102","ivr call volume":1577,"id":"a68xyknz5n5m","geo_precision":"zip","state":"Florida"},"type":"Feature","geometry":{"type":"Point","coordinates":[-81.795309,26.133968]}},{"properties":{"geo_score":0.857,"zip code":"34108","ivr call volume":709,"id":"a68xykj8hzed","geo_precision":"zip","state":"Florida"},"type":"Feature","geometry":{"type":"Point","coordinates":[-81.807056,26.241595]}},{"properties":{"geo_score":0.857,"zip code":"34135","ivr call volume":517,"id":"a68xykjip0mj","geo_precision":"zip","state":"Florida"},"type":"Feature","geometry":{"type":"Point","coordinates":[-81.733377,26.377129]}},{"properties":{"geo_score":0.857,"zip code":"34141","ivr call volume":3,"id":"a68xyklnam66","geo_precision":"zip","state":"Florida"},"type":"Feature","geometry":{"type":"Point","coordinates":[-81.159938,25.873412]}},{"properties":{"geo_score":0.857,"zip code":"34142","ivr call volume":86,"id":"a68xykpeorcr","geo_precision":"zip","state":"Florida"},"type":"Feature","geometry":{"type":"Point","coordinates":[-81.415175,26.18437]}},{"properties":{"geo_score":0.857,"zip code":"34145","ivr call volume":129,"id":"a68xykk02ak6","geo_precision":"zip","state":"Florida"},"type":"Feature","geometry":{"type":"Point","coordinates":[-81.696751,25.938768]}},{"properties":{"geo_score":0.857,"zip code":"34205","ivr call volume":530,"id":"a68xykclh8sl","geo_precision":"zip","state":"Florida"},"type":"Feature","geometry":{"type":"Point","coordinates":[-82.613987,27.502538]}},{"properties":{"geo_score":0.857,"zip code":"34207","ivr call volume":664,"id":"a68xykinvu50","geo_precision":"zip","state":"Florida"},"type":"Feature","geometry":{"type":"Point","coordinates":[-82.590376,27.42532]}},{"properties":{"geo_score":0.857,"zip code":"34208","ivr call volume":332,"id":"a68xykkvjkgy","geo_precision":"zip","state":"Florida"},"type":"Feature","geometry":{"type":"Point","coordinates":[-82.541486,27.469485]}},{"properties":{"geo_score":0.857,"zip code":"34209","ivr call volume":525,"id":"a68xykgqrsyz","geo_precision":"zip","state":"Florida"},"type":"Feature","geometry":{"type":"Point","coordinates":[-82.616719,27.475853]}},{"properties":{"geo_score":0.857,"zip code":"34212","ivr call volume":42,"id":"a68xykpr6rac","geo_precision":"zip","state":"Florida"},"type":"Feature","geometry":{"type":"Point","coordinates":[-82.408174,27.498875]}},{"properties":{"geo_score":0.857,"zip code":"34219","ivr call volume":78,"id":"a68xykmdk8o0","geo_precision":"zip","state":"Florida"},"type":"Feature","geometry":{"type":"Point","coordinates":[-82.269458,27.566457]}},{"properties":{"geo_score":0.857,"zip code":"34221","ivr call volume":262,"id":"a68xyki9s7lj","geo_precision":"zip","state":"Florida"},"type":"Feature","geometry":{"type":"Point","coordinates":[-82.552597,27.578925]}},{"properties":{"geo_score":0.857,"zip code":"34223","ivr call volume":257,"id":"a68xykoovuq0","geo_precision":"zip","state":"Florida"},"type":"Feature","geometry":{"type":"Point","coordinates":[-82.404959,27.143931]}},{"properties":{"geo_score":0.857,"zip code":"34228","ivr call volume":78,"id":"a68xykmmx0te","geo_precision":"zip","state":"Florida"},"type":"Feature","geometry":{"type":"Point","coordinates":[-82.680377,27.429763]}},{"properties":{"geo_score":0.857,"zip code":"34229","ivr call volume":143,"id":"a68xykqvhk30","geo_precision":"zip","state":"Florida"},"type":"Feature","geometry":{"type":"Point","coordinates":[-82.488818,27.213378]}},{"properties":{"geo_score":0.857,"zip code":"34231","ivr call volume":685,"id":"a68xykj5ihec","geo_precision":"zip","state":"Florida"},"type":"Feature","geometry":{"type":"Point","coordinates":[-82.530375,27.298658]}},{"properties":{"geo_score":0.857,"zip code":"34232","ivr call volume":487,"id":"a68xykcvdpg9","geo_precision":"zip","state":"Florida"},"type":"Feature","geometry":{"type":"Point","coordinates":[-82.443249,27.203872]}},{"properties":{"geo_score":0.857,"zip code":"34234","ivr call volume":360,"id":"a68xykcf16cf","geo_precision":"zip","state":"Florida"},"type":"Feature","geometry":{"type":"Point","coordinates":[-82.526768,27.368769]}},{"properties":{"geo_score":0.857,"zip code":"34236","ivr call volume":1231,"id":"a68xykhwujtt","geo_precision":"zip","state":"Florida"},"type":"Feature","geometry":{"type":"Point","coordinates":[-82.543319,27.326863]}},{"properties":{"geo_score":0.857,"zip code":"34242","ivr call volume":84,"id":"a68xykhw2dbv","geo_precision":"zip","state":"Florida"},"type":"Feature","geometry":{"type":"Point","coordinates":[-82.539819,27.256626]}},{"properties":{"geo_score":0.857,"zip code":"34251","ivr call volume":22,"id":"a68xykd4s0qm","geo_precision":"zip","state":"Florida"},"type":"Feature","geometry":{"type":"Point","coordinates":[-82.225911,27.372771]}},{"properties":{"geo_score":0.857,"zip code":"34266","ivr call volume":151,"id":"a68xykjnazv1","geo_precision":"zip","state":"Florida"},"type":"Feature","geometry":{"type":"Point","coordinates":[-82.037032,27.038113]}},{"properties":{"geo_score":0.857,"zip code":"34285","ivr call volume":673,"id":"a68xykdhxgf4","geo_precision":"zip","state":"Florida"},"type":"Feature","geometry":{"type":"Point","coordinates":[-82.457597,27.100055]}},{"properties":{"geo_score":0.857,"zip code":"34287","ivr call volume":347,"id":"a68xykhjseid","geo_precision":"zip","state":"Florida"},"type":"Feature","geometry":{"type":"Point","coordinates":[-82.260093,27.059779]}},{"properties":{"geo_score":0.857,"zip code":"34293","ivr call volume":397,"id":"a68xykmco6d2","geo_precision":"zip","state":"Florida"},"type":"Feature","geometry":{"type":"Point","coordinates":[-82.424263,27.053113]}},{"properties":{"geo_score":0.857,"zip code":"34420","ivr call volume":731,"id":"a68xykjjnocy","geo_precision":"zip","state":"Florida"},"type":"Feature","geometry":{"type":"Point","coordinates":[-82.044371,29.101476]}},{"properties":{"geo_score":0.857,"zip code":"34429","ivr call volume":284,"id":"a68xykr7sp3h","geo_precision":"zip","state":"Florida"},"type":"Feature","geometry":{"type":"Point","coordinates":[-82.596051,28.904358]}},{"properties":{"geo_score":0.857,"zip code":"34434","ivr call volume":366,"id":"a68xykortmgd","geo_precision":"zip","state":"Florida"},"type":"Feature","geometry":{"type":"Point","coordinates":[-82.424132,28.993778]}},{"properties":{"geo_score":0.857,"zip code":"34446","ivr call volume":141,"id":"a68xykl21fwo","geo_precision":"zip","state":"Florida"},"type":"Feature","geometry":{"type":"Point","coordinates":[-82.513889,28.7508]}},{"properties":{"geo_score":0.857,"zip code":"34448","ivr call volume":215,"id":"a68xykqbbv3b","geo_precision":"zip","state":"Florida"},"type":"Feature","geometry":{"type":"Point","coordinates":[-82.567981,28.787963]}},{"properties":{"geo_score":0.857,"zip code":"34450","ivr call volume":455,"id":"a68xykk64tee","geo_precision":"zip","state":"Florida"},"type":"Feature","geometry":{"type":"Point","coordinates":[-82.282224,28.834011]}},{"properties":{"geo_score":0.857,"zip code":"34452","ivr call volume":137,"id":"a68xykspysjc","geo_precision":"zip","state":"Florida"},"type":"Feature","geometry":{"type":"Point","coordinates":[-82.360295,28.777849]}},{"properties":{"geo_score":0.857,"zip code":"34465","ivr call volume":345,"id":"a68xykex9oxh","geo_precision":"zip","state":"Florida"},"type":"Feature","geometry":{"type":"Point","coordinates":[-81.707877,30.411072]}},{"properties":{"geo_score":0.857,"zip code":"34470","ivr call volume":1192,"id":"a68xykcfnvj8","geo_precision":"zip","state":"Florida"},"type":"Feature","geometry":{"type":"Point","coordinates":[-82.169401,29.238672]}},{"properties":{"geo_score":0.857,"zip code":"34471","ivr call volume":299,"id":"a68xyknfe4r8","geo_precision":"zip","state":"Florida"},"type":"Feature","geometry":{"type":"Point","coordinates":[-81.942516,29.160525]}},{"properties":{"geo_score":0.857,"zip code":"34472","ivr call volume":162,"id":"a68xykov5av9","geo_precision":"zip","state":"Florida"},"type":"Feature","geometry":{"type":"Point","coordinates":[-82.020643,29.104424]}},{"properties":{"geo_score":0.857,"zip code":"34474","ivr call volume":688,"id":"a68xykng3tqk","geo_precision":"zip","state":"Florida"},"type":"Feature","geometry":{"type":"Point","coordinates":[-82.137774,29.150148]}},{"properties":{"geo_score":0.857,"zip code":"34488","ivr call volume":103,"id":"a68xykmkkvi3","geo_precision":"zip","state":"Florida"},"type":"Feature","geometry":{"type":"Point","coordinates":[-81.95316,29.263549]}},{"properties":{"geo_score":0.857,"zip code":"34498","ivr call volume":39,"id":"a68xykgsnxa1","geo_precision":"zip","state":"Florida"},"type":"Feature","geometry":{"type":"Point","coordinates":[-82.719003,29.030531]}},{"properties":{"geo_score":0.857,"zip code":"34601","ivr call volume":579,"id":"a68xykjivua1","geo_precision":"zip","state":"Florida"},"type":"Feature","geometry":{"type":"Point","coordinates":[-82.361759,28.634436]}},{"properties":{"geo_score":0.857,"zip code":"34606","ivr call volume":665,"id":"a68xykd6d13a","geo_precision":"zip","state":"Florida"},"type":"Feature","geometry":{"type":"Point","coordinates":[-82.40101,28.496411]}},{"properties":{"geo_score":0.857,"zip code":"34607","ivr call volume":316,"id":"a68xykj75rnq","geo_precision":"zip","state":"Florida"},"type":"Feature","geometry":{"type":"Point","coordinates":[-82.659268,28.469443]}},{"properties":{"geo_score":0.857,"zip code":"34613","ivr call volume":297,"id":"a68xyknx88ee","geo_precision":"zip","state":"Florida"},"type":"Feature","geometry":{"type":"Point","coordinates":[-82.572877,28.515551]}},{"properties":{"geo_score":0.857,"zip code":"34637","ivr call volume":36,"id":"a68xykofg2am","geo_precision":"zip","state":"Florida"},"type":"Feature","geometry":{"type":"Point","coordinates":[-82.800103,27.965853]}},{"properties":{"geo_score":0.857,"zip code":"34639","ivr call volume":229,"id":"a68xykjiv4ry","geo_precision":"zip","state":"Florida"},"type":"Feature","geometry":{"type":"Point","coordinates":[-82.46263,28.250774]}},{"properties":{"geo_score":0.857,"zip code":"34652","ivr call volume":541,"id":"a68xykq7tpra","geo_precision":"zip","state":"Florida"},"type":"Feature","geometry":{"type":"Point","coordinates":[-82.758157,28.23501]}},{"properties":{"geo_score":0.857,"zip code":"34653","ivr call volume":421,"id":"a68xykm7x7ug","geo_precision":"zip","state":"Florida"},"type":"Feature","geometry":{"type":"Point","coordinates":[-82.695536,28.242508]}},{"properties":{"geo_score":0.857,"zip code":"34655","ivr call volume":282,"id":"a68xykh1d4c7","geo_precision":"zip","state":"Florida"},"type":"Feature","geometry":{"type":"Point","coordinates":[-82.665933,28.212233]}},{"properties":{"geo_score":0.857,"zip code":"34667","ivr call volume":584,"id":"a68xykrmn111","geo_precision":"zip","state":"Florida"},"type":"Feature","geometry":{"type":"Point","coordinates":[-82.683434,28.326673]}},{"properties":{"geo_score":0.857,"zip code":"34669","ivr call volume":146,"id":"a68xykfbybl9","geo_precision":"zip","state":"Florida"},"type":"Feature","geometry":{"type":"Point","coordinates":[-82.62074,28.360086]}},{"properties":{"geo_score":0.857,"zip code":"34689","ivr call volume":495,"id":"a68xykl2oxme","geo_precision":"zip","state":"Florida"},"type":"Feature","geometry":{"type":"Point","coordinates":[-82.732165,28.092104]}},{"properties":{"geo_score":0.857,"zip code":"34711","ivr call volume":556,"id":"a68xyki29wam","geo_precision":"zip","state":"Florida"},"type":"Feature","geometry":{"type":"Point","coordinates":[-81.779423,28.584025]}},{"properties":{"geo_score":0.857,"zip code":"34736","ivr call volume":117,"id":"a68xykkim8sb","geo_precision":"zip","state":"Florida"},"type":"Feature","geometry":{"type":"Point","coordinates":[-81.870269,28.587996]}},{"properties":{"geo_score":0.857,"zip code":"34737","ivr call volume":21,"id":"a68xykdkbbq9","geo_precision":"zip","state":"Florida"},"type":"Feature","geometry":{"type":"Point","coordinates":[-81.797564,28.697081]}},{"properties":{"geo_score":0.857,"zip code":"34739","ivr call volume":8,"id":"a68xykcghtw9","geo_precision":"zip","state":"Florida"},"type":"Feature","geometry":{"type":"Point","coordinates":[-81.092447,27.933215]}},{"properties":{"geo_score":0.857,"zip code":"34741","ivr call volume":1279,"id":"a68xykfxxfnl","geo_precision":"zip","state":"Florida"},"type":"Feature","geometry":{"type":"Point","coordinates":[-81.461385,28.307138]}},{"properties":{"geo_score":0.857,"zip code":"34743","ivr call volume":222,"id":"a68xykj861pv","geo_precision":"zip","state":"Florida"},"type":"Feature","geometry":{"type":"Point","coordinates":[-81.353126,28.335843]}},{"properties":{"geo_score":0.857,"zip code":"34746","ivr call volume":155,"id":"a68xykjwgfdt","geo_precision":"zip","state":"Florida"},"type":"Feature","geometry":{"type":"Point","coordinates":[-81.400997,28.243011]}},{"properties":{"geo_score":0.857,"zip code":"34747","ivr call volume":19,"id":"a68xykme7947","geo_precision":"zip","state":"Florida"},"type":"Feature","geometry":{"type":"Point","coordinates":[-81.533129,28.325288]}},{"properties":{"geo_score":0.857,"zip code":"34748","ivr call volume":906,"id":"a68xykobhwda","geo_precision":"zip","state":"Florida"},"type":"Feature","geometry":{"type":"Point","coordinates":[-81.888695,28.758895]}},{"properties":{"geo_score":0.857,"zip code":"34756","ivr call volume":33,"id":"a68xykdyvirw","geo_precision":"zip","state":"Florida"},"type":"Feature","geometry":{"type":"Point","coordinates":[-81.685146,28.581499]}},{"properties":{"geo_score":0.857,"zip code":"34759","ivr call volume":85,"id":"a68xykn69ccl","geo_precision":"zip","state":"Florida"},"type":"Feature","geometry":{"type":"Point","coordinates":[-81.458406,28.140294]}},{"properties":{"geo_score":0.857,"zip code":"34769","ivr call volume":369,"id":"a68xykqd9iqw","geo_precision":"zip","state":"Florida"},"type":"Feature","geometry":{"type":"Point","coordinates":[-81.359092,28.230351]}},{"properties":{"geo_score":0.857,"zip code":"34785","ivr call volume":146,"id":"a68xykqwh641","geo_precision":"zip","state":"Florida"},"type":"Feature","geometry":{"type":"Point","coordinates":[-82.078342,28.844473]}},{"properties":{"geo_score":0.857,"zip code":"34786","ivr call volume":83,"id":"a68xyknzz1le","geo_precision":"zip","state":"Florida"},"type":"Feature","geometry":{"type":"Point","coordinates":[-81.543979,28.481031]}},{"properties":{"geo_score":0.857,"zip code":"34787","ivr call volume":274,"id":"a68xykgkwate","geo_precision":"zip","state":"Florida"},"type":"Feature","geometry":{"type":"Point","coordinates":[-81.512343,28.468581]}},{"properties":{"geo_score":0.857,"zip code":"34950","ivr call volume":944,"id":"a68xykkimdab","geo_precision":"zip","state":"Florida"},"type":"Feature","geometry":{"type":"Point","coordinates":[-80.333224,27.448066]}},{"properties":{"geo_score":0.857,"zip code":"34952","ivr call volume":1649,"id":"a68xyksmmofv","geo_precision":"zip","state":"Florida"},"type":"Feature","geometry":{"type":"Point","coordinates":[-80.313322,27.312492]}},{"properties":{"geo_score":0.857,"zip code":"34956","ivr call volume":49,"id":"a68xykesne6x","geo_precision":"zip","state":"Florida"},"type":"Feature","geometry":{"type":"Point","coordinates":[-80.45192,27.106451]}},{"properties":{"geo_score":0.857,"zip code":"34957","ivr call volume":255,"id":"a68xyklkspbo","geo_precision":"zip","state":"Florida"},"type":"Feature","geometry":{"type":"Point","coordinates":[-80.237943,27.236473]}},{"properties":{"geo_score":0.857,"zip code":"34974","ivr call volume":294,"id":"a68xykdsqwqh","geo_precision":"zip","state":"Florida"},"type":"Feature","geometry":{"type":"Point","coordinates":[-80.827757,27.216626]}},{"properties":{"geo_score":0.857,"zip code":"34983","ivr call volume":848,"id":"a68xykmbapkh","geo_precision":"zip","state":"Florida"},"type":"Feature","geometry":{"type":"Point","coordinates":[-80.347722,27.347284]}},{"properties":{"geo_score":0.857,"zip code":"34994","ivr call volume":1067,"id":"a68xykquihhi","geo_precision":"zip","state":"Florida"},"type":"Feature","geometry":{"type":"Point","coordinates":[-80.254768,27.189748]}}],"is_temporal":false,"author":{"url":"","metadata":"","contact_name":"","contact_address":"","source":"","contact_phone":""},"source":"","pagination":{"sort":null,"start":0,"total":469,"limit":1000000},"state":"complete","tags":"","published":"2014-08-10T21:22:14-04:00","id":67892}