{"type":"FeatureCollection","data_type":"Dataset","url_type":null,"permissions":[{"permissions":{"download":true,"view":true},"group_id":"everyone"}],"classification":null,"title":"OH data v1","count":751,"stream_id":67895,"contributor":{"url":"http://geocommons.com/users/16194","name":"twisecar"},"data_attributes":null,"calculation_params":null,"icon_link":null,"link":"http://geocommons.com/overlays/67895.json","extent":[-84.8494,38.4195,-80.519,41.8528],"geometry_types":["point"],"unique_name":null,"name":"OH data v1","feature_count":751,"description":"","next_feature":null,"is_raster":false,"short_classification":"Y","stats":{"geo_score":{"max":0.857,"mean":0.856619174434093,"variance":5.43854451841999e-05,"stdev":0.00737464881768616,"min":0.714,"median":0.857},"ivr call volume":{"max":2213,"mean":115.362183754993,"variance":36947.9993146915,"stdev":192.218623745701,"min":1,"median":36}},"features":[{"properties":{"geo_score":0.857,"zip code":"43001","ivr call volume":10,"id":"a68xysdq0xwe","geo_precision":"zip","state":"Ohio"},"type":"Feature","geometry":{"type":"Point","coordinates":[-82.612389,40.100513]}},{"properties":{"geo_score":0.857,"zip code":"43003","ivr call volume":21,"id":"a68xys67ae77","geo_precision":"zip","state":"Ohio"},"type":"Feature","geometry":{"type":"Point","coordinates":[-82.981851,40.432283]}},{"properties":{"geo_score":0.857,"zip code":"43011","ivr call volume":17,"id":"a68xys65jj5z","geo_precision":"zip","state":"Ohio"},"type":"Feature","geometry":{"type":"Point","coordinates":[-82.727118,40.321173]}},{"properties":{"geo_score":0.857,"zip code":"43013","ivr call volume":3,"id":"a68xyseb1mt1","geo_precision":"zip","state":"Ohio"},"type":"Feature","geometry":{"type":"Point","coordinates":[-82.688006,40.240162]}},{"properties":{"geo_score":0.857,"zip code":"43014","ivr call volume":22,"id":"a68xyse7xdxr","geo_precision":"zip","state":"Ohio"},"type":"Feature","geometry":{"type":"Point","coordinates":[-82.277657,40.399509]}},{"properties":{"geo_score":0.857,"zip code":"43015","ivr call volume":255,"id":"a68xys8ykl11","geo_precision":"zip","state":"Ohio"},"type":"Feature","geometry":{"type":"Point","coordinates":[-83.012685,40.255618]}},{"properties":{"geo_score":0.857,"zip code":"43016","ivr call volume":354,"id":"a68xys7rzby5","geo_precision":"zip","state":"Ohio"},"type":"Feature","geometry":{"type":"Point","coordinates":[-83.011389,39.969036]}},{"properties":{"geo_score":0.857,"zip code":"43017","ivr call volume":8,"id":"a68xysc9e7qr","geo_precision":"zip","state":"Ohio"},"type":"Feature","geometry":{"type":"Point","coordinates":[-82.814456,40.076041]}},{"properties":{"geo_score":0.857,"zip code":"43019","ivr call volume":26,"id":"a68xysk5konv","geo_precision":"zip","state":"Ohio"},"type":"Feature","geometry":{"type":"Point","coordinates":[-82.618781,40.543393]}},{"properties":{"geo_score":0.857,"zip code":"43022","ivr call volume":10,"id":"a68xysllsjt8","geo_precision":"zip","state":"Ohio"},"type":"Feature","geometry":{"type":"Point","coordinates":[-82.310432,40.32201]}},{"properties":{"geo_score":0.857,"zip code":"43023","ivr call volume":27,"id":"a68xysa8xq40","geo_precision":"zip","state":"Ohio"},"type":"Feature","geometry":{"type":"Point","coordinates":[-82.519883,40.152008]}},{"properties":{"geo_score":0.857,"zip code":"43025","ivr call volume":44,"id":"a68xysekzikp","geo_precision":"zip","state":"Ohio"},"type":"Feature","geometry":{"type":"Point","coordinates":[-82.531548,39.957842]}},{"properties":{"geo_score":0.857,"zip code":"43026","ivr call volume":192,"id":"a68xys64mvss","geo_precision":"zip","state":"Ohio"},"type":"Feature","geometry":{"type":"Point","coordinates":[-83.182135,40.002285]}},{"properties":{"geo_score":0.857,"zip code":"43029","ivr call volume":5,"id":"a68xysgi7s0r","geo_precision":"zip","state":"Ohio"},"type":"Feature","geometry":{"type":"Point","coordinates":[-83.454922,40.078116]}},{"properties":{"geo_score":0.857,"zip code":"43031","ivr call volume":150,"id":"a68xysd98unv","geo_precision":"zip","state":"Ohio"},"type":"Feature","geometry":{"type":"Point","coordinates":[-82.573497,40.15423]}},{"properties":{"geo_score":0.857,"zip code":"43035","ivr call volume":70,"id":"a68xys91tem2","geo_precision":"zip","state":"Ohio"},"type":"Feature","geometry":{"type":"Point","coordinates":[-82.987804,40.187886]}},{"properties":{"geo_score":0.857,"zip code":"43037","ivr call volume":15,"id":"a68xyskawkdm","geo_precision":"zip","state":"Ohio"},"type":"Feature","geometry":{"type":"Point","coordinates":[-82.322187,40.29519]}},{"properties":{"geo_score":0.857,"zip code":"43040","ivr call volume":134,"id":"a68xysb7qdkl","geo_precision":"zip","state":"Ohio"},"type":"Feature","geometry":{"type":"Point","coordinates":[-83.246861,40.212561]}},{"properties":{"geo_score":0.857,"zip code":"43044","ivr call volume":17,"id":"a68xysd0rcvz","geo_precision":"zip","state":"Ohio"},"type":"Feature","geometry":{"type":"Point","coordinates":[-83.636871,40.07867]}},{"properties":{"geo_score":0.857,"zip code":"43045","ivr call volume":3,"id":"a68xys8rmj73","geo_precision":"zip","state":"Ohio"},"type":"Feature","geometry":{"type":"Point","coordinates":[-83.441008,40.170089]}},{"properties":{"geo_score":0.857,"zip code":"43046","ivr call volume":20,"id":"a68xysd7i1rc","geo_precision":"zip","state":"Ohio"},"type":"Feature","geometry":{"type":"Point","coordinates":[-82.517658,39.922008]}},{"properties":{"geo_score":0.857,"zip code":"43050","ivr call volume":289,"id":"a68xysi1dblq","geo_precision":"zip","state":"Ohio"},"type":"Feature","geometry":{"type":"Point","coordinates":[-82.477385,40.406173]}},{"properties":{"geo_score":0.857,"zip code":"43054","ivr call volume":344,"id":"a68xysf4yrfg","geo_precision":"zip","state":"Ohio"},"type":"Feature","geometry":{"type":"Point","coordinates":[-82.814347,40.085113]}},{"properties":{"geo_score":0.857,"zip code":"43055","ivr call volume":600,"id":"a68xyse45bk5","geo_precision":"zip","state":"Ohio"},"type":"Feature","geometry":{"type":"Point","coordinates":[-82.429322,40.125898]}},{"properties":{"geo_score":0.857,"zip code":"43056","ivr call volume":66,"id":"a68xyskku8ws","geo_precision":"zip","state":"Ohio"},"type":"Feature","geometry":{"type":"Point","coordinates":[-82.467105,40.004407]}},{"properties":{"geo_score":0.857,"zip code":"43060","ivr call volume":26,"id":"a68xysc4pzv5","geo_precision":"zip","state":"Ohio"},"type":"Feature","geometry":{"type":"Point","coordinates":[-83.568531,40.204788]}},{"properties":{"geo_score":0.857,"zip code":"43061","ivr call volume":11,"id":"a68xys7ehx5z","geo_precision":"zip","state":"Ohio"},"type":"Feature","geometry":{"type":"Point","coordinates":[-83.157413,40.276728]}},{"properties":{"geo_score":0.857,"zip code":"43062","ivr call volume":259,"id":"a68xysfylwit","geo_precision":"zip","state":"Ohio"},"type":"Feature","geometry":{"type":"Point","coordinates":[-82.730449,39.95673]}},{"properties":{"geo_score":0.857,"zip code":"43064","ivr call volume":63,"id":"a68xysgq25p7","geo_precision":"zip","state":"Ohio"},"type":"Feature","geometry":{"type":"Point","coordinates":[-83.387975,40.049505]}},{"properties":{"geo_score":0.857,"zip code":"43065","ivr call volume":32,"id":"a68xyskyfi23","geo_precision":"zip","state":"Ohio"},"type":"Feature","geometry":{"type":"Point","coordinates":[-83.085188,40.216729]}},{"properties":{"geo_score":0.857,"zip code":"43066","ivr call volume":1,"id":"a68xyslc6g1w","geo_precision":"zip","state":"Ohio"},"type":"Feature","geometry":{"type":"Point","coordinates":[-83.172985,40.380541]}},{"properties":{"geo_score":0.857,"zip code":"43067","ivr call volume":7,"id":"a68xysfyvpjp","geo_precision":"zip","state":"Ohio"},"type":"Feature","geometry":{"type":"Point","coordinates":[-83.453258,40.407835]}},{"properties":{"geo_score":0.857,"zip code":"43068","ivr call volume":661,"id":"a68xys9kwi06","geo_precision":"zip","state":"Ohio"},"type":"Feature","geometry":{"type":"Point","coordinates":[-82.883511,39.933953]}},{"properties":{"geo_score":0.857,"zip code":"43071","ivr call volume":28,"id":"a68xys9o1b5q","geo_precision":"zip","state":"Ohio"},"type":"Feature","geometry":{"type":"Point","coordinates":[-82.338486,40.200344]}},{"properties":{"geo_score":0.857,"zip code":"43072","ivr call volume":27,"id":"a68xyshmd47e","geo_precision":"zip","state":"Ohio"},"type":"Feature","geometry":{"type":"Point","coordinates":[-83.921324,40.157]}},{"properties":{"geo_score":0.857,"zip code":"43074","ivr call volume":57,"id":"a68xyscwzquo","geo_precision":"zip","state":"Ohio"},"type":"Feature","geometry":{"type":"Point","coordinates":[-82.789342,40.24784]}},{"properties":{"geo_score":0.857,"zip code":"43076","ivr call volume":33,"id":"a68xyscep081","geo_precision":"zip","state":"Ohio"},"type":"Feature","geometry":{"type":"Point","coordinates":[-82.486545,39.920342]}},{"properties":{"geo_score":0.857,"zip code":"43078","ivr call volume":141,"id":"a68xyslc0oxl","geo_precision":"zip","state":"Ohio"},"type":"Feature","geometry":{"type":"Point","coordinates":[-83.918823,40.055614]}},{"properties":{"geo_score":0.857,"zip code":"43080","ivr call volume":14,"id":"a68xysgc3u90","geo_precision":"zip","state":"Ohio"},"type":"Feature","geometry":{"type":"Point","coordinates":[-82.444279,40.17595]}},{"properties":{"geo_score":0.857,"zip code":"43081","ivr call volume":479,"id":"a68xys7iyxtl","geo_precision":"zip","state":"Ohio"},"type":"Feature","geometry":{"type":"Point","coordinates":[-82.916569,40.088675]}},{"properties":{"geo_score":0.857,"zip code":"43085","ivr call volume":862,"id":"a68xys94e20j","geo_precision":"zip","state":"Ohio"},"type":"Feature","geometry":{"type":"Point","coordinates":[-83.025185,40.082008]}},{"properties":{"geo_score":0.857,"zip code":"43102","ivr call volume":18,"id":"a68xysgnrd37","geo_precision":"zip","state":"Ohio"},"type":"Feature","geometry":{"type":"Point","coordinates":[-82.75656,39.598397]}},{"properties":{"geo_score":0.857,"zip code":"43103","ivr call volume":51,"id":"a68xysbykunc","geo_precision":"zip","state":"Ohio"},"type":"Feature","geometry":{"type":"Point","coordinates":[-82.912679,39.747286]}},{"properties":{"geo_score":0.857,"zip code":"43105","ivr call volume":19,"id":"a68xys5qchd9","geo_precision":"zip","state":"Ohio"},"type":"Feature","geometry":{"type":"Point","coordinates":[-82.691279,39.867564]}},{"properties":{"geo_score":0.857,"zip code":"43106","ivr call volume":19,"id":"a68xyscxfg8c","geo_precision":"zip","state":"Ohio"},"type":"Feature","geometry":{"type":"Point","coordinates":[-83.449363,39.677839]}},{"properties":{"geo_score":0.857,"zip code":"43107","ivr call volume":18,"id":"a68xysem5tet","geo_precision":"zip","state":"Ohio"},"type":"Feature","geometry":{"type":"Point","coordinates":[-82.477101,39.654788]}},{"properties":{"geo_score":0.857,"zip code":"43110","ivr call volume":234,"id":"a68xysbw4cuk","geo_precision":"zip","state":"Ohio"},"type":"Feature","geometry":{"type":"Point","coordinates":[-82.784895,39.839786]}},{"properties":{"geo_score":0.857,"zip code":"43112","ivr call volume":19,"id":"a68xys9uzmdk","geo_precision":"zip","state":"Ohio"},"type":"Feature","geometry":{"type":"Point","coordinates":[-82.733503,39.818675]}},{"properties":{"geo_score":0.857,"zip code":"43113","ivr call volume":185,"id":"a68xys5v9wee","geo_precision":"zip","state":"Ohio"},"type":"Feature","geometry":{"type":"Point","coordinates":[-82.884066,39.563674]}},{"properties":{"geo_score":0.857,"zip code":"43115","ivr call volume":14,"id":"a68xysdzzlhi","geo_precision":"zip","state":"Ohio"},"type":"Feature","geometry":{"type":"Point","coordinates":[-83.099899,39.479662]}},{"properties":{"geo_score":0.857,"zip code":"43119","ivr call volume":198,"id":"a68xys7wk6nn","geo_precision":"zip","state":"Ohio"},"type":"Feature","geometry":{"type":"Point","coordinates":[-83.174634,39.95034]}},{"properties":{"geo_score":0.857,"zip code":"43123","ivr call volume":299,"id":"a68xysa47k7w","geo_precision":"zip","state":"Ohio"},"type":"Feature","geometry":{"type":"Point","coordinates":[-83.086853,39.897563]}},{"properties":{"geo_score":0.857,"zip code":"43125","ivr call volume":56,"id":"a68xysh8na88","geo_precision":"zip","state":"Ohio"},"type":"Feature","geometry":{"type":"Point","coordinates":[-82.88487,39.84692]}},{"properties":{"geo_score":0.857,"zip code":"43128","ivr call volume":7,"id":"a68xyshgjs8y","geo_precision":"zip","state":"Ohio"},"type":"Feature","geometry":{"type":"Point","coordinates":[-83.609644,39.622839]}},{"properties":{"geo_score":0.857,"zip code":"43130","ivr call volume":411,"id":"a68xysbuoaho","geo_precision":"zip","state":"Ohio"},"type":"Feature","geometry":{"type":"Point","coordinates":[-82.76656,39.727564]}},{"properties":{"geo_score":0.857,"zip code":"43135","ivr call volume":18,"id":"a68xysepppf5","geo_precision":"zip","state":"Ohio"},"type":"Feature","geometry":{"type":"Point","coordinates":[-82.670999,39.496731]}},{"properties":{"geo_score":0.857,"zip code":"43137","ivr call volume":237,"id":"a68xysgyipe8","geo_precision":"zip","state":"Ohio"},"type":"Feature","geometry":{"type":"Point","coordinates":[-83.003239,39.832286]}},{"properties":{"geo_score":0.857,"zip code":"43138","ivr call volume":176,"id":"a68xys6wmzdd","geo_precision":"zip","state":"Ohio"},"type":"Feature","geometry":{"type":"Point","coordinates":[-82.428488,39.538956]}},{"properties":{"geo_score":0.857,"zip code":"43140","ivr call volume":101,"id":"a68xysfo2nmy","geo_precision":"zip","state":"Ohio"},"type":"Feature","geometry":{"type":"Point","coordinates":[-83.498533,39.999783]}},{"properties":{"geo_score":0.857,"zip code":"43143","ivr call volume":43,"id":"a68xys8ouupe","geo_precision":"zip","state":"Ohio"},"type":"Feature","geometry":{"type":"Point","coordinates":[-83.344361,39.68895]}},{"properties":{"geo_score":0.857,"zip code":"43145","ivr call volume":17,"id":"a68xys8k9krs","geo_precision":"zip","state":"Ohio"},"type":"Feature","geometry":{"type":"Point","coordinates":[-83.190467,39.561451]}},{"properties":{"geo_score":0.857,"zip code":"43146","ivr call volume":59,"id":"a68xyshokqke","geo_precision":"zip","state":"Ohio"},"type":"Feature","geometry":{"type":"Point","coordinates":[-83.100187,39.763951]}},{"properties":{"geo_score":0.857,"zip code":"43148","ivr call volume":4,"id":"a68xys9xqclz","geo_precision":"zip","state":"Ohio"},"type":"Feature","geometry":{"type":"Point","coordinates":[-82.472379,39.847842]}},{"properties":{"geo_score":0.857,"zip code":"43150","ivr call volume":9,"id":"a68xysfxei7u","geo_precision":"zip","state":"Ohio"},"type":"Feature","geometry":{"type":"Point","coordinates":[-82.438446,39.77882]}},{"properties":{"geo_score":0.857,"zip code":"43153","ivr call volume":5,"id":"a68xys6qmda6","geo_precision":"zip","state":"Ohio"},"type":"Feature","geometry":{"type":"Point","coordinates":[-83.531355,39.748496]}},{"properties":{"geo_score":0.857,"zip code":"43155","ivr call volume":22,"id":"a68xysd5cgwj","geo_precision":"zip","state":"Ohio"},"type":"Feature","geometry":{"type":"Point","coordinates":[-82.532092,39.63769]}},{"properties":{"geo_score":0.857,"zip code":"43160","ivr call volume":122,"id":"a68xysep3pjw","geo_precision":"zip","state":"Ohio"},"type":"Feature","geometry":{"type":"Point","coordinates":[-83.483252,39.475341]}},{"properties":{"geo_score":0.857,"zip code":"43162","ivr call volume":76,"id":"a68xysbrl1d0","geo_precision":"zip","state":"Ohio"},"type":"Feature","geometry":{"type":"Point","coordinates":[-83.281583,39.88895]}},{"properties":{"geo_score":0.857,"zip code":"43164","ivr call volume":7,"id":"a68xysicr2v4","geo_precision":"zip","state":"Ohio"},"type":"Feature","geometry":{"type":"Point","coordinates":[-83.126646,39.604282]}},{"properties":{"geo_score":0.857,"zip code":"43201","ivr call volume":146,"id":"a68xysdheahv","geo_precision":"zip","state":"Ohio"},"type":"Feature","geometry":{"type":"Point","coordinates":[-83.011389,39.969036]}},{"properties":{"geo_score":0.857,"zip code":"43202","ivr call volume":315,"id":"a68xysglbth8","geo_precision":"zip","state":"Ohio"},"type":"Feature","geometry":{"type":"Point","coordinates":[-83.011389,39.969036]}},{"properties":{"geo_score":0.857,"zip code":"43204","ivr call volume":274,"id":"a68xysak4rzd","geo_precision":"zip","state":"Ohio"},"type":"Feature","geometry":{"type":"Point","coordinates":[-83.072408,39.965619]}},{"properties":{"geo_score":0.857,"zip code":"43205","ivr call volume":225,"id":"a68xysjltnf5","geo_precision":"zip","state":"Ohio"},"type":"Feature","geometry":{"type":"Point","coordinates":[-83.011389,39.969036]}},{"properties":{"geo_score":0.857,"zip code":"43206","ivr call volume":146,"id":"a68xysgmwkcm","geo_precision":"zip","state":"Ohio"},"type":"Feature","geometry":{"type":"Point","coordinates":[-83.011389,39.969036]}},{"properties":{"geo_score":0.857,"zip code":"43209","ivr call volume":288,"id":"a68xysaf70m4","geo_precision":"zip","state":"Ohio"},"type":"Feature","geometry":{"type":"Point","coordinates":[-82.93768,39.968953]}},{"properties":{"geo_score":0.857,"zip code":"43212","ivr call volume":418,"id":"a68xysis53kp","geo_precision":"zip","state":"Ohio"},"type":"Feature","geometry":{"type":"Point","coordinates":[-83.061575,39.986731]}},{"properties":{"geo_score":0.857,"zip code":"43215","ivr call volume":2213,"id":"a68xysgh9wu3","geo_precision":"zip","state":"Ohio"},"type":"Feature","geometry":{"type":"Point","coordinates":[-82.877131,39.891745]}},{"properties":{"geo_score":0.857,"zip code":"43220","ivr call volume":330,"id":"a68xysls3c6w","geo_precision":"zip","state":"Ohio"},"type":"Feature","geometry":{"type":"Point","coordinates":[-83.011389,39.969036]}},{"properties":{"geo_score":0.857,"zip code":"43230","ivr call volume":311,"id":"a68xyslsgszv","geo_precision":"zip","state":"Ohio"},"type":"Feature","geometry":{"type":"Point","coordinates":[-82.879345,40.019231]}},{"properties":{"geo_score":0.857,"zip code":"43231","ivr call volume":2,"id":"a68xysib2wxj","geo_precision":"zip","state":"Ohio"},"type":"Feature","geometry":{"type":"Point","coordinates":[-82.933811,40.084463]}},{"properties":{"geo_score":0.857,"zip code":"43302","ivr call volume":455,"id":"a68xysai6v9d","geo_precision":"zip","state":"Ohio"},"type":"Feature","geometry":{"type":"Point","coordinates":[-83.153526,40.687558]}},{"properties":{"geo_score":0.857,"zip code":"43310","ivr call volume":12,"id":"a68xys5lgphl","geo_precision":"zip","state":"Ohio"},"type":"Feature","geometry":{"type":"Point","coordinates":[-83.732433,40.47283]}},{"properties":{"geo_score":0.857,"zip code":"43311","ivr call volume":165,"id":"a68xys7fpn78","geo_precision":"zip","state":"Ohio"},"type":"Feature","geometry":{"type":"Point","coordinates":[-83.623263,40.427277]}},{"properties":{"geo_score":0.857,"zip code":"43314","ivr call volume":19,"id":"a68xysdmo1sz","geo_precision":"zip","state":"Ohio"},"type":"Feature","geometry":{"type":"Point","coordinates":[-82.996853,40.583115]}},{"properties":{"geo_score":0.857,"zip code":"43315","ivr call volume":23,"id":"a68xys75zt12","geo_precision":"zip","state":"Ohio"},"type":"Feature","geometry":{"type":"Point","coordinates":[-82.852969,40.479648]}},{"properties":{"geo_score":0.857,"zip code":"43316","ivr call volume":13,"id":"a68xys5uez14","geo_precision":"zip","state":"Ohio"},"type":"Feature","geometry":{"type":"Point","coordinates":[-83.386591,41.009777]}},{"properties":{"geo_score":0.857,"zip code":"43318","ivr call volume":19,"id":"a68xysg2miqo","geo_precision":"zip","state":"Ohio"},"type":"Feature","geometry":{"type":"Point","coordinates":[-83.930494,40.345607]}},{"properties":{"geo_score":0.857,"zip code":"43319","ivr call volume":9,"id":"a68xys8vv2ve","geo_precision":"zip","state":"Ohio"},"type":"Feature","geometry":{"type":"Point","coordinates":[-83.728511,40.303893]}},{"properties":{"geo_score":0.857,"zip code":"43323","ivr call volume":1,"id":"a68xyslrmad9","geo_precision":"zip","state":"Ohio"},"type":"Feature","geometry":{"type":"Point","coordinates":[-83.215195,40.738668]}},{"properties":{"geo_score":0.857,"zip code":"43324","ivr call volume":7,"id":"a68xysg0dj04","geo_precision":"zip","state":"Ohio"},"type":"Feature","geometry":{"type":"Point","coordinates":[-83.809604,40.43991]}},{"properties":{"geo_score":0.857,"zip code":"43326","ivr call volume":79,"id":"a68xysj078sv","geo_precision":"zip","state":"Ohio"},"type":"Feature","geometry":{"type":"Point","coordinates":[-83.107134,40.498949]}},{"properties":{"geo_score":0.857,"zip code":"43332","ivr call volume":20,"id":"a68xys9yno0l","geo_precision":"zip","state":"Ohio"},"type":"Feature","geometry":{"type":"Point","coordinates":[-83.344599,40.596476]}},{"properties":{"geo_score":0.857,"zip code":"43334","ivr call volume":23,"id":"a68xysjy4h5e","geo_precision":"zip","state":"Ohio"},"type":"Feature","geometry":{"type":"Point","coordinates":[-82.890736,40.377839]}},{"properties":{"geo_score":0.857,"zip code":"43337","ivr call volume":7,"id":"a68xysjp4hbp","geo_precision":"zip","state":"Ohio"},"type":"Feature","geometry":{"type":"Point","coordinates":[-83.26335,40.667978]}},{"properties":{"geo_score":0.857,"zip code":"43338","ivr call volume":131,"id":"a68xysgy259a","geo_precision":"zip","state":"Ohio"},"type":"Feature","geometry":{"type":"Point","coordinates":[-82.729898,40.579504]}},{"properties":{"geo_score":0.857,"zip code":"43340","ivr call volume":2,"id":"a68xysiba9xk","geo_precision":"zip","state":"Ohio"},"type":"Feature","geometry":{"type":"Point","coordinates":[-83.495423,40.561493]}},{"properties":{"geo_score":0.857,"zip code":"43342","ivr call volume":16,"id":"a68xysfa29wd","geo_precision":"zip","state":"Ohio"},"type":"Feature","geometry":{"type":"Point","coordinates":[-83.191304,40.484226]}},{"properties":{"geo_score":0.857,"zip code":"43344","ivr call volume":16,"id":"a68xysd6bdwa","geo_precision":"zip","state":"Ohio"},"type":"Feature","geometry":{"type":"Point","coordinates":[-83.378533,40.484224]}},{"properties":{"geo_score":0.857,"zip code":"43345","ivr call volume":6,"id":"a68xyshv38fd","geo_precision":"zip","state":"Ohio"},"type":"Feature","geometry":{"type":"Point","coordinates":[-83.58265,40.532668]}},{"properties":{"geo_score":0.857,"zip code":"43347","ivr call volume":5,"id":"a68xysl8x79j","geo_precision":"zip","state":"Ohio"},"type":"Feature","geometry":{"type":"Point","coordinates":[-83.635486,40.500609]}},{"properties":{"geo_score":0.857,"zip code":"43348","ivr call volume":54,"id":"a68xysi4pwh7","geo_precision":"zip","state":"Ohio"},"type":"Feature","geometry":{"type":"Point","coordinates":[-83.890243,40.402746]}},{"properties":{"geo_score":0.857,"zip code":"43351","ivr call volume":44,"id":"a68xys8aii24","geo_precision":"zip","state":"Ohio"},"type":"Feature","geometry":{"type":"Point","coordinates":[-83.270199,40.949223]}},{"properties":{"geo_score":0.857,"zip code":"43356","ivr call volume":10,"id":"a68xysd1bqxl","geo_precision":"zip","state":"Ohio"},"type":"Feature","geometry":{"type":"Point","coordinates":[-83.073799,40.433949]}},{"properties":{"geo_score":0.857,"zip code":"43357","ivr call volume":31,"id":"a68xysl4h5wl","geo_precision":"zip","state":"Ohio"},"type":"Feature","geometry":{"type":"Point","coordinates":[-83.660208,40.299778]}},{"properties":{"geo_score":0.857,"zip code":"43358","ivr call volume":13,"id":"a68xysga10hc","geo_precision":"zip","state":"Ohio"},"type":"Feature","geometry":{"type":"Point","coordinates":[-83.589373,40.377556]}},{"properties":{"geo_score":0.857,"zip code":"43402","ivr call volume":188,"id":"a68xysltsa4q","geo_precision":"zip","state":"Ohio"},"type":"Feature","geometry":{"type":"Point","coordinates":[-83.622434,41.428941]}},{"properties":{"geo_score":0.857,"zip code":"43407","ivr call volume":7,"id":"a68xys5fu15r","geo_precision":"zip","state":"Ohio"},"type":"Feature","geometry":{"type":"Point","coordinates":[-83.244604,41.278621]}},{"properties":{"geo_score":0.857,"zip code":"43410","ivr call volume":83,"id":"a68xysf9djg5","geo_precision":"zip","state":"Ohio"},"type":"Feature","geometry":{"type":"Point","coordinates":[-82.936857,41.271165]}},{"properties":{"geo_score":0.857,"zip code":"43413","ivr call volume":2,"id":"a68xys7drm3x","geo_precision":"zip","state":"Ohio"},"type":"Feature","geometry":{"type":"Point","coordinates":[-83.688545,41.226441]}},{"properties":{"geo_score":0.857,"zip code":"43416","ivr call volume":29,"id":"a68xysfidrh6","geo_precision":"zip","state":"Ohio"},"type":"Feature","geometry":{"type":"Point","coordinates":[-83.078075,41.57267]}},{"properties":{"geo_score":0.857,"zip code":"43420","ivr call volume":215,"id":"a68xysc35xax","geo_precision":"zip","state":"Ohio"},"type":"Feature","geometry":{"type":"Point","coordinates":[-83.155198,41.351441]}},{"properties":{"geo_score":0.857,"zip code":"43430","ivr call volume":46,"id":"a68xys6lok9t","geo_precision":"zip","state":"Ohio"},"type":"Feature","geometry":{"type":"Point","coordinates":[-83.352477,41.524657]}},{"properties":{"geo_score":0.857,"zip code":"43431","ivr call volume":34,"id":"a68xyscahh5l","geo_precision":"zip","state":"Ohio"},"type":"Feature","geometry":{"type":"Point","coordinates":[-83.37826,41.340886]}},{"properties":{"geo_score":0.857,"zip code":"43435","ivr call volume":5,"id":"a68xysijb0yr","geo_precision":"zip","state":"Ohio"},"type":"Feature","geometry":{"type":"Point","coordinates":[-83.311313,41.31283]}},{"properties":{"geo_score":0.857,"zip code":"43440","ivr call volume":30,"id":"a68xysljfvh0","geo_precision":"zip","state":"Ohio"},"type":"Feature","geometry":{"type":"Point","coordinates":[-82.735462,41.540328]}},{"properties":{"geo_score":0.857,"zip code":"43443","ivr call volume":20,"id":"a68xysaliob9","geo_precision":"zip","state":"Ohio"},"type":"Feature","geometry":{"type":"Point","coordinates":[-83.473648,41.457596]}},{"properties":{"geo_score":0.857,"zip code":"43449","ivr call volume":62,"id":"a68xysdmndfj","geo_precision":"zip","state":"Ohio"},"type":"Feature","geometry":{"type":"Point","coordinates":[-83.095754,41.609771]}},{"properties":{"geo_score":0.857,"zip code":"43450","ivr call volume":12,"id":"a68xyshqiqjt","geo_precision":"zip","state":"Ohio"},"type":"Feature","geometry":{"type":"Point","coordinates":[-83.522986,41.402552]}},{"properties":{"geo_score":0.857,"zip code":"43451","ivr call volume":27,"id":"a68xyslrdv07","geo_precision":"zip","state":"Ohio"},"type":"Feature","geometry":{"type":"Point","coordinates":[-83.645766,41.297552]}},{"properties":{"geo_score":0.857,"zip code":"43452","ivr call volume":148,"id":"a68xys9jdvlf","geo_precision":"zip","state":"Ohio"},"type":"Feature","geometry":{"type":"Point","coordinates":[-82.82241,41.569495]}},{"properties":{"geo_score":0.857,"zip code":"43457","ivr call volume":6,"id":"a68xyshh1aom","geo_precision":"zip","state":"Ohio"},"type":"Feature","geometry":{"type":"Point","coordinates":[-83.468539,41.250886]}},{"properties":{"geo_score":0.857,"zip code":"43465","ivr call volume":19,"id":"a68xyscsy1x2","geo_precision":"zip","state":"Ohio"},"type":"Feature","geometry":{"type":"Point","coordinates":[-83.511321,41.558662]}},{"properties":{"geo_score":0.857,"zip code":"43466","ivr call volume":10,"id":"a68xyshwn0c8","geo_precision":"zip","state":"Ohio"},"type":"Feature","geometry":{"type":"Point","coordinates":[-83.524683,41.296984]}},{"properties":{"geo_score":0.857,"zip code":"43469","ivr call volume":8,"id":"a68xysdveyu4","geo_precision":"zip","state":"Ohio"},"type":"Feature","geometry":{"type":"Point","coordinates":[-83.31686,41.42021]}},{"properties":{"geo_score":0.857,"zip code":"43502","ivr call volume":30,"id":"a68xysiwmu3s","geo_precision":"zip","state":"Ohio"},"type":"Feature","geometry":{"type":"Point","coordinates":[-84.308283,41.579218]}},{"properties":{"geo_score":0.857,"zip code":"43504","ivr call volume":23,"id":"a68xysb0evly","geo_precision":"zip","state":"Ohio"},"type":"Feature","geometry":{"type":"Point","coordinates":[-83.81744,41.685607]}},{"properties":{"geo_score":0.857,"zip code":"43506","ivr call volume":113,"id":"a68xysc0r73u","geo_precision":"zip","state":"Ohio"},"type":"Feature","geometry":{"type":"Point","coordinates":[-84.61023,41.42894]}},{"properties":{"geo_score":0.857,"zip code":"43512","ivr call volume":175,"id":"a68xysdpmnyz","geo_precision":"zip","state":"Ohio"},"type":"Feature","geometry":{"type":"Point","coordinates":[-84.515505,41.283939]}},{"properties":{"geo_score":0.857,"zip code":"43515","ivr call volume":24,"id":"a68xysgysodq","geo_precision":"zip","state":"Ohio"},"type":"Feature","geometry":{"type":"Point","coordinates":[-84.064946,41.626996]}},{"properties":{"geo_score":0.857,"zip code":"43516","ivr call volume":14,"id":"a68xysjhy4oe","geo_precision":"zip","state":"Ohio"},"type":"Feature","geometry":{"type":"Point","coordinates":[-83.941053,41.298384]}},{"properties":{"geo_score":0.857,"zip code":"43517","ivr call volume":20,"id":"a68xysihyibf","geo_precision":"zip","state":"Ohio"},"type":"Feature","geometry":{"type":"Point","coordinates":[-84.620862,41.554099]}},{"properties":{"geo_score":0.857,"zip code":"43518","ivr call volume":11,"id":"a68xysjxw7bn","geo_precision":"zip","state":"Ohio"},"type":"Feature","geometry":{"type":"Point","coordinates":[-84.788568,41.633106]}},{"properties":{"geo_score":0.857,"zip code":"43521","ivr call volume":15,"id":"a68xysaxw7vp","geo_precision":"zip","state":"Ohio"},"type":"Feature","geometry":{"type":"Point","coordinates":[-84.328004,41.622829]}},{"properties":{"geo_score":0.857,"zip code":"43522","ivr call volume":46,"id":"a68xysjnxere","geo_precision":"zip","state":"Ohio"},"type":"Feature","geometry":{"type":"Point","coordinates":[-83.834935,41.394707]}},{"properties":{"geo_score":0.857,"zip code":"43524","ivr call volume":8,"id":"a68xysi23l41","geo_precision":"zip","state":"Ohio"},"type":"Feature","geometry":{"type":"Point","coordinates":[-84.035807,41.230082]}},{"properties":{"geo_score":0.857,"zip code":"43525","ivr call volume":3,"id":"a68xysjz03b2","geo_precision":"zip","state":"Ohio"},"type":"Feature","geometry":{"type":"Point","coordinates":[-83.705486,41.466702]}},{"properties":{"geo_score":0.857,"zip code":"43526","ivr call volume":40,"id":"a68xysil1q5b","geo_precision":"zip","state":"Ohio"},"type":"Feature","geometry":{"type":"Point","coordinates":[-84.678021,41.325013]}},{"properties":{"geo_score":0.857,"zip code":"43527","ivr call volume":33,"id":"a68xyshe13ei","geo_precision":"zip","state":"Ohio"},"type":"Feature","geometry":{"type":"Point","coordinates":[-84.227445,41.267548]}},{"properties":{"geo_score":0.857,"zip code":"43528","ivr call volume":232,"id":"a68xys7cxqwn","geo_precision":"zip","state":"Ohio"},"type":"Feature","geometry":{"type":"Point","coordinates":[-83.730771,41.605607]}},{"properties":{"geo_score":0.857,"zip code":"43532","ivr call volume":18,"id":"a68xysjx6j3n","geo_precision":"zip","state":"Ohio"},"type":"Feature","geometry":{"type":"Point","coordinates":[-83.951611,41.423663]}},{"properties":{"geo_score":0.857,"zip code":"43533","ivr call volume":18,"id":"a68xysgqjgn3","geo_precision":"zip","state":"Ohio"},"type":"Feature","geometry":{"type":"Point","coordinates":[-84.036334,41.699773]}},{"properties":{"geo_score":0.857,"zip code":"43534","ivr call volume":5,"id":"a68xys8mlwvq","geo_precision":"zip","state":"Ohio"},"type":"Feature","geometry":{"type":"Point","coordinates":[-83.941313,41.356582]}},{"properties":{"geo_score":0.857,"zip code":"43535","ivr call volume":5,"id":"a68xys5onevx","geo_precision":"zip","state":"Ohio"},"type":"Feature","geometry":{"type":"Point","coordinates":[-84.068556,41.298383]}},{"properties":{"geo_score":0.857,"zip code":"43537","ivr call volume":525,"id":"a68xysj5b6n6","geo_precision":"zip","state":"Ohio"},"type":"Feature","geometry":{"type":"Point","coordinates":[-83.685036,41.571251]}},{"properties":{"geo_score":0.857,"zip code":"43540","ivr call volume":6,"id":"a68xys9lrpgi","geo_precision":"zip","state":"Ohio"},"type":"Feature","geometry":{"type":"Point","coordinates":[-83.976333,41.711718]}},{"properties":{"geo_score":0.857,"zip code":"43543","ivr call volume":40,"id":"a68xysfneiz3","geo_precision":"zip","state":"Ohio"},"type":"Feature","geometry":{"type":"Point","coordinates":[-84.556617,41.571995]}},{"properties":{"geo_score":0.857,"zip code":"43545","ivr call volume":84,"id":"a68xysgagmt2","geo_precision":"zip","state":"Ohio"},"type":"Feature","geometry":{"type":"Point","coordinates":[-84.144115,41.456996]}},{"properties":{"geo_score":0.857,"zip code":"43548","ivr call volume":22,"id":"a68xyslcggva","geo_precision":"zip","state":"Ohio"},"type":"Feature","geometry":{"type":"Point","coordinates":[-84.189945,41.180327]}},{"properties":{"geo_score":0.857,"zip code":"43549","ivr call volume":11,"id":"a68xys8gzrnh","geo_precision":"zip","state":"Ohio"},"type":"Feature","geometry":{"type":"Point","coordinates":[-84.51582,41.361864]}},{"properties":{"geo_score":0.857,"zip code":"43551","ivr call volume":149,"id":"a68xyshk41d4","geo_precision":"zip","state":"Ohio"},"type":"Feature","geometry":{"type":"Point","coordinates":[-83.566878,41.535052]}},{"properties":{"geo_score":0.857,"zip code":"43554","ivr call volume":26,"id":"a68xys64nj0f","geo_precision":"zip","state":"Ohio"},"type":"Feature","geometry":{"type":"Point","coordinates":[-84.585241,41.648218]}},{"properties":{"geo_score":0.857,"zip code":"43556","ivr call volume":12,"id":"a68xysa8fxxy","geo_precision":"zip","state":"Ohio"},"type":"Feature","geometry":{"type":"Point","coordinates":[-84.569545,41.318045]}},{"properties":{"geo_score":0.857,"zip code":"43557","ivr call volume":17,"id":"a68xysjybz7n","geo_precision":"zip","state":"Ohio"},"type":"Feature","geometry":{"type":"Point","coordinates":[-84.409876,41.488708]}},{"properties":{"geo_score":0.857,"zip code":"43558","ivr call volume":61,"id":"a68xys832mve","geo_precision":"zip","state":"Ohio"},"type":"Feature","geometry":{"type":"Point","coordinates":[-83.922166,41.55533]}},{"properties":{"geo_score":0.857,"zip code":"43560","ivr call volume":340,"id":"a68xysh2uogn","geo_precision":"zip","state":"Ohio"},"type":"Feature","geometry":{"type":"Point","coordinates":[-83.742161,41.68144]}},{"properties":{"geo_score":0.857,"zip code":"43566","ivr call volume":35,"id":"a68xyseaki6v","geo_precision":"zip","state":"Ohio"},"type":"Feature","geometry":{"type":"Point","coordinates":[-83.765287,41.513751]}},{"properties":{"geo_score":0.857,"zip code":"43567","ivr call volume":83,"id":"a68xysaniu3a","geo_precision":"zip","state":"Ohio"},"type":"Feature","geometry":{"type":"Point","coordinates":[-84.206059,41.603384]}},{"properties":{"geo_score":0.857,"zip code":"43569","ivr call volume":21,"id":"a68xys6iz1zx","geo_precision":"zip","state":"Ohio"},"type":"Feature","geometry":{"type":"Point","coordinates":[-83.796033,41.35002]}},{"properties":{"geo_score":0.857,"zip code":"43570","ivr call volume":17,"id":"a68xysgl3dt0","geo_precision":"zip","state":"Ohio"},"type":"Feature","geometry":{"type":"Point","coordinates":[-84.447033,41.591453]}},{"properties":{"geo_score":0.857,"zip code":"43571","ivr call volume":22,"id":"a68xysdjc5lf","geo_precision":"zip","state":"Ohio"},"type":"Feature","geometry":{"type":"Point","coordinates":[-83.801789,41.509602]}},{"properties":{"geo_score":0.857,"zip code":"43601","ivr call volume":1021,"id":"a68xysaxj4he","geo_precision":"zip","state":"Ohio"},"type":"Feature","geometry":{"type":"Point","coordinates":[-83.569359,41.720684]}},{"properties":{"geo_score":0.857,"zip code":"43604","ivr call volume":36,"id":"a68xys6l1dyb","geo_precision":"zip","state":"Ohio"},"type":"Feature","geometry":{"type":"Point","coordinates":[-83.536833,41.655798]}},{"properties":{"geo_score":0.857,"zip code":"43605","ivr call volume":294,"id":"a68xyshtemh5","geo_precision":"zip","state":"Ohio"},"type":"Feature","geometry":{"type":"Point","coordinates":[-83.508482,41.652548]}},{"properties":{"geo_score":0.857,"zip code":"43607","ivr call volume":485,"id":"a68xys6nmd4j","geo_precision":"zip","state":"Ohio"},"type":"Feature","geometry":{"type":"Point","coordinates":[-83.606785,41.647399]}},{"properties":{"geo_score":0.857,"zip code":"43609","ivr call volume":90,"id":"a68xysif6xjf","geo_precision":"zip","state":"Ohio"},"type":"Feature","geometry":{"type":"Point","coordinates":[-83.584234,41.624749]}},{"properties":{"geo_score":0.857,"zip code":"43611","ivr call volume":180,"id":"a68xysfaj0cz","geo_precision":"zip","state":"Ohio"},"type":"Feature","geometry":{"type":"Point","coordinates":[-83.479378,41.718937]}},{"properties":{"geo_score":0.857,"zip code":"43612","ivr call volume":118,"id":"a68xys9wxvqv","geo_precision":"zip","state":"Ohio"},"type":"Feature","geometry":{"type":"Point","coordinates":[-83.55799,41.691716]}},{"properties":{"geo_score":0.857,"zip code":"43613","ivr call volume":353,"id":"a68xys9qr0zz","geo_precision":"zip","state":"Ohio"},"type":"Feature","geometry":{"type":"Point","coordinates":[-83.606235,41.703548]}},{"properties":{"geo_score":0.857,"zip code":"43614","ivr call volume":309,"id":"a68xys91b1nd","geo_precision":"zip","state":"Ohio"},"type":"Feature","geometry":{"type":"Point","coordinates":[-83.633941,41.609041]}},{"properties":{"geo_score":0.857,"zip code":"43615","ivr call volume":96,"id":"a68xysdqdcjm","geo_precision":"zip","state":"Ohio"},"type":"Feature","geometry":{"type":"Point","coordinates":[-83.664659,41.653384]}},{"properties":{"geo_score":0.857,"zip code":"43618","ivr call volume":41,"id":"a68xysjb140h","geo_precision":"zip","state":"Ohio"},"type":"Feature","geometry":{"type":"Point","coordinates":[-83.422154,41.689214]}},{"properties":{"geo_score":0.857,"zip code":"43701","ivr call volume":424,"id":"a68xys5hzs1v","geo_precision":"zip","state":"Ohio"},"type":"Feature","geometry":{"type":"Point","coordinates":[-81.986804,39.841457]}},{"properties":{"geo_score":0.857,"zip code":"43713","ivr call volume":58,"id":"a68xysb0o7gw","geo_precision":"zip","state":"Ohio"},"type":"Feature","geometry":{"type":"Point","coordinates":[-81.229555,39.907849]}},{"properties":{"geo_score":0.857,"zip code":"43716","ivr call volume":5,"id":"a68xysjflead","geo_precision":"zip","state":"Ohio"},"type":"Feature","geometry":{"type":"Point","coordinates":[-81.06677,39.856739]}},{"properties":{"geo_score":0.857,"zip code":"43718","ivr call volume":14,"id":"a68xys66bboy","geo_precision":"zip","state":"Ohio"},"type":"Feature","geometry":{"type":"Point","coordinates":[-81.008431,40.028682]}},{"properties":{"geo_score":0.857,"zip code":"43719","ivr call volume":34,"id":"a68xysccovt1","geo_precision":"zip","state":"Ohio"},"type":"Feature","geometry":{"type":"Point","coordinates":[-81.113437,40.002015]}},{"properties":{"geo_score":0.857,"zip code":"43723","ivr call volume":64,"id":"a68xys8s4og8","geo_precision":"zip","state":"Ohio"},"type":"Feature","geometry":{"type":"Point","coordinates":[-81.513177,39.95535]}},{"properties":{"geo_score":0.857,"zip code":"43724","ivr call volume":42,"id":"a68xys6nvj51","geo_precision":"zip","state":"Ohio"},"type":"Feature","geometry":{"type":"Point","coordinates":[-81.486234,39.668962]}},{"properties":{"geo_score":0.857,"zip code":"43725","ivr call volume":141,"id":"a68xyshowkcs","geo_precision":"zip","state":"Ohio"},"type":"Feature","geometry":{"type":"Point","coordinates":[-81.645679,40.094516]}},{"properties":{"geo_score":0.857,"zip code":"43728","ivr call volume":18,"id":"a68xysj6ofuq","geo_precision":"zip","state":"Ohio"},"type":"Feature","geometry":{"type":"Point","coordinates":[-81.875693,39.452295]}},{"properties":{"geo_score":0.857,"zip code":"43730","ivr call volume":24,"id":"a68xysaohdpa","geo_precision":"zip","state":"Ohio"},"type":"Feature","geometry":{"type":"Point","coordinates":[-82.035697,39.65618]}},{"properties":{"geo_score":0.857,"zip code":"43731","ivr call volume":29,"id":"a68xys92ikl2","geo_precision":"zip","state":"Ohio"},"type":"Feature","geometry":{"type":"Point","coordinates":[-82.058753,39.684513]}},{"properties":{"geo_score":0.857,"zip code":"43732","ivr call volume":3,"id":"a68xys8zp97b","geo_precision":"zip","state":"Ohio"},"type":"Feature","geometry":{"type":"Point","coordinates":[-81.733464,39.798405]}},{"properties":{"geo_score":0.857,"zip code":"43739","ivr call volume":9,"id":"a68xysgfw50q","geo_precision":"zip","state":"Ohio"},"type":"Feature","geometry":{"type":"Point","coordinates":[-82.33265,39.908677]}},{"properties":{"geo_score":0.857,"zip code":"43746","ivr call volume":28,"id":"a68xys8oowt0","geo_precision":"zip","state":"Ohio"},"type":"Feature","geometry":{"type":"Point","coordinates":[-82.174647,39.970024]}},{"properties":{"geo_score":0.857,"zip code":"43748","ivr call volume":9,"id":"a68xyser3ev0","geo_precision":"zip","state":"Ohio"},"type":"Feature","geometry":{"type":"Point","coordinates":[-82.291261,39.705346]}},{"properties":{"geo_score":0.857,"zip code":"43754","ivr call volume":7,"id":"a68xysiyi2j6","geo_precision":"zip","state":"Ohio"},"type":"Feature","geometry":{"type":"Point","coordinates":[-81.262891,39.789239]}},{"properties":{"geo_score":0.857,"zip code":"43755","ivr call volume":2,"id":"a68xysanf155","geo_precision":"zip","state":"Ohio"},"type":"Feature","geometry":{"type":"Point","coordinates":[-81.416505,40.103959]}},{"properties":{"geo_score":0.857,"zip code":"43756","ivr call volume":57,"id":"a68xysgib0oz","geo_precision":"zip","state":"Ohio"},"type":"Feature","geometry":{"type":"Point","coordinates":[-81.72402,39.628684]}},{"properties":{"geo_score":0.857,"zip code":"43760","ivr call volume":2,"id":"a68xysk7yqb8","geo_precision":"zip","state":"Ohio"},"type":"Feature","geometry":{"type":"Point","coordinates":[-82.20775,39.760789]}},{"properties":{"geo_score":0.857,"zip code":"43762","ivr call volume":11,"id":"a68xysdwua23","geo_precision":"zip","state":"Ohio"},"type":"Feature","geometry":{"type":"Point","coordinates":[-81.74624,39.924239]}},{"properties":{"geo_score":0.857,"zip code":"43764","ivr call volume":52,"id":"a68xysiyruls","geo_precision":"zip","state":"Ohio"},"type":"Feature","geometry":{"type":"Point","coordinates":[-82.177924,39.725347]}},{"properties":{"geo_score":0.857,"zip code":"43767","ivr call volume":14,"id":"a68xysc53jjs","geo_precision":"zip","state":"Ohio"},"type":"Feature","geometry":{"type":"Point","coordinates":[-81.791519,39.977294]}},{"properties":{"geo_score":0.857,"zip code":"43771","ivr call volume":35,"id":"a68xys95kyet","geo_precision":"zip","state":"Ohio"},"type":"Feature","geometry":{"type":"Point","coordinates":[-81.954582,39.822159]}},{"properties":{"geo_score":0.857,"zip code":"43773","ivr call volume":17,"id":"a68xys80lhyh","geo_precision":"zip","state":"Ohio"},"type":"Feature","geometry":{"type":"Point","coordinates":[-81.336503,40.051181]}},{"properties":{"geo_score":0.857,"zip code":"43777","ivr call volume":44,"id":"a68xys9xfjzq","geo_precision":"zip","state":"Ohio"},"type":"Feature","geometry":{"type":"Point","coordinates":[-82.089307,39.877012]}},{"properties":{"geo_score":0.857,"zip code":"43782","ivr call volume":10,"id":"a68xysf4yvps","geo_precision":"zip","state":"Ohio"},"type":"Feature","geometry":{"type":"Point","coordinates":[-82.166258,39.600625]}},{"properties":{"geo_score":0.857,"zip code":"43783","ivr call volume":21,"id":"a68xysar4u90","geo_precision":"zip","state":"Ohio"},"type":"Feature","geometry":{"type":"Point","coordinates":[-82.278894,39.736529]}},{"properties":{"geo_score":0.857,"zip code":"43787","ivr call volume":19,"id":"a68xysahkyf4","geo_precision":"zip","state":"Ohio"},"type":"Feature","geometry":{"type":"Point","coordinates":[-81.846803,39.524794]}},{"properties":{"geo_score":0.857,"zip code":"43788","ivr call volume":8,"id":"a68xys6kchip","geo_precision":"zip","state":"Ohio"},"type":"Feature","geometry":{"type":"Point","coordinates":[-81.373728,39.827572]}},{"properties":{"geo_score":0.857,"zip code":"43793","ivr call volume":58,"id":"a68xysdkiefj","geo_precision":"zip","state":"Ohio"},"type":"Feature","geometry":{"type":"Point","coordinates":[-81.105385,39.678963]}},{"properties":{"geo_score":0.857,"zip code":"43802","ivr call volume":9,"id":"a68xysbteinq","geo_precision":"zip","state":"Ohio"},"type":"Feature","geometry":{"type":"Point","coordinates":[-81.886799,40.057848]}},{"properties":{"geo_score":0.857,"zip code":"43804","ivr call volume":23,"id":"a68xys6i820b","geo_precision":"zip","state":"Ohio"},"type":"Feature","geometry":{"type":"Point","coordinates":[-81.765131,40.444788]}},{"properties":{"geo_score":0.857,"zip code":"43811","ivr call volume":8,"id":"a68xysa4svqy","geo_precision":"zip","state":"Ohio"},"type":"Feature","geometry":{"type":"Point","coordinates":[-81.850686,40.180071]}},{"properties":{"geo_score":0.857,"zip code":"43812","ivr call volume":142,"id":"a68xysb0sira","geo_precision":"zip","state":"Ohio"},"type":"Feature","geometry":{"type":"Point","coordinates":[-81.882076,40.217293]}},{"properties":{"geo_score":0.857,"zip code":"43821","ivr call volume":22,"id":"a68xysa3k5ky","geo_precision":"zip","state":"Ohio"},"type":"Feature","geometry":{"type":"Point","coordinates":[-82.047083,40.198681]}},{"properties":{"geo_score":0.857,"zip code":"43822","ivr call volume":24,"id":"a68xysf9mmkr","geo_precision":"zip","state":"Ohio"},"type":"Feature","geometry":{"type":"Point","coordinates":[-82.118197,40.228958]}},{"properties":{"geo_score":0.857,"zip code":"43832","ivr call volume":64,"id":"a68xysi5l7k1","geo_precision":"zip","state":"Ohio"},"type":"Feature","geometry":{"type":"Point","coordinates":[-81.571509,40.321736]}},{"properties":{"geo_score":0.857,"zip code":"43844","ivr call volume":15,"id":"a68xysh8mldi","geo_precision":"zip","state":"Ohio"},"type":"Feature","geometry":{"type":"Point","coordinates":[-82.076529,40.259237]}},{"properties":{"geo_score":0.857,"zip code":"43845","ivr call volume":32,"id":"a68xysj2uer5","geo_precision":"zip","state":"Ohio"},"type":"Feature","geometry":{"type":"Point","coordinates":[-81.682902,40.288126]}},{"properties":{"geo_score":0.857,"zip code":"43901","ivr call volume":20,"id":"a68xys5htdm3","geo_precision":"zip","state":"Ohio"},"type":"Feature","geometry":{"type":"Point","coordinates":[-80.864533,40.258125]}},{"properties":{"geo_score":0.857,"zip code":"43903","ivr call volume":39,"id":"a68xys6kfi9u","geo_precision":"zip","state":"Ohio"},"type":"Feature","geometry":{"type":"Point","coordinates":[-80.84505,40.486354]}},{"properties":{"geo_score":0.857,"zip code":"43906","ivr call volume":95,"id":"a68xyslv1eaq","geo_precision":"zip","state":"Ohio"},"type":"Feature","geometry":{"type":"Point","coordinates":[-80.803976,40.02035]}},{"properties":{"geo_score":0.857,"zip code":"43907","ivr call volume":29,"id":"a68xysgahwxl","geo_precision":"zip","state":"Ohio"},"type":"Feature","geometry":{"type":"Point","coordinates":[-80.927037,40.27229]}},{"properties":{"geo_score":0.857,"zip code":"43908","ivr call volume":32,"id":"a68xysfciikh","geo_precision":"zip","state":"Ohio"},"type":"Feature","geometry":{"type":"Point","coordinates":[-80.875642,40.484509]}},{"properties":{"geo_score":0.857,"zip code":"43913","ivr call volume":5,"id":"a68xyskydldz","geo_precision":"zip","state":"Ohio"},"type":"Feature","geometry":{"type":"Point","coordinates":[-80.768624,40.323767]}},{"properties":{"geo_score":0.857,"zip code":"43915","ivr call volume":9,"id":"a68xys8589cx","geo_precision":"zip","state":"Ohio"},"type":"Feature","geometry":{"type":"Point","coordinates":[-80.969267,39.735074]}},{"properties":{"geo_score":0.857,"zip code":"43917","ivr call volume":16,"id":"a68xysdwvz2d","geo_precision":"zip","state":"Ohio"},"type":"Feature","geometry":{"type":"Point","coordinates":[-80.833421,40.192848]}},{"properties":{"geo_score":0.857,"zip code":"43920","ivr call volume":188,"id":"a68xysguvr5v","geo_precision":"zip","state":"Ohio"},"type":"Feature","geometry":{"type":"Point","coordinates":[-80.597849,40.645897]}},{"properties":{"geo_score":0.857,"zip code":"43935","ivr call volume":115,"id":"a68xys9aleid","geo_precision":"zip","state":"Ohio"},"type":"Feature","geometry":{"type":"Point","coordinates":[-80.710081,40.108406]}},{"properties":{"geo_score":0.857,"zip code":"43938","ivr call volume":12,"id":"a68xysisvfsy","geo_precision":"zip","state":"Ohio"},"type":"Feature","geometry":{"type":"Point","coordinates":[-80.679245,40.290625]}},{"properties":{"geo_score":0.857,"zip code":"43942","ivr call volume":9,"id":"a68xys7hk6lt","geo_precision":"zip","state":"Ohio"},"type":"Feature","geometry":{"type":"Point","coordinates":[-80.831202,39.868964]}},{"properties":{"geo_score":0.857,"zip code":"43944","ivr call volume":39,"id":"a68xysby67lm","geo_precision":"zip","state":"Ohio"},"type":"Feature","geometry":{"type":"Point","coordinates":[-80.814528,40.440066]}},{"properties":{"geo_score":0.857,"zip code":"43945","ivr call volume":18,"id":"a68xys6aeqxl","geo_precision":"zip","state":"Ohio"},"type":"Feature","geometry":{"type":"Point","coordinates":[-80.837583,40.597841]}},{"properties":{"geo_score":0.857,"zip code":"43946","ivr call volume":16,"id":"a68xysgp61kw","geo_precision":"zip","state":"Ohio"},"type":"Feature","geometry":{"type":"Point","coordinates":[-80.872044,39.643966]}},{"properties":{"geo_score":0.857,"zip code":"43950","ivr call volume":146,"id":"a68xysi0xn2b","geo_precision":"zip","state":"Ohio"},"type":"Feature","geometry":{"type":"Point","coordinates":[-80.991763,40.130625]}},{"properties":{"geo_score":0.857,"zip code":"43952","ivr call volume":362,"id":"a68xyslhqakt","geo_precision":"zip","state":"Ohio"},"type":"Feature","geometry":{"type":"Point","coordinates":[-80.70869,40.370068]}},{"properties":{"geo_score":0.857,"zip code":"43963","ivr call volume":38,"id":"a68xysaf4ygh","geo_precision":"zip","state":"Ohio"},"type":"Feature","geometry":{"type":"Point","coordinates":[-80.738107,40.22676]}},{"properties":{"geo_score":0.857,"zip code":"43964","ivr call volume":50,"id":"a68xysfrjvok","geo_precision":"zip","state":"Ohio"},"type":"Feature","geometry":{"type":"Point","coordinates":[-80.629796,40.458122]}},{"properties":{"geo_score":0.857,"zip code":"43968","ivr call volume":43,"id":"a68xys7scj8n","geo_precision":"zip","state":"Ohio"},"type":"Feature","geometry":{"type":"Point","coordinates":[-80.657296,40.628397]}},{"properties":{"geo_score":0.857,"zip code":"43973","ivr call volume":23,"id":"a68xysjd55wn","geo_precision":"zip","state":"Ohio"},"type":"Feature","geometry":{"type":"Point","coordinates":[-81.300389,40.154791]}},{"properties":{"geo_score":0.857,"zip code":"43976","ivr call volume":16,"id":"a68xysl9dhpc","geo_precision":"zip","state":"Ohio"},"type":"Feature","geometry":{"type":"Point","coordinates":[-80.931758,40.359233]}},{"properties":{"geo_score":0.857,"zip code":"43977","ivr call volume":20,"id":"a68xysdq9l69","geo_precision":"zip","state":"Ohio"},"type":"Feature","geometry":{"type":"Point","coordinates":[-81.105102,40.138958]}},{"properties":{"geo_score":0.857,"zip code":"43986","ivr call volume":8,"id":"a68xys73hw70","geo_precision":"zip","state":"Ohio"},"type":"Feature","geometry":{"type":"Point","coordinates":[-80.950648,40.332011]}},{"properties":{"geo_score":0.857,"zip code":"43988","ivr call volume":27,"id":"a68xysktiyb4","geo_precision":"zip","state":"Ohio"},"type":"Feature","geometry":{"type":"Point","coordinates":[-81.094543,40.464787]}},{"properties":{"geo_score":0.857,"zip code":"44001","ivr call volume":137,"id":"a68xysdnoq3y","geo_precision":"zip","state":"Ohio"},"type":"Feature","geometry":{"type":"Point","coordinates":[-82.253769,41.355879]}},{"properties":{"geo_score":0.857,"zip code":"44003","ivr call volume":43,"id":"a68xys5jjtcw","geo_precision":"zip","state":"Ohio"},"type":"Feature","geometry":{"type":"Point","coordinates":[-80.61202,41.606721]}},{"properties":{"geo_score":0.857,"zip code":"44004","ivr call volume":363,"id":"a68xys7oo9ba","geo_precision":"zip","state":"Ohio"},"type":"Feature","geometry":{"type":"Point","coordinates":[-80.871757,41.827554]}},{"properties":{"geo_score":0.857,"zip code":"44010","ivr call volume":22,"id":"a68xys619ekm","geo_precision":"zip","state":"Ohio"},"type":"Feature","geometry":{"type":"Point","coordinates":[-80.856463,41.772459]}},{"properties":{"geo_score":0.857,"zip code":"44011","ivr call volume":120,"id":"a68xys75pd08","geo_precision":"zip","state":"Ohio"},"type":"Feature","geometry":{"type":"Point","coordinates":[-82.019866,41.448492]}},{"properties":{"geo_score":0.857,"zip code":"44012","ivr call volume":153,"id":"a68xysa127t6","geo_precision":"zip","state":"Ohio"},"type":"Feature","geometry":{"type":"Point","coordinates":[-82.017527,41.49674]}},{"properties":{"geo_score":0.857,"zip code":"44017","ivr call volume":306,"id":"a68xysk1avgg","geo_precision":"zip","state":"Ohio"},"type":"Feature","geometry":{"type":"Point","coordinates":[-81.693019,41.456905]}},{"properties":{"geo_score":0.857,"zip code":"44021","ivr call volume":45,"id":"a68xysic0fto","geo_precision":"zip","state":"Ohio"},"type":"Feature","geometry":{"type":"Point","coordinates":[-81.142321,41.386999]}},{"properties":{"geo_score":0.857,"zip code":"44022","ivr call volume":340,"id":"a68xys9bvir8","geo_precision":"zip","state":"Ohio"},"type":"Feature","geometry":{"type":"Point","coordinates":[-81.295384,41.361721]}},{"properties":{"geo_score":0.857,"zip code":"44023","ivr call volume":127,"id":"a68xys5kkrc3","geo_precision":"zip","state":"Ohio"},"type":"Feature","geometry":{"type":"Point","coordinates":[-81.304222,41.387203]}},{"properties":{"geo_score":0.857,"zip code":"44024","ivr call volume":190,"id":"a68xysdvv5hc","geo_precision":"zip","state":"Ohio"},"type":"Feature","geometry":{"type":"Point","coordinates":[-81.145655,41.604218]}},{"properties":{"geo_score":0.857,"zip code":"44026","ivr call volume":99,"id":"a68xyshobf14","geo_precision":"zip","state":"Ohio"},"type":"Feature","geometry":{"type":"Point","coordinates":[-81.337887,41.534218]}},{"properties":{"geo_score":0.857,"zip code":"44028","ivr call volume":49,"id":"a68xyshd1ujz","geo_precision":"zip","state":"Ohio"},"type":"Feature","geometry":{"type":"Point","coordinates":[-81.915693,41.312829]}},{"properties":{"geo_score":0.857,"zip code":"44030","ivr call volume":94,"id":"a68xysdnoreq","geo_precision":"zip","state":"Ohio"},"type":"Feature","geometry":{"type":"Point","coordinates":[-80.571463,41.844499]}},{"properties":{"geo_score":0.857,"zip code":"44032","ivr call volume":18,"id":"a68xysbp8k84","geo_precision":"zip","state":"Ohio"},"type":"Feature","geometry":{"type":"Point","coordinates":[-80.72147,41.634777]}},{"properties":{"geo_score":0.857,"zip code":"44035","ivr call volume":704,"id":"a68xys6d0ui8","geo_precision":"zip","state":"Ohio"},"type":"Feature","geometry":{"type":"Point","coordinates":[-82.115982,41.420321]}},{"properties":{"geo_score":0.857,"zip code":"44039","ivr call volume":194,"id":"a68xysflyf7o","geo_precision":"zip","state":"Ohio"},"type":"Feature","geometry":{"type":"Point","coordinates":[-82.019365,41.377776]}},{"properties":{"geo_score":0.857,"zip code":"44040","ivr call volume":18,"id":"a68xysfwk59y","geo_precision":"zip","state":"Ohio"},"type":"Feature","geometry":{"type":"Point","coordinates":[-81.414597,41.513251]}},{"properties":{"geo_score":0.857,"zip code":"44041","ivr call volume":67,"id":"a68xys6uw8u7","geo_precision":"zip","state":"Ohio"},"type":"Feature","geometry":{"type":"Point","coordinates":[-80.953982,41.678111]}},{"properties":{"geo_score":0.857,"zip code":"44044","ivr call volume":72,"id":"a68xysbiwcti","geo_precision":"zip","state":"Ohio"},"type":"Feature","geometry":{"type":"Point","coordinates":[-81.981252,41.313384]}},{"properties":{"geo_score":0.857,"zip code":"44046","ivr call volume":19,"id":"a68xysci85am","geo_precision":"zip","state":"Ohio"},"type":"Feature","geometry":{"type":"Point","coordinates":[-81.073366,41.538433]}},{"properties":{"geo_score":0.857,"zip code":"44047","ivr call volume":38,"id":"a68xysf7ynjz","geo_precision":"zip","state":"Ohio"},"type":"Feature","geometry":{"type":"Point","coordinates":[-80.78064,41.683389]}},{"properties":{"geo_score":0.857,"zip code":"44048","ivr call volume":44,"id":"a68xysi9tyki","geo_precision":"zip","state":"Ohio"},"type":"Feature","geometry":{"type":"Point","coordinates":[-80.647299,41.846175]}},{"properties":{"geo_score":0.857,"zip code":"44050","ivr call volume":51,"id":"a68xysesttgo","geo_precision":"zip","state":"Ohio"},"type":"Feature","geometry":{"type":"Point","coordinates":[-82.119671,41.258201]}},{"properties":{"geo_score":0.857,"zip code":"44052","ivr call volume":308,"id":"a68xysg1wda7","geo_precision":"zip","state":"Ohio"},"type":"Feature","geometry":{"type":"Point","coordinates":[-82.166534,41.450991]}},{"properties":{"geo_score":0.857,"zip code":"44053","ivr call volume":181,"id":"a68xys5o0up9","geo_precision":"zip","state":"Ohio"},"type":"Feature","geometry":{"type":"Point","coordinates":[-82.247101,41.437542]}},{"properties":{"geo_score":0.857,"zip code":"44054","ivr call volume":48,"id":"a68xysgh02st","geo_precision":"zip","state":"Ohio"},"type":"Feature","geometry":{"type":"Point","coordinates":[-82.089769,41.463541]}},{"properties":{"geo_score":0.857,"zip code":"44055","ivr call volume":108,"id":"a68xys8a950g","geo_precision":"zip","state":"Ohio"},"type":"Feature","geometry":{"type":"Point","coordinates":[-82.096259,41.421155]}},{"properties":{"geo_score":0.857,"zip code":"44057","ivr call volume":134,"id":"a68xyscyhtvj","geo_precision":"zip","state":"Ohio"},"type":"Feature","geometry":{"type":"Point","coordinates":[-81.050097,41.725331]}},{"properties":{"geo_score":0.857,"zip code":"44060","ivr call volume":311,"id":"a68xysl0sfna","geo_precision":"zip","state":"Ohio"},"type":"Feature","geometry":{"type":"Point","coordinates":[-81.311772,41.739766]}},{"properties":{"geo_score":0.857,"zip code":"44062","ivr call volume":33,"id":"a68xysl2wt63","geo_precision":"zip","state":"Ohio"},"type":"Feature","geometry":{"type":"Point","coordinates":[-81.022595,41.458944]}},{"properties":{"geo_score":0.857,"zip code":"44064","ivr call volume":20,"id":"a68xys6pzcp0","geo_precision":"zip","state":"Ohio"},"type":"Feature","geometry":{"type":"Point","coordinates":[-81.051767,41.603114]}},{"properties":{"geo_score":0.857,"zip code":"44065","ivr call volume":26,"id":"a68xys994n9p","geo_precision":"zip","state":"Ohio"},"type":"Feature","geometry":{"type":"Point","coordinates":[-81.273831,41.456099]}},{"properties":{"geo_score":0.857,"zip code":"44067","ivr call volume":260,"id":"a68xyskb99w2","geo_precision":"zip","state":"Ohio"},"type":"Feature","geometry":{"type":"Point","coordinates":[-81.568176,41.311722]}},{"properties":{"geo_score":0.857,"zip code":"44070","ivr call volume":404,"id":"a68xys960279","geo_precision":"zip","state":"Ohio"},"type":"Feature","geometry":{"type":"Point","coordinates":[-81.922461,41.417347]}},{"properties":{"geo_score":0.857,"zip code":"44072","ivr call volume":66,"id":"a68xysi26qbl","geo_precision":"zip","state":"Ohio"},"type":"Feature","geometry":{"type":"Point","coordinates":[-81.328211,41.468754]}},{"properties":{"geo_score":0.857,"zip code":"44074","ivr call volume":87,"id":"a68xysfm2lnd","geo_precision":"zip","state":"Ohio"},"type":"Feature","geometry":{"type":"Point","coordinates":[-82.227628,41.294649]}},{"properties":{"geo_score":0.857,"zip code":"44076","ivr call volume":22,"id":"a68xysboul9j","geo_precision":"zip","state":"Ohio"},"type":"Feature","geometry":{"type":"Point","coordinates":[-80.843698,41.535055]}},{"properties":{"geo_score":0.857,"zip code":"44077","ivr call volume":476,"id":"a68xys67orid","geo_precision":"zip","state":"Ohio"},"type":"Feature","geometry":{"type":"Point","coordinates":[-81.230935,41.766711]}},{"properties":{"geo_score":0.857,"zip code":"44081","ivr call volume":52,"id":"a68xys91b2m7","geo_precision":"zip","state":"Ohio"},"type":"Feature","geometry":{"type":"Point","coordinates":[-81.149822,41.778381]}},{"properties":{"geo_score":0.857,"zip code":"44082","ivr call volume":12,"id":"a68xys786pkn","geo_precision":"zip","state":"Ohio"},"type":"Feature","geometry":{"type":"Point","coordinates":[-80.573251,41.769302]}},{"properties":{"geo_score":0.857,"zip code":"44084","ivr call volume":50,"id":"a68xysex1cu2","geo_precision":"zip","state":"Ohio"},"type":"Feature","geometry":{"type":"Point","coordinates":[-80.82342,41.643111]}},{"properties":{"geo_score":0.857,"zip code":"44086","ivr call volume":14,"id":"a68xysiztim4","geo_precision":"zip","state":"Ohio"},"type":"Feature","geometry":{"type":"Point","coordinates":[-81.052453,41.673116]}},{"properties":{"geo_score":0.857,"zip code":"44087","ivr call volume":238,"id":"a68xyslp4ddp","geo_precision":"zip","state":"Ohio"},"type":"Feature","geometry":{"type":"Point","coordinates":[-81.440435,41.313304]}},{"properties":{"geo_score":0.857,"zip code":"44089","ivr call volume":187,"id":"a68xysddju1e","geo_precision":"zip","state":"Ohio"},"type":"Feature","geometry":{"type":"Point","coordinates":[-82.323771,41.428377]}},{"properties":{"geo_score":0.857,"zip code":"44090","ivr call volume":71,"id":"a68xysbi1xqv","geo_precision":"zip","state":"Ohio"},"type":"Feature","geometry":{"type":"Point","coordinates":[-82.305163,41.126443]}},{"properties":{"geo_score":0.857,"zip code":"44092","ivr call volume":328,"id":"a68xysbrqd6k","geo_precision":"zip","state":"Ohio"},"type":"Feature","geometry":{"type":"Point","coordinates":[-81.458638,41.597299]}},{"properties":{"geo_score":0.857,"zip code":"44094","ivr call volume":1076,"id":"a68xyshsjdmu","geo_precision":"zip","state":"Ohio"},"type":"Feature","geometry":{"type":"Point","coordinates":[-81.418447,41.598382]}},{"properties":{"geo_score":0.857,"zip code":"44099","ivr call volume":9,"id":"a68xysg1aryh","geo_precision":"zip","state":"Ohio"},"type":"Feature","geometry":{"type":"Point","coordinates":[-80.962315,41.535055]}},{"properties":{"geo_score":0.857,"zip code":"44102","ivr call volume":251,"id":"a68xys76zmmy","geo_precision":"zip","state":"Ohio"},"type":"Feature","geometry":{"type":"Point","coordinates":[-81.740305,41.47225]}},{"properties":{"geo_score":0.857,"zip code":"44103","ivr call volume":191,"id":"a68xyshi8z0t","geo_precision":"zip","state":"Ohio"},"type":"Feature","geometry":{"type":"Point","coordinates":[-81.6425,41.51805]}},{"properties":{"geo_score":0.857,"zip code":"44105","ivr call volume":256,"id":"a68xysazh5eg","geo_precision":"zip","state":"Ohio"},"type":"Feature","geometry":{"type":"Point","coordinates":[-81.663462,41.450052]}},{"properties":{"geo_score":0.857,"zip code":"44106","ivr call volume":394,"id":"a68xysil9nka","geo_precision":"zip","state":"Ohio"},"type":"Feature","geometry":{"type":"Point","coordinates":[-81.602799,41.504751]}},{"properties":{"geo_score":0.857,"zip code":"44107","ivr call volume":221,"id":"a68xysgi9mis","geo_precision":"zip","state":"Ohio"},"type":"Feature","geometry":{"type":"Point","coordinates":[-81.637249,41.514849]}},{"properties":{"geo_score":0.857,"zip code":"44108","ivr call volume":309,"id":"a68xyskmyxta","geo_precision":"zip","state":"Ohio"},"type":"Feature","geometry":{"type":"Point","coordinates":[-81.626238,41.54255]}},{"properties":{"geo_score":0.857,"zip code":"44109","ivr call volume":384,"id":"a68xys82khfv","geo_precision":"zip","state":"Ohio"},"type":"Feature","geometry":{"type":"Point","coordinates":[-81.698483,41.445963]}},{"properties":{"geo_score":0.857,"zip code":"44111","ivr call volume":355,"id":"a68xyskyog3h","geo_precision":"zip","state":"Ohio"},"type":"Feature","geometry":{"type":"Point","coordinates":[-81.787006,41.4595]}},{"properties":{"geo_score":0.857,"zip code":"44114","ivr call volume":326,"id":"a68xys93gf7h","geo_precision":"zip","state":"Ohio"},"type":"Feature","geometry":{"type":"Point","coordinates":[-81.677302,41.5145]}},{"properties":{"geo_score":0.857,"zip code":"44115","ivr call volume":1568,"id":"a68xys5hrxpr","geo_precision":"zip","state":"Ohio"},"type":"Feature","geometry":{"type":"Point","coordinates":[-81.675602,41.490351]}},{"properties":{"geo_score":0.857,"zip code":"44116","ivr call volume":297,"id":"a68xysdq9ji1","geo_precision":"zip","state":"Ohio"},"type":"Feature","geometry":{"type":"Point","coordinates":[-81.849209,41.469497]}},{"properties":{"geo_score":0.857,"zip code":"44117","ivr call volume":43,"id":"a68xyscjkcca","geo_precision":"zip","state":"Ohio"},"type":"Feature","geometry":{"type":"Point","coordinates":[-81.526142,41.566834]}},{"properties":{"geo_score":0.857,"zip code":"44118","ivr call volume":223,"id":"a68xysc594m5","geo_precision":"zip","state":"Ohio"},"type":"Feature","geometry":{"type":"Point","coordinates":[-81.537346,41.497831]}},{"properties":{"geo_score":0.857,"zip code":"44119","ivr call volume":439,"id":"a68xysj4fwqq","geo_precision":"zip","state":"Ohio"},"type":"Feature","geometry":{"type":"Point","coordinates":[-81.544409,41.583849]}},{"properties":{"geo_score":0.857,"zip code":"44120","ivr call volume":575,"id":"a68xys5hrsef","geo_precision":"zip","state":"Ohio"},"type":"Feature","geometry":{"type":"Point","coordinates":[-81.537067,41.473942]}},{"properties":{"geo_score":0.857,"zip code":"44121","ivr call volume":293,"id":"a68xys799owj","geo_precision":"zip","state":"Ohio"},"type":"Feature","geometry":{"type":"Point","coordinates":[-81.518455,41.523108]}},{"properties":{"geo_score":0.857,"zip code":"44122","ivr call volume":418,"id":"a68xys96is70","geo_precision":"zip","state":"Ohio"},"type":"Feature","geometry":{"type":"Point","coordinates":[-81.480675,41.462276]}},{"properties":{"geo_score":0.857,"zip code":"44124","ivr call volume":524,"id":"a68xys8iq16b","geo_precision":"zip","state":"Ohio"},"type":"Feature","geometry":{"type":"Point","coordinates":[-81.46373,41.478387]}},{"properties":{"geo_score":0.857,"zip code":"44125","ivr call volume":12,"id":"a68xysfjy049","geo_precision":"zip","state":"Ohio"},"type":"Feature","geometry":{"type":"Point","coordinates":[-81.605958,41.416997]}},{"properties":{"geo_score":0.857,"zip code":"44126","ivr call volume":4,"id":"a68xysa000hw","geo_precision":"zip","state":"Ohio"},"type":"Feature","geometry":{"type":"Point","coordinates":[-81.869304,41.428659]}},{"properties":{"geo_score":0.857,"zip code":"44129","ivr call volume":590,"id":"a68xyseryckn","geo_precision":"zip","state":"Ohio"},"type":"Feature","geometry":{"type":"Point","coordinates":[-81.722909,41.404774]}},{"properties":{"geo_score":0.857,"zip code":"44130","ivr call volume":35,"id":"a68xys81twci","geo_precision":"zip","state":"Ohio"},"type":"Feature","geometry":{"type":"Point","coordinates":[-81.759577,41.390052]}},{"properties":{"geo_score":0.857,"zip code":"44131","ivr call volume":352,"id":"a68xysd3wdiy","geo_precision":"zip","state":"Ohio"},"type":"Feature","geometry":{"type":"Point","coordinates":[-81.604569,41.387831]}},{"properties":{"geo_score":0.857,"zip code":"44132","ivr call volume":198,"id":"a68xyslj8f89","geo_precision":"zip","state":"Ohio"},"type":"Feature","geometry":{"type":"Point","coordinates":[-81.513731,41.595049]}},{"properties":{"geo_score":0.857,"zip code":"44133","ivr call volume":232,"id":"a68xys6lbhw6","geo_precision":"zip","state":"Ohio"},"type":"Feature","geometry":{"type":"Point","coordinates":[-81.745102,41.314603]}},{"properties":{"geo_score":0.857,"zip code":"44135","ivr call volume":15,"id":"a68xysbrin98","geo_precision":"zip","state":"Ohio"},"type":"Feature","geometry":{"type":"Point","coordinates":[-81.850414,41.420327]}},{"properties":{"geo_score":0.857,"zip code":"44136","ivr call volume":327,"id":"a68xyskrsjb9","geo_precision":"zip","state":"Ohio"},"type":"Feature","geometry":{"type":"Point","coordinates":[-81.831656,41.313268]}},{"properties":{"geo_score":0.857,"zip code":"44137","ivr call volume":503,"id":"a68xysgupimr","geo_precision":"zip","state":"Ohio"},"type":"Feature","geometry":{"type":"Point","coordinates":[-81.557493,41.404703]}},{"properties":{"geo_score":0.857,"zip code":"44138","ivr call volume":138,"id":"a68xys8r6bn0","geo_precision":"zip","state":"Ohio"},"type":"Feature","geometry":{"type":"Point","coordinates":[-81.768304,41.4656]}},{"properties":{"geo_score":0.857,"zip code":"44141","ivr call volume":195,"id":"a68xysbznslj","geo_precision":"zip","state":"Ohio"},"type":"Feature","geometry":{"type":"Point","coordinates":[-81.573731,41.288388]}},{"properties":{"geo_score":0.857,"zip code":"44142","ivr call volume":259,"id":"a68xyskasf5n","geo_precision":"zip","state":"Ohio"},"type":"Feature","geometry":{"type":"Point","coordinates":[-81.832107,41.401]}},{"properties":{"geo_score":0.857,"zip code":"44145","ivr call volume":346,"id":"a68xysjh6z99","geo_precision":"zip","state":"Ohio"},"type":"Feature","geometry":{"type":"Point","coordinates":[-81.921811,41.445145]}},{"properties":{"geo_score":0.857,"zip code":"44146","ivr call volume":216,"id":"a68xys6cver5","geo_precision":"zip","state":"Ohio"},"type":"Feature","geometry":{"type":"Point","coordinates":[-81.561232,41.36561]}},{"properties":{"geo_score":0.857,"zip code":"44149","ivr call volume":3,"id":"a68xysk7pa86","geo_precision":"zip","state":"Ohio"},"type":"Feature","geometry":{"type":"Point","coordinates":[-81.856087,41.312349]}},{"properties":{"geo_score":0.857,"zip code":"44201","ivr call volume":36,"id":"a68xys64n649","geo_precision":"zip","state":"Ohio"},"type":"Feature","geometry":{"type":"Point","coordinates":[-81.299273,41.027279]}},{"properties":{"geo_score":0.857,"zip code":"44202","ivr call volume":160,"id":"a68xys8rrdz8","geo_precision":"zip","state":"Ohio"},"type":"Feature","geometry":{"type":"Point","coordinates":[-81.395111,41.345888]}},{"properties":{"geo_score":0.857,"zip code":"44212","ivr call volume":246,"id":"a68xysj3zgzh","geo_precision":"zip","state":"Ohio"},"type":"Feature","geometry":{"type":"Point","coordinates":[-81.82281,41.206132]}},{"properties":{"geo_score":0.857,"zip code":"44214","ivr call volume":12,"id":"a68xysblvzty","geo_precision":"zip","state":"Ohio"},"type":"Feature","geometry":{"type":"Point","coordinates":[-81.981812,40.915056]}},{"properties":{"geo_score":0.857,"zip code":"44216","ivr call volume":61,"id":"a68xysbauqlo","geo_precision":"zip","state":"Ohio"},"type":"Feature","geometry":{"type":"Point","coordinates":[-81.640958,40.922278]}},{"properties":{"geo_score":0.857,"zip code":"44217","ivr call volume":9,"id":"a68xyshtur95","geo_precision":"zip","state":"Ohio"},"type":"Feature","geometry":{"type":"Point","coordinates":[-81.899307,40.960333]}},{"properties":{"geo_score":0.857,"zip code":"44230","ivr call volume":40,"id":"a68xysins5x2","geo_precision":"zip","state":"Ohio"},"type":"Feature","geometry":{"type":"Point","coordinates":[-81.770787,40.958926]}},{"properties":{"geo_score":0.857,"zip code":"44231","ivr call volume":56,"id":"a68xysgruff3","geo_precision":"zip","state":"Ohio"},"type":"Feature","geometry":{"type":"Point","coordinates":[-81.051484,41.310056]}},{"properties":{"geo_score":0.857,"zip code":"44233","ivr call volume":7,"id":"a68xysj9na3s","geo_precision":"zip","state":"Ohio"},"type":"Feature","geometry":{"type":"Point","coordinates":[-81.736072,41.23648]}},{"properties":{"geo_score":0.857,"zip code":"44234","ivr call volume":10,"id":"a68xys6fw07i","geo_precision":"zip","state":"Ohio"},"type":"Feature","geometry":{"type":"Point","coordinates":[-81.166211,41.340055]}},{"properties":{"geo_score":0.857,"zip code":"44235","ivr call volume":10,"id":"a68xysj9wsk0","geo_precision":"zip","state":"Ohio"},"type":"Feature","geometry":{"type":"Point","coordinates":[-82.125709,41.044777]}},{"properties":{"geo_score":0.857,"zip code":"44236","ivr call volume":184,"id":"a68xys5gdq8a","geo_precision":"zip","state":"Ohio"},"type":"Feature","geometry":{"type":"Point","coordinates":[-81.410666,41.264223]}},{"properties":{"geo_score":0.857,"zip code":"44240","ivr call volume":187,"id":"a68xysfwfbks","geo_precision":"zip","state":"Ohio"},"type":"Feature","geometry":{"type":"Point","coordinates":[-81.340663,41.201723]}},{"properties":{"geo_score":0.857,"zip code":"44241","ivr call volume":98,"id":"a68xys7294fh","geo_precision":"zip","state":"Ohio"},"type":"Feature","geometry":{"type":"Point","coordinates":[-81.340528,41.241655]}},{"properties":{"geo_score":0.857,"zip code":"44254","ivr call volume":37,"id":"a68xysgl4dc1","geo_precision":"zip","state":"Ohio"},"type":"Feature","geometry":{"type":"Point","coordinates":[-82.076816,41.067555]}},{"properties":{"geo_score":0.857,"zip code":"44255","ivr call volume":36,"id":"a68xyseu0bfm","geo_precision":"zip","state":"Ohio"},"type":"Feature","geometry":{"type":"Point","coordinates":[-81.281216,41.308944]}},{"properties":{"geo_score":0.857,"zip code":"44256","ivr call volume":369,"id":"a68xys932fal","geo_precision":"zip","state":"Ohio"},"type":"Feature","geometry":{"type":"Point","coordinates":[-81.73513,41.136165]}},{"properties":{"geo_score":0.857,"zip code":"44260","ivr call volume":110,"id":"a68xyshs0mjw","geo_precision":"zip","state":"Ohio"},"type":"Feature","geometry":{"type":"Point","coordinates":[-81.347331,41.023113]}},{"properties":{"geo_score":0.857,"zip code":"44264","ivr call volume":10,"id":"a68xys5ut7oj","geo_precision":"zip","state":"Ohio"},"type":"Feature","geometry":{"type":"Point","coordinates":[-81.584287,41.181444]}},{"properties":{"geo_score":0.857,"zip code":"44266","ivr call volume":216,"id":"a68xys975bme","geo_precision":"zip","state":"Ohio"},"type":"Feature","geometry":{"type":"Point","coordinates":[-81.147877,41.163112]}},{"properties":{"geo_score":0.857,"zip code":"44270","ivr call volume":41,"id":"a68xysb6lg7z","geo_precision":"zip","state":"Ohio"},"type":"Feature","geometry":{"type":"Point","coordinates":[-81.735408,40.952555]}},{"properties":{"geo_score":0.857,"zip code":"44272","ivr call volume":54,"id":"a68xys8i0efi","geo_precision":"zip","state":"Ohio"},"type":"Feature","geometry":{"type":"Point","coordinates":[-81.145932,41.099779]}},{"properties":{"geo_score":0.857,"zip code":"44273","ivr call volume":54,"id":"a68xys8xtgl7","geo_precision":"zip","state":"Ohio"},"type":"Feature","geometry":{"type":"Point","coordinates":[-81.815135,41.046999]}},{"properties":{"geo_score":0.857,"zip code":"44275","ivr call volume":21,"id":"a68xyseds9nc","geo_precision":"zip","state":"Ohio"},"type":"Feature","geometry":{"type":"Point","coordinates":[-82.094595,41.106444]}},{"properties":{"geo_score":0.857,"zip code":"44276","ivr call volume":10,"id":"a68xyseut0bc","geo_precision":"zip","state":"Ohio"},"type":"Feature","geometry":{"type":"Point","coordinates":[-81.830515,40.936853]}},{"properties":{"geo_score":0.857,"zip code":"44280","ivr call volume":30,"id":"a68xysfi4g7q","geo_precision":"zip","state":"Ohio"},"type":"Feature","geometry":{"type":"Point","coordinates":[-81.917187,41.233736]}},{"properties":{"geo_score":0.857,"zip code":"44281","ivr call volume":192,"id":"a68xysgldi0t","geo_precision":"zip","state":"Ohio"},"type":"Feature","geometry":{"type":"Point","coordinates":[-81.751008,41.071841]}},{"properties":{"geo_score":0.857,"zip code":"44286","ivr call volume":60,"id":"a68xysgg992d","geo_precision":"zip","state":"Ohio"},"type":"Feature","geometry":{"type":"Point","coordinates":[-81.655124,41.239499]}},{"properties":{"geo_score":0.857,"zip code":"44287","ivr call volume":19,"id":"a68xysc7xqrq","geo_precision":"zip","state":"Ohio"},"type":"Feature","geometry":{"type":"Point","coordinates":[-82.109041,40.915612]}},{"properties":{"geo_score":0.857,"zip code":"44288","ivr call volume":29,"id":"a68xysla11fw","geo_precision":"zip","state":"Ohio"},"type":"Feature","geometry":{"type":"Point","coordinates":[-81.147599,41.205612]}},{"properties":{"geo_score":0.857,"zip code":"44301","ivr call volume":143,"id":"a68xysj45r92","geo_precision":"zip","state":"Ohio"},"type":"Feature","geometry":{"type":"Point","coordinates":[-81.516228,41.035056]}},{"properties":{"geo_score":0.857,"zip code":"44305","ivr call volume":461,"id":"a68xys8ocmcc","geo_precision":"zip","state":"Ohio"},"type":"Feature","geometry":{"type":"Point","coordinates":[-81.489281,41.071167]}},{"properties":{"geo_score":0.857,"zip code":"44306","ivr call volume":24,"id":"a68xysgk3q0k","geo_precision":"zip","state":"Ohio"},"type":"Feature","geometry":{"type":"Point","coordinates":[-81.479986,41.041805]}},{"properties":{"geo_score":0.857,"zip code":"44308","ivr call volume":1255,"id":"a68xysc0xkg2","geo_precision":"zip","state":"Ohio"},"type":"Feature","geometry":{"type":"Point","coordinates":[-83.255196,40.597002]}},{"properties":{"geo_score":0.857,"zip code":"44310","ivr call volume":582,"id":"a68xys63sxj3","geo_precision":"zip","state":"Ohio"},"type":"Feature","geometry":{"type":"Point","coordinates":[-81.498182,41.105505]}},{"properties":{"geo_score":0.857,"zip code":"44311","ivr call volume":15,"id":"a68xyseko52j","geo_precision":"zip","state":"Ohio"},"type":"Feature","geometry":{"type":"Point","coordinates":[-81.522838,41.064955]}},{"properties":{"geo_score":0.857,"zip code":"44313","ivr call volume":484,"id":"a68xyscpo1tv","geo_precision":"zip","state":"Ohio"},"type":"Feature","geometry":{"type":"Point","coordinates":[-81.440946,41.037834]}},{"properties":{"geo_score":0.857,"zip code":"44314","ivr call volume":319,"id":"a68xys66nmaf","geo_precision":"zip","state":"Ohio"},"type":"Feature","geometry":{"type":"Point","coordinates":[-81.560675,41.044778]}},{"properties":{"geo_score":0.857,"zip code":"44319","ivr call volume":296,"id":"a68xysjaixg7","geo_precision":"zip","state":"Ohio"},"type":"Feature","geometry":{"type":"Point","coordinates":[-81.527062,41.007278]}},{"properties":{"geo_score":0.857,"zip code":"44321","ivr call volume":7,"id":"a68xysl5jbks","geo_precision":"zip","state":"Ohio"},"type":"Feature","geometry":{"type":"Point","coordinates":[-81.644569,41.098944]}},{"properties":{"geo_score":0.857,"zip code":"44333","ivr call volume":179,"id":"a68xys6rf3yw","geo_precision":"zip","state":"Ohio"},"type":"Feature","geometry":{"type":"Point","coordinates":[-81.609844,41.127833]}},{"properties":{"geo_score":0.857,"zip code":"44401","ivr call volume":8,"id":"a68xysje0vqq","geo_precision":"zip","state":"Ohio"},"type":"Feature","geometry":{"type":"Point","coordinates":[-81.002319,41.85283]}},{"properties":{"geo_score":0.857,"zip code":"44402","ivr call volume":17,"id":"a68xyslj9ui4","geo_precision":"zip","state":"Ohio"},"type":"Feature","geometry":{"type":"Point","coordinates":[-80.868976,41.408945]}},{"properties":{"geo_score":0.857,"zip code":"44404","ivr call volume":19,"id":"a68xyseaxdni","geo_precision":"zip","state":"Ohio"},"type":"Feature","geometry":{"type":"Point","coordinates":[-80.51896,41.311444]}},{"properties":{"geo_score":0.857,"zip code":"44406","ivr call volume":114,"id":"a68xys75rowc","geo_precision":"zip","state":"Ohio"},"type":"Feature","geometry":{"type":"Point","coordinates":[-80.707576,40.97367]}},{"properties":{"geo_score":0.857,"zip code":"44408","ivr call volume":83,"id":"a68xys902g0r","geo_precision":"zip","state":"Ohio"},"type":"Feature","geometry":{"type":"Point","coordinates":[-80.651185,40.843394]}},{"properties":{"geo_score":0.857,"zip code":"44410","ivr call volume":106,"id":"a68xysg4gmj4","geo_precision":"zip","state":"Ohio"},"type":"Feature","geometry":{"type":"Point","coordinates":[-80.811195,41.348667]}},{"properties":{"geo_score":0.857,"zip code":"44413","ivr call volume":35,"id":"a68xysjpp05m","geo_precision":"zip","state":"Ohio"},"type":"Feature","geometry":{"type":"Point","coordinates":[-80.559515,40.864784]}},{"properties":{"geo_score":0.857,"zip code":"44417","ivr call volume":13,"id":"a68xysgb7ggl","geo_precision":"zip","state":"Ohio"},"type":"Feature","geometry":{"type":"Point","coordinates":[-80.665633,41.388667]}},{"properties":{"geo_score":0.857,"zip code":"44420","ivr call volume":116,"id":"a68xyse2if0l","geo_precision":"zip","state":"Ohio"},"type":"Feature","geometry":{"type":"Point","coordinates":[-80.7223,41.143947]}},{"properties":{"geo_score":0.857,"zip code":"44423","ivr call volume":14,"id":"a68xys7qytfu","geo_precision":"zip","state":"Ohio"},"type":"Feature","geometry":{"type":"Point","coordinates":[-80.926198,40.795337]}},{"properties":{"geo_score":0.857,"zip code":"44425","ivr call volume":99,"id":"a68xyser36o6","geo_precision":"zip","state":"Ohio"},"type":"Feature","geometry":{"type":"Point","coordinates":[-80.588129,41.193113]}},{"properties":{"geo_score":0.857,"zip code":"44428","ivr call volume":12,"id":"a68xysihc4sp","geo_precision":"zip","state":"Ohio"},"type":"Feature","geometry":{"type":"Point","coordinates":[-80.568685,41.386444]}},{"properties":{"geo_score":0.857,"zip code":"44429","ivr call volume":28,"id":"a68xyskpf4tl","geo_precision":"zip","state":"Ohio"},"type":"Feature","geometry":{"type":"Point","coordinates":[-80.966479,41.134224]}},{"properties":{"geo_score":0.857,"zip code":"44431","ivr call volume":27,"id":"a68xysil6a4u","geo_precision":"zip","state":"Ohio"},"type":"Feature","geometry":{"type":"Point","coordinates":[-80.791746,40.856171]}},{"properties":{"geo_score":0.857,"zip code":"44432","ivr call volume":87,"id":"a68xyshrm7qz","geo_precision":"zip","state":"Ohio"},"type":"Feature","geometry":{"type":"Point","coordinates":[-80.828693,40.822837]}},{"properties":{"geo_score":0.857,"zip code":"44436","ivr call volume":24,"id":"a68xys8rsfr9","geo_precision":"zip","state":"Ohio"},"type":"Feature","geometry":{"type":"Point","coordinates":[-80.567294,41.023948]}},{"properties":{"geo_score":0.857,"zip code":"44438","ivr call volume":79,"id":"a68xysc6k166","geo_precision":"zip","state":"Ohio"},"type":"Feature","geometry":{"type":"Point","coordinates":[-80.536738,41.201168]}},{"properties":{"geo_score":0.857,"zip code":"44442","ivr call volume":27,"id":"a68xyscncpn1","geo_precision":"zip","state":"Ohio"},"type":"Feature","geometry":{"type":"Point","coordinates":[-80.569238,40.972838]}},{"properties":{"geo_score":0.857,"zip code":"44444","ivr call volume":51,"id":"a68xysba1z5t","geo_precision":"zip","state":"Ohio"},"type":"Feature","geometry":{"type":"Point","coordinates":[-81.015649,41.169779]}},{"properties":{"geo_score":0.857,"zip code":"44445","ivr call volume":17,"id":"a68xysknt7x2","geo_precision":"zip","state":"Ohio"},"type":"Feature","geometry":{"type":"Point","coordinates":[-80.636184,40.822005]}},{"properties":{"geo_score":0.857,"zip code":"44446","ivr call volume":190,"id":"a68xysjmiadm","geo_precision":"zip","state":"Ohio"},"type":"Feature","geometry":{"type":"Point","coordinates":[-80.7173,41.183669]}},{"properties":{"geo_score":0.857,"zip code":"44449","ivr call volume":12,"id":"a68xys5jeruq","geo_precision":"zip","state":"Ohio"},"type":"Feature","geometry":{"type":"Point","coordinates":[-81.021052,40.967155]}},{"properties":{"geo_score":0.857,"zip code":"44450","ivr call volume":12,"id":"a68xysbmnjjh","geo_precision":"zip","state":"Ohio"},"type":"Feature","geometry":{"type":"Point","coordinates":[-80.849809,41.408945]}},{"properties":{"geo_score":0.857,"zip code":"44451","ivr call volume":13,"id":"a68xysb56bj9","geo_precision":"zip","state":"Ohio"},"type":"Feature","geometry":{"type":"Point","coordinates":[-80.886475,41.063391]}},{"properties":{"geo_score":0.857,"zip code":"44452","ivr call volume":54,"id":"a68xys757j7y","geo_precision":"zip","state":"Ohio"},"type":"Feature","geometry":{"type":"Point","coordinates":[-80.65063,40.973393]}},{"properties":{"geo_score":0.857,"zip code":"44455","ivr call volume":19,"id":"a68xysabaqrk","geo_precision":"zip","state":"Ohio"},"type":"Feature","geometry":{"type":"Point","coordinates":[-80.613405,40.747007]}},{"properties":{"geo_score":0.857,"zip code":"44460","ivr call volume":206,"id":"a68xys63l19a","geo_precision":"zip","state":"Ohio"},"type":"Feature","geometry":{"type":"Point","coordinates":[-80.948144,40.865614]}},{"properties":{"geo_score":0.857,"zip code":"44481","ivr call volume":24,"id":"a68xys8uuq31","geo_precision":"zip","state":"Ohio"},"type":"Feature","geometry":{"type":"Point","coordinates":[-80.78286,41.265613]}},{"properties":{"geo_score":0.857,"zip code":"44483","ivr call volume":134,"id":"a68xysdsi6eg","geo_precision":"zip","state":"Ohio"},"type":"Feature","geometry":{"type":"Point","coordinates":[-80.849808,41.300056]}},{"properties":{"geo_score":0.857,"zip code":"44484","ivr call volume":110,"id":"a68xysgfsah4","geo_precision":"zip","state":"Ohio"},"type":"Feature","geometry":{"type":"Point","coordinates":[-80.740635,41.252835]}},{"properties":{"geo_score":0.857,"zip code":"44485","ivr call volume":424,"id":"a68xys5uyf7d","geo_precision":"zip","state":"Ohio"},"type":"Feature","geometry":{"type":"Point","coordinates":[-80.8439,41.249104]}},{"properties":{"geo_score":0.857,"zip code":"44491","ivr call volume":16,"id":"a68xyshgxbkp","geo_precision":"zip","state":"Ohio"},"type":"Feature","geometry":{"type":"Point","coordinates":[-80.950285,41.368863]}},{"properties":{"geo_score":0.857,"zip code":"44503","ivr call volume":739,"id":"a68xys8z1unz","geo_precision":"zip","state":"Ohio"},"type":"Feature","geometry":{"type":"Point","coordinates":[-80.655146,41.099258]}},{"properties":{"geo_score":0.857,"zip code":"44504","ivr call volume":76,"id":"a68xysgu4eg8","geo_precision":"zip","state":"Ohio"},"type":"Feature","geometry":{"type":"Point","coordinates":[-80.646742,41.118114]}},{"properties":{"geo_score":0.857,"zip code":"44507","ivr call volume":320,"id":"a68xyscdjamv","geo_precision":"zip","state":"Ohio"},"type":"Feature","geometry":{"type":"Point","coordinates":[-80.663964,41.069503]}},{"properties":{"geo_score":0.857,"zip code":"44509","ivr call volume":445,"id":"a68xys5tvzqb","geo_precision":"zip","state":"Ohio"},"type":"Feature","geometry":{"type":"Point","coordinates":[-80.689243,41.10228]}},{"properties":{"geo_score":0.857,"zip code":"44512","ivr call volume":251,"id":"a68xysh1cz8o","geo_precision":"zip","state":"Ohio"},"type":"Feature","geometry":{"type":"Point","coordinates":[-80.662853,41.024226]}},{"properties":{"geo_score":0.857,"zip code":"44514","ivr call volume":231,"id":"a68xysd76vaf","geo_precision":"zip","state":"Ohio"},"type":"Feature","geometry":{"type":"Point","coordinates":[-80.614795,41.024226]}},{"properties":{"geo_score":0.857,"zip code":"44601","ivr call volume":237,"id":"a68xyslrd2va","geo_precision":"zip","state":"Ohio"},"type":"Feature","geometry":{"type":"Point","coordinates":[-81.249549,40.984502]}},{"properties":{"geo_score":0.857,"zip code":"44606","ivr call volume":26,"id":"a68xysawaj6p","geo_precision":"zip","state":"Ohio"},"type":"Feature","geometry":{"type":"Point","coordinates":[-81.792634,40.69728]}},{"properties":{"geo_score":0.857,"zip code":"44608","ivr call volume":11,"id":"a68xysc5qs0u","geo_precision":"zip","state":"Ohio"},"type":"Feature","geometry":{"type":"Point","coordinates":[-81.592696,40.665824]}},{"properties":{"geo_score":0.857,"zip code":"44609","ivr call volume":20,"id":"a68xysl12v03","geo_precision":"zip","state":"Ohio"},"type":"Feature","geometry":{"type":"Point","coordinates":[-80.99398,40.901448]}},{"properties":{"geo_score":0.857,"zip code":"44611","ivr call volume":6,"id":"a68xyseq70wu","geo_precision":"zip","state":"Ohio"},"type":"Feature","geometry":{"type":"Point","coordinates":[-82.10543,40.664226]}},{"properties":{"geo_score":0.857,"zip code":"44612","ivr call volume":25,"id":"a68xysew82ke","geo_precision":"zip","state":"Ohio"},"type":"Feature","geometry":{"type":"Point","coordinates":[-81.449534,40.618002]}},{"properties":{"geo_score":0.857,"zip code":"44613","ivr call volume":10,"id":"a68xys729t18","geo_precision":"zip","state":"Ohio"},"type":"Feature","geometry":{"type":"Point","coordinates":[-81.597347,40.720614]}},{"properties":{"geo_score":0.857,"zip code":"44614","ivr call volume":56,"id":"a68xysguptmn","geo_precision":"zip","state":"Ohio"},"type":"Feature","geometry":{"type":"Point","coordinates":[-81.534287,40.849224]}},{"properties":{"geo_score":0.857,"zip code":"44615","ivr call volume":60,"id":"a68xysd24emf","geo_precision":"zip","state":"Ohio"},"type":"Feature","geometry":{"type":"Point","coordinates":[-80.960924,40.57784]}},{"properties":{"geo_score":0.857,"zip code":"44618","ivr call volume":12,"id":"a68xys6b1o3m","geo_precision":"zip","state":"Ohio"},"type":"Feature","geometry":{"type":"Point","coordinates":[-81.667628,40.724502]}},{"properties":{"geo_score":0.857,"zip code":"44620","ivr call volume":15,"id":"a68xysj6k9be","geo_precision":"zip","state":"Ohio"},"type":"Feature","geometry":{"type":"Point","coordinates":[-81.226442,40.587709]}},{"properties":{"geo_score":0.857,"zip code":"44622","ivr call volume":216,"id":"a68xysj8sqs2","geo_precision":"zip","state":"Ohio"},"type":"Feature","geometry":{"type":"Point","coordinates":[-81.558454,40.548674]}},{"properties":{"geo_score":0.857,"zip code":"44625","ivr call volume":10,"id":"a68xysb92nz6","geo_precision":"zip","state":"Ohio"},"type":"Feature","geometry":{"type":"Point","coordinates":[-80.981107,40.770542]}},{"properties":{"geo_score":0.857,"zip code":"44627","ivr call volume":6,"id":"a68xysdgnlwi","geo_precision":"zip","state":"Ohio"},"type":"Feature","geometry":{"type":"Point","coordinates":[-81.884029,40.697836]}},{"properties":{"geo_score":0.857,"zip code":"44628","ivr call volume":2,"id":"a68xysjwid8l","geo_precision":"zip","state":"Ohio"},"type":"Feature","geometry":{"type":"Point","coordinates":[-82.200158,40.522285]}},{"properties":{"geo_score":0.857,"zip code":"44629","ivr call volume":7,"id":"a68xysegeygw","geo_precision":"zip","state":"Ohio"},"type":"Feature","geometry":{"type":"Point","coordinates":[-81.455671,40.356179]}},{"properties":{"geo_score":0.857,"zip code":"44632","ivr call volume":80,"id":"a68xys8upi2p","geo_precision":"zip","state":"Ohio"},"type":"Feature","geometry":{"type":"Point","coordinates":[-81.442635,40.822158]}},{"properties":{"geo_score":0.857,"zip code":"44634","ivr call volume":19,"id":"a68xyskar9jm","geo_precision":"zip","state":"Ohio"},"type":"Feature","geometry":{"type":"Point","coordinates":[-81.033298,40.830059]}},{"properties":{"geo_score":0.857,"zip code":"44637","ivr call volume":14,"id":"a68xyse95yhy","geo_precision":"zip","state":"Ohio"},"type":"Feature","geometry":{"type":"Point","coordinates":[-82.094317,40.460621]}},{"properties":{"geo_score":0.857,"zip code":"44641","ivr call volume":82,"id":"a68xys7gnhz7","geo_precision":"zip","state":"Ohio"},"type":"Feature","geometry":{"type":"Point","coordinates":[-81.227327,40.893392]}},{"properties":{"geo_score":0.857,"zip code":"44643","ivr call volume":34,"id":"a68xyse3q7iv","geo_precision":"zip","state":"Ohio"},"type":"Feature","geometry":{"type":"Point","coordinates":[-81.245663,40.63534]}},{"properties":{"geo_score":0.857,"zip code":"44644","ivr call volume":28,"id":"a68xys5nvt75","geo_precision":"zip","state":"Ohio"},"type":"Feature","geometry":{"type":"Point","coordinates":[-81.148991,40.698671]}},{"properties":{"geo_score":0.857,"zip code":"44645","ivr call volume":3,"id":"a68xysf04hel","geo_precision":"zip","state":"Ohio"},"type":"Feature","geometry":{"type":"Point","coordinates":[-81.725668,40.908987]}},{"properties":{"geo_score":0.857,"zip code":"44646","ivr call volume":440,"id":"a68xysbeywx6","geo_precision":"zip","state":"Ohio"},"type":"Feature","geometry":{"type":"Point","coordinates":[-81.5454,40.773947]}},{"properties":{"geo_score":0.857,"zip code":"44651","ivr call volume":2,"id":"a68xys8h4nhz","geo_precision":"zip","state":"Ohio"},"type":"Feature","geometry":{"type":"Point","coordinates":[-80.932867,40.573396]}},{"properties":{"geo_score":0.857,"zip code":"44654","ivr call volume":44,"id":"a68xys7qgef5","geo_precision":"zip","state":"Ohio"},"type":"Feature","geometry":{"type":"Point","coordinates":[-81.825414,40.613672]}},{"properties":{"geo_score":0.857,"zip code":"44656","ivr call volume":8,"id":"a68xysiithgs","geo_precision":"zip","state":"Ohio"},"type":"Feature","geometry":{"type":"Point","coordinates":[-81.300109,40.538675]}},{"properties":{"geo_score":0.857,"zip code":"44657","ivr call volume":44,"id":"a68xyse2sec9","geo_precision":"zip","state":"Ohio"},"type":"Feature","geometry":{"type":"Point","coordinates":[-81.122322,40.717004]}},{"properties":{"geo_score":0.857,"zip code":"44662","ivr call volume":12,"id":"a68xysdoow0t","geo_precision":"zip","state":"Ohio"},"type":"Feature","geometry":{"type":"Point","coordinates":[-81.633737,40.75839]}},{"properties":{"geo_score":0.857,"zip code":"44663","ivr call volume":92,"id":"a68xyscgadcb","geo_precision":"zip","state":"Ohio"},"type":"Feature","geometry":{"type":"Point","coordinates":[-81.44956,40.47701]}},{"properties":{"geo_score":0.857,"zip code":"44667","ivr call volume":69,"id":"a68xys885irl","geo_precision":"zip","state":"Ohio"},"type":"Feature","geometry":{"type":"Point","coordinates":[-81.76541,40.796445]}},{"properties":{"geo_score":0.857,"zip code":"44669","ivr call volume":7,"id":"a68xysfp81ej","geo_precision":"zip","state":"Ohio"},"type":"Feature","geometry":{"type":"Point","coordinates":[-81.148156,40.83367]}},{"properties":{"geo_score":0.857,"zip code":"44672","ivr call volume":46,"id":"a68xysk7lsmk","geo_precision":"zip","state":"Ohio"},"type":"Feature","geometry":{"type":"Point","coordinates":[-81.021736,40.920492]}},{"properties":{"geo_score":0.857,"zip code":"44676","ivr call volume":10,"id":"a68xysk5j8hn","geo_precision":"zip","state":"Ohio"},"type":"Feature","geometry":{"type":"Point","coordinates":[-82.032649,40.736169]}},{"properties":{"geo_score":0.857,"zip code":"44677","ivr call volume":12,"id":"a68xysabiaul","geo_precision":"zip","state":"Ohio"},"type":"Feature","geometry":{"type":"Point","coordinates":[-81.855266,40.872545]}},{"properties":{"geo_score":0.857,"zip code":"44680","ivr call volume":29,"id":"a68xyse1oa0h","geo_precision":"zip","state":"Ohio"},"type":"Feature","geometry":{"type":"Point","coordinates":[-81.549884,40.598698]}},{"properties":{"geo_score":0.857,"zip code":"44681","ivr call volume":22,"id":"a68xys8jg5zu","geo_precision":"zip","state":"Ohio"},"type":"Feature","geometry":{"type":"Point","coordinates":[-81.653181,40.511175]}},{"properties":{"geo_score":0.857,"zip code":"44683","ivr call volume":76,"id":"a68xyseaogey","geo_precision":"zip","state":"Ohio"},"type":"Feature","geometry":{"type":"Point","coordinates":[-81.352333,40.409788]}},{"properties":{"geo_score":0.857,"zip code":"44685","ivr call volume":145,"id":"a68xysd8r4rx","geo_precision":"zip","state":"Ohio"},"type":"Feature","geometry":{"type":"Point","coordinates":[-81.423724,40.976168]}},{"properties":{"geo_score":0.857,"zip code":"44688","ivr call volume":3,"id":"a68xysb67ehv","geo_precision":"zip","state":"Ohio"},"type":"Feature","geometry":{"type":"Point","coordinates":[-81.260942,40.674505]}},{"properties":{"geo_score":0.857,"zip code":"44689","ivr call volume":7,"id":"a68xysdt44zj","geo_precision":"zip","state":"Ohio"},"type":"Feature","geometry":{"type":"Point","coordinates":[-81.638348,40.657981]}},{"properties":{"geo_score":0.857,"zip code":"44691","ivr call volume":319,"id":"a68xysdohxd3","geo_precision":"zip","state":"Ohio"},"type":"Feature","geometry":{"type":"Point","coordinates":[-81.959867,40.781446]}},{"properties":{"geo_score":0.857,"zip code":"44695","ivr call volume":13,"id":"a68xys5w464t","geo_precision":"zip","state":"Ohio"},"type":"Feature","geometry":{"type":"Point","coordinates":[-81.187048,40.443398]}},{"properties":{"geo_score":0.857,"zip code":"44702","ivr call volume":357,"id":"a68xys8dyf4n","geo_precision":"zip","state":"Ohio"},"type":"Feature","geometry":{"type":"Point","coordinates":[-81.379535,40.800108]}},{"properties":{"geo_score":0.857,"zip code":"44703","ivr call volume":371,"id":"a68xys60gpzn","geo_precision":"zip","state":"Ohio"},"type":"Feature","geometry":{"type":"Point","coordinates":[-81.379886,40.808808]}},{"properties":{"geo_score":0.857,"zip code":"44706","ivr call volume":65,"id":"a68xysh0rgnt","geo_precision":"zip","state":"Ohio"},"type":"Feature","geometry":{"type":"Point","coordinates":[-81.477897,40.75117]}},{"properties":{"geo_score":0.857,"zip code":"44710","ivr call volume":144,"id":"a68xysj97vmu","geo_precision":"zip","state":"Ohio"},"type":"Feature","geometry":{"type":"Point","coordinates":[-81.436783,40.794503]}},{"properties":{"geo_score":0.857,"zip code":"44720","ivr call volume":156,"id":"a68xys6wzgzz","geo_precision":"zip","state":"Ohio"},"type":"Feature","geometry":{"type":"Point","coordinates":[-81.405391,40.907835]}},{"properties":{"geo_score":0.857,"zip code":"44721","ivr call volume":369,"id":"a68xysj2ew23","geo_precision":"zip","state":"Ohio"},"type":"Feature","geometry":{"type":"Point","coordinates":[-81.360389,40.904502]}},{"properties":{"geo_score":0.857,"zip code":"44730","ivr call volume":36,"id":"a68xysewqtah","geo_precision":"zip","state":"Ohio"},"type":"Feature","geometry":{"type":"Point","coordinates":[-81.416504,40.812558]}},{"properties":{"geo_score":0.857,"zip code":"44804","ivr call volume":9,"id":"a68xysh1k596","geo_precision":"zip","state":"Ohio"},"type":"Feature","geometry":{"type":"Point","coordinates":[-83.535416,41.115906]}},{"properties":{"geo_score":0.857,"zip code":"44805","ivr call volume":170,"id":"a68xysafwet4","geo_precision":"zip","state":"Ohio"},"type":"Feature","geometry":{"type":"Point","coordinates":[-82.31655,40.749502]}},{"properties":{"geo_score":0.857,"zip code":"44807","ivr call volume":4,"id":"a68xyse1ycld","geo_precision":"zip","state":"Ohio"},"type":"Feature","geometry":{"type":"Point","coordinates":[-82.958244,41.022834]}},{"properties":{"geo_score":0.857,"zip code":"44811","ivr call volume":92,"id":"a68xysidgzr2","geo_precision":"zip","state":"Ohio"},"type":"Feature","geometry":{"type":"Point","coordinates":[-82.938245,41.164221]}},{"properties":{"geo_score":0.857,"zip code":"44813","ivr call volume":43,"id":"a68xysexl4dw","geo_precision":"zip","state":"Ohio"},"type":"Feature","geometry":{"type":"Point","coordinates":[-82.662395,40.593948]}},{"properties":{"geo_score":0.857,"zip code":"44814","ivr call volume":27,"id":"a68xys8a1bew","geo_precision":"zip","state":"Ohio"},"type":"Feature","geometry":{"type":"Point","coordinates":[-82.459335,41.343938]}},{"properties":{"geo_score":0.857,"zip code":"44817","ivr call volume":13,"id":"a68xys8r2bi1","geo_precision":"zip","state":"Ohio"},"type":"Feature","geometry":{"type":"Point","coordinates":[-80.72397,40.15896]}},{"properties":{"geo_score":0.857,"zip code":"44818","ivr call volume":7,"id":"a68xysisjg6k","geo_precision":"zip","state":"Ohio"},"type":"Feature","geometry":{"type":"Point","coordinates":[-83.016857,40.965056]}},{"properties":{"geo_score":0.857,"zip code":"44820","ivr call volume":183,"id":"a68xysjtj5wt","geo_precision":"zip","state":"Ohio"},"type":"Feature","geometry":{"type":"Point","coordinates":[-82.944909,40.899779]}},{"properties":{"geo_score":0.857,"zip code":"44822","ivr call volume":11,"id":"a68xysfnxprn","geo_precision":"zip","state":"Ohio"},"type":"Feature","geometry":{"type":"Point","coordinates":[-82.408219,40.537561]}},{"properties":{"geo_score":0.857,"zip code":"44824","ivr call volume":66,"id":"a68xyskozojy","geo_precision":"zip","state":"Ohio"},"type":"Feature","geometry":{"type":"Point","coordinates":[-82.78713,41.343942]}},{"properties":{"geo_score":0.857,"zip code":"44827","ivr call volume":29,"id":"a68xyshdv2ud","geo_precision":"zip","state":"Ohio"},"type":"Feature","geometry":{"type":"Point","coordinates":[-82.776014,40.862279]}},{"properties":{"geo_score":0.857,"zip code":"44830","ivr call volume":119,"id":"a68xyslavqy6","geo_precision":"zip","state":"Ohio"},"type":"Feature","geometry":{"type":"Point","coordinates":[-83.441037,41.076721]}},{"properties":{"geo_score":0.857,"zip code":"44833","ivr call volume":119,"id":"a68xys672hps","geo_precision":"zip","state":"Ohio"},"type":"Feature","geometry":{"type":"Point","coordinates":[-82.784901,40.639226]}},{"properties":{"geo_score":0.857,"zip code":"44836","ivr call volume":21,"id":"a68xyscuk450","geo_precision":"zip","state":"Ohio"},"type":"Feature","geometry":{"type":"Point","coordinates":[-83.042327,41.186418]}},{"properties":{"geo_score":0.857,"zip code":"44837","ivr call volume":24,"id":"a68xysetughg","geo_precision":"zip","state":"Ohio"},"type":"Feature","geometry":{"type":"Point","coordinates":[-82.450168,40.9345]}},{"properties":{"geo_score":0.857,"zip code":"44839","ivr call volume":98,"id":"a68xysgan6so","geo_precision":"zip","state":"Ohio"},"type":"Feature","geometry":{"type":"Point","coordinates":[-82.58323,41.408938]}},{"properties":{"geo_score":0.857,"zip code":"44840","ivr call volume":20,"id":"a68xysepkfav","geo_precision":"zip","state":"Ohio"},"type":"Feature","geometry":{"type":"Point","coordinates":[-82.191267,40.728114]}},{"properties":{"geo_score":0.857,"zip code":"44842","ivr call volume":35,"id":"a68xys6xewdv","geo_precision":"zip","state":"Ohio"},"type":"Feature","geometry":{"type":"Point","coordinates":[-82.242937,40.705892]}},{"properties":{"geo_score":0.857,"zip code":"44843","ivr call volume":6,"id":"a68xys5f4cvz","geo_precision":"zip","state":"Ohio"},"type":"Feature","geometry":{"type":"Point","coordinates":[-82.454979,40.653256]}},{"properties":{"geo_score":0.857,"zip code":"44846","ivr call volume":39,"id":"a68xyscx3he4","geo_precision":"zip","state":"Ohio"},"type":"Feature","geometry":{"type":"Point","coordinates":[-82.610479,41.320775]}},{"properties":{"geo_score":0.857,"zip code":"44847","ivr call volume":20,"id":"a68xysjg6w8i","geo_precision":"zip","state":"Ohio"},"type":"Feature","geometry":{"type":"Point","coordinates":[-82.687123,41.104777]}},{"properties":{"geo_score":0.857,"zip code":"44849","ivr call volume":8,"id":"a68xysjxqz5i","geo_precision":"zip","state":"Ohio"},"type":"Feature","geometry":{"type":"Point","coordinates":[-83.119636,40.731447]}},{"properties":{"geo_score":0.857,"zip code":"44851","ivr call volume":33,"id":"a68xysc3rhzh","geo_precision":"zip","state":"Ohio"},"type":"Feature","geometry":{"type":"Point","coordinates":[-82.392388,41.029499]}},{"properties":{"geo_score":0.857,"zip code":"44853","ivr call volume":36,"id":"a68xys5u0mpf","geo_precision":"zip","state":"Ohio"},"type":"Feature","geometry":{"type":"Point","coordinates":[-83.297978,41.029222]}},{"properties":{"geo_score":0.857,"zip code":"44854","ivr call volume":17,"id":"a68xyseygki2","geo_precision":"zip","state":"Ohio"},"type":"Feature","geometry":{"type":"Point","coordinates":[-82.841736,40.942627]}},{"properties":{"geo_score":0.857,"zip code":"44855","ivr call volume":20,"id":"a68xysirb1yn","geo_precision":"zip","state":"Ohio"},"type":"Feature","geometry":{"type":"Point","coordinates":[-82.612398,41.119221]}},{"properties":{"geo_score":0.857,"zip code":"44857","ivr call volume":194,"id":"a68xysj72b65","geo_precision":"zip","state":"Ohio"},"type":"Feature","geometry":{"type":"Point","coordinates":[-82.541006,41.154498]}},{"properties":{"geo_score":0.857,"zip code":"44859","ivr call volume":26,"id":"a68xysdr8392","geo_precision":"zip","state":"Ohio"},"type":"Feature","geometry":{"type":"Point","coordinates":[-82.329107,41.011373]}},{"properties":{"geo_score":0.857,"zip code":"44864","ivr call volume":24,"id":"a68xyscbsbcv","geo_precision":"zip","state":"Ohio"},"type":"Feature","geometry":{"type":"Point","coordinates":[-82.385441,40.630337]}},{"properties":{"geo_score":0.857,"zip code":"44865","ivr call volume":20,"id":"a68xyshegp2e","geo_precision":"zip","state":"Ohio"},"type":"Feature","geometry":{"type":"Point","coordinates":[-82.731012,40.995889]}},{"properties":{"geo_score":0.857,"zip code":"44866","ivr call volume":7,"id":"a68xyskp5yqk","geo_precision":"zip","state":"Ohio"},"type":"Feature","geometry":{"type":"Point","coordinates":[-82.15571,40.858668]}},{"properties":{"geo_score":0.857,"zip code":"44867","ivr call volume":4,"id":"a68xysbchn42","geo_precision":"zip","state":"Ohio"},"type":"Feature","geometry":{"type":"Point","coordinates":[-82.976857,41.168944]}},{"properties":{"geo_score":0.857,"zip code":"44870","ivr call volume":370,"id":"a68xysbrvwj3","geo_precision":"zip","state":"Ohio"},"type":"Feature","geometry":{"type":"Point","coordinates":[-82.687035,41.415173]}},{"properties":{"geo_score":0.857,"zip code":"44875","ivr call volume":103,"id":"a68xysi7vi0k","geo_precision":"zip","state":"Ohio"},"type":"Feature","geometry":{"type":"Point","coordinates":[-82.610174,40.857834]}},{"properties":{"geo_score":0.857,"zip code":"44878","ivr call volume":18,"id":"a68xysedg090","geo_precision":"zip","state":"Ohio"},"type":"Feature","geometry":{"type":"Point","coordinates":[-82.499336,40.911722]}},{"properties":{"geo_score":0.857,"zip code":"44880","ivr call volume":9,"id":"a68xysk4615e","geo_precision":"zip","state":"Ohio"},"type":"Feature","geometry":{"type":"Point","coordinates":[-82.242915,41.028371]}},{"properties":{"geo_score":0.857,"zip code":"44882","ivr call volume":8,"id":"a68xysh2roy4","geo_precision":"zip","state":"Ohio"},"type":"Feature","geometry":{"type":"Point","coordinates":[-83.093804,40.957834]}},{"properties":{"geo_score":0.857,"zip code":"44883","ivr call volume":184,"id":"a68xysl97v11","geo_precision":"zip","state":"Ohio"},"type":"Feature","geometry":{"type":"Point","coordinates":[-83.225755,41.214776]}},{"properties":{"geo_score":0.857,"zip code":"44889","ivr call volume":14,"id":"a68xysdp2nce","geo_precision":"zip","state":"Ohio"},"type":"Feature","geometry":{"type":"Point","coordinates":[-82.42739,41.190609]}},{"properties":{"geo_score":0.857,"zip code":"44890","ivr call volume":70,"id":"a68xysjwwqm9","geo_precision":"zip","state":"Ohio"},"type":"Feature","geometry":{"type":"Point","coordinates":[-82.747126,41.137277]}},{"properties":{"geo_score":0.857,"zip code":"44902","ivr call volume":454,"id":"a68xysg89607","geo_precision":"zip","state":"Ohio"},"type":"Feature","geometry":{"type":"Point","coordinates":[-82.51189,40.762711]}},{"properties":{"geo_score":0.857,"zip code":"44904","ivr call volume":75,"id":"a68xysg7rh4e","geo_precision":"zip","state":"Ohio"},"type":"Feature","geometry":{"type":"Point","coordinates":[-82.664341,40.681169]}},{"properties":{"geo_score":0.857,"zip code":"44905","ivr call volume":141,"id":"a68xys5u3ge8","geo_precision":"zip","state":"Ohio"},"type":"Feature","geometry":{"type":"Point","coordinates":[-82.489335,40.758112]}},{"properties":{"geo_score":0.857,"zip code":"44906","ivr call volume":175,"id":"a68xysdbhv5s","geo_precision":"zip","state":"Ohio"},"type":"Feature","geometry":{"type":"Point","coordinates":[-82.542671,40.788668]}},{"properties":{"geo_score":0.857,"zip code":"44907","ivr call volume":204,"id":"a68xysdx3gpl","geo_precision":"zip","state":"Ohio"},"type":"Feature","geometry":{"type":"Point","coordinates":[-82.52284,40.726256]}},{"properties":{"geo_score":0.857,"zip code":"45002","ivr call volume":51,"id":"a68xys6otnk1","geo_precision":"zip","state":"Ohio"},"type":"Feature","geometry":{"type":"Point","coordinates":[-84.742376,39.191546]}},{"properties":{"geo_score":0.857,"zip code":"45005","ivr call volume":184,"id":"a68xysfnkb1s","geo_precision":"zip","state":"Ohio"},"type":"Feature","geometry":{"type":"Point","coordinates":[-84.24966,39.491448]}},{"properties":{"geo_score":0.857,"zip code":"45011","ivr call volume":21,"id":"a68xysbslbw4","geo_precision":"zip","state":"Ohio"},"type":"Feature","geometry":{"type":"Point","coordinates":[-84.529946,39.441168]}},{"properties":{"geo_score":0.857,"zip code":"45013","ivr call volume":2,"id":"a68xys5xooe3","geo_precision":"zip","state":"Ohio"},"type":"Feature","geometry":{"type":"Point","coordinates":[-84.654393,39.389222]}},{"properties":{"geo_score":0.857,"zip code":"45014","ivr call volume":328,"id":"a68xysi5zkc5","geo_precision":"zip","state":"Ohio"},"type":"Feature","geometry":{"type":"Point","coordinates":[-84.569668,39.337834]}},{"properties":{"geo_score":0.857,"zip code":"45015","ivr call volume":764,"id":"a68xysimski9","geo_precision":"zip","state":"Ohio"},"type":"Feature","geometry":{"type":"Point","coordinates":[-84.455222,39.432557]}},{"properties":{"geo_score":0.857,"zip code":"45030","ivr call volume":130,"id":"a68xysbftbfl","geo_precision":"zip","state":"Ohio"},"type":"Feature","geometry":{"type":"Point","coordinates":[-84.740783,39.275611]}},{"properties":{"geo_score":0.857,"zip code":"45036","ivr call volume":187,"id":"a68xysamazwk","geo_precision":"zip","state":"Ohio"},"type":"Feature","geometry":{"type":"Point","coordinates":[-84.176881,39.528671]}},{"properties":{"geo_score":0.857,"zip code":"45040","ivr call volume":334,"id":"a68xys6vevx6","geo_precision":"zip","state":"Ohio"},"type":"Feature","geometry":{"type":"Point","coordinates":[-84.180906,39.397999]}},{"properties":{"geo_score":0.857,"zip code":"45042","ivr call volume":432,"id":"a68xyskgr5g2","geo_precision":"zip","state":"Ohio"},"type":"Feature","geometry":{"type":"Point","coordinates":[-84.417999,39.523668]}},{"properties":{"geo_score":0.857,"zip code":"45050","ivr call volume":46,"id":"a68xyslowqn3","geo_precision":"zip","state":"Ohio"},"type":"Feature","geometry":{"type":"Point","coordinates":[-84.331606,39.319503]}},{"properties":{"geo_score":0.714,"zip code":"45053","ivr call volume":43,"id":"a68xys6m31t9","geo_precision":"zip","state":"Ohio"},"type":"Feature","geometry":{"type":"Point","coordinates":[-84.818287,39.391998]}},{"properties":{"geo_score":0.714,"zip code":"45056","ivr call volume":140,"id":"a68xyshdqfj7","geo_precision":"zip","state":"Ohio"},"type":"Feature","geometry":{"type":"Point","coordinates":[-84.8494,39.471719]}},{"properties":{"geo_score":0.857,"zip code":"45064","ivr call volume":35,"id":"a68xyskd5xa2","geo_precision":"zip","state":"Ohio"},"type":"Feature","geometry":{"type":"Point","coordinates":[-84.498559,39.601444]}},{"properties":{"geo_score":0.857,"zip code":"45065","ivr call volume":14,"id":"a68xyshas4dm","geo_precision":"zip","state":"Ohio"},"type":"Feature","geometry":{"type":"Point","coordinates":[-84.207204,39.356027]}},{"properties":{"geo_score":0.857,"zip code":"45066","ivr call volume":4,"id":"a68xysi8dip2","geo_precision":"zip","state":"Ohio"},"type":"Feature","geometry":{"type":"Point","coordinates":[-84.14633,39.465762]}},{"properties":{"geo_score":0.857,"zip code":"45067","ivr call volume":90,"id":"a68xysh6fv5n","geo_precision":"zip","state":"Ohio"},"type":"Feature","geometry":{"type":"Point","coordinates":[-84.475778,39.434502]}},{"properties":{"geo_score":0.857,"zip code":"45068","ivr call volume":59,"id":"a68xysgaqmxt","geo_precision":"zip","state":"Ohio"},"type":"Feature","geometry":{"type":"Point","coordinates":[-84.032433,39.482561]}},{"properties":{"geo_score":0.857,"zip code":"45069","ivr call volume":297,"id":"a68xysduqxqs","geo_precision":"zip","state":"Ohio"},"type":"Feature","geometry":{"type":"Point","coordinates":[-84.451887,39.325613]}},{"properties":{"geo_score":0.857,"zip code":"45101","ivr call volume":13,"id":"a68xysifq6fw","geo_precision":"zip","state":"Ohio"},"type":"Feature","geometry":{"type":"Point","coordinates":[-83.74631,38.683685]}},{"properties":{"geo_score":0.857,"zip code":"45102","ivr call volume":37,"id":"a68xysehsi0v","geo_precision":"zip","state":"Ohio"},"type":"Feature","geometry":{"type":"Point","coordinates":[-84.181324,39.012842]}},{"properties":{"geo_score":0.857,"zip code":"45103","ivr call volume":138,"id":"a68xys83ybbq","geo_precision":"zip","state":"Ohio"},"type":"Feature","geometry":{"type":"Point","coordinates":[-84.24827,39.095617]}},{"properties":{"geo_score":0.857,"zip code":"45106","ivr call volume":78,"id":"a68xysfhrb2r","geo_precision":"zip","state":"Ohio"},"type":"Feature","geometry":{"type":"Point","coordinates":[-84.094377,38.929511]}},{"properties":{"geo_score":0.857,"zip code":"45107","ivr call volume":58,"id":"a68xysgqnx3l","geo_precision":"zip","state":"Ohio"},"type":"Feature","geometry":{"type":"Point","coordinates":[-83.95243,39.343117]}},{"properties":{"geo_score":0.857,"zip code":"45113","ivr call volume":30,"id":"a68xysie5z8a","geo_precision":"zip","state":"Ohio"},"type":"Feature","geometry":{"type":"Point","coordinates":[-83.932644,39.398125]}},{"properties":{"geo_score":0.857,"zip code":"45118","ivr call volume":28,"id":"a68xysbzmbj8","geo_precision":"zip","state":"Ohio"},"type":"Feature","geometry":{"type":"Point","coordinates":[-83.962431,39.172008]}},{"properties":{"geo_score":0.857,"zip code":"45120","ivr call volume":24,"id":"a68xysbgq0ce","geo_precision":"zip","state":"Ohio"},"type":"Feature","geometry":{"type":"Point","coordinates":[-84.098265,38.822291]}},{"properties":{"geo_score":0.857,"zip code":"45121","ivr call volume":82,"id":"a68xysarohgd","geo_precision":"zip","state":"Ohio"},"type":"Feature","geometry":{"type":"Point","coordinates":[-83.902706,38.91368]}},{"properties":{"geo_score":0.857,"zip code":"45122","ivr call volume":225,"id":"a68xysl0ev56","geo_precision":"zip","state":"Ohio"},"type":"Feature","geometry":{"type":"Point","coordinates":[-84.107156,39.193117]}},{"properties":{"geo_score":0.857,"zip code":"45123","ivr call volume":62,"id":"a68xysdtps2g","geo_precision":"zip","state":"Ohio"},"type":"Feature","geometry":{"type":"Point","coordinates":[-83.366859,39.343397]}},{"properties":{"geo_score":0.857,"zip code":"45130","ivr call volume":23,"id":"a68xysjpbvta","geo_precision":"zip","state":"Ohio"},"type":"Feature","geometry":{"type":"Point","coordinates":[-84.02021,38.939512]}},{"properties":{"geo_score":0.857,"zip code":"45133","ivr call volume":232,"id":"a68xysil0r15","geo_precision":"zip","state":"Ohio"},"type":"Feature","geometry":{"type":"Point","coordinates":[-83.702701,39.252563]}},{"properties":{"geo_score":0.857,"zip code":"45135","ivr call volume":16,"id":"a68xysfg12u7","geo_precision":"zip","state":"Ohio"},"type":"Feature","geometry":{"type":"Point","coordinates":[-83.591864,39.283397]}},{"properties":{"geo_score":0.857,"zip code":"45140","ivr call volume":281,"id":"a68xysjdma0o","geo_precision":"zip","state":"Ohio"},"type":"Feature","geometry":{"type":"Point","coordinates":[-84.286604,39.252003]}},{"properties":{"geo_score":0.857,"zip code":"45142","ivr call volume":48,"id":"a68xysjy80d4","geo_precision":"zip","state":"Ohio"},"type":"Feature","geometry":{"type":"Point","coordinates":[-83.837427,39.235618]}},{"properties":{"geo_score":0.857,"zip code":"45144","ivr call volume":28,"id":"a68xysh1yquq","geo_precision":"zip","state":"Ohio"},"type":"Feature","geometry":{"type":"Point","coordinates":[-83.512136,38.702852]}},{"properties":{"geo_score":0.857,"zip code":"45146","ivr call volume":4,"id":"a68xys6njthp","geo_precision":"zip","state":"Ohio"},"type":"Feature","geometry":{"type":"Point","coordinates":[-83.825204,39.302006]}},{"properties":{"geo_score":0.857,"zip code":"45150","ivr call volume":195,"id":"a68xys9kp6n0","geo_precision":"zip","state":"Ohio"},"type":"Feature","geometry":{"type":"Point","coordinates":[-84.288271,39.154783]}},{"properties":{"geo_score":0.857,"zip code":"45152","ivr call volume":63,"id":"a68xysej198j","geo_precision":"zip","state":"Ohio"},"type":"Feature","geometry":{"type":"Point","coordinates":[-84.191603,39.350893]}},{"properties":{"geo_score":0.857,"zip code":"45154","ivr call volume":47,"id":"a68xysbbbnli","geo_precision":"zip","state":"Ohio"},"type":"Feature","geometry":{"type":"Point","coordinates":[-83.876873,39.0159]}},{"properties":{"geo_score":0.857,"zip code":"45157","ivr call volume":75,"id":"a68xys6loco2","geo_precision":"zip","state":"Ohio"},"type":"Feature","geometry":{"type":"Point","coordinates":[-84.23188,38.983675]}},{"properties":{"geo_score":0.857,"zip code":"45159","ivr call volume":15,"id":"a68xysks9m1j","geo_precision":"zip","state":"Ohio"},"type":"Feature","geometry":{"type":"Point","coordinates":[-83.647144,39.315896]}},{"properties":{"geo_score":0.857,"zip code":"45162","ivr call volume":4,"id":"a68xys6p84io","geo_precision":"zip","state":"Ohio"},"type":"Feature","geometry":{"type":"Point","coordinates":[-84.049933,39.284783]}},{"properties":{"geo_score":0.857,"zip code":"45167","ivr call volume":32,"id":"a68xysbloyrr","geo_precision":"zip","state":"Ohio"},"type":"Feature","geometry":{"type":"Point","coordinates":[-83.826591,38.760628]}},{"properties":{"geo_score":0.857,"zip code":"45168","ivr call volume":9,"id":"a68xysc7x2e8","geo_precision":"zip","state":"Ohio"},"type":"Feature","geometry":{"type":"Point","coordinates":[-83.767404,38.84798]}},{"properties":{"geo_score":0.857,"zip code":"45169","ivr call volume":27,"id":"a68xys6fr0lm","geo_precision":"zip","state":"Ohio"},"type":"Feature","geometry":{"type":"Point","coordinates":[-83.706312,39.537006]}},{"properties":{"geo_score":0.857,"zip code":"45171","ivr call volume":54,"id":"a68xysa88vo4","geo_precision":"zip","state":"Ohio"},"type":"Feature","geometry":{"type":"Point","coordinates":[-83.781592,39.111732]}},{"properties":{"geo_score":0.857,"zip code":"45176","ivr call volume":58,"id":"a68xysa5m1kl","geo_precision":"zip","state":"Ohio"},"type":"Feature","geometry":{"type":"Point","coordinates":[-84.012155,39.013677]}},{"properties":{"geo_score":0.857,"zip code":"45177","ivr call volume":174,"id":"a68xys8ug82t","geo_precision":"zip","state":"Ohio"},"type":"Feature","geometry":{"type":"Point","coordinates":[-83.920207,39.441728]}},{"properties":{"geo_score":0.857,"zip code":"45202","ivr call volume":1505,"id":"a68xysgfsb07","geo_precision":"zip","state":"Ohio"},"type":"Feature","geometry":{"type":"Point","coordinates":[-84.486142,39.11026]}},{"properties":{"geo_score":0.857,"zip code":"45203","ivr call volume":458,"id":"a68xysd45kqw","geo_precision":"zip","state":"Ohio"},"type":"Feature","geometry":{"type":"Point","coordinates":[-84.531993,39.10886]}},{"properties":{"geo_score":0.857,"zip code":"45205","ivr call volume":199,"id":"a68xys6wjp33","geo_precision":"zip","state":"Ohio"},"type":"Feature","geometry":{"type":"Point","coordinates":[-84.575778,39.110059]}},{"properties":{"geo_score":0.857,"zip code":"45208","ivr call volume":132,"id":"a68xys98nzdk","geo_precision":"zip","state":"Ohio"},"type":"Feature","geometry":{"type":"Point","coordinates":[-84.43383,39.142004]}},{"properties":{"geo_score":0.857,"zip code":"45211","ivr call volume":411,"id":"a68xysh3f44d","geo_precision":"zip","state":"Ohio"},"type":"Feature","geometry":{"type":"Point","coordinates":[-84.553555,39.127837]}},{"properties":{"geo_score":0.857,"zip code":"45212","ivr call volume":481,"id":"a68xysd9pj89","geo_precision":"zip","state":"Ohio"},"type":"Feature","geometry":{"type":"Point","coordinates":[-84.454342,39.187659]}},{"properties":{"geo_score":0.857,"zip code":"45215","ivr call volume":286,"id":"a68xys8kwafd","geo_precision":"zip","state":"Ohio"},"type":"Feature","geometry":{"type":"Point","coordinates":[-84.465776,39.231169]}},{"properties":{"geo_score":0.857,"zip code":"45216","ivr call volume":187,"id":"a68xysjfboxi","geo_precision":"zip","state":"Ohio"},"type":"Feature","geometry":{"type":"Point","coordinates":[-84.515777,39.174225]}},{"properties":{"geo_score":0.857,"zip code":"45217","ivr call volume":111,"id":"a68xysg054kp","geo_precision":"zip","state":"Ohio"},"type":"Feature","geometry":{"type":"Point","coordinates":[-84.50411,39.170059]}},{"properties":{"geo_score":0.857,"zip code":"45218","ivr call volume":376,"id":"a68xyseg4n6d","geo_precision":"zip","state":"Ohio"},"type":"Feature","geometry":{"type":"Point","coordinates":[-84.523,39.268113]}},{"properties":{"geo_score":0.857,"zip code":"45223","ivr call volume":263,"id":"a68xysj72xu1","geo_precision":"zip","state":"Ohio"},"type":"Feature","geometry":{"type":"Point","coordinates":[-84.539944,39.163948]}},{"properties":{"geo_score":0.857,"zip code":"45227","ivr call volume":213,"id":"a68xysi7c8w3","geo_precision":"zip","state":"Ohio"},"type":"Feature","geometry":{"type":"Point","coordinates":[-84.399663,39.135616]}},{"properties":{"geo_score":0.857,"zip code":"45229","ivr call volume":658,"id":"a68xysj9hzcl","geo_precision":"zip","state":"Ohio"},"type":"Feature","geometry":{"type":"Point","coordinates":[-84.720503,39.165058]}},{"properties":{"geo_score":0.857,"zip code":"45230","ivr call volume":220,"id":"a68xys8zvfe2","geo_precision":"zip","state":"Ohio"},"type":"Feature","geometry":{"type":"Point","coordinates":[-84.364384,39.075617]}},{"properties":{"geo_score":0.857,"zip code":"45231","ivr call volume":322,"id":"a68xysivcz4a","geo_precision":"zip","state":"Ohio"},"type":"Feature","geometry":{"type":"Point","coordinates":[-84.494943,39.240336]}},{"properties":{"geo_score":0.857,"zip code":"45233","ivr call volume":108,"id":"a68xys7tfbgh","geo_precision":"zip","state":"Ohio"},"type":"Feature","geometry":{"type":"Point","coordinates":[-84.689113,39.112559]}},{"properties":{"geo_score":0.857,"zip code":"45236","ivr call volume":552,"id":"a68xysff886m","geo_precision":"zip","state":"Ohio"},"type":"Feature","geometry":{"type":"Point","coordinates":[-84.400496,39.192837]}},{"properties":{"geo_score":0.857,"zip code":"45238","ivr call volume":687,"id":"a68xys6efz6s","geo_precision":"zip","state":"Ohio"},"type":"Feature","geometry":{"type":"Point","coordinates":[-84.612723,39.092837]}},{"properties":{"geo_score":0.857,"zip code":"45241","ivr call volume":42,"id":"a68xysl0wlky","geo_precision":"zip","state":"Ohio"},"type":"Feature","geometry":{"type":"Point","coordinates":[-84.408275,39.30228]}},{"properties":{"geo_score":0.857,"zip code":"45245","ivr call volume":421,"id":"a68xys7ulqiz","geo_precision":"zip","state":"Ohio"},"type":"Feature","geometry":{"type":"Point","coordinates":[-84.288271,39.062284]}},{"properties":{"geo_score":0.857,"zip code":"45246","ivr call volume":265,"id":"a68xysjyhfbs","geo_precision":"zip","state":"Ohio"},"type":"Feature","geometry":{"type":"Point","coordinates":[-84.485221,39.287002]}},{"properties":{"geo_score":0.857,"zip code":"45249","ivr call volume":153,"id":"a68xysammai9","geo_precision":"zip","state":"Ohio"},"type":"Feature","geometry":{"type":"Point","coordinates":[-84.330686,39.269226]}},{"properties":{"geo_score":0.857,"zip code":"45251","ivr call volume":333,"id":"a68xys6327wx","geo_precision":"zip","state":"Ohio"},"type":"Feature","geometry":{"type":"Point","coordinates":[-84.599285,39.267157]}},{"properties":{"geo_score":0.857,"zip code":"45255","ivr call volume":91,"id":"a68xysc5leo6","geo_precision":"zip","state":"Ohio"},"type":"Feature","geometry":{"type":"Point","coordinates":[-84.339639,39.058412]}},{"properties":{"geo_score":0.857,"zip code":"45302","ivr call volume":7,"id":"a68xysebw2tk","geo_precision":"zip","state":"Ohio"},"type":"Feature","geometry":{"type":"Point","coordinates":[-84.243281,40.413659]}},{"properties":{"geo_score":0.857,"zip code":"45303","ivr call volume":8,"id":"a68xysj4mml6","geo_precision":"zip","state":"Ohio"},"type":"Feature","geometry":{"type":"Point","coordinates":[-84.709404,40.206436]}},{"properties":{"geo_score":0.857,"zip code":"45304","ivr call volume":36,"id":"a68xysiqki9h","geo_precision":"zip","state":"Ohio"},"type":"Feature","geometry":{"type":"Point","coordinates":[-84.469395,40.035606]}},{"properties":{"geo_score":0.857,"zip code":"45305","ivr call volume":60,"id":"a68xysc8qt9v","geo_precision":"zip","state":"Ohio"},"type":"Feature","geometry":{"type":"Point","coordinates":[-84.049985,39.632829]}},{"properties":{"geo_score":0.857,"zip code":"45306","ivr call volume":2,"id":"a68xys9zlsrv","geo_precision":"zip","state":"Ohio"},"type":"Feature","geometry":{"type":"Point","coordinates":[-84.189245,40.439778]}},{"properties":{"geo_score":0.857,"zip code":"45308","ivr call volume":20,"id":"a68xyse4u1i2","geo_precision":"zip","state":"Ohio"},"type":"Feature","geometry":{"type":"Point","coordinates":[-84.478007,40.186715]}},{"properties":{"geo_score":0.857,"zip code":"45309","ivr call volume":68,"id":"a68xysae1q5m","geo_precision":"zip","state":"Ohio"},"type":"Feature","geometry":{"type":"Point","coordinates":[-84.46495,39.873664]}},{"properties":{"geo_score":0.857,"zip code":"45311","ivr call volume":23,"id":"a68xys9yxloa","geo_precision":"zip","state":"Ohio"},"type":"Feature","geometry":{"type":"Point","coordinates":[-84.737176,39.596441]}},{"properties":{"geo_score":0.857,"zip code":"45312","ivr call volume":6,"id":"a68xysae16qh","geo_precision":"zip","state":"Ohio"},"type":"Feature","geometry":{"type":"Point","coordinates":[-84.08161,40.066567]}},{"properties":{"geo_score":0.857,"zip code":"45314","ivr call volume":11,"id":"a68xys9wiiez","geo_precision":"zip","state":"Ohio"},"type":"Feature","geometry":{"type":"Point","coordinates":[-83.684923,39.743671]}},{"properties":{"geo_score":0.857,"zip code":"45317","ivr call volume":8,"id":"a68xysjsm2o0","geo_precision":"zip","state":"Ohio"},"type":"Feature","geometry":{"type":"Point","coordinates":[-84.03216,40.140888]}},{"properties":{"geo_score":0.857,"zip code":"45318","ivr call volume":81,"id":"a68xys7p1f1w","geo_precision":"zip","state":"Ohio"},"type":"Feature","geometry":{"type":"Point","coordinates":[-84.413283,40.187827]}},{"properties":{"geo_score":0.857,"zip code":"45320","ivr call volume":116,"id":"a68xysijuikq","geo_precision":"zip","state":"Ohio"},"type":"Feature","geometry":{"type":"Point","coordinates":[-84.760512,39.743939]}},{"properties":{"geo_score":0.857,"zip code":"45321","ivr call volume":10,"id":"a68xysfvfkle","geo_precision":"zip","state":"Ohio"},"type":"Feature","geometry":{"type":"Point","coordinates":[-84.681067,39.872177]}},{"properties":{"geo_score":0.857,"zip code":"45322","ivr call volume":156,"id":"a68xyshy9oza","geo_precision":"zip","state":"Ohio"},"type":"Feature","geometry":{"type":"Point","coordinates":[-84.285222,39.863667]}},{"properties":{"geo_score":0.857,"zip code":"45323","ivr call volume":68,"id":"a68xys9pisjc","geo_precision":"zip","state":"Ohio"},"type":"Feature","geometry":{"type":"Point","coordinates":[-83.933431,39.857967]}},{"properties":{"geo_score":0.857,"zip code":"45324","ivr call volume":258,"id":"a68xysjrq17l","geo_precision":"zip","state":"Ohio"},"type":"Feature","geometry":{"type":"Point","coordinates":[-83.968544,39.856171]}},{"properties":{"geo_score":0.857,"zip code":"45325","ivr call volume":10,"id":"a68xys798g4d","geo_precision":"zip","state":"Ohio"},"type":"Feature","geometry":{"type":"Point","coordinates":[-84.41397,39.781301]}},{"properties":{"geo_score":0.857,"zip code":"45326","ivr call volume":3,"id":"a68xysai4k6a","geo_precision":"zip","state":"Ohio"},"type":"Feature","geometry":{"type":"Point","coordinates":[-84.100988,40.144491]}},{"properties":{"geo_score":0.857,"zip code":"45327","ivr call volume":46,"id":"a68xysc4trk0","geo_precision":"zip","state":"Ohio"},"type":"Feature","geometry":{"type":"Point","coordinates":[-84.365777,39.613113]}},{"properties":{"geo_score":0.857,"zip code":"45331","ivr call volume":195,"id":"a68xys5k81v3","geo_precision":"zip","state":"Ohio"},"type":"Feature","geometry":{"type":"Point","coordinates":[-84.677736,40.178381]}},{"properties":{"geo_score":0.857,"zip code":"45332","ivr call volume":1,"id":"a68xys5uyt02","geo_precision":"zip","state":"Ohio"},"type":"Feature","geometry":{"type":"Point","coordinates":[-84.791904,40.00977]}},{"properties":{"geo_score":0.857,"zip code":"45334","ivr call volume":23,"id":"a68xysebd717","geo_precision":"zip","state":"Ohio"},"type":"Feature","geometry":{"type":"Point","coordinates":[-84.058495,40.434921]}},{"properties":{"geo_score":0.857,"zip code":"45335","ivr call volume":41,"id":"a68xyscv82vl","geo_precision":"zip","state":"Ohio"},"type":"Feature","geometry":{"type":"Point","coordinates":[-83.78687,39.652838]}},{"properties":{"geo_score":0.857,"zip code":"45337","ivr call volume":12,"id":"a68xysc681sm","geo_precision":"zip","state":"Ohio"},"type":"Feature","geometry":{"type":"Point","coordinates":[-84.399364,39.985177]}},{"properties":{"geo_score":0.857,"zip code":"45338","ivr call volume":21,"id":"a68xysdpnpva","geo_precision":"zip","state":"Ohio"},"type":"Feature","geometry":{"type":"Point","coordinates":[-84.541063,39.88894]}},{"properties":{"geo_score":0.857,"zip code":"45341","ivr call volume":55,"id":"a68xysdk322v","geo_precision":"zip","state":"Ohio"},"type":"Feature","geometry":{"type":"Point","coordinates":[-84.026602,39.889226]}},{"properties":{"geo_score":0.857,"zip code":"45342","ivr call volume":291,"id":"a68xysb8vcai","geo_precision":"zip","state":"Ohio"},"type":"Feature","geometry":{"type":"Point","coordinates":[-84.276053,39.673392]}},{"properties":{"geo_score":0.857,"zip code":"45344","ivr call volume":96,"id":"a68xysltir9l","geo_precision":"zip","state":"Ohio"},"type":"Feature","geometry":{"type":"Point","coordinates":[-84.039658,39.886448]}},{"properties":{"geo_score":0.857,"zip code":"45345","ivr call volume":28,"id":"a68xyscdas8d","geo_precision":"zip","state":"Ohio"},"type":"Feature","geometry":{"type":"Point","coordinates":[-84.423559,39.745333]}},{"properties":{"geo_score":0.857,"zip code":"45346","ivr call volume":5,"id":"a68xys7lnfql","geo_precision":"zip","state":"Ohio"},"type":"Feature","geometry":{"type":"Point","coordinates":[-84.705736,39.982103]}},{"properties":{"geo_score":0.857,"zip code":"45347","ivr call volume":25,"id":"a68xyscag6eu","geo_precision":"zip","state":"Ohio"},"type":"Feature","geometry":{"type":"Point","coordinates":[-84.792458,39.822549]}},{"properties":{"geo_score":0.857,"zip code":"45348","ivr call volume":2,"id":"a68xysahjrah","geo_precision":"zip","state":"Ohio"},"type":"Feature","geometry":{"type":"Point","coordinates":[-84.725516,40.308658]}},{"properties":{"geo_score":0.857,"zip code":"45356","ivr call volume":200,"id":"a68xysgdp7ev","geo_precision":"zip","state":"Ohio"},"type":"Feature","geometry":{"type":"Point","coordinates":[-84.233834,40.208106]}},{"properties":{"geo_score":0.857,"zip code":"45359","ivr call volume":16,"id":"a68xyskp3i7o","geo_precision":"zip","state":"Ohio"},"type":"Feature","geometry":{"type":"Point","coordinates":[-84.348699,40.050483]}},{"properties":{"geo_score":0.857,"zip code":"45362","ivr call volume":4,"id":"a68xysjjqc1k","geo_precision":"zip","state":"Ohio"},"type":"Feature","geometry":{"type":"Point","coordinates":[-84.712738,40.285325]}},{"properties":{"geo_score":0.857,"zip code":"45365","ivr call volume":179,"id":"a68xys6kuz4k","geo_precision":"zip","state":"Ohio"},"type":"Feature","geometry":{"type":"Point","coordinates":[-84.027717,40.236163]}},{"properties":{"geo_score":0.857,"zip code":"45368","ivr call volume":22,"id":"a68xyse783yj","geo_precision":"zip","state":"Ohio"},"type":"Feature","geometry":{"type":"Point","coordinates":[-83.61159,39.896171]}},{"properties":{"geo_score":0.857,"zip code":"45369","ivr call volume":15,"id":"a68xysd19lc4","geo_precision":"zip","state":"Ohio"},"type":"Feature","geometry":{"type":"Point","coordinates":[-84.173,40.360605]}},{"properties":{"geo_score":0.857,"zip code":"45370","ivr call volume":18,"id":"a68xysguu4fy","geo_precision":"zip","state":"Ohio"},"type":"Feature","geometry":{"type":"Point","coordinates":[-84.025972,39.608285]}},{"properties":{"geo_score":0.857,"zip code":"45371","ivr call volume":98,"id":"a68xyscia1v3","geo_precision":"zip","state":"Ohio"},"type":"Feature","geometry":{"type":"Point","coordinates":[-84.133551,39.923113]}},{"properties":{"geo_score":0.857,"zip code":"45373","ivr call volume":220,"id":"a68xysln8mr8","geo_precision":"zip","state":"Ohio"},"type":"Feature","geometry":{"type":"Point","coordinates":[-84.180776,40.040054]}},{"properties":{"geo_score":0.857,"zip code":"45377","ivr call volume":215,"id":"a68xys5livqm","geo_precision":"zip","state":"Ohio"},"type":"Feature","geometry":{"type":"Point","coordinates":[-84.242243,39.889006]}},{"properties":{"geo_score":0.857,"zip code":"45380","ivr call volume":21,"id":"a68xys9r1y7v","geo_precision":"zip","state":"Ohio"},"type":"Feature","geometry":{"type":"Point","coordinates":[-84.45384,40.306437]}},{"properties":{"geo_score":0.857,"zip code":"45381","ivr call volume":23,"id":"a68xysezmaeg","geo_precision":"zip","state":"Ohio"},"type":"Feature","geometry":{"type":"Point","coordinates":[-84.580785,39.744219]}},{"properties":{"geo_score":0.857,"zip code":"45382","ivr call volume":11,"id":"a68xysl6h2y6","geo_precision":"zip","state":"Ohio"},"type":"Feature","geometry":{"type":"Point","coordinates":[-84.621617,39.88133]}},{"properties":{"geo_score":0.857,"zip code":"45383","ivr call volume":44,"id":"a68xysbjn1fr","geo_precision":"zip","state":"Ohio"},"type":"Feature","geometry":{"type":"Point","coordinates":[-84.290224,39.977831]}},{"properties":{"geo_score":0.857,"zip code":"45385","ivr call volume":241,"id":"a68xys5ekxa6","geo_precision":"zip","state":"Ohio"},"type":"Feature","geometry":{"type":"Point","coordinates":[-83.98521,39.705615]}},{"properties":{"geo_score":0.857,"zip code":"45387","ivr call volume":30,"id":"a68xysfhrh7n","geo_precision":"zip","state":"Ohio"},"type":"Feature","geometry":{"type":"Point","coordinates":[-83.916041,39.766726]}},{"properties":{"geo_score":0.857,"zip code":"45388","ivr call volume":5,"id":"a68xys5y1psh","geo_precision":"zip","state":"Ohio"},"type":"Feature","geometry":{"type":"Point","coordinates":[-84.484466,40.321853]}},{"properties":{"geo_score":0.857,"zip code":"45390","ivr call volume":19,"id":"a68xyscgkl39","geo_precision":"zip","state":"Ohio"},"type":"Feature","geometry":{"type":"Point","coordinates":[-84.768294,40.177547]}},{"properties":{"geo_score":0.857,"zip code":"45405","ivr call volume":399,"id":"a68xysd5vnx3","geo_precision":"zip","state":"Ohio"},"type":"Feature","geometry":{"type":"Point","coordinates":[-84.217391,39.789857]}},{"properties":{"geo_score":0.857,"zip code":"45410","ivr call volume":405,"id":"a68xysecqgvz","geo_precision":"zip","state":"Ohio"},"type":"Feature","geometry":{"type":"Point","coordinates":[-84.156938,39.748008]}},{"properties":{"geo_score":0.857,"zip code":"45417","ivr call volume":184,"id":"a68xysaqlzer","geo_precision":"zip","state":"Ohio"},"type":"Feature","geometry":{"type":"Point","coordinates":[-84.245841,39.75344]}},{"properties":{"geo_score":0.857,"zip code":"45418","ivr call volume":12,"id":"a68xys6l7hum","geo_precision":"zip","state":"Ohio"},"type":"Feature","geometry":{"type":"Point","coordinates":[-84.258553,39.732003]}},{"properties":{"geo_score":0.857,"zip code":"45419","ivr call volume":423,"id":"a68xys6kpqvp","geo_precision":"zip","state":"Ohio"},"type":"Feature","geometry":{"type":"Point","coordinates":[-84.174106,39.725337]}},{"properties":{"geo_score":0.857,"zip code":"45422","ivr call volume":248,"id":"a68xysdnlcg8","geo_precision":"zip","state":"Ohio"},"type":"Feature","geometry":{"type":"Point","coordinates":[-84.20009,39.758058]}},{"properties":{"geo_score":0.857,"zip code":"45424","ivr call volume":283,"id":"a68xysh6af4t","geo_precision":"zip","state":"Ohio"},"type":"Feature","geometry":{"type":"Point","coordinates":[-84.10466,39.860891]}},{"properties":{"geo_score":0.857,"zip code":"45426","ivr call volume":183,"id":"a68xysazxsyz","geo_precision":"zip","state":"Ohio"},"type":"Feature","geometry":{"type":"Point","coordinates":[-84.311611,39.78089]}},{"properties":{"geo_score":0.857,"zip code":"45432","ivr call volume":254,"id":"a68xysc37cb4","geo_precision":"zip","state":"Ohio"},"type":"Feature","geometry":{"type":"Point","coordinates":[-84.067158,39.733393]}},{"properties":{"geo_score":0.857,"zip code":"45434","ivr call volume":3,"id":"a68xysb93dxw","geo_precision":"zip","state":"Ohio"},"type":"Feature","geometry":{"type":"Point","coordinates":[-84.268593,39.750471]}},{"properties":{"geo_score":0.857,"zip code":"45435","ivr call volume":1327,"id":"a68xysk7zzrn","geo_precision":"zip","state":"Ohio"},"type":"Feature","geometry":{"type":"Point","coordinates":[-84.268593,39.750471]}},{"properties":{"geo_score":0.857,"zip code":"45439","ivr call volume":6,"id":"a68xysfih9la","geo_precision":"zip","state":"Ohio"},"type":"Feature","geometry":{"type":"Point","coordinates":[-84.252163,39.672281]}},{"properties":{"geo_score":0.857,"zip code":"45458","ivr call volume":137,"id":"a68xysh72noy","geo_precision":"zip","state":"Ohio"},"type":"Feature","geometry":{"type":"Point","coordinates":[-84.169519,39.606209]}},{"properties":{"geo_score":0.857,"zip code":"45459","ivr call volume":619,"id":"a68xysfyppi9","geo_precision":"zip","state":"Ohio"},"type":"Feature","geometry":{"type":"Point","coordinates":[-84.158271,39.659226]}},{"properties":{"geo_score":0.857,"zip code":"45469","ivr call volume":11,"id":"a68xysj7q8oa","geo_precision":"zip","state":"Ohio"},"type":"Feature","geometry":{"type":"Point","coordinates":[-84.178939,39.740509]}},{"properties":{"geo_score":0.857,"zip code":"45502","ivr call volume":540,"id":"a68xysbogx43","geo_precision":"zip","state":"Ohio"},"type":"Feature","geometry":{"type":"Point","coordinates":[-83.849374,39.903949]}},{"properties":{"geo_score":0.857,"zip code":"45503","ivr call volume":228,"id":"a68xysircmfl","geo_precision":"zip","state":"Ohio"},"type":"Feature","geometry":{"type":"Point","coordinates":[-83.758538,39.965338]}},{"properties":{"geo_score":0.857,"zip code":"45505","ivr call volume":5,"id":"a68xyscmfjay","geo_precision":"zip","state":"Ohio"},"type":"Feature","geometry":{"type":"Point","coordinates":[-83.7482,39.906009]}},{"properties":{"geo_score":0.857,"zip code":"45601","ivr call volume":363,"id":"a68xys8at68y","geo_precision":"zip","state":"Ohio"},"type":"Feature","geometry":{"type":"Point","coordinates":[-83.009627,39.504228]}},{"properties":{"geo_score":0.857,"zip code":"45612","ivr call volume":27,"id":"a68xysa0zwgn","geo_precision":"zip","state":"Ohio"},"type":"Feature","geometry":{"type":"Point","coordinates":[-83.167129,39.225344]}},{"properties":{"geo_score":0.857,"zip code":"45613","ivr call volume":19,"id":"a68xys7fvgxo","geo_precision":"zip","state":"Ohio"},"type":"Feature","geometry":{"type":"Point","coordinates":[-82.78267,39.013406]}},{"properties":{"geo_score":0.857,"zip code":"45619","ivr call volume":233,"id":"a68xysh2j2hx","geo_precision":"zip","state":"Ohio"},"type":"Feature","geometry":{"type":"Point","coordinates":[-82.438765,38.430916]}},{"properties":{"geo_score":0.857,"zip code":"45620","ivr call volume":11,"id":"a68xysa10v2b","geo_precision":"zip","state":"Ohio"},"type":"Feature","geometry":{"type":"Point","coordinates":[-82.154868,38.981467]}},{"properties":{"geo_score":0.857,"zip code":"45623","ivr call volume":32,"id":"a68xys6zaq2y","geo_precision":"zip","state":"Ohio"},"type":"Feature","geometry":{"type":"Point","coordinates":[-82.301816,38.536751]}},{"properties":{"geo_score":0.857,"zip code":"45628","ivr call volume":19,"id":"a68xysklw8jp","geo_precision":"zip","state":"Ohio"},"type":"Feature","geometry":{"type":"Point","coordinates":[-83.187688,39.384786]}},{"properties":{"geo_score":0.857,"zip code":"45631","ivr call volume":134,"id":"a68xysjcuvqr","geo_precision":"zip","state":"Ohio"},"type":"Feature","geometry":{"type":"Point","coordinates":[-82.245148,38.736193]}},{"properties":{"geo_score":0.857,"zip code":"45638","ivr call volume":214,"id":"a68xys7yvlqh","geo_precision":"zip","state":"Ohio"},"type":"Feature","geometry":{"type":"Point","coordinates":[-82.677108,38.610635]}},{"properties":{"geo_score":0.857,"zip code":"45640","ivr call volume":142,"id":"a68xysgl4yek","geo_precision":"zip","state":"Ohio"},"type":"Feature","geometry":{"type":"Point","coordinates":[-82.53905,38.987019]}},{"properties":{"geo_score":0.857,"zip code":"45644","ivr call volume":25,"id":"a68xysi7gekl","geo_precision":"zip","state":"Ohio"},"type":"Feature","geometry":{"type":"Point","coordinates":[-82.819896,39.48673]}},{"properties":{"geo_score":0.857,"zip code":"45646","ivr call volume":9,"id":"a68xys8g7ho8","geo_precision":"zip","state":"Ohio"},"type":"Feature","geometry":{"type":"Point","coordinates":[-83.299355,39.087569]}},{"properties":{"geo_score":0.857,"zip code":"45647","ivr call volume":16,"id":"a68xysj6yql6","geo_precision":"zip","state":"Ohio"},"type":"Feature","geometry":{"type":"Point","coordinates":[-82.681278,39.262846]}},{"properties":{"geo_score":0.857,"zip code":"45648","ivr call volume":33,"id":"a68xys9whn7y","geo_precision":"zip","state":"Ohio"},"type":"Feature","geometry":{"type":"Point","coordinates":[-82.973786,38.885907]}},{"properties":{"geo_score":0.857,"zip code":"45651","ivr call volume":28,"id":"a68xys7slia9","geo_precision":"zip","state":"Ohio"},"type":"Feature","geometry":{"type":"Point","coordinates":[-82.429044,39.25396]}},{"properties":{"geo_score":0.857,"zip code":"45653","ivr call volume":35,"id":"a68xyskdwnd2","geo_precision":"zip","state":"Ohio"},"type":"Feature","geometry":{"type":"Point","coordinates":[-82.863227,38.866741]}},{"properties":{"geo_score":0.857,"zip code":"45656","ivr call volume":52,"id":"a68xys5fglnz","geo_precision":"zip","state":"Ohio"},"type":"Feature","geometry":{"type":"Point","coordinates":[-82.532383,38.924242]}},{"properties":{"geo_score":0.857,"zip code":"45657","ivr call volume":20,"id":"a68xys6vz4xz","geo_precision":"zip","state":"Ohio"},"type":"Feature","geometry":{"type":"Point","coordinates":[-83.206016,38.898684]}},{"properties":{"geo_score":0.857,"zip code":"45658","ivr call volume":15,"id":"a68xys96omb5","geo_precision":"zip","state":"Ohio"},"type":"Feature","geometry":{"type":"Point","coordinates":[-82.533771,38.803966]}},{"properties":{"geo_score":0.857,"zip code":"45660","ivr call volume":37,"id":"a68xysk9jvra","geo_precision":"zip","state":"Ohio"},"type":"Feature","geometry":{"type":"Point","coordinates":[-83.30491,39.043958]}},{"properties":{"geo_score":0.857,"zip code":"45661","ivr call volume":41,"id":"a68xysjhirfp","geo_precision":"zip","state":"Ohio"},"type":"Feature","geometry":{"type":"Point","coordinates":[-83.062957,39.008682]}},{"properties":{"geo_score":0.857,"zip code":"45662","ivr call volume":223,"id":"a68xyscvz2fq","geo_precision":"zip","state":"Ohio"},"type":"Feature","geometry":{"type":"Point","coordinates":[-83.029064,38.758409]}},{"properties":{"geo_score":0.857,"zip code":"45663","ivr call volume":183,"id":"a68xysl2ctqj","geo_precision":"zip","state":"Ohio"},"type":"Feature","geometry":{"type":"Point","coordinates":[-83.133477,38.749539]}},{"properties":{"geo_score":0.857,"zip code":"45673","ivr call volume":8,"id":"a68xys9ijvqo","geo_precision":"zip","state":"Ohio"},"type":"Feature","geometry":{"type":"Point","coordinates":[-82.854167,39.203167]}},{"properties":{"geo_score":0.857,"zip code":"45679","ivr call volume":16,"id":"a68xys5tbwpd","geo_precision":"zip","state":"Ohio"},"type":"Feature","geometry":{"type":"Point","coordinates":[-83.567418,38.922848]}},{"properties":{"geo_score":0.857,"zip code":"45680","ivr call volume":62,"id":"a68xysf66qg3","geo_precision":"zip","state":"Ohio"},"type":"Feature","geometry":{"type":"Point","coordinates":[-82.503768,38.419527]}},{"properties":{"geo_score":0.857,"zip code":"45681","ivr call volume":18,"id":"a68xysko4hzb","geo_precision":"zip","state":"Ohio"},"type":"Feature","geometry":{"type":"Point","coordinates":[-83.312135,39.352564]}},{"properties":{"geo_score":0.857,"zip code":"45685","ivr call volume":11,"id":"a68xysd2cinm","geo_precision":"zip","state":"Ohio"},"type":"Feature","geometry":{"type":"Point","coordinates":[-82.497104,38.958131]}},{"properties":{"geo_score":0.857,"zip code":"45686","ivr call volume":28,"id":"a68xyslojhib","geo_precision":"zip","state":"Ohio"},"type":"Feature","geometry":{"type":"Point","coordinates":[-82.267373,38.983133]}},{"properties":{"geo_score":0.857,"zip code":"45688","ivr call volume":16,"id":"a68xysggbp81","geo_precision":"zip","state":"Ohio"},"type":"Feature","geometry":{"type":"Point","coordinates":[-82.520714,38.692579]}},{"properties":{"geo_score":0.857,"zip code":"45690","ivr call volume":79,"id":"a68xyshyk2zk","geo_precision":"zip","state":"Ohio"},"type":"Feature","geometry":{"type":"Point","coordinates":[-83.006567,39.115902]}},{"properties":{"geo_score":0.857,"zip code":"45692","ivr call volume":73,"id":"a68xysi99ck0","geo_precision":"zip","state":"Ohio"},"type":"Feature","geometry":{"type":"Point","coordinates":[-82.537938,39.081184]}},{"properties":{"geo_score":0.857,"zip code":"45693","ivr call volume":80,"id":"a68xyseashyg","geo_precision":"zip","state":"Ohio"},"type":"Feature","geometry":{"type":"Point","coordinates":[-83.523249,38.891737]}},{"properties":{"geo_score":0.857,"zip code":"45694","ivr call volume":86,"id":"a68xysd8ntbw","geo_precision":"zip","state":"Ohio"},"type":"Feature","geometry":{"type":"Point","coordinates":[-82.85517,38.695633]}},{"properties":{"geo_score":0.857,"zip code":"45695","ivr call volume":14,"id":"a68xysbxbq4l","geo_precision":"zip","state":"Ohio"},"type":"Feature","geometry":{"type":"Point","coordinates":[-82.36824,39.141589]}},{"properties":{"geo_score":0.857,"zip code":"45697","ivr call volume":22,"id":"a68xyseyz73r","geo_precision":"zip","state":"Ohio"},"type":"Feature","geometry":{"type":"Point","coordinates":[-83.657422,39.001179]}},{"properties":{"geo_score":0.857,"zip code":"45701","ivr call volume":139,"id":"a68xysjels77","geo_precision":"zip","state":"Ohio"},"type":"Feature","geometry":{"type":"Point","coordinates":[-81.986252,39.301463]}},{"properties":{"geo_score":0.857,"zip code":"45710","ivr call volume":24,"id":"a68xysceyinw","geo_precision":"zip","state":"Ohio"},"type":"Feature","geometry":{"type":"Point","coordinates":[-82.167924,39.253407]}},{"properties":{"geo_score":0.857,"zip code":"45711","ivr call volume":12,"id":"a68xyskknu9j","geo_precision":"zip","state":"Ohio"},"type":"Feature","geometry":{"type":"Point","coordinates":[-81.936397,39.410743]}},{"properties":{"geo_score":0.857,"zip code":"45714","ivr call volume":82,"id":"a68xyseo9w16","geo_precision":"zip","state":"Ohio"},"type":"Feature","geometry":{"type":"Point","coordinates":[-81.672352,39.341741]}},{"properties":{"geo_score":0.857,"zip code":"45715","ivr call volume":32,"id":"a68xys956de3","geo_precision":"zip","state":"Ohio"},"type":"Feature","geometry":{"type":"Point","coordinates":[-81.677074,39.632573]}},{"properties":{"geo_score":0.857,"zip code":"45723","ivr call volume":30,"id":"a68xysifx7em","geo_precision":"zip","state":"Ohio"},"type":"Feature","geometry":{"type":"Point","coordinates":[-81.744854,39.215076]}},{"properties":{"geo_score":0.857,"zip code":"45727","ivr call volume":4,"id":"a68xysieryf7","geo_precision":"zip","state":"Ohio"},"type":"Feature","geometry":{"type":"Point","coordinates":[-81.499012,39.637851]}},{"properties":{"geo_score":0.857,"zip code":"45732","ivr call volume":28,"id":"a68xysa07edg","geo_precision":"zip","state":"Ohio"},"type":"Feature","geometry":{"type":"Point","coordinates":[-81.973475,39.476183]}},{"properties":{"geo_score":0.857,"zip code":"45734","ivr call volume":18,"id":"a68xysgvrvbp","geo_precision":"zip","state":"Ohio"},"type":"Feature","geometry":{"type":"Point","coordinates":[-81.183444,39.641185]}},{"properties":{"geo_score":0.857,"zip code":"45735","ivr call volume":9,"id":"a68xysl98675","geo_precision":"zip","state":"Ohio"},"type":"Feature","geometry":{"type":"Point","coordinates":[-81.976251,39.207854]}},{"properties":{"geo_score":0.857,"zip code":"45742","ivr call volume":9,"id":"a68xys9fsm1p","geo_precision":"zip","state":"Ohio"},"type":"Feature","geometry":{"type":"Point","coordinates":[-81.655976,39.274635]}},{"properties":{"geo_score":0.857,"zip code":"45743","ivr call volume":12,"id":"a68xysae64to","geo_precision":"zip","state":"Ohio"},"type":"Feature","geometry":{"type":"Point","coordinates":[-81.863191,39.098133]}},{"properties":{"geo_score":0.857,"zip code":"45744","ivr call volume":12,"id":"a68xysdgggf6","geo_precision":"zip","state":"Ohio"},"type":"Feature","geometry":{"type":"Point","coordinates":[-81.47884,39.538823]}},{"properties":{"geo_score":0.857,"zip code":"45750","ivr call volume":220,"id":"a68xys7sqb38","geo_precision":"zip","state":"Ohio"},"type":"Feature","geometry":{"type":"Point","coordinates":[-81.471233,39.413408]}},{"properties":{"geo_score":0.857,"zip code":"45764","ivr call volume":24,"id":"a68xyslwsmpq","geo_precision":"zip","state":"Ohio"},"type":"Feature","geometry":{"type":"Point","coordinates":[-82.237371,39.515069]}},{"properties":{"geo_score":0.857,"zip code":"45766","ivr call volume":11,"id":"a68xysgrxdxw","geo_precision":"zip","state":"Ohio"},"type":"Feature","geometry":{"type":"Point","coordinates":[-82.264594,39.32396]}},{"properties":{"geo_score":0.857,"zip code":"45767","ivr call volume":15,"id":"a68xys6wf551","geo_precision":"zip","state":"Ohio"},"type":"Feature","geometry":{"type":"Point","coordinates":[-81.172613,39.440631]}},{"properties":{"geo_score":0.857,"zip code":"45768","ivr call volume":15,"id":"a68xysa6qz89","geo_precision":"zip","state":"Ohio"},"type":"Feature","geometry":{"type":"Point","coordinates":[-81.343173,39.380353]}},{"properties":{"geo_score":0.857,"zip code":"45769","ivr call volume":62,"id":"a68xysjm2cao","geo_precision":"zip","state":"Ohio"},"type":"Feature","geometry":{"type":"Point","coordinates":[-81.995695,39.027578]}},{"properties":{"geo_score":0.857,"zip code":"45770","ivr call volume":3,"id":"a68xysbhp1nv","geo_precision":"zip","state":"Ohio"},"type":"Feature","geometry":{"type":"Point","coordinates":[-81.839856,38.993691]}},{"properties":{"geo_score":0.857,"zip code":"45771","ivr call volume":19,"id":"a68xys8wzhx0","geo_precision":"zip","state":"Ohio"},"type":"Feature","geometry":{"type":"Point","coordinates":[-81.824856,38.963969]}},{"properties":{"geo_score":0.857,"zip code":"45775","ivr call volume":10,"id":"a68xysjwsfsf","geo_precision":"zip","state":"Ohio"},"type":"Feature","geometry":{"type":"Point","coordinates":[-82.148554,39.090877]}},{"properties":{"geo_score":0.857,"zip code":"45780","ivr call volume":47,"id":"a68xys75jm0k","geo_precision":"zip","state":"Ohio"},"type":"Feature","geometry":{"type":"Point","coordinates":[-81.968751,39.35076]}},{"properties":{"geo_score":0.857,"zip code":"45784","ivr call volume":17,"id":"a68xysbnfhg4","geo_precision":"zip","state":"Ohio"},"type":"Feature","geometry":{"type":"Point","coordinates":[-81.665232,39.367877]}},{"properties":{"geo_score":0.857,"zip code":"45788","ivr call volume":15,"id":"a68xysgz9q86","geo_precision":"zip","state":"Ohio"},"type":"Feature","geometry":{"type":"Point","coordinates":[-81.411231,39.472018]}},{"properties":{"geo_score":0.857,"zip code":"45801","ivr call volume":45,"id":"a68xys9556p5","geo_precision":"zip","state":"Ohio"},"type":"Feature","geometry":{"type":"Point","coordinates":[-84.05189,40.78894]}},{"properties":{"geo_score":0.857,"zip code":"45804","ivr call volume":561,"id":"a68xyscg4f4v","geo_precision":"zip","state":"Ohio"},"type":"Feature","geometry":{"type":"Point","coordinates":[-84.063491,40.694996]}},{"properties":{"geo_score":0.857,"zip code":"45806","ivr call volume":50,"id":"a68xys80ne7x","geo_precision":"zip","state":"Ohio"},"type":"Feature","geometry":{"type":"Point","coordinates":[-84.105226,40.742551]}},{"properties":{"geo_score":0.857,"zip code":"45807","ivr call volume":47,"id":"a68xysfqd0sd","geo_precision":"zip","state":"Ohio"},"type":"Feature","geometry":{"type":"Point","coordinates":[-84.194673,40.754773]}},{"properties":{"geo_score":0.857,"zip code":"45809","ivr call volume":5,"id":"a68xysgtr3kw","geo_precision":"zip","state":"Ohio"},"type":"Feature","geometry":{"type":"Point","coordinates":[-84.183152,40.847946]}},{"properties":{"geo_score":0.857,"zip code":"45810","ivr call volume":15,"id":"a68xys9ef2ds","geo_precision":"zip","state":"Ohio"},"type":"Feature","geometry":{"type":"Point","coordinates":[-83.879939,40.732552]}},{"properties":{"geo_score":0.857,"zip code":"45812","ivr call volume":33,"id":"a68xysl4gng7","geo_precision":"zip","state":"Ohio"},"type":"Feature","geometry":{"type":"Point","coordinates":[-83.7416,40.677552]}},{"properties":{"geo_score":0.857,"zip code":"45813","ivr call volume":30,"id":"a68xysfa6ry1","geo_precision":"zip","state":"Ohio"},"type":"Feature","geometry":{"type":"Point","coordinates":[-84.727141,41.186851]}},{"properties":{"geo_score":0.857,"zip code":"45814","ivr call volume":9,"id":"a68xyshywzfp","geo_precision":"zip","state":"Ohio"},"type":"Feature","geometry":{"type":"Point","coordinates":[-83.594097,40.935332]}},{"properties":{"geo_score":0.857,"zip code":"45817","ivr call volume":25,"id":"a68xysdbm5l0","geo_precision":"zip","state":"Ohio"},"type":"Feature","geometry":{"type":"Point","coordinates":[-83.928268,40.78635]}},{"properties":{"geo_score":0.857,"zip code":"45819","ivr call volume":5,"id":"a68xys87z6da","geo_precision":"zip","state":"Ohio"},"type":"Feature","geometry":{"type":"Point","coordinates":[-84.260275,40.62408]}},{"properties":{"geo_score":0.857,"zip code":"45822","ivr call volume":119,"id":"a68xyscnlgiu","geo_precision":"zip","state":"Ohio"},"type":"Feature","geometry":{"type":"Point","coordinates":[-84.749962,40.545602]}},{"properties":{"geo_score":0.857,"zip code":"45827","ivr call volume":16,"id":"a68xysdluo4m","geo_precision":"zip","state":"Ohio"},"type":"Feature","geometry":{"type":"Point","coordinates":[-84.359948,41.018105]}},{"properties":{"geo_score":0.857,"zip code":"45828","ivr call volume":47,"id":"a68xysdobq6o","geo_precision":"zip","state":"Ohio"},"type":"Feature","geometry":{"type":"Point","coordinates":[-84.65357,40.450602]}},{"properties":{"geo_score":0.857,"zip code":"45830","ivr call volume":16,"id":"a68xysgpp448","geo_precision":"zip","state":"Ohio"},"type":"Feature","geometry":{"type":"Point","coordinates":[-84.0005,40.872274]}},{"properties":{"geo_score":0.857,"zip code":"45831","ivr call volume":20,"id":"a68xysltg4mm","geo_precision":"zip","state":"Ohio"},"type":"Feature","geometry":{"type":"Point","coordinates":[-84.237724,41.12366]}},{"properties":{"geo_score":0.857,"zip code":"45832","ivr call volume":6,"id":"a68xyshiy6j7","geo_precision":"zip","state":"Ohio"},"type":"Feature","geometry":{"type":"Point","coordinates":[-84.746072,40.846159]}},{"properties":{"geo_score":0.857,"zip code":"45833","ivr call volume":50,"id":"a68xysa325le","geo_precision":"zip","state":"Ohio"},"type":"Feature","geometry":{"type":"Point","coordinates":[-84.339953,40.763939]}},{"properties":{"geo_score":0.857,"zip code":"45836","ivr call volume":4,"id":"a68xys9dmczd","geo_precision":"zip","state":"Ohio"},"type":"Feature","geometry":{"type":"Point","coordinates":[-83.643542,40.731998]}},{"properties":{"geo_score":0.857,"zip code":"45840","ivr call volume":321,"id":"a68xys6db694","geo_precision":"zip","state":"Ohio"},"type":"Feature","geometry":{"type":"Point","coordinates":[-83.674655,41.018387]}},{"properties":{"geo_score":0.857,"zip code":"45841","ivr call volume":9,"id":"a68xys7bd7ha","geo_precision":"zip","state":"Ohio"},"type":"Feature","geometry":{"type":"Point","coordinates":[-83.722963,40.885048]}},{"properties":{"geo_score":0.857,"zip code":"45843","ivr call volume":28,"id":"a68xysg6h706","geo_precision":"zip","state":"Ohio"},"type":"Feature","geometry":{"type":"Point","coordinates":[-83.567984,40.71061]}},{"properties":{"geo_score":0.857,"zip code":"45844","ivr call volume":14,"id":"a68xysck6j44","geo_precision":"zip","state":"Ohio"},"type":"Feature","geometry":{"type":"Point","coordinates":[-84.253283,40.874217]}},{"properties":{"geo_score":0.857,"zip code":"45845","ivr call volume":19,"id":"a68xysblh5g2","geo_precision":"zip","state":"Ohio"},"type":"Feature","geometry":{"type":"Point","coordinates":[-84.369671,40.295881]}},{"properties":{"geo_score":0.857,"zip code":"45846","ivr call volume":10,"id":"a68xys9duaxl","geo_precision":"zip","state":"Ohio"},"type":"Feature","geometry":{"type":"Point","coordinates":[-84.746073,40.450324]}},{"properties":{"geo_score":0.857,"zip code":"45849","ivr call volume":14,"id":"a68xys5o2yom","geo_precision":"zip","state":"Ohio"},"type":"Feature","geometry":{"type":"Point","coordinates":[-84.419116,41.019494]}},{"properties":{"geo_score":0.857,"zip code":"45850","ivr call volume":15,"id":"a68xysehgxb5","geo_precision":"zip","state":"Ohio"},"type":"Feature","geometry":{"type":"Point","coordinates":[-83.980221,40.693384]}},{"properties":{"geo_score":0.857,"zip code":"45856","ivr call volume":11,"id":"a68xysfoawp1","geo_precision":"zip","state":"Ohio"},"type":"Feature","geometry":{"type":"Point","coordinates":[-84.002444,41.107273]}},{"properties":{"geo_score":0.857,"zip code":"45858","ivr call volume":25,"id":"a68xys7jud4s","geo_precision":"zip","state":"Ohio"},"type":"Feature","geometry":{"type":"Point","coordinates":[-83.871884,41.108108]}},{"properties":{"geo_score":0.857,"zip code":"45862","ivr call volume":3,"id":"a68xyshkbqca","geo_precision":"zip","state":"Ohio"},"type":"Feature","geometry":{"type":"Point","coordinates":[-84.585513,40.655047]}},{"properties":{"geo_score":0.857,"zip code":"45863","ivr call volume":5,"id":"a68xys9035oh","geo_precision":"zip","state":"Ohio"},"type":"Feature","geometry":{"type":"Point","coordinates":[-84.436062,40.946716]}},{"properties":{"geo_score":0.857,"zip code":"45865","ivr call volume":25,"id":"a68xysfhkot4","geo_precision":"zip","state":"Ohio"},"type":"Feature","geometry":{"type":"Point","coordinates":[-84.295782,40.388104]}},{"properties":{"geo_score":0.857,"zip code":"45867","ivr call volume":8,"id":"a68xys9ba90o","geo_precision":"zip","state":"Ohio"},"type":"Feature","geometry":{"type":"Point","coordinates":[-83.528932,40.904671]}},{"properties":{"geo_score":0.857,"zip code":"45868","ivr call volume":7,"id":"a68xysce9zqy","geo_precision":"zip","state":"Ohio"},"type":"Feature","geometry":{"type":"Point","coordinates":[-83.842293,40.970761]}},{"properties":{"geo_score":0.857,"zip code":"45869","ivr call volume":4,"id":"a68xysl4mpwn","geo_precision":"zip","state":"Ohio"},"type":"Feature","geometry":{"type":"Point","coordinates":[-84.369117,40.451714]}},{"properties":{"geo_score":0.857,"zip code":"45871","ivr call volume":5,"id":"a68xysft4ml5","geo_precision":"zip","state":"Ohio"},"type":"Feature","geometry":{"type":"Point","coordinates":[-84.282659,40.496141]}},{"properties":{"geo_score":0.857,"zip code":"45872","ivr call volume":11,"id":"a68xys7m48nr","geo_precision":"zip","state":"Ohio"},"type":"Feature","geometry":{"type":"Point","coordinates":[-83.644655,41.17783]}},{"properties":{"geo_score":0.857,"zip code":"45873","ivr call volume":33,"id":"a68xys6ig7wo","geo_precision":"zip","state":"Ohio"},"type":"Feature","geometry":{"type":"Point","coordinates":[-84.433837,41.131438]}},{"properties":{"geo_score":0.857,"zip code":"45874","ivr call volume":16,"id":"a68xysc3ef41","geo_precision":"zip","state":"Ohio"},"type":"Feature","geometry":{"type":"Point","coordinates":[-84.698293,40.78477]}},{"properties":{"geo_score":0.857,"zip code":"45875","ivr call volume":41,"id":"a68xyskz93yg","geo_precision":"zip","state":"Ohio"},"type":"Feature","geometry":{"type":"Point","coordinates":[-84.038833,41.073662]}},{"properties":{"geo_score":0.857,"zip code":"45877","ivr call volume":28,"id":"a68xyscn5knj","geo_precision":"zip","state":"Ohio"},"type":"Feature","geometry":{"type":"Point","coordinates":[-83.937984,40.956609]}},{"properties":{"geo_score":0.857,"zip code":"45879","ivr call volume":57,"id":"a68xys67tp98","geo_precision":"zip","state":"Ohio"},"type":"Feature","geometry":{"type":"Point","coordinates":[-84.631066,41.084494]}},{"properties":{"geo_score":0.857,"zip code":"45880","ivr call volume":17,"id":"a68xysj6uc8w","geo_precision":"zip","state":"Ohio"},"type":"Feature","geometry":{"type":"Point","coordinates":[-84.670512,41.081716]}},{"properties":{"geo_score":0.857,"zip code":"45881","ivr call volume":3,"id":"a68xyshxbpxs","geo_precision":"zip","state":"Ohio"},"type":"Feature","geometry":{"type":"Point","coordinates":[-83.770206,40.941562]}},{"properties":{"geo_score":0.857,"zip code":"45882","ivr call volume":17,"id":"a68xys6am90i","geo_precision":"zip","state":"Ohio"},"type":"Feature","geometry":{"type":"Point","coordinates":[-84.784963,40.636991]}},{"properties":{"geo_score":0.857,"zip code":"45885","ivr call volume":66,"id":"a68xysd9df8z","geo_precision":"zip","state":"Ohio"},"type":"Feature","geometry":{"type":"Point","coordinates":[-84.424675,40.545325]}},{"properties":{"geo_score":0.857,"zip code":"45886","ivr call volume":5,"id":"a68xys97llz7","geo_precision":"zip","state":"Ohio"},"type":"Feature","geometry":{"type":"Point","coordinates":[-84.51662,40.407547]}},{"properties":{"geo_score":0.857,"zip code":"45887","ivr call volume":28,"id":"a68xysgnzlv3","geo_precision":"zip","state":"Ohio"},"type":"Feature","geometry":{"type":"Point","coordinates":[-84.425509,40.697549]}},{"properties":{"geo_score":0.857,"zip code":"45889","ivr call volume":5,"id":"a68xys6mgzt6","geo_precision":"zip","state":"Ohio"},"type":"Feature","geometry":{"type":"Point","coordinates":[-83.628337,41.142264]}},{"properties":{"geo_score":0.857,"zip code":"45890","ivr call volume":1,"id":"a68xys8vrgfb","geo_precision":"zip","state":"Ohio"},"type":"Feature","geometry":{"type":"Point","coordinates":[-83.502731,40.935704]}},{"properties":{"geo_score":0.857,"zip code":"45891","ivr call volume":133,"id":"a68xys8ebx4d","geo_precision":"zip","state":"Ohio"},"type":"Feature","geometry":{"type":"Point","coordinates":[-84.581344,40.946438]}},{"properties":{"geo_score":0.857,"zip code":"45894","ivr call volume":3,"id":"a68xysezo03h","geo_precision":"zip","state":"Ohio"},"type":"Feature","geometry":{"type":"Point","coordinates":[-84.514122,40.771437]}},{"properties":{"geo_score":0.857,"zip code":"45895","ivr call volume":61,"id":"a68xysgrctyb","geo_precision":"zip","state":"Ohio"},"type":"Feature","geometry":{"type":"Point","coordinates":[-83.994109,40.491438]}},{"properties":{"geo_score":0.857,"zip code":"45896","ivr call volume":11,"id":"a68xysjfcuxn","geo_precision":"zip","state":"Ohio"},"type":"Feature","geometry":{"type":"Point","coordinates":[-83.880217,40.602551]}},{"properties":{"geo_score":0.857,"zip code":"45898","ivr call volume":8,"id":"a68xysliynsn","geo_precision":"zip","state":"Ohio"},"type":"Feature","geometry":{"type":"Point","coordinates":[-84.727461,40.756436]}}],"is_temporal":false,"author":{"url":"","metadata":"","contact_name":"","contact_address":"","source":"","contact_phone":""},"source":"","pagination":{"sort":null,"start":0,"total":751,"limit":1000000},"state":"complete","tags":"","published":"2014-08-10T21:22:56-04:00","id":67895}