{"type":"FeatureCollection","data_type":"Dataset","url_type":null,"permissions":[{"permissions":{"download":true,"view":true},"group_id":"everyone"}],"classification":null,"title":"test","count":100,"stream_id":68533,"contributor":{"url":"http://geocommons.com/users/10385","name":"daveesrigwork"},"data_attributes":null,"calculation_params":null,"icon_link":null,"link":"http://geocommons.com/overlays/68533.json","extent":[-72.0635,41.6497,-70.6878,43.1974],"geometry_types":["point"],"unique_name":null,"name":"test","feature_count":100,"description":"","next_feature":null,"is_raster":false,"short_classification":"Y","stats":{"geo_score":{"max":0.902,"mean":0.82998,"variance":0.00687086828282829,"stdev":0.082890700822398,"min":0.54,"median":0.854}},"features":[{"properties":{"city":"Beverly","zip":"1915","geo_score":0.862,"id":"a6lt5mdtj6pf","address":"1 Apple Rd","geo_precision":"range","state":"MA"},"type":"Feature","geometry":{"type":"Point","coordinates":[-70.908309,42.568332]}},{"properties":{"city":"Beverly","zip":"1915","geo_score":0.862,"id":"a6lt5m1rouv6","address":"1 Apple Rd","geo_precision":"range","state":"MA"},"type":"Feature","geometry":{"type":"Point","coordinates":[-70.908309,42.568332]}},{"properties":{"city":"Portsmouth","zip":"3801","geo_score":0.82,"id":"a6lt5mfll9sz","address":"1 Beechstone","geo_precision":"range","state":"NH"},"type":"Feature","geometry":{"type":"Point","coordinates":[-70.787295,43.024591]}},{"properties":{"city":"Portsmouth","zip":"3801","geo_score":0.82,"id":"a6lt5m1jeiwd","address":"1 Beechstone","geo_precision":"range","state":"NH"},"type":"Feature","geometry":{"type":"Point","coordinates":[-70.787295,43.024591]}},{"properties":{"city":"Salem","zip":"1970","geo_score":0.793,"id":"a6lt5m1ykx3d","address":"1 Carol Way","geo_precision":"range","state":"MA"},"type":"Feature","geometry":{"type":"Point","coordinates":[-71.010674,42.470651]}},{"properties":{"city":"Saugus","zip":"1906","geo_score":0.769,"id":"a6lt5mfo21vi","address":"1 Founders Way","geo_precision":"range","state":"MA"},"type":"Feature","geometry":{"type":"Point","coordinates":[-70.913974,42.828275]}},{"properties":{"city":"Boston","zip":"2109","geo_score":0.819,"id":"a6lt5meil49r","address":"1 India St","geo_precision":"range","state":"MA"},"type":"Feature","geometry":{"type":"Point","coordinates":[-71.053876,42.359311]}},{"properties":{"city":"Randolph","zip":"2368","geo_score":0.865,"id":"a6lt5mc1ai2s","address":"1-360 Chestnut W","geo_precision":"range","state":"MA"},"type":"Feature","geometry":{"type":"Point","coordinates":[-71.06682,42.177749]}},{"properties":{"city":"Durham","zip":"3824","geo_score":0.707,"id":"a6lt5m2trpkl","address":"10 Main St","geo_precision":"street","state":"NH"},"type":"Feature","geometry":{"type":"Point","coordinates":[-70.922861,43.133224]}},{"properties":{"city":"Westborough","zip":"1581","geo_score":0.888,"id":"a6lt5m6d8ihr","address":"100 Charlestown Meadows Dr","geo_precision":"range","state":"MA"},"type":"Feature","geometry":{"type":"Point","coordinates":[-71.656679,42.268594]}},{"properties":{"city":"Bedford","zip":"1730","geo_score":0.625,"id":"a6lt5max60jw","address":"100 Midlesex Tpke","geo_precision":"street","state":"MA"},"type":"Feature","geometry":{"type":"Point","coordinates":[-71.219627,42.484283]}},{"properties":{"city":"Boston","zip":"2114","geo_score":0.902,"id":"a6lt5m8bdtnf","address":"101 Canal St","geo_precision":"range","state":"MA"},"type":"Feature","geometry":{"type":"Point","coordinates":[-71.059816,42.364304]}},{"properties":{"city":"Clinton","zip":"1510","geo_score":0.902,"id":"a6lt5m0655kx","address":"1021 Main St","geo_precision":"range","state":"MA"},"type":"Feature","geometry":{"type":"Point","coordinates":[-71.686951,42.431839]}},{"properties":{"city":"Weymouth","zip":"2188","geo_score":0.857,"id":"a6lt5m34h3gx","address":"106 Finnell Dr","geo_precision":"range","state":"MA"},"type":"Feature","geometry":{"type":"Point","coordinates":[-70.967727,42.190449]}},{"properties":{"city":"Milford","zip":"1757","geo_score":0.805,"id":"a6lt5m3wlksi","address":"12 Claudette Dr","geo_precision":"range","state":"MA"},"type":"Feature","geometry":{"type":"Point","coordinates":[-71.534296,42.161533]}},{"properties":{"city":"Wareham","zip":"2571","geo_score":0.857,"id":"a6lt5lzitymt","address":"12 State St","geo_precision":"range","state":"MA"},"type":"Feature","geometry":{"type":"Point","coordinates":[-70.68779,41.756305]}},{"properties":{"city":"Boston","zip":"2130","geo_score":0.813,"id":"a6lt5mc54do6","address":"129 Forest Hills St","geo_precision":"range","state":"MA"},"type":"Feature","geometry":{"type":"Point","coordinates":[-71.102546,42.307794]}},{"properties":{"city":"Boston","zip":"2131","geo_score":0.834,"id":"a6lt5mfm6er3","address":"132 Fawndale Rd","geo_precision":"range","state":"MA"},"type":"Feature","geometry":{"type":"Point","coordinates":[-71.12116,42.289018]}},{"properties":{"city":"Methuen","zip":"1844","geo_score":0.831,"id":"a6lt5m0x248z","address":"134-138 Pelham St","geo_precision":"range","state":"MA"},"type":"Feature","geometry":{"type":"Point","coordinates":[-71.200721,42.727281]}},{"properties":{"city":"Foxboro","zip":"2035","geo_score":0.867,"id":"a6lt5m3dpp0g","address":"135 Chestnut St","geo_precision":"range","state":"MA"},"type":"Feature","geometry":{"type":"Point","coordinates":[-71.236879,42.072319]}},{"properties":{"city":"Middleboro","zip":"2346","geo_score":0.805,"id":"a6lt5m424r16","address":"143 W Grove St","geo_precision":"range","state":"MA"},"type":"Feature","geometry":{"type":"Point","coordinates":[-70.92875,41.890218]}},{"properties":{"city":"Waltham","zip":"2451","geo_score":0.902,"id":"a6lt5m3dxoxn","address":"1449 Main St","geo_precision":"range","state":"MA"},"type":"Feature","geometry":{"type":"Point","coordinates":[-71.267311,42.376743]}},{"properties":{"city":"Waltham","zip":"2452","geo_score":0.74,"id":"a6lt5m31vsnc","address":"15 Dolores Ave","geo_precision":"street","state":"MA"},"type":"Feature","geometry":{"type":"Point","coordinates":[-71.232388,42.407409]}},{"properties":{"city":"Waltham","zip":"2452","geo_score":0.74,"id":"a6lt5m3fj24g","address":"15 Dolores Ave","geo_precision":"street","state":"MA"},"type":"Feature","geometry":{"type":"Point","coordinates":[-71.232388,42.407409]}},{"properties":{"city":"Cambridge","zip":"2138","geo_score":0.902,"id":"a6lt5mcu0pbk","address":"15-21 Elmer St","geo_precision":"range","state":"MA"},"type":"Feature","geometry":{"type":"Point","coordinates":[-71.114336,42.3653]}},{"properties":{"city":"Brookline","zip":"2445","geo_score":0.902,"id":"a6lt5mcwu2y9","address":"16 Addington Rd","geo_precision":"range","state":"MA"},"type":"Feature","geometry":{"type":"Point","coordinates":[-71.134085,42.337093]}},{"properties":{"city":"Boston","zip":"2116","geo_score":0.902,"id":"a6lt5lzpfc0q","address":"161-163 Commonwealth Ave","geo_precision":"range","state":"MA"},"type":"Feature","geometry":{"type":"Point","coordinates":[-71.078666,42.351945]}},{"properties":{"city":"Weymouth","zip":"2188","geo_score":0.857,"id":"a6lt5m49opdm","address":"167 King Ave","geo_precision":"range","state":"MA"},"type":"Feature","geometry":{"type":"Point","coordinates":[-70.957164,42.215383]}},{"properties":{"city":"Brookline","zip":"2446","geo_score":0.902,"id":"a6lt5m96zw2q","address":"175 Freeman St","geo_precision":"range","state":"MA"},"type":"Feature","geometry":{"type":"Point","coordinates":[-71.11662,42.34729]}},{"properties":{"city":"Peabody","zip":"1960","geo_score":0.782,"id":"a6lt5mcpts63","address":"19 Magnolia Way","geo_precision":"range","state":"MA"},"type":"Feature","geometry":{"type":"Point","coordinates":[-71.027362,42.563154]}},{"properties":{"city":"Cambridge","zip":"2142","geo_score":0.805,"id":"a6lt5mcderp5","address":"195 Binney St","geo_precision":"range","state":"MA"},"type":"Feature","geometry":{"type":"Point","coordinates":[-71.083441,42.36588]}},{"properties":{"city":"Quincy","zip":"2169","geo_score":0.766,"id":"a6lt5mdscnnf","address":"2 Avalon Dr","geo_precision":"range","state":"MA"},"type":"Feature","geometry":{"type":"Point","coordinates":[-70.97542,42.24812]}},{"properties":{"city":"Watertown","zip":"2472","geo_score":0.902,"id":"a6lt5me2r085","address":"20 Watertown St","geo_precision":"range","state":"MA"},"type":"Feature","geometry":{"type":"Point","coordinates":[-71.186853,42.364442]}},{"properties":{"city":"Boston","zip":"2135","geo_score":0.854,"id":"a6lt5m26xbjf","address":"2000 Commonwealth Ave","geo_precision":"range","state":"MA"},"type":"Feature","geometry":{"type":"Point","coordinates":[-71.158133,42.339647]}},{"properties":{"city":"Boston","zip":"2135","geo_score":0.854,"id":"a6lt5madchrm","address":"2000 Commonwealth Ave","geo_precision":"range","state":"MA"},"type":"Feature","geometry":{"type":"Point","coordinates":[-71.158133,42.339647]}},{"properties":{"city":"Quincy","zip":"2169","geo_score":0.668,"id":"a6lt5mdnm37u","address":"2001 Falls Blvd","geo_precision":"street","state":"MA"},"type":"Feature","geometry":{"type":"Point","coordinates":[-70.988329,42.23815]}},{"properties":{"city":"Stoughton","zip":"2072","geo_score":0.872,"id":"a6lt5lzjuq36","address":"2027 Central St","geo_precision":"range","state":"MA"},"type":"Feature","geometry":{"type":"Point","coordinates":[-71.13834,42.13369]}},{"properties":{"city":"Marlborough","zip":"1752","geo_score":0.772,"id":"a6lt5m7814sb","address":"21 Austen Way","geo_precision":"range","state":"MA"},"type":"Feature","geometry":{"type":"Point","coordinates":[-71.433721,42.196881]}},{"properties":{"city":"Malden","zip":"2148","geo_score":0.817,"id":"a6lt5m8pxj1t","address":"211-231 Kennedy Dr","geo_precision":"range","state":"MA"},"type":"Feature","geometry":{"type":"Point","coordinates":[-71.0307,42.437203]}},{"properties":{"city":"Peabody","zip":"1960","geo_score":0.862,"id":"a6lt5mcgkovt","address":"22 Pulaski St","geo_precision":"range","state":"MA"},"type":"Feature","geometry":{"type":"Point","coordinates":[-70.92758,42.536005]}},{"properties":{"city":"Boston","zip":"2215","geo_score":0.902,"id":"a6lt5m561io1","address":"227 Park Dr","geo_precision":"range","state":"MA"},"type":"Feature","geometry":{"type":"Point","coordinates":[-71.10137,42.34215]}},{"properties":{"city":"Boston","zip":"2113","geo_score":0.902,"id":"a6lt5mbsd19k","address":"230-238 Hanover St","geo_precision":"range","state":"MA"},"type":"Feature","geometry":{"type":"Point","coordinates":[-71.055045,42.363264]}},{"properties":{"city":"Newton","zip":"2462","geo_score":0.841,"id":"a6lt5mcyadc8","address":"2300 Washington St","geo_precision":"range","state":"MA"},"type":"Feature","geometry":{"type":"Point","coordinates":[-71.255503,42.325998]}},{"properties":{"city":"North Dartmouth","zip":"2747","geo_score":0.826,"id":"a6lt5m0rp7w6","address":"239 Cross Rd","geo_precision":"range","state":"MA"},"type":"Feature","geometry":{"type":"Point","coordinates":[-71.006523,41.649681]}},{"properties":{"city":"Boston","zip":"2115","geo_score":0.902,"id":"a6lt5m8m04tm","address":"24 Haviland St","geo_precision":"range","state":"MA"},"type":"Feature","geometry":{"type":"Point","coordinates":[-71.088365,42.346365]}},{"properties":{"city":"Salem","zip":"3079","geo_score":0.854,"id":"a6lt5m7iel87","address":"242 Main St","geo_precision":"range","state":"NH"},"type":"Feature","geometry":{"type":"Point","coordinates":[-71.210221,42.785453]}},{"properties":{"city":"Waltham","zip":"2453","geo_score":0.819,"id":"a6lt5m92iryr","address":"25 Crescent St","geo_precision":"range","state":"MA"},"type":"Feature","geometry":{"type":"Point","coordinates":[-71.230944,42.376678]}},{"properties":{"city":"Boston","zip":"2120","geo_score":0.831,"id":"a6lt5m3vxi38","address":"256 Parker Hill Ave","geo_precision":"range","state":"MA"},"type":"Feature","geometry":{"type":"Point","coordinates":[-71.100869,42.328354]}},{"properties":{"city":"Boston","zip":"2135","geo_score":0.854,"id":"a6lt5mbprvoh","address":"27 School St","geo_precision":"range","state":"MA"},"type":"Feature","geometry":{"type":"Point","coordinates":[-71.142716,42.360049]}},{"properties":{"city":"Newton","zip":"2460","geo_score":0.761,"id":"a6lt5ma81fj8","address":"280 Newtonville Ave","geo_precision":"street","state":"MA"},"type":"Feature","geometry":{"type":"Point","coordinates":[-71.198701,42.352219]}},{"properties":{"city":"Arlington","zip":"2474","geo_score":0.78,"id":"a6lt5md2vanw","address":"285-287 Massachusetts Ave","geo_precision":"street","state":"MA"},"type":"Feature","geometry":{"type":"Point","coordinates":[-71.146401,42.408995]}},{"properties":{"city":"Clinton","zip":"1510","geo_score":0.902,"id":"a6lt5m76mtea","address":"290 Berlin St","geo_precision":"range","state":"MA"},"type":"Feature","geometry":{"type":"Point","coordinates":[-71.671351,42.404283]}},{"properties":{"city":"Cambridge","zip":"2140","geo_score":0.829,"id":"a6lt5m7mpkvs","address":"30 Cambridge Park Pl","geo_precision":"range","state":"MA"},"type":"Feature","geometry":{"type":"Point","coordinates":[-71.142729,42.394639]}},{"properties":{"city":"Cambridge","zip":"2140","geo_score":0.829,"id":"a6lt5m75fsn9","address":"30 Cambridge Park Pl","geo_precision":"range","state":"MA"},"type":"Feature","geometry":{"type":"Point","coordinates":[-71.142729,42.394639]}},{"properties":{"city":"Franklin","zip":"2038","geo_score":0.824,"id":"a6lt5m1p1tkh","address":"301 Union St","geo_precision":"range","state":"MA"},"type":"Feature","geometry":{"type":"Point","coordinates":[-71.40362,42.078749]}},{"properties":{"city":"Boston","zip":"2115","geo_score":0.902,"id":"a6lt5m9ywc9b","address":"309-315 Huntington Ave","geo_precision":"range","state":"MA"},"type":"Feature","geometry":{"type":"Point","coordinates":[-71.087317,42.341065]}},{"properties":{"city":"Boston","zip":"2135","geo_score":0.686,"id":"a6lt5m4pf4uy","address":"31-35 South St","geo_precision":"range","state":"MA"},"type":"Feature","geometry":{"type":"Point","coordinates":[-71.156289,42.340082]}},{"properties":{"city":"Framingham","zip":"1702","geo_score":0.902,"id":"a6lt5mdjp1w7","address":"31-37 Salem End Rd","geo_precision":"range","state":"MA"},"type":"Feature","geometry":{"type":"Point","coordinates":[-71.4401,42.29879]}},{"properties":{"city":"Boston","zip":"2116","geo_score":0.902,"id":"a6lt5lzjyk2q","address":"319 Beacon St","geo_precision":"range","state":"MA"},"type":"Feature","geometry":{"type":"Point","coordinates":[-71.081938,42.352815]}},{"properties":{"city":"Boston","zip":"2116","geo_score":0.902,"id":"a6lt5mc3rmkk","address":"32 Garrison St","geo_precision":"range","state":"MA"},"type":"Feature","geometry":{"type":"Point","coordinates":[-71.079553,42.345874]}},{"properties":{"city":"Boston","zip":"2116","geo_score":0.902,"id":"a6lt5ma1k26o","address":"32 Garrison St","geo_precision":"range","state":"MA"},"type":"Feature","geometry":{"type":"Point","coordinates":[-71.079553,42.345874]}},{"properties":{"city":"Cambridge","zip":"2139","geo_score":0.807,"id":"a6lt5m07hf7r","address":"333 Harvard","geo_precision":"range","state":"MA"},"type":"Feature","geometry":{"type":"Point","coordinates":[-71.10887,42.37061]}},{"properties":{"city":"Quincy","zip":"2169","geo_score":0.674,"id":"a6lt5m3pwo1s","address":"333 Ricciuti Dr","geo_precision":"street","state":"MA"},"type":"Feature","geometry":{"type":"Point","coordinates":[-71.044643,42.241335]}},{"properties":{"city":"Worcester","zip":"1602","geo_score":0.902,"id":"a6lt5mbyaxl5","address":"340 May St","geo_precision":"range","state":"MA"},"type":"Feature","geometry":{"type":"Point","coordinates":[-71.841906,42.271731]}},{"properties":{"city":"Boston","zip":"2116","geo_score":0.902,"id":"a6lt5mffoz19","address":"37 Commonwealth Ave","geo_precision":"range","state":"MA"},"type":"Feature","geometry":{"type":"Point","coordinates":[-71.074369,42.353087]}},{"properties":{"city":"Framingham","zip":"1702","geo_score":0.902,"id":"a6lt5m08nfih","address":"4 Bishop St","geo_precision":"range","state":"MA"},"type":"Feature","geometry":{"type":"Point","coordinates":[-71.409566,42.278795]}},{"properties":{"city":"Dover","zip":"3820","geo_score":0.833,"id":"a6lt5lzxcsu9","address":"40 Chestnut St","geo_precision":"range","state":"NH"},"type":"Feature","geometry":{"type":"Point","coordinates":[-70.877082,43.197396]}},{"properties":{"city":"Brookline","zip":"2446","geo_score":0.902,"id":"a6lt5m31pm3l","address":"40-46 Carlton St","geo_precision":"range","state":"MA"},"type":"Feature","geometry":{"type":"Point","coordinates":[-71.108873,42.345009]}},{"properties":{"city":"Boston","zip":"2215","geo_score":0.902,"id":"a6lt5mc0nmsw","address":"41-43 Bay State Rd","geo_precision":"range","state":"MA"},"type":"Feature","geometry":{"type":"Point","coordinates":[-71.094768,42.349941]}},{"properties":{"city":"Acton","zip":"1720","geo_score":0.854,"id":"a6lt5mf1iptw","address":"421 Great Rd","geo_precision":"range","state":"MA"},"type":"Feature","geometry":{"type":"Point","coordinates":[-71.424419,42.513243]}},{"properties":{"city":"Leominster","zip":"1453","geo_score":0.744,"id":"a6lt5mbleu91","address":"42a Terrace Dr","geo_precision":"range","state":"MA"},"type":"Feature","geometry":{"type":"Point","coordinates":[-71.747497,42.501022]}},{"properties":{"city":"Newton","zip":"2458","geo_score":0.902,"id":"a6lt5m8yw0o4","address":"430 Centre St","geo_precision":"range","state":"MA"},"type":"Feature","geometry":{"type":"Point","coordinates":[-71.186155,42.355608]}},{"properties":{"city":"Boston","zip":"2116","geo_score":0.902,"id":"a6lt5mchlcit","address":"45-47 Commonwealth Ave","geo_precision":"range","state":"MA"},"type":"Feature","geometry":{"type":"Point","coordinates":[-71.07472,42.35296]}},{"properties":{"city":"Ashland","zip":"1721","geo_score":0.902,"id":"a6lt5mfgbi7t","address":"5-18 Joanne Dr","geo_precision":"range","state":"MA"},"type":"Feature","geometry":{"type":"Point","coordinates":[-71.455378,42.246497]}},{"properties":{"city":"Lawrence","zip":"1840","geo_score":0.902,"id":"a6lt5m8q6r23","address":"50 Bradford St","geo_precision":"range","state":"MA"},"type":"Feature","geometry":{"type":"Point","coordinates":[-71.167813,42.708924]}},{"properties":{"city":"Boston","zip":"2135","geo_score":0.854,"id":"a6lt5m3pimy7","address":"50 Sutherland Rd","geo_precision":"range","state":"MA"},"type":"Feature","geometry":{"type":"Point","coordinates":[-71.149588,42.338128]}},{"properties":{"city":"Malden","zip":"2148","geo_score":0.759,"id":"a6lt5m8q8z88","address":"500 Broadway St","geo_precision":"range","state":"MA"},"type":"Feature","geometry":{"type":"Point","coordinates":[-71.034281,42.438028]}},{"properties":{"city":"Quincy","zip":"2169","geo_score":0.863,"id":"a6lt5m0u36nn","address":"500 Falls Blvd","geo_precision":"range","state":"MA"},"type":"Feature","geometry":{"type":"Point","coordinates":[-70.987429,42.23808]}},{"properties":{"city":"Worcester","zip":"1605","geo_score":0.902,"id":"a6lt5mco7k6g","address":"511 Plantation St","geo_precision":"range","state":"MA"},"type":"Feature","geometry":{"type":"Point","coordinates":[-71.76202,42.285517]}},{"properties":{"city":"Lowell","zip":"1854","geo_score":0.902,"id":"a6lt5m2itm5k","address":"525 Pawtucket Blvd","geo_precision":"range","state":"MA"},"type":"Feature","geometry":{"type":"Point","coordinates":[-71.35394,42.64076]}},{"properties":{"city":"Brookline","zip":"2446","geo_score":0.902,"id":"a6lt5m32hysa","address":"53-63 Parkman St","geo_precision":"range","state":"MA"},"type":"Feature","geometry":{"type":"Point","coordinates":[-71.117257,42.344666]}},{"properties":{"city":"Woburn","zip":"1801","geo_score":0.824,"id":"a6lt5m3hosoq","address":"55 Cedar St","geo_precision":"range","state":"MA"},"type":"Feature","geometry":{"type":"Point","coordinates":[-71.123018,42.496787]}},{"properties":{"city":"Randolph","zip":"2368","geo_score":0.8,"id":"a6lt5m9x9jsl","address":"6 Francis Rd","geo_precision":"range","state":"MA"},"type":"Feature","geometry":{"type":"Point","coordinates":[-71.052817,42.184625]}},{"properties":{"city":"Manchester","zip":"3102","geo_score":0.759,"id":"a6lt5mbmpscj","address":"60 Village Circle Way","geo_precision":"range","state":"NH"},"type":"Feature","geometry":{"type":"Point","coordinates":[-71.489161,43.046594]}},{"properties":{"city":"Norwood","zip":"2062","geo_score":0.817,"id":"a6lt5m5c8bl4","address":"624 Walpole St","geo_precision":"range","state":"MA"},"type":"Feature","geometry":{"type":"Point","coordinates":[-71.224836,42.173517]}},{"properties":{"city":"Andover","zip":"1810","geo_score":0.867,"id":"a6lt5mae0ynz","address":"650 Bulfinch Dr","geo_precision":"range","state":"MA"},"type":"Feature","geometry":{"type":"Point","coordinates":[-71.188704,42.692102]}},{"properties":{"city":"Boston","zip":"2124","geo_score":0.829,"id":"a6lt5m30qcia","address":"660 Washington St","geo_precision":"range","state":"MA"},"type":"Feature","geometry":{"type":"Point","coordinates":[-71.071119,42.288734]}},{"properties":{"city":"North Andover","zip":"1845","geo_score":0.87,"id":"a6lt5mdjr47o","address":"700 Chickering Rd","geo_precision":"range","state":"MA"},"type":"Feature","geometry":{"type":"Point","coordinates":[-71.118433,42.698695]}},{"properties":{"city":"Hanover","zip":"2339","geo_score":0.862,"id":"a6lt5m8o355g","address":"700 Washington St","geo_precision":"range","state":"MA"},"type":"Feature","geometry":{"type":"Point","coordinates":[-70.826807,42.125455]}},{"properties":{"city":"Plainville","zip":"2762","geo_score":0.854,"id":"a6lt5m5rgv2u","address":"71 Messenger St","geo_precision":"range","state":"MA"},"type":"Feature","geometry":{"type":"Point","coordinates":[-71.303178,42.011658]}},{"properties":{"city":"Burlington","zip":"1803","geo_score":0.87,"id":"a6lt5m79qhmn","address":"8 Kimbal Ct","geo_precision":"range","state":"MA"},"type":"Feature","geometry":{"type":"Point","coordinates":[-71.167018,42.503337]}},{"properties":{"city":"Manchester","zip":"3104","geo_score":0.902,"id":"a6lt5lzjz1zs","address":"80 Eastern Ave","geo_precision":"range","state":"NH"},"type":"Feature","geometry":{"type":"Point","coordinates":[-71.419106,42.998224]}},{"properties":{"city":"Braintree","zip":"2184","geo_score":0.721,"id":"a6lt5m9sh809","address":"800 West St","geo_precision":"range","state":"MA"},"type":"Feature","geometry":{"type":"Point","coordinates":[-71.039834,42.208739]}},{"properties":{"city":"Boston","zip":"2215","geo_score":0.902,"id":"a6lt5m43n4p1","address":"9 Miner St","geo_precision":"range","state":"MA"},"type":"Feature","geometry":{"type":"Point","coordinates":[-71.103276,42.347007]}},{"properties":{"city":"Sturbridge","zip":"1566","geo_score":0.902,"id":"a6lt5m3xt2ax","address":"90 Hall Rd","geo_precision":"range","state":"MA"},"type":"Feature","geometry":{"type":"Point","coordinates":[-72.063533,42.117416]}},{"properties":{"city":"Quincy","zip":"2171","geo_score":0.805,"id":"a6lt5m9mxr7q","address":"95 W Squantum St","geo_precision":"range","state":"MA"},"type":"Feature","geometry":{"type":"Point","coordinates":[-71.03111,42.27312]}},{"properties":{"city":"Reading","zip":"1867","geo_score":0.562,"id":"a6lt5m8gge9u","address":"Middlesex Ave And Deering St","geo_precision":"street","state":"MA"},"type":"Feature","geometry":{"type":"Point","coordinates":[-71.108216,42.526782]}},{"properties":{"city":"Reading","zip":"1867","geo_score":0.562,"id":"a6lt5m0auppf","address":"Middlesex Ave And Deering St","geo_precision":"street","state":"MA"},"type":"Feature","geometry":{"type":"Point","coordinates":[-71.108216,42.526782]}},{"properties":{"city":"Westborough","zip":"1581","geo_score":0.582,"id":"a6lt5maa15tf","address":"One Homestead Blvd","geo_precision":"street","state":"MA"},"type":"Feature","geometry":{"type":"Point","coordinates":[-71.604829,42.278065]}},{"properties":{"city":"Cambridge","zip":"2141","geo_score":0.54,"id":"a6lt5m83kize","address":"One Leighton St","geo_precision":"street","state":"MA"},"type":"Feature","geometry":{"type":"Point","coordinates":[-71.07692,42.370641]}}],"is_temporal":false,"author":{"url":"","metadata":"","contact_name":"","contact_address":"","source":"","contact_phone":""},"source":"","pagination":{"sort":null,"start":0,"total":100,"limit":1000000},"state":"complete","tags":"","published":"2014-08-10T21:53:02-04:00","id":68533}