{"type":"FeatureCollection","data_type":"Dataset","url_type":null,"permissions":[{"permissions":{"download":true,"view":true},"group_id":"everyone"}],"classification":null,"title":"ZIESENHENNE","count":58,"stream_id":68626,"contributor":{"url":"http://geocommons.com/users/11231","name":"ldegroot"},"data_attributes":null,"calculation_params":null,"icon_link":null,"link":"http://geocommons.com/overlays/68626.json","extent":[-122.393,33.2765,-112.187,38.2946],"geometry_types":["point"],"unique_name":null,"name":"ZIESENHENNE","feature_count":58,"description":"","next_feature":null,"is_raster":false,"short_classification":"Y","stats":{"geo_score":{"max":1.0,"mean":0.875105263157895,"variance":0.0234035601503759,"stdev":0.152982221680743,"min":0.329,"median":0.912},"amount":{"max":2500,"mean":588.620689655172,"variance":617703.327283726,"stdev":785.941045679462,"min":100,"median":250}},"features":[{"properties":{"name of contributor":"Abrell, Theodore","city":"Martinez","occupation":"Retired","zip":"94553","date filed":"10/5/10","geo_score":0.902,"notes":null,"amount":100,"contributor code":"IND","id":"a63gh3b71if5","address":"34 Midhill Rd.","transaction date":"9/2/10","geo_precision":"range","state":"CA"},"type":"Feature","geometry":{"type":"Point","coordinates":[-122.099605,37.997658]}},{"properties":{"name of contributor":"Berverly Melin","city":"San Pablo","occupation":"Retired","zip":"94806","date filed":"10/5/10","geo_score":0.924,"notes":null,"amount":500,"contributor code":"IND","id":"a63gh3ah6b72","address":"2354 Mahan Way","transaction date":"9/4/10","geo_precision":"range","state":"CA"},"type":"Feature","geometry":{"type":"Point","coordinates":[-122.313848,37.99244]}},{"properties":{"name of contributor":"Billy Phelps","city":"Walnut Creek","occupation":"Retired","zip":"94596","date filed":"10/5/10","geo_score":0.947,"notes":null,"amount":100,"contributor code":"IND","id":"a63gh3dsx4xe","address":"223 Shady Glen Rd.","transaction date":"8/18/10","geo_precision":"range","state":"CA"},"type":"Feature","geometry":{"type":"Point","coordinates":[-122.044208,37.8952]}},{"properties":{"name of contributor":"Bob Dabney","city":"Richmond","occupation":"Retired","zip":"94803","date filed":"10/5/10","geo_score":0.912,"notes":null,"amount":100,"contributor code":"IND","id":"a63gh3d72g7b","address":"4559 Fran Way","transaction date":"7/28/10","geo_precision":"range","state":"CA"},"type":"Feature","geometry":{"type":"Point","coordinates":[-122.293203,37.971953]}},{"properties":{"name of contributor":"California Casting","city":"Richmond","occupation":"Aluminum Foundery","zip":"94804","date filed":"10/5/10","geo_score":0.916,"notes":null,"amount":100,"contributor code":"OTH","id":"a63gh3m23hw2","address":"530 South 11th St.","transaction date":"9/27/10","geo_precision":"range","state":"CA"},"type":"Feature","geometry":{"type":"Point","coordinates":[-122.359074,37.924848]}},{"properties":{"name of contributor":"California Oils Corporation","city":"Richmond","occupation":"Food Oils Company","zip":"94804","date filed":"10/5/10","geo_score":0.973,"notes":"Business","amount":2500,"contributor code":"OTH","id":"a63gh3q065vx","address":"1145 Harbour Way","transaction date":"9/3/10","geo_precision":"range","state":"CA"},"type":"Feature","geometry":{"type":"Point","coordinates":[-122.359884,37.9151]}},{"properties":{"name of contributor":"Campbell Governmental Access","city":"Richmond","occupation":"Educational Consultancy","zip":"94808","date filed":"10/5/10","geo_score":0.509,"notes":null,"amount":500,"contributor code":"OTH","id":"a63gh3cp8b42","address":"PO Box 455 Station A","transaction date":"9/27/10","geo_precision":"street","state":"CA"},"type":"Feature","geometry":{"type":"Point","coordinates":[-122.35586,37.955871]}},{"properties":{"name of contributor":"Carl and Judy Christensen","city":"Pt. Richmond","occupation":"Retired","zip":"94801","date filed":"10/5/10","geo_score":0.653,"notes":null,"amount":100,"contributor code":"IND","id":"a63gh3l3uqco","address":"1400 Pinnacle #404","transaction date":"8/30/10","geo_precision":"zip","state":"CA"},"type":"Feature","geometry":{"type":"Point","coordinates":[-122.367471,37.958813]}},{"properties":{"name of contributor":"Carla Della-Zoppa","city":"El Sobrante","occupation":"Real Estate Broker,","zip":"94803","date filed":"10/5/10","geo_score":1.0,"notes":null,"amount":200,"contributor code":"IND","id":"a63gh3iucfua","address":"2522 Patra Dr.","transaction date":"9/22/10","geo_precision":"range","state":"CA"},"type":"Feature","geometry":{"type":"Point","coordinates":[-122.266632,37.948721]}},{"properties":{"name of contributor":"Cheryl Maier","city":"Richmond","occupation":"Executive Director, Order of the Preachers West","zip":"94803","date filed":"10/5/10","geo_score":0.912,"notes":null,"amount":100,"contributor code":"IND","id":"a63gh3o21525","address":"4559 Fran Way","transaction date":"7/28/10","geo_precision":"range","state":"CA"},"type":"Feature","geometry":{"type":"Point","coordinates":[-122.293203,37.971953]}},{"properties":{"name of contributor":"Committee to Elect Roy Swearingen (#1302469)","city":"Pinole","occupation":"Campaign","zip":"94564","date filed":"10/5/10","geo_score":0.967,"notes":"PAC","amount":100,"contributor code":"COM","id":"a63gh3g3b6mm","address":"2700 Dodge Ave","transaction date":"9/29/10","geo_precision":"range","state":"CA"},"type":"Feature","geometry":{"type":"Point","coordinates":[-122.2533,37.982631]}},{"properties":{"name of contributor":"David A Brown, Attorney at Law","city":null,"occupation":"Law Firm","zip":null,"date filed":"10/5/10","notes":"Business","amount":300,"contributor code":"OTH","id":"a63gh3p3es7l","address":null,"transaction date":"8/6/10","state":null},"type":"Feature","geometry":null},{"properties":{"name of contributor":"David Smith","city":"Rpinole","occupation":"Insurance Broker, Trans Bay Insurance","zip":"94564","date filed":"10/5/10","geo_score":0.913,"notes":null,"amount":100,"contributor code":"IND","id":"a63gh3c63l9i","address":"643 Quinan","transaction date":"8/23/10","geo_precision":"range","state":"CA"},"type":"Feature","geometry":{"type":"Point","coordinates":[-122.292459,38.006328]}},{"properties":{"name of contributor":"District Council of Iron Workers (#831693)","city":"San Pablo","occupation":"Ironworkers union","zip":"94564","date filed":"10/5/10","geo_score":0.927,"notes":"Union","amount":1000,"contributor code":"COM","id":"a63gh3ch7151","address":"1660 San Pablo Ave","transaction date":"9/22/10","geo_precision":"range","state":"CA"},"type":"Feature","geometry":{"type":"Point","coordinates":[-122.297515,38.004404]}},{"properties":{"name of contributor":"Don Lau","city":"Richmond","occupation":"Executive VP, West Contra Costa YMCA","zip":"94803","date filed":"10/5/10","geo_score":0.912,"notes":null,"amount":100,"contributor code":"IND","id":"a63gh3hzpfb2","address":"17 Powder Bowl Ct.","transaction date":"8/2/10","geo_precision":"range","state":"CA"},"type":"Feature","geometry":{"type":"Point","coordinates":[-122.2741,37.969047]}},{"properties":{"name of contributor":"Donald and Maria Anne Evers","city":"Surprise","occupation":"Retired","zip":"85374","date filed":"10/5/10","geo_score":0.92,"notes":null,"amount":500,"contributor code":"IND","id":"a63gh3lydzq7","address":"17556 N Amberwood Dr.","transaction date":"9/21/10","geo_precision":"range","state":"AZ"},"type":"Feature","geometry":{"type":"Point","coordinates":[-112.402584,33.645967]}},{"properties":{"name of contributor":"Edward Adams","city":"Stockton","occupation":"Retired","zip":"95212","date filed":"10/5/10","geo_score":0.788,"notes":null,"amount":250,"contributor code":"IND","id":"a63gh3azm4hf","address":"9215 Jonathan Ct.","transaction date":"9/3/10","geo_precision":"street","state":"CA"},"type":"Feature","geometry":{"type":"Point","coordinates":[-121.25017,38.033207]}},{"properties":{"name of contributor":"Elaina Spitaels","city":"Richmond","occupation":"Executive, Witt and Kieffer Executive Search Firm","zip":"94805","date filed":"10/5/10","geo_score":1.0,"notes":null,"amount":2500,"contributor code":"IND","id":"a63gh3j732bl","address":"5222 Barrett Ave","transaction date":"8/20/10","geo_precision":"range","state":"CA"},"type":"Feature","geometry":{"type":"Point","coordinates":[-122.32143,37.934918]}},{"properties":{"name of contributor":"Eleanor Loynd","city":"Richmond","occupation":"Retired","zip":"94803","date filed":"10/5/10","geo_score":0.912,"notes":null,"amount":100,"contributor code":"IND","id":"a63gh3mpp1iq","address":"4505 Fieldcrest Dr.","transaction date":"8/5/10","geo_precision":"range","state":"CA"},"type":"Feature","geometry":{"type":"Point","coordinates":[-122.286535,37.975266]}},{"properties":{"name of contributor":"Erle Brown","city":"El Cerrito","occupation":"Retired","zip":"94530","date filed":"10/5/10","geo_score":1.0,"notes":null,"amount":100,"contributor code":"IND","id":"a63gh3n6omru","address":"2638 Francisco Way","transaction date":"9/7/10","geo_precision":"range","state":"CA"},"type":"Feature","geometry":{"type":"Point","coordinates":[-122.313333,37.937602]}},{"properties":{"name of contributor":"Gisela Pitre","city":"Richmond","occupation":"Retired","zip":"94806","date filed":"10/5/10","geo_score":0.816,"notes":null,"amount":250,"contributor code":"IND","id":"a63gh3fy20g1","address":"2846 Oxford","transaction date":"8/29/10","geo_precision":"range","state":"CA"},"type":"Feature","geometry":{"type":"Point","coordinates":[-122.335721,37.972378]}},{"properties":{"name of contributor":"Grandaddy Purp Collective","city":"Richmond","occupation":"Marijuana Dispensary","zip":"94806","date filed":"10/5/10","geo_score":0.913,"notes":"Business","amount":1000,"contributor code":"OTH","id":"a63gh3d5t2x3","address":"2924 Hilltop Mall Rd","transaction date":"9/29/10","geo_precision":"range","state":"CA"},"type":"Feature","geometry":{"type":"Point","coordinates":[-122.331233,37.978697]}},{"properties":{"name of contributor":"Hoffe and Hass Watson","city":"Richmond","occupation":"Law Firm","zip":"94805","date filed":"10/5/10","geo_score":0.912,"notes":"Business","amount":200,"contributor code":"IND","id":"a63gh3abgxy4","address":"3700 Barrett","transaction date":"7/23/10","geo_precision":"range","state":"CA"},"type":"Feature","geometry":{"type":"Point","coordinates":[-122.333617,37.93651]}},{"properties":{"name of contributor":"IBEW Local 302 PAC (# 1300752)","city":"Martinez","occupation":"Electrical Workers Union","zip":"94553","date filed":"10/5/10","geo_score":0.902,"notes":"PAC","amount":2500,"contributor code":"OTH","id":"a63gh3oblobe","address":"1975 Arnold Dr.","transaction date":"9/29/10","geo_precision":"range","state":"CA"},"type":"Feature","geometry":{"type":"Point","coordinates":[-122.087629,37.991606]}},{"properties":{"name of contributor":"Jack Cunningham","city":"Berkeley","occupation":"Retired","zip":"94707","date filed":"10/5/10","geo_score":0.381,"notes":null,"amount":250,"contributor code":"IND","id":"a63gh3g3i8bm","address":"PO Box 8618","transaction date":"8/5/10","geo_precision":"street","state":"CA"},"type":"Feature","geometry":{"type":"Point","coordinates":[-122.286417,37.864273]}},{"properties":{"name of contributor":"James McMillan","city":"Richmonc","occupation":"Retired","zip":"94804","date filed":"10/5/10","geo_score":0.988,"notes":null,"amount":100,"contributor code":"IND","id":"a63gh3pdroxl","address":"1362 Santa Clara St.","transaction date":"7/12/10","geo_precision":"range","state":"CA"},"type":"Feature","geometry":{"type":"Point","coordinates":[-122.319753,37.914723]}},{"properties":{"name of contributor":"James and Barbara Hill","city":"Clayton","occupation":"Insurance Broker","zip":"94517","date filed":"10/5/10","geo_score":1.0,"notes":null,"amount":250,"contributor code":"IND","id":"a63gh3fx9ind","address":"510 Suisun Ct.","transaction date":"9/22/10","geo_precision":"range","state":"CA"},"type":"Feature","geometry":{"type":"Point","coordinates":[-121.937486,37.947512]}},{"properties":{"name of contributor":"Jane Del Simone","city":"Richmond","occupation":"Retired","zip":"94803","date filed":"10/5/10","geo_score":0.728,"notes":null,"amount":100,"contributor code":"IND","id":"a63gh3lsd1vw","address":"5516 Heavenlyridge Ln","transaction date":"8/13/10","geo_precision":"street","state":"CA"},"type":"Feature","geometry":{"type":"Point","coordinates":[-122.269815,37.967648]}},{"properties":{"name of contributor":"Jean Stark","city":"Richmond","occupation":"Retired","zip":"94804","date filed":"10/5/10","geo_score":0.902,"notes":null,"amount":100,"contributor code":"IND","id":"a63gh3aadqty","address":"548 29th St.","transaction date":"8/22/10","geo_precision":"range","state":"CA"},"type":"Feature","geometry":{"type":"Point","coordinates":[-122.340437,37.938261]}},{"properties":{"name of contributor":"Jerome and Alice Alforno","city":"Richmond","occupation":"Retured","zip":"94803","date filed":"10/5/10","geo_score":0.805,"notes":null,"amount":500,"contributor code":"IND","id":"a63gh3ch5c0f","address":"2931 Rheem Ave","transaction date":"9/24/10","geo_precision":"range","state":"CA"},"type":"Feature","geometry":{"type":"Point","coordinates":[-122.338653,37.949861]}},{"properties":{"name of contributor":"John Tysell","city":"Richmond","occupation":"Retired","zip":"94805","date filed":"10/5/10","geo_score":1.0,"notes":null,"amount":100,"contributor code":"IND","id":"a63gh3ozjnr4","address":"437 Carlston St.","transaction date":"8/2/10","geo_precision":"range","state":"CA"},"type":"Feature","geometry":{"type":"Point","coordinates":[-122.320539,37.935276]}},{"properties":{"name of contributor":"John Ziesenhenne","city":"Richmond","occupation":"Insurance Brokery","zip":"94805","date filed":"10/5/10","geo_score":0.805,"notes":null,"amount":2140,"contributor code":"IND","id":"a63gh3ger7fq","address":"751  37th","transaction date":"7/12/10","geo_precision":"range","state":"CA"},"type":"Feature","geometry":{"type":"Point","coordinates":[-122.331973,37.943238]}},{"properties":{"name of contributor":"Jonathan Lawlis","city":"Danville","occupation":"Retired","zip":"94526","date filed":"10/5/10","geo_score":0.913,"notes":null,"amount":250,"contributor code":"IND","id":"a63gh3hpswdl","address":"50 Torino Ct","transaction date":"9/9/10","geo_precision":"range","state":"CA"},"type":"Feature","geometry":{"type":"Point","coordinates":[-121.974555,37.827913]}},{"properties":{"name of contributor":"Joseph Cortese DDS","city":"Albany","occupation":"Dentist","zip":"94706","date filed":"10/5/10","geo_score":1.0,"notes":"Business","amount":100,"contributor code":"OTH","id":"a63gh3n0yve9","address":"510 Kains Ave","transaction date":"9/16/10","geo_precision":"range","state":"CA"},"type":"Feature","geometry":{"type":"Point","coordinates":[-122.300082,37.8967]}},{"properties":{"name of contributor":"Joyce Peterson","city":"Pinole","occupation":"Retired","zip":"94564","date filed":"10/5/10","geo_score":1.0,"notes":null,"amount":100,"contributor code":"IND","id":"a63gh39t33sx","address":"2917 Walton Ct.","transaction date":"8/2/10","geo_precision":"range","state":"CA"},"type":"Feature","geometry":{"type":"Point","coordinates":[-122.246058,37.984576]}},{"properties":{"name of contributor":"MSH Group","city":"Pt. Richmond","occupation":"Developer","zip":"94801","date filed":"10/5/10","geo_score":0.897,"notes":"Business","amount":500,"contributor code":"OTH","id":"a63gh3i6vzqn","address":"201 West Richmond","transaction date":"9/21/10","geo_precision":"range","state":"CA"},"type":"Feature","geometry":{"type":"Point","coordinates":[-122.3859,37.926266]}},{"properties":{"name of contributor":"Margaret Morkowski","city":"Pt. Richmond","occupation":"Retired","zip":"94801","date filed":"10/5/10","geo_score":0.97,"notes":null,"amount":150,"contributor code":"IND","id":"a63gh3npsnwd","address":"515 Marine St.","transaction date":"7/12/10","geo_precision":"range","state":"CA"},"type":"Feature","geometry":{"type":"Point","coordinates":[-122.393483,37.928797]}},{"properties":{"name of contributor":"Mark and Anne Wilson","city":"Martinez","occupation":"Retired","zip":"94553","date filed":"10/5/10","geo_score":0.902,"notes":null,"amount":500,"contributor code":"IND","id":"a63gh3nven2b","address":"5354 Stonehurst dr.","transaction date":"9/21/10","geo_precision":"range","state":"CA"},"type":"Feature","geometry":{"type":"Point","coordinates":[-122.144602,37.968933]}},{"properties":{"name of contributor":"Marsna Tomassi","city":"Pt. Richmond","occupation":"Self Employed","zip":"94807","date filed":"10/5/10","geo_score":0.329,"notes":null,"amount":100,"contributor code":"IND","id":"a63gh3awlxmi","address":"PO BOX 70277","transaction date":"7/6/10","geo_precision":"street","state":"CA"},"type":"Feature","geometry":{"type":"Point","coordinates":[-122.35586,37.955871]}},{"properties":{"name of contributor":"May Barbano","city":"Richmond","occupation":"Retired","zip":"94805","date filed":"10/5/10","geo_score":0.902,"notes":null,"amount":100,"contributor code":"IND","id":"a63gh3k8qv7j","address":"535 38th St.","transaction date":"7/15/10","geo_precision":"range","state":"CA"},"type":"Feature","geometry":{"type":"Point","coordinates":[-122.332602,37.936915]}},{"properties":{"name of contributor":"Michael Mahoney","city":"Richmond","occupation":"Retired","zip":"94803","date filed":"10/5/10","geo_score":0.912,"notes":null,"amount":100,"contributor code":"IND","id":"a63gh3nfetfn","address":"5346 Glenwood way","transaction date":"9/8/10","geo_precision":"range","state":"CA"},"type":"Feature","geometry":{"type":"Point","coordinates":[-122.246747,37.962178]}},{"properties":{"name of contributor":"Monique Le Conge","city":"Benicia","occupation":"Student; Former Director, Richmond Public Library","zip":"94510","date filed":"10/5/10","geo_score":1.0,"notes":null,"amount":2500,"contributor code":"IND","id":"a63gh3nw0gqa","address":"273 Carlisle Way","transaction date":"9/2/10","geo_precision":"range","state":"CA"},"type":"Feature","geometry":{"type":"Point","coordinates":[-122.163296,38.073248]}},{"properties":{"name of contributor":"North Richmond Properties","city":"Richmond","occupation":"Developer","zip":"94806","date filed":"10/5/10","geo_score":0.913,"notes":null,"amount":2500,"contributor code":"OTH","id":"a63gh3dfsltw","address":"2801 Giant Rd.","transaction date":"9/24/10","geo_precision":"range","state":"CA"},"type":"Feature","geometry":{"type":"Point","coordinates":[-122.354894,37.972362]}},{"properties":{"name of contributor":"Overaa Construction","city":"Richmond","occupation":"Construction","zip":"94801","date filed":"10/5/10","geo_score":0.962,"notes":"Business","amount":1500,"contributor code":"OTH","id":"a63gh39tj3ui","address":"200 Parr Blvd","transaction date":"9/11/10","geo_precision":"range","state":"CA"},"type":"Feature","geometry":{"type":"Point","coordinates":[-122.369319,37.967766]}},{"properties":{"name of contributor":"Republic Services","city":"Pheonix","occupation":"Waste Management","zip":"85054","date filed":"10/5/10","geo_score":0.655,"notes":null,"amount":800,"contributor code":"OTH","id":"a63gh3hc5kir","address":"18500 N Allied way","transaction date":"9/29/10","geo_precision":"zip","state":"AZ"},"type":"Feature","geometry":{"type":"Point","coordinates":[-112.18717,33.276539]}},{"properties":{"name of contributor":"Richard Ramos","city":"El Sobrante","occupation":"Educator","zip":"94803","date filed":"10/5/10","geo_score":1.0,"notes":null,"amount":150,"contributor code":"IND","id":"a63gh3k8j97j","address":"4229 Fran Way","transaction date":"9/8/10","geo_precision":"range","state":"CA"},"type":"Feature","geometry":{"type":"Point","coordinates":[-122.296534,37.975229]}},{"properties":{"name of contributor":"Robert Burdick","city":"Pt. Richmond","occupation":"Retired","zip":"94801","date filed":"10/5/10","geo_score":0.97,"notes":null,"amount":100,"contributor code":"IND","id":"a63gh3iqzv1g","address":"393 Western Dr.","transaction date":"9/11/10","geo_precision":"range","state":"CA"},"type":"Feature","geometry":{"type":"Point","coordinates":[-122.389968,37.924141]}},{"properties":{"name of contributor":"Samuel and Margaret Sallomi","city":"El Sobrante","occupation":"Physician/Travel Agent","zip":"94803","date filed":"10/5/10","geo_score":0.805,"notes":null,"amount":1000,"contributor code":"IND","id":"a63gh3cq8dxy","address":"64071 Soft Shadow Ct.","transaction date":"9/20/10","geo_precision":"street","state":"CA"},"type":"Feature","geometry":{"type":"Point","coordinates":[-122.272016,37.968464]}},{"properties":{"name of contributor":"Sandi Genser-Maack","city":"Richmond","occupation":"Retired","zip":"94803","date filed":"10/5/10","geo_score":0.707,"notes":null,"amount":250,"contributor code":"IND","id":"a63gh3mjge93","address":"521 32nd St.","transaction date":"9/16/10","geo_precision":"range","state":"CA"},"type":"Feature","geometry":{"type":"Point","coordinates":[-122.337984,37.937453]}},{"properties":{"name of contributor":"Sheryl Granzella","city":"Richmond","occupation":"Public Relations, Republic Sanitary Services","zip":"94803","date filed":"10/5/10","geo_score":0.912,"notes":null,"amount":800,"contributor code":"IND","id":"a63gh3f3sc3m","address":"5419 Heavenly Ridge Ln","transaction date":"9/24/10","geo_precision":"range","state":"CA"},"type":"Feature","geometry":{"type":"Point","coordinates":[-122.271052,37.968878]}},{"properties":{"name of contributor":"Sims Metal Management","city":"Richmond","occupation":"Metal Merchant","zip":"94804","date filed":"10/5/10","geo_score":0.902,"notes":"Business","amount":2000,"contributor code":"OTH","id":"a63gh3bictlr","address":"600 S 4th St.","transaction date":"9/29/10","geo_precision":"range","state":"CA"},"type":"Feature","geometry":{"type":"Point","coordinates":[-122.365892,37.924443]}},{"properties":{"name of contributor":"Susan Swift","city":"El Sobrante","occupation":"Consultant","zip":"94803","date filed":"10/5/10","geo_score":1.0,"notes":null,"amount":250,"contributor code":"IND","id":"a63gh3pcmtaa","address":"330 Hat Court","transaction date":"7/12/10","geo_precision":"range","state":"CA"},"type":"Feature","geometry":{"type":"Point","coordinates":[-122.281534,37.960468]}},{"properties":{"name of contributor":"Taalia Masan","city":"Vallejo","occupation":"Executive Director, Youth Service Bureau","zip":"94591","date filed":"10/5/10","geo_score":1.0,"notes":null,"amount":200,"contributor code":"IND","id":"a63gh3p4aqd7","address":"100 Clearview Dr.","transaction date":"8/10/10","geo_precision":"range","state":"CA"},"type":"Feature","geometry":{"type":"Point","coordinates":[-122.217258,38.07111]}},{"properties":{"name of contributor":"Timothy Friend","city":"El Sobrante","occupation":"Minister","zip":"94803","date filed":"10/5/10","geo_score":1.0,"notes":null,"amount":100,"contributor code":"IND","id":"a63gh3ovdjjg","address":"4024 St. James Dr.","transaction date":"8/16/10","geo_precision":"zip","state":"CA"},"type":"Feature","geometry":{"type":"Point","coordinates":[-122.206177,37.966422]}},{"properties":{"name of contributor":"Tom Kambe","city":"Napa","occupation":"Developer","zip":"94559","date filed":"10/5/10","geo_score":0.927,"notes":null,"amount":100,"contributor code":"IND","id":"a63gh3kajezw","address":"899 Marina Dr","transaction date":"9/21/10","geo_precision":"range","state":"CA"},"type":"Feature","geometry":{"type":"Point","coordinates":[-122.287958,38.280692]}},{"properties":{"name of contributor":"Trans Bay Insurance","city":"Pinole","occupation":"Insurance Agency","zip":"94564","date filed":"10/5/10","geo_score":0.457,"notes":"Business","amount":150,"contributor code":"OTH","id":"a63gh3n3f0re","address":"PO 604","transaction date":"8/23/10","geo_precision":"street","state":"CA"},"type":"Feature","geometry":{"type":"Point","coordinates":[-122.308805,38.294593]}},{"properties":{"name of contributor":"UA Local 342 PAC (ID# 890268)","city":"Concord","occupation":"Plummers and Steamfitters union PAC","zip":"94518","date filed":"10/5/10","geo_score":0.805,"notes":"PAC","amount":2500,"contributor code":"COM","id":"a63gh3lptwah","address":"935 Detroit ave","transaction date":"9/15/10","geo_precision":"range","state":"CA"},"type":"Feature","geometry":{"type":"Point","coordinates":[-122.02704,37.951189]}},{"properties":{"name of contributor":"William and Windy Boyer","city":"Martinez","occupation":"Retired","zip":"94553","date filed":"10/5/10","geo_score":0.902,"notes":null,"amount":500,"contributor code":"IND","id":"a63gh3nkgp4h","address":"308 Castlecreek Ct.","transaction date":"9/20/10","geo_precision":"range","state":"CA"},"type":"Feature","geometry":{"type":"Point","coordinates":[-122.128071,37.966239]}}],"is_temporal":false,"author":{"url":"","metadata":"","contact_name":"","contact_address":"","source":"","contact_phone":""},"source":"","pagination":{"sort":null,"start":0,"total":58,"limit":1000000},"state":"complete","tags":"2010,campaign,contributions,mayor,richmond","published":"2014-08-10T21:56:23-04:00","id":68626}