{"type":"FeatureCollection","data_type":"Dataset","url_type":null,"permissions":[{"permissions":{"download":true,"view":true},"group_id":"everyone"}],"classification":null,"title":"Hospital (point), Arkansas","count":112,"stream_id":68859,"contributor":{"url":"http://geocommons.com/users/9631","name":"AGIO"},"data_attributes":null,"calculation_params":null,"icon_link":null,"link":"http://geocommons.com/overlays/68859.json","extent":[-94.5405,33.1385,-89.9173,36.4086],"geometry_types":["point"],"unique_name":null,"name":"Hospital (point), Arkansas","feature_count":112,"description":"Data available online through GeoStor at http://www.geostor.arkansas.gov.  This dataset contains points which represent the locations of all Hospitals in the State of Arkansas.  The compilation of this data is a collaborative effort between the Arkansas Geographic Information Office and the Department of Health (ADH) to build a comprehensive geographic database of Hospitals as a component of the National Electronic Disease Surveillance System (NEDSS). The Hospitals form a sub-component of the existing CDC Bioterrorism plan that involves the visualization application for disease detection and surveillance. A visual aid of Hospital locations overlaid on current digital aerial photography, associated road names, and landmarks, were produced to representatives of ADH to confirm the accuracy of the location.\nThis data provides the Hospital information for the State of Arkansas to track disease related data in a mapping environment, and to do so in a way that electronic map information can be transmitted quickly and efficiently to those in the public health network. The database provides location information for use in local and regional cartographic and spatial analysis applications. It is the intention of the Arkansas State Land Information Board to facilitate dissemination of public data.","next_feature":null,"is_raster":false,"short_classification":"Y","stats":{"ZIP":{"max":72958,"mean":72297.6071428571,"variance":154939.988416988,"stdev":393.624171535474,"min":71603,"median":72209},"LONGITUDE":{"max":-89.91730944,"mean":-92.6356663394644,"variance":1.50702791234714,"stdev":1.22761065177325,"min":-94.54054444,"median":-92.40294444},"LATITUDE":{"max":36.40861444,"mean":35.0662295583036,"variance":0.762980608112354,"stdev":0.873487611882592,"min":33.13845778,"median":35.08645722},"MEDICAREBE":{"max":897,"mean":109.125,"variance":23293.2995495495,"stdev":152.621425591394,"min":0,"median":50},"LICENSEDBE":{"max":827,"mean":106.919642857143,"variance":17400.7952863578,"stdev":131.912074073444,"min":12,"median":60}},"features":[{"properties":{"CITY":"LITTLE ROCK","NAME":"ARKANSAS CHILDREN'S HOSPITAL","ZIP":72202,"ACCREDITAT":"JCAHO ACCREDITED","PHONE":"501-364-1100","EDIT_DATE":null,"LICENSEINF":"LICENSE NO.: AR4640 CERT. CARD NO.: 17681 ISSUED DATE: 01/01/2010 EXPIRATION DATE: 12/31/2010","TYPE":"SURGERY &amp; GENERAL MEDICAL CARE HOSPITAL","BEGIN_DATE":"08312010","EDIT_COMME":null,"LONGITUDE":-92.29236778,"LATITUDE":34.74219333,"STATE":"AR","id":"a63zzidyf96v","ADDRESS":"1 CHILDREN'S WAY, SLOT 301","MEDICAREBE":280,"LICENSEDBE":280,"COUNTY":"PULASKI"},"type":"Feature","geometry":{"type":"Point","coordinates":[-92.2923613075027,34.7421870212562]}},{"properties":{"CITY":"BENTON","NAME":"SALINE MEMORIAL HOSPITAL","ZIP":72015,"ACCREDITAT":"JCAHO ACCREDITED","PHONE":"501-776-6000","EDIT_DATE":null,"LICENSEINF":"LICENSE NO.: 3045 CERT. CARD NO.: 17638 ISSUED DATE: 01/01/2010 EXPIRATION DATE: 12/31/2010","TYPE":"GENERAL HOSPITAL","BEGIN_DATE":"08312010","EDIT_COMME":null,"LONGITUDE":-92.58596944,"LATITUDE":34.57338944,"STATE":"AR","id":"a63zziea5y3t","ADDRESS":"1 MEDICAL PARK DRIVE","MEDICAREBE":167,"LICENSEDBE":167,"COUNTY":"SALINE"},"type":"Feature","geometry":{"type":"Point","coordinates":[-92.5859629058363,34.5733831788863]}},{"properties":{"CITY":"BENTON","NAME":"RIVENDELL BEHAVIORAL HEALTH SERVICES OF ARKANSAS","ZIP":72019,"ACCREDITAT":"JCAHO ACCREDITED","PHONE":"501-316-1255","EDIT_DATE":null,"LICENSEINF":"LICENSE NO.: AR4219 CERT. CARD NO.: 17637 ISSUED DATE: 01/01/2010 EXPIRATION DATE: 12/31/2010","TYPE":"PSYCHIATRIC HOSPITAL","BEGIN_DATE":"08312010","EDIT_COMME":null,"LONGITUDE":-92.53284333,"LATITUDE":34.61382167,"STATE":"AR","id":"a63zzif3puej","ADDRESS":"100 RIVENDELL DRIVE","MEDICAREBE":77,"LICENSEDBE":77,"COUNTY":"SALINE"},"type":"Feature","geometry":{"type":"Point","coordinates":[-92.5328368051065,34.6138153912793]}},{"properties":{"CITY":"MALVERN","NAME":"HOT SPRING COUNTY MEDICAL CENTER","ZIP":72104,"ACCREDITAT":"NON-ACCREDITED","PHONE":"501-337-4911","EDIT_DATE":null,"LICENSEINF":"LICENSE NO.: AR4207 CERT. CARD NO.: 17597 ISSUED DATE: 01/01/2010 EXPIRATION DATE: 12/31/2010","TYPE":"SURGERY &amp; GENERAL MEDICAL CARE HOSPITAL","BEGIN_DATE":"08312010","EDIT_COMME":null,"LONGITUDE":-92.78588944,"LATITUDE":34.35872889,"STATE":"AR","id":"a63zzifaeud9","ADDRESS":"1001 SCHNEIDER DRIVE","MEDICAREBE":72,"LICENSEDBE":72,"COUNTY":"HOT SPRING"},"type":"Feature","geometry":{"type":"Point","coordinates":[-92.7858828662051,34.3587226737317]}},{"properties":{"CITY":"FORT SMITH","NAME":"SPARKS REGIONAL MEDICAL CENTER","ZIP":72901,"ACCREDITAT":"JCAHO ACCREDITED","PHONE":"479-441-4000","EDIT_DATE":null,"LICENSEINF":"LICENSE NO.: AR4615 CERT. CARD NO.: 17643 ISSUED DATE: 01/01/2010 EXPIRATION DATE: 12/31/2010","TYPE":"GENERAL HOSPITAL","BEGIN_DATE":"08312010","EDIT_COMME":null,"LONGITUDE":-94.41950222,"LATITUDE":35.37493111,"STATE":"AR","id":"a63zziasc8g8","ADDRESS":"1001 TOWSON AVENUE","MEDICAREBE":492,"LICENSEDBE":492,"COUNTY":"SEBASTIAN"},"type":"Feature","geometry":{"type":"Point","coordinates":[-94.4194951411736,35.3749247788753]}},{"properties":{"CITY":"FORT SMITH","NAME":"SELECT SPECIALTY HOSPITAL - FORT SMITH, INC.","ZIP":72901,"ACCREDITAT":"JCAHO ACCREDITED","PHONE":"479-441-3960","EDIT_DATE":null,"LICENSEINF":"LICENSE NO.: AR4423 CERT. CARD NO.: 17642 ISSUED DATE: 01/01/2010 EXPIRATION DATE: 12/31/2010","TYPE":"SURGERY &amp; GENERAL MEDICAL CARE HOSPITAL - (LTAC)","BEGIN_DATE":"08312010","EDIT_COMME":null,"LONGITUDE":-94.41950222,"LATITUDE":35.37493111,"STATE":"AR","id":"a63zzi59zchs","ADDRESS":"1001 TOWSON AVENUE","MEDICAREBE":34,"LICENSEDBE":34,"COUNTY":"SEBASTIAN"},"type":"Feature","geometry":{"type":"Point","coordinates":[-94.4194951411736,35.3749247788753]}},{"properties":{"CITY":"MAGNOLIA","NAME":"MAGNOLIA REGIONAL MEDICAL CENTER","ZIP":71753,"ACCREDITAT":"NON-ACCREDITED","PHONE":"870-235-3000","EDIT_DATE":null,"LICENSEINF":"LICENSE NO.: AR4638 CERT. CARD NO.: 17680 ISSUED DATE: 01/01/2010 EXPIRATION DATE: 12/31/2010","TYPE":"GENERAL HOSPITAL","BEGIN_DATE":"08312010","EDIT_COMME":null,"LONGITUDE":-93.23897056,"LATITUDE":33.27486333,"STATE":"AR","id":"a63zzian7yq7","ADDRESS":"101 HOSPITAL DRIVE","MEDICAREBE":49,"LICENSEDBE":49,"COUNTY":"COLUMBIA"},"type":"Feature","geometry":{"type":"Point","coordinates":[-93.2389639243374,33.2748573483366]}},{"properties":{"CITY":"CROSSETT","NAME":"ASHLEY COUNTY MEDICAL CENTER","ZIP":71635,"ACCREDITAT":"NON-ACCREDITED","PHONE":"870-364-4111","EDIT_DATE":null,"LICENSEINF":"LICENSE NO.: AR4238 CERT. CARD NO.: 17556 ISSUED DATE: 01/01/2010 EXPIRATION DATE: 12/31/2010","TYPE":"GENERAL HOSPITAL - (CAH)","BEGIN_DATE":"08312010","EDIT_COMME":null,"LONGITUDE":-91.93876333,"LATITUDE":33.13845778,"STATE":"AR","id":"a63zzifzz642","ADDRESS":"1015 UNITY ROAD","MEDICAREBE":33,"LICENSEDBE":33,"COUNTY":"ASHLEY"},"type":"Feature","geometry":{"type":"Point","coordinates":[-91.9387570556873,33.1384517666533]}},{"properties":{"CITY":"CALICO ROCK","NAME":"COMMUNITY MEDICAL CENTER OF IZARD COUNTY","ZIP":72519,"ACCREDITAT":"NON-ACCREDITED","PHONE":"870-297-3726","EDIT_DATE":null,"LICENSEINF":"LICENSE NO.: AR3931 CERT. CARD NO.: 17600 ISSUED DATE: 01/01/2010 EXPIRATION DATE: 12/31/2010","TYPE":"SURGERY &amp; GENERAL MEDICAL CARE HOSPITAL - (CAH)","BEGIN_DATE":"08312010","EDIT_COMME":null,"LONGITUDE":-92.12805889,"LATITUDE":36.12675167,"STATE":"AR","id":"a63zziazf7z4","ADDRESS":"103 GRASSE STREET","MEDICAREBE":25,"LICENSEDBE":25,"COUNTY":"IZARD"},"type":"Feature","geometry":{"type":"Point","coordinates":[-92.1280523660515,36.1267450839023]}},{"properties":{"CITY":"FORT SMITH","NAME":"VISTA HEALTH FORT SMITH","ZIP":72903,"ACCREDITAT":"JCAHO ACCREDITED","PHONE":"479-494-5700","EDIT_DATE":null,"LICENSEINF":"LICENSE NO.: AR4151 CERT. CARD NO.: 17645 ISSUED DATE: 01/01/2010 EXPIRATION DATE: 12/31/2010","TYPE":"PSYCHIATRIC HOSPITAL","BEGIN_DATE":"08312010","EDIT_COMME":null,"LONGITUDE":-94.31325611,"LATITUDE":35.34117667,"STATE":"AR","id":"a63zzijeqii4","ADDRESS":"10301 MAYO ROAD","MEDICAREBE":57,"LICENSEDBE":57,"COUNTY":"SEBASTIAN"},"type":"Feature","geometry":{"type":"Point","coordinates":[-94.3132490602314,35.3411703356275]}},{"properties":{"CITY":"HOT SPRINGS","NAME":"HOT SPRINGS REHABILITATION CENTER","ZIP":71902,"ACCREDITAT":"NON-ACCREDITED","PHONE":"501-624-4411","EDIT_DATE":null,"LICENSEINF":"LICENSE NO.: 107 CERT. CARD NO.: 17698 ISSUED DATE: 01/01/2010 EXPIRATION DATE: 12/31/2010","TYPE":"REHABILITATION HOSPITAL","BEGIN_DATE":"08312010","EDIT_COMME":null,"LONGITUDE":-93.05255056,"LATITUDE":34.51218889,"STATE":"AR","id":"a63zzi6h4bsi","ADDRESS":"105 RESERVE AVENUE","MEDICAREBE":24,"LICENSEDBE":24,"COUNTY":"GARLAND"},"type":"Feature","geometry":{"type":"Point","coordinates":[-93.0525438952446,34.5121826554178]}},{"properties":{"CITY":"CLARKSVILLE","NAME":"JOHNSON REGIONAL MEDICAL CENTER","ZIP":72830,"ACCREDITAT":"NON-ACCREDITED","PHONE":"479-754-5454","EDIT_DATE":null,"LICENSEINF":"LICENSE NO.: 3028 CERT. CARD NO.: 17604 ISSUED DATE: 01/01/2010 EXPIRATION DATE: 12/31/2010","TYPE":"GENERAL HOSPITAL","BEGIN_DATE":"08312010","EDIT_COMME":null,"LONGITUDE":-93.44409444,"LATITUDE":35.46168222,"STATE":"AR","id":"a63zzici5bo2","ADDRESS":"1100 EAST POPLAR STREET","MEDICAREBE":80,"LICENSEDBE":80,"COUNTY":"JOHNSON"},"type":"Feature","geometry":{"type":"Point","coordinates":[-93.4440876158063,35.4616758269242]}},{"properties":{"CITY":"GRAVETTE","NAME":"OZARKS COMMUNITY HOSPITAL OF GRAVETTE","ZIP":72736,"ACCREDITAT":"NON-ACCREDITED","PHONE":"479-787-5291","EDIT_DATE":null,"LICENSEINF":"LICENSE NO.: AR4517 CERT. CARD NO.: 17560 ISSUED DATE: 01/01/2010 EXPIRATION DATE: 12/31/2010","TYPE":"SURGERY &amp; GENERAL MEDICAL CARE HOSPITAL - (CAH)","BEGIN_DATE":"08312010","EDIT_COMME":null,"LONGITUDE":-94.45916944,"LATITUDE":36.40861444,"STATE":"AR","id":"a63zzi53jgo7","ADDRESS":"1101 JACKSON STREET, S.W.","MEDICAREBE":25,"LICENSEDBE":25,"COUNTY":"BENTON"},"type":"Feature","geometry":{"type":"Point","coordinates":[-94.4591622755341,36.4086079255136]}},{"properties":{"CITY":"FAYETTEVILLE","NAME":"REGENCY HOSPITAL OF NORTHWEST ARKANSAS","ZIP":72703,"ACCREDITAT":"JCAHO ACCREDITED","PHONE":"479-713-7000","EDIT_DATE":null,"LICENSEINF":"LICENSE NO.: AR4182 CERT. CARD NO.: 17656 ISSUED DATE: 01/01/2010 EXPIRATION DATE: 12/31/2010","TYPE":"SURGERY &amp; GENERAL MEDICAL CARE HOSPITAL - (LTAC)","BEGIN_DATE":"08312010","EDIT_COMME":null,"LONGITUDE":-94.15844833,"LATITUDE":36.07781,"STATE":"AR","id":"a63zzi8op2xn","ADDRESS":"1125 NORTH COLLEGE AVENUE","MEDICAREBE":50,"LICENSEDBE":25,"COUNTY":"WASHINGTON"},"type":"Feature","geometry":{"type":"Point","coordinates":[-94.1584412674587,36.0778035254951]}},{"properties":{"CITY":"FAYETTEVILLE","NAME":"WASHINGTON REGIONAL MEDICAL CENTER","ZIP":72703,"ACCREDITAT":"LICENSED ONLY","PHONE":"479-713-1070","EDIT_DATE":null,"LICENSEINF":"LICENSE NO.: AR4545 CERT. CARD NO.: 17660 ISSUED DATE: 01/01/2010 EXPIRATION DATE: 12/31/2010","TYPE":"PSYCHIATRIC HOSPITAL","BEGIN_DATE":"08312010","EDIT_COMME":null,"LONGITUDE":-94.15844833,"LATITUDE":36.07781,"STATE":"AR","id":"a63zzi9psskn","ADDRESS":"1125 NORTH COLLEGE AVENUE","MEDICAREBE":0,"LICENSEDBE":17,"COUNTY":"WASHINGTON"},"type":"Feature","geometry":{"type":"Point","coordinates":[-94.1584412674587,36.0778035254951]}},{"properties":{"CITY":"LITTLE ROCK","NAME":"BAPTIST HEALTH MEDICAL CENTER - LITTLE ROCK","ZIP":72209,"ACCREDITAT":"LICENSED ONLY","PHONE":"501-455-7101","EDIT_DATE":null,"LICENSEINF":"LICENSE NO.: AR4555 CERT. CARD NO.: 17623 ISSUED DATE: 01/01/2010 EXPIRATION DATE: 12/31/2010","TYPE":"PSYCHIATRIC HOSPITAL","BEGIN_DATE":"08312010","EDIT_COMME":null,"LONGITUDE":-92.40294444,"LATITUDE":34.65735167,"STATE":"AR","id":"a63zziewdz5w","ADDRESS":"11401 INTERSTATE 30","MEDICAREBE":0,"LICENSEDBE":16,"COUNTY":"PULASKI"},"type":"Feature","geometry":{"type":"Point","coordinates":[-92.4029379494403,34.6573453760815]}},{"properties":{"CITY":"LITTLE ROCK","NAME":"ALLEGIANCE SPECIALTY HOSPITAL OF LITTLE ROCK, LLC","ZIP":72209,"ACCREDITAT":"NON-ACCREDITED","PHONE":"501-455-7117","EDIT_DATE":null,"LICENSEINF":"LICENSE NO.: AR4374 CERT. CARD NO.: 17616 ISSUED DATE: 01/01/2010 EXPIRATION DATE: 12/31/2010","TYPE":"SURGERY &amp; GENERAL MEDICAL CARE HOSPITAL - (LTAC)","BEGIN_DATE":"08312010","EDIT_COMME":null,"LONGITUDE":-92.40294444,"LATITUDE":34.65735167,"STATE":"AR","id":"a63zzi5q18oc","ADDRESS":"11401 INTERSTATE 30, 2ND FLOOR","MEDICAREBE":40,"LICENSEDBE":40,"COUNTY":"PULASKI"},"type":"Feature","geometry":{"type":"Point","coordinates":[-92.4029379494403,34.6573453760815]}},{"properties":{"CITY":"LITTLE ROCK","NAME":"PINNACLE POINTE BEHAVIORAL HEALTHCARE SYSTEM","ZIP":72211,"ACCREDITAT":"JCAHO ACCREDITED","PHONE":"501-223-3322","EDIT_DATE":null,"LICENSEINF":"LICENSE NO.: AR4343 CERT. CARD NO.: 17675 ISSUED DATE: 01/01/2010 EXPIRATION DATE: 12/31/2010","TYPE":"PSYCHIATRIC HOSPITAL","BEGIN_DATE":"08312010","EDIT_COMME":null,"LONGITUDE":-92.40170056,"LATITUDE":34.74591111,"STATE":"AR","id":"a63zzil25kza","ADDRESS":"11501 FINANCIAL CENTRE PARKWAY","MEDICAREBE":124,"LICENSEDBE":124,"COUNTY":"PULASKI"},"type":"Feature","geometry":{"type":"Point","coordinates":[-92.4016940535981,34.7459048037474]}},{"properties":{"CITY":"SEARCY","NAME":"ADVANCED CARE HOSPITAL OF WHITE COUNTY","ZIP":72143,"ACCREDITAT":"NON-ACCREDITED","PHONE":"501-278-3155","EDIT_DATE":null,"LICENSEINF":"LICENSE NO.: AR4452 CERT. CARD NO.: 17662 ISSUED DATE: 01/01/2010 EXPIRATION DATE: 12/31/2010","TYPE":"SURGERY &amp; GENERAL MEDICAL CARE HOSPITAL - (LTAC)","BEGIN_DATE":"08312010","EDIT_COMME":null,"LONGITUDE":-91.73117778,"LATITUDE":35.23406833,"STATE":"AR","id":"a63zzi5kvq84","ADDRESS":"1200 SOUTH MAIN STREET","MEDICAREBE":27,"LICENSEDBE":27,"COUNTY":"WHITE"},"type":"Feature","geometry":{"type":"Point","coordinates":[-91.7311714246967,35.2340619003204]}},{"properties":{"CITY":"SEARCY","NAME":"WHITE COUNTY MEDICAL CENTER","ZIP":72143,"ACCREDITAT":"LICENSED ONLY","PHONE":"501-278-3100","EDIT_DATE":null,"LICENSEINF":"LICENSE NO.: AR4390 CERT. CARD NO.: 17663 ISSUED DATE: 01/01/2010 EXPIRATION DATE: 12/31/2010","TYPE":"SURGERY &amp; GENERAL MEDICAL CARE HOSPITAL","BEGIN_DATE":"08312010","EDIT_COMME":null,"LONGITUDE":-91.73117778,"LATITUDE":35.23406833,"STATE":"AR","id":"a63zzij35ayp","ADDRESS":"1200 SOUTH MAIN STREET","MEDICAREBE":0,"LICENSEDBE":193,"COUNTY":"WHITE"},"type":"Feature","geometry":{"type":"Point","coordinates":[-91.7311714246967,35.2340619003204]}},{"properties":{"CITY":"JONESBORO","NAME":"HEALTHSOUTH REHABILITATION HOSPITAL OF JONESBORO","ZIP":72401,"ACCREDITAT":"JCAHO ACCREDITED","PHONE":"870-932-0440","EDIT_DATE":null,"LICENSEINF":"LICENSE NO.: AR3647 CERT. CARD NO.: 17573 ISSUED DATE: 01/01/2010 EXPIRATION DATE: 12/31/2010","TYPE":"REHABILITATION HOSPITAL","BEGIN_DATE":"08312010","EDIT_COMME":null,"LONGITUDE":-90.69301556,"LATITUDE":35.83259667,"STATE":"AR","id":"a63zziifnmm7","ADDRESS":"1201 FLEMING AVENUE","MEDICAREBE":67,"LICENSEDBE":67,"COUNTY":"CRAIGHEAD"},"type":"Feature","geometry":{"type":"Point","coordinates":[-90.6930094452538,35.8325900709029]}},{"properties":{"CITY":"NEWPORT","NAME":"HARRIS HOSPITAL","ZIP":72112,"ACCREDITAT":"JCAHO ACCREDITED","PHONE":"870-523-8911","EDIT_DATE":null,"LICENSEINF":"LICENSE NO.: 698 CERT. CARD NO.: 17601 ISSUED DATE: 01/01/2010 EXPIRATION DATE: 12/31/2010","TYPE":"GENERAL HOSPITAL","BEGIN_DATE":"08312010","EDIT_COMME":null,"LONGITUDE":-91.26502167,"LATITUDE":35.60863389,"STATE":"AR","id":"a63zzifkdkfu","ADDRESS":"1205 MCLAIN STREET","MEDICAREBE":133,"LICENSEDBE":133,"COUNTY":"JACKSON"},"type":"Feature","geometry":{"type":"Point","coordinates":[-91.2650154144552,35.6086273629319]}},{"properties":{"CITY":"PIGGOTT","NAME":"PIGGOTT COMMUNITY HOSPITAL","ZIP":72454,"ACCREDITAT":"NON-ACCREDITED","PHONE":"870-598-3881","EDIT_DATE":null,"LICENSEINF":"LICENSE NO.: AR4319 CERT. CARD NO.: 17569 ISSUED DATE: 01/01/2010 EXPIRATION DATE: 12/31/2010","TYPE":"SURGERY &amp; GENERAL MEDICAL CARE HOSPITAL - (CAH)","BEGIN_DATE":"08312010","EDIT_COMME":null,"LONGITUDE":-90.20487722,"LATITUDE":36.39017056,"STATE":"AR","id":"a63zzikbvllr","ADDRESS":"1206 GORDON DUCKWORTH DRIVE","MEDICAREBE":25,"LICENSEDBE":25,"COUNTY":"CLAY"},"type":"Feature","geometry":{"type":"Point","coordinates":[-90.20487120775,36.390163830467]}},{"properties":{"CITY":"NASHVILLE","NAME":"HOWARD MEMORIAL HOSPITAL","ZIP":71852,"ACCREDITAT":"NON-ACCREDITED","PHONE":"870-845-4400","EDIT_DATE":null,"LICENSEINF":"LICENSE NO.: AR4577 CERT. CARD NO.: 17598 ISSUED DATE: 01/01/2010 EXPIRATION DATE: 12/31/2010","TYPE":"SURGERY &amp; GENERAL MEDICAL CARE HOSPITAL - (CAH)","BEGIN_DATE":"08312010","EDIT_COMME":null,"LONGITUDE":-93.85721611,"LATITUDE":33.95268667,"STATE":"AR","id":"a63zzi6k9x0i","ADDRESS":"130 MEDICAL CIRCLE","MEDICAREBE":20,"LICENSEDBE":20,"COUNTY":"HOWARD"},"type":"Feature","geometry":{"type":"Point","coordinates":[-93.8572092734424,33.9526805778404]}},{"properties":{"CITY":"DEQUEEN","NAME":"DEQUEEN MEDICAL CENTER, INC.","ZIP":71832,"ACCREDITAT":"NON-ACCREDITED","PHONE":"870-584-4111","EDIT_DATE":null,"LICENSEINF":"LICENSE NO.: AR4365 CERT. CARD NO.: 17646 ISSUED DATE: 01/01/2010 EXPIRATION DATE: 12/31/2010","TYPE":"SURGERY &amp; GENERAL MEDICAL CARE HOSPITAL - (CAH)","BEGIN_DATE":"08312010","EDIT_COMME":null,"LONGITUDE":-94.35260167,"LATITUDE":34.04806556,"STATE":"AR","id":"a63zzij1aho8","ADDRESS":"1306 WEST COLLIN RAYE DRIVE","MEDICAREBE":35,"LICENSEDBE":35,"COUNTY":"SEVIER"},"type":"Feature","geometry":{"type":"Point","coordinates":[-94.3525946933908,34.0480594698661]}},{"properties":{"CITY":"WALNUT RIDGE","NAME":"LAWRENCE MEMORIAL HOSPITAL","ZIP":72476,"ACCREDITAT":"JCAHO ACCREDITED","PHONE":"870-886-1200","EDIT_DATE":null,"LICENSEINF":"LICENSE NO.: AR3842 CERT. CARD NO.: 17605 ISSUED DATE: 01/01/2010 EXPIRATION DATE: 12/31/2010","TYPE":"SURGERY &amp; GENERAL MEDICAL CARE HOSPITAL - (CAH)","BEGIN_DATE":"08312010","EDIT_COMME":null,"LONGITUDE":-90.96780778,"LATITUDE":36.07377778,"STATE":"AR","id":"a63zzihwlawk","ADDRESS":"1309 WEST MAIN","MEDICAREBE":25,"LICENSEDBE":25,"COUNTY":"LAWRENCE"},"type":"Feature","geometry":{"type":"Point","coordinates":[-90.9678015736971,36.0737711499098]}},{"properties":{"CITY":"WALDRON","NAME":"MERCY HOSPITAL OF SCOTT COUNTY","ZIP":72958,"ACCREDITAT":"NON-ACCREDITED","PHONE":"479-637-4135","EDIT_DATE":null,"LICENSEINF":"LICENSE NO.: AR4196 CERT. CARD NO.: 17639 ISSUED DATE: 01/01/2010 EXPIRATION DATE: 12/31/2010","TYPE":"SURGERY &amp; GENERAL MEDICAL CARE HOSPITAL - (CAH)","BEGIN_DATE":"08312010","EDIT_COMME":null,"LONGITUDE":-94.10586056,"LATITUDE":34.89448944,"STATE":"AR","id":"a63zzibotb2c","ADDRESS":"1341 WEST SIXTH STREET","MEDICAREBE":24,"LICENSEDBE":24,"COUNTY":"SCOTT"},"type":"Feature","geometry":{"type":"Point","coordinates":[-94.105853590475,34.8944831879005]}},{"properties":{"CITY":"JACKSONVILLE","NAME":"NORTH METRO MEDICAL CENTER","ZIP":72076,"ACCREDITAT":"JCAHO ACCREDITED","PHONE":"501-985-7000","EDIT_DATE":null,"LICENSEINF":"LICENSE NO.: AR4519 CERT. CARD NO.: 17626 ISSUED DATE: 01/01/2010 EXPIRATION DATE: 12/31/2010","TYPE":"SURGERY &amp; GENERAL MEDICAL CARE HOSPITAL","BEGIN_DATE":"08312010","EDIT_COMME":null,"LONGITUDE":-92.12506222,"LATITUDE":34.873445,"STATE":"AR","id":"a63zzifs0ecn","ADDRESS":"1400 BRADEN STREET","MEDICAREBE":118,"LICENSEDBE":118,"COUNTY":"PULASKI"},"type":"Feature","geometry":{"type":"Point","coordinates":[-92.1250557869455,34.8734386545325]}},{"properties":{"CITY":"FORT SMITH","NAME":"HEALTHSOUTH REHABILITATION HOSPITAL OF FORT SMITH","ZIP":72901,"ACCREDITAT":"JCAHO ACCREDITED","PHONE":"479-785-3300","EDIT_DATE":null,"LICENSEINF":"LICENSE NO.: 2936 CERT. CARD NO.: 17641 ISSUED DATE: 01/01/2010 EXPIRATION DATE: 12/31/2010","TYPE":"REHABILITATION HOSPITAL","BEGIN_DATE":"08312010","EDIT_COMME":null,"LONGITUDE":-94.41867833,"LATITUDE":35.37394278,"STATE":"AR","id":"a63zzi9zl978","ADDRESS":"1401 SOUTH J STREET","MEDICAREBE":80,"LICENSEDBE":80,"COUNTY":"SEBASTIAN"},"type":"Feature","geometry":{"type":"Point","coordinates":[-94.418671250896,35.373936445883]}},{"properties":{"CITY":"BLYTHEVILLE","NAME":"GREAT RIVER MEDICAL CENTER","ZIP":72315,"ACCREDITAT":"JCAHO ACCREDITED","PHONE":"870-838-7100","EDIT_DATE":null,"LICENSEINF":"LICENSE NO.: AR4562 CERT. CARD NO.: 17609 ISSUED DATE: 01/01/2010 EXPIRATION DATE: 12/31/2010","TYPE":"GENERAL HOSPITAL","BEGIN_DATE":"08312010","EDIT_COMME":null,"LONGITUDE":-89.91730944,"LATITUDE":35.94302222,"STATE":"AR","id":"a63zzid43zpa","ADDRESS":"1520 NORTH DIVISION STREET","MEDICAREBE":168,"LICENSEDBE":168,"COUNTY":"MISSISSIPPI"},"type":"Feature","geometry":{"type":"Point","coordinates":[-89.9173035408998,35.9430155696003]}},{"properties":{"CITY":"FAYETTEVILLE","NAME":"HEALTHSOUTH REHABILITATION HOSPITAL, A PARTNER WITH REGIONAL","ZIP":72703,"ACCREDITAT":"JCAHO ACCREDITED","PHONE":"479-444-2200","EDIT_DATE":null,"LICENSEINF":"LICENSE NO.: AR3639 CERT. CARD NO.: 17652 ISSUED DATE: 01/01/2010 EXPIRATION DATE: 12/31/2010","TYPE":"REHABILITATION HOSPITAL","BEGIN_DATE":"08312010","EDIT_COMME":null,"LONGITUDE":-94.15485667,"LATITUDE":36.10910389,"STATE":"AR","id":"a63zzi4z4zyk","ADDRESS":"153 EAST MONTE PAINTER DRIVE","MEDICAREBE":60,"LICENSEDBE":60,"COUNTY":"WASHINGTON"},"type":"Feature","geometry":{"type":"Point","coordinates":[-94.1548495998234,36.1090974089219]}},{"properties":{"CITY":"PINE BLUFF","NAME":"JEFFERSON REGIONAL MEDICAL CENTER","ZIP":71603,"ACCREDITAT":"JCAHO ACCREDITED","PHONE":"870-541-7100","EDIT_DATE":null,"LICENSEINF":"LICENSE NO.: AR4213 CERT. CARD NO.: 17603 ISSUED DATE: 01/01/2010 EXPIRATION DATE: 12/31/2010","TYPE":"GENERAL HOSPITAL","BEGIN_DATE":"08312010","EDIT_COMME":null,"LONGITUDE":-92.01767056,"LATITUDE":34.18791111,"STATE":"AR","id":"a63zzi82ftji","ADDRESS":"1600 WEST 40TH AVENUE","MEDICAREBE":471,"LICENSEDBE":471,"COUNTY":"JEFFERSON"},"type":"Feature","geometry":{"type":"Point","coordinates":[-92.0176641941713,34.1879048940325]}},{"properties":{"CITY":"MAUMELLE","NAME":"UNITED METHODIST BEHAVIORAL HOSPITAL","ZIP":72113,"ACCREDITAT":"JCAHO ACCREDITED","PHONE":"501-803-3388","EDIT_DATE":null,"LICENSEINF":"LICENSE NO.: AR4089 CERT. CARD NO.: 17635 ISSUED DATE: 01/01/2010 EXPIRATION DATE: 12/31/2010","TYPE":"PSYCHIATRIC HOSPITAL","BEGIN_DATE":"08312010","EDIT_COMME":null,"LONGITUDE":-92.39447333,"LATITUDE":34.87650889,"STATE":"AR","id":"a63zzici9xvz","ADDRESS":"1601 MURPHY DRIVE","MEDICAREBE":60,"LICENSEDBE":60,"COUNTY":"PULASKI"},"type":"Feature","geometry":{"type":"Point","coordinates":[-92.3944668259036,34.8765025549554]}},{"properties":{"CITY":"FORREST CITY","NAME":"FORREST CITY MEDICAL CENTER","ZIP":72335,"ACCREDITAT":"JCAHO ACCREDITED","PHONE":"870-261-0000","EDIT_DATE":null,"LICENSEINF":"LICENSE NO.: AR4368 CERT. CARD NO.: 17647 ISSUED DATE: 01/01/2010 EXPIRATION DATE: 12/31/2010","TYPE":"GENERAL HOSPITAL","BEGIN_DATE":"08312010","EDIT_COMME":null,"LONGITUDE":-90.78032444,"LATITUDE":35.02687278,"STATE":"AR","id":"a63zziitvbt0","ADDRESS":"1601 NEWCASTLE ROAD","MEDICAREBE":118,"LICENSEDBE":118,"COUNTY":"ST. FRANCIS"},"type":"Feature","geometry":{"type":"Point","coordinates":[-90.780318365719,35.02686634314]}},{"properties":{"CITY":"HOT SPRINGS","NAME":"ST. JOSEPH'S MERCY HEALTH CENTER AT HEALTHPARK","ZIP":71913,"ACCREDITAT":"LICENSED ONLY","PHONE":"501-520-2000","EDIT_DATE":null,"LICENSEINF":"LICENSE NO.: AR4676 CERT. CARD NO.: 17713 ISSUED DATE: 01/01/2010 EXPIRATION DATE: 12/31/2010","TYPE":"SURGERY &amp; GENERAL MEDICAL CARE HOSPITAL","BEGIN_DATE":"08312010","EDIT_COMME":null,"LONGITUDE":-93.07487167,"LATITUDE":34.46426944,"STATE":"AR","id":"a63zzii217qm","ADDRESS":"1636 HIGDON FERRY ROAD","MEDICAREBE":20,"LICENSEDBE":20,"COUNTY":"GARLAND"},"type":"Feature","geometry":{"type":"Point","coordinates":[-93.0748650050751,34.4642632217588]}},{"properties":{"CITY":"DEWITT","NAME":"DEWITT HOSPITAL &amp; NURSING HOME, INC.","ZIP":72042,"ACCREDITAT":"NON-ACCREDITED","PHONE":"870-946-3571","EDIT_DATE":null,"LICENSEINF":"LICENSE NO.: AR4093 CERT. CARD NO.: 17555 ISSUED DATE: 01/01/2010 EXPIRATION DATE: 12/31/2010","TYPE":"SURGERY &amp; GENERAL MEDICAL CARE HOSPITAL - (CAH)","BEGIN_DATE":"08312010","EDIT_COMME":null,"LONGITUDE":-91.33837667,"LATITUDE":34.27942833,"STATE":"AR","id":"a63zzikwn29l","ADDRESS":"1641 SOUTH WHITEHEAD DRIVE","MEDICAREBE":25,"LICENSEDBE":25,"COUNTY":"ARKANSAS"},"type":"Feature","geometry":{"type":"Point","coordinates":[-91.3383704830289,34.2794220699447]}},{"properties":{"CITY":"LITTLE ROCK","NAME":"ARKANSAS HEART HOSPITAL","ZIP":72211,"ACCREDITAT":"JCAHO ACCREDITED","PHONE":"501-219-7000","EDIT_DATE":null,"LICENSEINF":"LICENSE NO.: AR3195 CERT. CARD NO.: 17618 ISSUED DATE: 01/01/2010 EXPIRATION DATE: 12/31/2010","TYPE":"SURGERY &amp; GENERAL MEDICAL CARE HOSPITAL","BEGIN_DATE":"08312010","EDIT_COMME":null,"LONGITUDE":-92.39327778,"LATITUDE":34.73925556,"STATE":"AR","id":"a63zzi5qy55w","ADDRESS":"1701 SOUTH SHACKLEFORD ROAD","MEDICAREBE":112,"LICENSEDBE":112,"COUNTY":"PULASKI"},"type":"Feature","geometry":{"type":"Point","coordinates":[-92.3932712804766,34.7392492489469]}},{"properties":{"CITY":"STUTTGART","NAME":"BAPTIST HEALTH MEDICAL CENTER-STUTTGART","ZIP":72160,"ACCREDITAT":"NON-ACCREDITED","PHONE":"870-674-6301","EDIT_DATE":null,"LICENSEINF":"LICENSE NO.: AR4534 CERT. CARD NO.: 17554 ISSUED DATE: 01/01/2010 EXPIRATION DATE: 12/31/2010","TYPE":"GENERAL HOSPITAL","BEGIN_DATE":"08312010","EDIT_COMME":null,"LONGITUDE":-91.558315,"LATITUDE":34.51767444,"STATE":"AR","id":"a63zzi60ljvg","ADDRESS":"1703 NORTH BUERKLE ROAD","MEDICAREBE":49,"LICENSEDBE":49,"COUNTY":"ARKANSAS"},"type":"Feature","geometry":{"type":"Point","coordinates":[-91.5583087418591,34.51766814349]}},{"properties":{"CITY":"BATESVILLE","NAME":"WHITE RIVER MEDICAL CENTER","ZIP":72501,"ACCREDITAT":"NON-ACCREDITED","PHONE":"870-262-1200","EDIT_DATE":null,"LICENSEINF":"LICENSE NO.: 418 CERT. CARD NO.: 17599 ISSUED DATE: 01/01/2010 EXPIRATION DATE: 12/31/2010","TYPE":"GENERAL HOSPITAL","BEGIN_DATE":"08312010","EDIT_COMME":null,"LONGITUDE":-91.63459278,"LATITUDE":35.76784111,"STATE":"AR","id":"a63zzihsw71a","ADDRESS":"1710 HARRISON STREET","MEDICAREBE":199,"LICENSEDBE":199,"COUNTY":"INDEPENDENCE"},"type":"Feature","geometry":{"type":"Point","coordinates":[-91.6345864151967,35.7678345719068]}},{"properties":{"CITY":"HEBER SPRINGS","NAME":"BAPTIST HEALTH MEDICAL CENTER - HEBER SPRINGS","ZIP":72543,"ACCREDITAT":"JCAHO ACCREDITED","PHONE":"501-887-3000","EDIT_DATE":null,"LICENSEINF":"LICENSE NO.: AR4436 CERT. CARD NO.: 17570 ISSUED DATE: 01/01/2010 EXPIRATION DATE: 12/31/2010","TYPE":"SURGERY &amp; GENERAL MEDICAL CARE HOSPITAL - (CAH)","BEGIN_DATE":"08312010","EDIT_COMME":null,"LONGITUDE":-92.05832667,"LATITUDE":35.48862333,"STATE":"AR","id":"a63zzihvkzi4","ADDRESS":"1800 BYPASS ROAD","MEDICAREBE":25,"LICENSEDBE":25,"COUNTY":"CLEBURNE"},"type":"Feature","geometry":{"type":"Point","coordinates":[-92.0583202081324,35.4886168668359]}},{"properties":{"CITY":"HELENA","NAME":"HELENA REGIONAL MEDICAL CENTER","ZIP":72342,"ACCREDITAT":"JCAHO ACCREDITED","PHONE":"870-338-5800","EDIT_DATE":null,"LICENSEINF":"LICENSE NO.: AR4050 CERT. CARD NO.: 17612 ISSUED DATE: 01/01/2010 EXPIRATION DATE: 12/31/2010","TYPE":"GENERAL HOSPITAL","BEGIN_DATE":"08312010","EDIT_COMME":null,"LONGITUDE":-90.62728222,"LATITUDE":34.51002389,"STATE":"AR","id":"a63zzijxn3se","ADDRESS":"1801 MARTIN LUTHER KING","MEDICAREBE":155,"LICENSEDBE":155,"COUNTY":"PHILLIPS"},"type":"Feature","geometry":{"type":"Point","coordinates":[-90.627276217162,34.5100175479108]}},{"properties":{"CITY":"RUSSELLVILLLE","NAME":"ST. MARY'S REGIONAL MEDICAL CENTER","ZIP":72801,"ACCREDITAT":"JCAHO ACCREDITED","PHONE":"479-968-2841","EDIT_DATE":null,"LICENSEINF":"LICENSE NO.: AR4192 CERT. CARD NO.: 17615 ISSUED DATE: 01/01/2010 EXPIRATION DATE: 12/31/2010","TYPE":"GENERAL HOSPITAL","BEGIN_DATE":"08312010","EDIT_COMME":null,"LONGITUDE":-93.15004167,"LATITUDE":35.28360333,"STATE":"AR","id":"a63zzi9ezf4y","ADDRESS":"1808 WEST MAIN STREET","MEDICAREBE":170,"LICENSEDBE":170,"COUNTY":"POPE"},"type":"Feature","geometry":{"type":"Point","coordinates":[-93.1500349272132,35.2835969580105]}},{"properties":{"CITY":"HOT SPRINGS","NAME":"NATIONAL PARK MEDICAL CENTER","ZIP":71901,"ACCREDITAT":"JCAHO ACCREDITED","PHONE":"501-321-1000","EDIT_DATE":null,"LICENSEINF":"LICENSE NO.: AR4187 CERT. CARD NO.: 17593 ISSUED DATE: 01/01/2010 EXPIRATION DATE: 12/31/2010","TYPE":"GENERAL HOSPITAL","BEGIN_DATE":"08312010","EDIT_COMME":null,"LONGITUDE":-93.03545889,"LATITUDE":34.48624778,"STATE":"AR","id":"a63zzicyqp6k","ADDRESS":"1910 MALVERN AVENUE","MEDICAREBE":166,"LICENSEDBE":166,"COUNTY":"GARLAND"},"type":"Feature","geometry":{"type":"Point","coordinates":[-93.0354522347852,34.4862415492578]}},{"properties":{"CITY":"FAYETTEVILLE","NAME":"SPRINGWOODS BEHAVIORAL HEALTH SERVICES","ZIP":72704,"ACCREDITAT":"NON-ACCREDITED","PHONE":"479-973-6000","EDIT_DATE":null,"LICENSEINF":"LICENSE NO.: AR4604 CERT. CARD NO.: 17658 ISSUED DATE: 01/01/2010 EXPIRATION DATE: 12/31/2010","TYPE":"PSYCHIATRIC HOSPITAL","BEGIN_DATE":"08312010","EDIT_COMME":null,"LONGITUDE":-94.18332944,"LATITUDE":36.10809611,"STATE":"AR","id":"a63zzidmkejj","ADDRESS":"1955 WEST TRUCKER'S DRIVE","MEDICAREBE":80,"LICENSEDBE":80,"COUNTY":"WASHINGTON"},"type":"Feature","geometry":{"type":"Point","coordinates":[-94.1833223707592,36.1080896330536]}},{"properties":{"CITY":"DARDANELLE","NAME":"RIVER VALLEY MEDICAL CENTER","ZIP":72834,"ACCREDITAT":"NON-ACCREDITED","PHONE":"479-229-4677","EDIT_DATE":null,"LICENSEINF":"LICENSE NO.: AR4448 CERT. CARD NO.: 17666 ISSUED DATE: 01/01/2010 EXPIRATION DATE: 12/31/2010","TYPE":"SURGERY &amp; GENERAL MEDICAL CARE HOSPITAL - (CAH)","BEGIN_DATE":"08312010","EDIT_COMME":null,"LONGITUDE":-93.15733611,"LATITUDE":35.22048444,"STATE":"AR","id":"a63zzibmhfsp","ADDRESS":"200 NORTH THIRD STREET","MEDICAREBE":35,"LICENSEDBE":35,"COUNTY":"YELL"},"type":"Feature","geometry":{"type":"Point","coordinates":[-93.1573293749502,35.2204780814028]}},{"properties":{"CITY":"WEST MEMPHIS","NAME":"CRITTENDEN REGIONAL HOSPITAL","ZIP":72301,"ACCREDITAT":"JCAHO ACCREDITED","PHONE":"870-735-1500","EDIT_DATE":null,"LICENSEINF":"LICENSE NO.: 2986 CERT. CARD NO.: 17579 ISSUED DATE: 01/01/2010 EXPIRATION DATE: 12/31/2010","TYPE":"GENERAL HOSPITAL","BEGIN_DATE":"08312010","EDIT_COMME":null,"LONGITUDE":-90.18906167,"LATITUDE":35.14313722,"STATE":"AR","id":"a63zzigvrxuw","ADDRESS":"200 TYLER","MEDICAREBE":152,"LICENSEDBE":152,"COUNTY":"CRITTENDEN"},"type":"Feature","geometry":{"type":"Point","coordinates":[-90.1890557409857,35.1431307376278]}},{"properties":{"CITY":"HOPE","NAME":"MEDICAL PARK HOSPITAL","ZIP":71801,"ACCREDITAT":"JCAHO ACCREDITED","PHONE":"870-777-2323","EDIT_DATE":null,"LICENSEINF":"LICENSE NO.: AR4504 CERT. CARD NO.: 17596 ISSUED DATE: 01/01/2010 EXPIRATION DATE: 12/31/2010","TYPE":"GENERAL HOSPITAL","BEGIN_DATE":"08312010","EDIT_COMME":null,"LONGITUDE":-93.58435333,"LATITUDE":33.64821611,"STATE":"AR","id":"a63zzidn62db","ADDRESS":"2001 SOUTH MAIN STREET","MEDICAREBE":79,"LICENSEDBE":79,"COUNTY":"HEMPSTEAD"},"type":"Feature","geometry":{"type":"Point","coordinates":[-93.5843465878548,33.6482100688481]}},{"properties":{"CITY":"FORDYCE","NAME":"DALLAS COUNTY MEDICAL CENTER","ZIP":71742,"ACCREDITAT":"NON-ACCREDITED","PHONE":"870-352-6300","EDIT_DATE":null,"LICENSEINF":"LICENSE NO.: AR4114 CERT. CARD NO.: 17581 ISSUED DATE: 01/01/2010 EXPIRATION DATE: 12/31/2010","TYPE":"SURGERY &amp; GENERAL MEDICAL CARE HOSPITAL - (CAH)","BEGIN_DATE":"08312010","EDIT_COMME":null,"LONGITUDE":-92.42580667,"LATITUDE":33.81040667,"STATE":"AR","id":"a63zzii7zvwx","ADDRESS":"201 CLIFTON","MEDICAREBE":25,"LICENSEDBE":25,"COUNTY":"DALLAS"},"type":"Feature","geometry":{"type":"Point","coordinates":[-92.4258002192192,33.8104005423113]}},{"properties":{"CITY":"SILOAM SPRINGS","NAME":"SILOAM SPRINGS MEMORIAL HOSPITAL","ZIP":72761,"ACCREDITAT":"NON-ACCREDITED","PHONE":"479-524-4141","EDIT_DATE":null,"LICENSEINF":"LICENSE NO.: AR4528 CERT. CARD NO.: 17561 ISSUED DATE: 01/01/2010 EXPIRATION DATE: 12/31/2010","TYPE":"GENERAL HOSPITAL","BEGIN_DATE":"08312010","EDIT_COMME":null,"LONGITUDE":-94.54054444,"LATITUDE":36.18194778,"STATE":"AR","id":"a63zzikc83oo","ADDRESS":"205 EAST JEFFERSON STREET","MEDICAREBE":73,"LICENSEDBE":73,"COUNTY":"BENTON"},"type":"Feature","geometry":{"type":"Point","coordinates":[-94.5405372712285,36.181941304313]}},{"properties":{"CITY":"NORTH LITTLE ROCK","NAME":"THE BRIDGEWAY, INC.","ZIP":72113,"ACCREDITAT":"JCAHO ACCREDITED","PHONE":"501-771-1500","EDIT_DATE":null,"LICENSEINF":"LICENSE NO.: 2559 CERT. CARD NO.: 17633 ISSUED DATE: 01/01/2010 EXPIRATION DATE: 12/31/2010","TYPE":"PSYCHIATRIC HOSPITAL","BEGIN_DATE":"08312010","EDIT_COMME":null,"LONGITUDE":-92.354405,"LATITUDE":34.82196389,"STATE":"AR","id":"a63zzijo3ymj","ADDRESS":"21 BRIDGEWAY ROAD","MEDICAREBE":103,"LICENSEDBE":103,"COUNTY":"PULASKI"},"type":"Feature","geometry":{"type":"Point","coordinates":[-92.3543985068454,34.8219575640311]}},{"properties":{"CITY":"BERRYVILLE","NAME":"ST. JOHN'S HOSPITAL - BERRYVILLE","ZIP":72616,"ACCREDITAT":"JCAHO ACCREDITED","PHONE":"870-423-3355","EDIT_DATE":null,"LICENSEINF":"LICENSE NO.: AR4648 CERT. CARD NO.: 17689 ISSUED DATE: 01/01/2010 EXPIRATION DATE: 12/31/2010","TYPE":"SURGERY &amp; GENERAL MEDICAL CARE HOSPITAL - (CAH)","BEGIN_DATE":"08312010","EDIT_COMME":null,"LONGITUDE":-93.55180778,"LATITUDE":36.35883611,"STATE":"AR","id":"a63zzia1xtcg","ADDRESS":"214 CARTER STREET","MEDICAREBE":25,"LICENSEDBE":25,"COUNTY":"CARROLL"},"type":"Feature","geometry":{"type":"Point","coordinates":[-93.5518008523218,36.3588295558917]}},{"properties":{"CITY":"SHERWOOD","NAME":"ST. VINCENT REHABILITATION HOSPITAL","ZIP":72120,"ACCREDITAT":"JCAHO ACCREDITED","PHONE":"501-834-1800","EDIT_DATE":null,"LICENSEINF":"LICENSE NO.: AR4633 CERT. CARD NO.: 17632 ISSUED DATE: 01/01/2010 EXPIRATION DATE: 12/31/2010","TYPE":"REHABILITATION HOSPITAL","BEGIN_DATE":"08312010","EDIT_COMME":null,"LONGITUDE":-92.20805,"LATITUDE":34.81297556,"STATE":"AR","id":"a63zzi769f7z","ADDRESS":"2201 WILDWOOD AVENUE","MEDICAREBE":60,"LICENSEDBE":60,"COUNTY":"PULASKI"},"type":"Feature","geometry":{"type":"Point","coordinates":[-92.2080435469747,34.8129692268051]}},{"properties":{"CITY":"CONWAY","NAME":"CONWAY REGIONAL REHABILITATION HOSPITAL","ZIP":72034,"ACCREDITAT":"NON-ACCREDITED","PHONE":"501-932-3500","EDIT_DATE":null,"LICENSEINF":"LICENSE NO.: AR4261 CERT. CARD NO.: 17586 ISSUED DATE: 01/01/2010 EXPIRATION DATE: 12/31/2010","TYPE":"REHABILITATION HOSPITAL","BEGIN_DATE":"08312010","EDIT_COMME":null,"LONGITUDE":-92.45708167,"LATITUDE":35.08645722,"STATE":"AR","id":"a63zzicqoxdn","ADDRESS":"2210 ROBINSON AVENUE","MEDICAREBE":26,"LICENSEDBE":26,"COUNTY":"FAULKNER"},"type":"Feature","geometry":{"type":"Point","coordinates":[-92.4570751280143,35.0864508514238]}},{"properties":{"CITY":"SHERWOOD","NAME":"ST. VINCENT MEDICAL CENTER/NORTH","ZIP":72120,"ACCREDITAT":"NON-ACCREDITED","PHONE":"501-552-7100","EDIT_DATE":null,"LICENSEINF":"LICENSE NO.: AR4197 CERT. CARD NO.: 17631 ISSUED DATE: 01/01/2010 EXPIRATION DATE: 12/31/2010","TYPE":"SURGERY &amp; GENERAL MEDICAL CARE HOSPITAL","BEGIN_DATE":"08312010","EDIT_COMME":null,"LONGITUDE":-92.20904778,"LATITUDE":34.81337389,"STATE":"AR","id":"a63zzi9vo2jt","ADDRESS":"2215 WILDWOOD AVENUE","MEDICAREBE":69,"LICENSEDBE":69,"COUNTY":"PULASKI"},"type":"Feature","geometry":{"type":"Point","coordinates":[-92.209041325093,34.8133675592076]}},{"properties":{"CITY":"JONESBORO","NAME":"ST. BERNARDS MEDICAL CENTER","ZIP":72401,"ACCREDITAT":"JCAHO ACCREDITED","PHONE":"870-972-4100","EDIT_DATE":null,"LICENSEINF":"LICENSE NO.: AR4053 CERT. CARD NO.: 17576 ISSUED DATE: 01/01/2010 EXPIRATION DATE: 12/31/2010","TYPE":"GENERAL HOSPITAL","BEGIN_DATE":"08312010","EDIT_COMME":null,"LONGITUDE":-90.70265611,"LATITUDE":35.83663556,"STATE":"AR","id":"a63zzi501v1d","ADDRESS":"225 EAST JACKSON AVENUE","MEDICAREBE":438,"LICENSEDBE":378,"COUNTY":"CRAIGHEAD"},"type":"Feature","geometry":{"type":"Point","coordinates":[-90.7026499969684,35.8366289592257]}},{"properties":{"CITY":"CONWAY","NAME":"CONWAY REGIONAL MEDICAL CENTER","ZIP":72032,"ACCREDITAT":"JCAHO ACCREDITED","PHONE":"501-329-3831","EDIT_DATE":null,"LICENSEINF":"LICENSE NO.: 2657 CERT. CARD NO.: 17585 ISSUED DATE: 01/01/2010 EXPIRATION DATE: 12/31/2010","TYPE":"GENERAL HOSPITAL","BEGIN_DATE":"08312010","EDIT_COMME":null,"LONGITUDE":-92.45774333,"LATITUDE":35.08565333,"STATE":"AR","id":"a63zziir4eyg","ADDRESS":"2302 COLLEGE AVENUE","MEDICAREBE":146,"LICENSEDBE":146,"COUNTY":"FAULKNER"},"type":"Feature","geometry":{"type":"Point","coordinates":[-92.457736794445,35.085646963727]}},{"properties":{"CITY":"EUREKA SPRINGS","NAME":"EUREKA SPRINGS HOSPITAL, LLC","ZIP":72632,"ACCREDITAT":"NON-ACCREDITED","PHONE":"479-253-7400","EDIT_DATE":null,"LICENSEINF":"LICENSE NO.: AR4460 CERT. CARD NO.: 17564 ISSUED DATE: 01/01/2010 EXPIRATION DATE: 12/31/2010","TYPE":"SURGERY &amp; GENERAL MEDICAL CARE HOSPITAL - (CAH)","BEGIN_DATE":"08312010","EDIT_COMME":null,"LONGITUDE":-93.74424278,"LATITUDE":36.40015944,"STATE":"AR","id":"a63zzia1zrmp","ADDRESS":"24 NORRIS STREET","MEDICAREBE":22,"LICENSEDBE":22,"COUNTY":"CARROLL"},"type":"Feature","geometry":{"type":"Point","coordinates":[-93.7442357984648,36.4001528903354]}},{"properties":{"CITY":"CLINTON","NAME":"OZARK HEALTH","ZIP":72031,"ACCREDITAT":"NON-ACCREDITED","PHONE":"501-745-7000","EDIT_DATE":null,"LICENSEINF":"LICENSE NO.: AR4237 CERT. CARD NO.: 17650 ISSUED DATE: 01/01/2010 EXPIRATION DATE: 12/31/2010","TYPE":"SURGERY &amp; GENERAL MEDICAL CARE HOSPITAL - (CAH)","BEGIN_DATE":"08312010","EDIT_COMME":null,"LONGITUDE":-92.45294167,"LATITUDE":35.57555278,"STATE":"AR","id":"a63zzi553wfx","ADDRESS":"2500 HIGHWAY 65 SOUTH","MEDICAREBE":25,"LICENSEDBE":25,"COUNTY":"VAN BUREN"},"type":"Feature","geometry":{"type":"Point","coordinates":[-92.4529350951962,35.5755463147414]}},{"properties":{"CITY":"ROGERS","NAME":"MERCY MEDICAL CENTER","ZIP":72758,"ACCREDITAT":"JCAHO ACCREDITED","PHONE":"479-338-8000","EDIT_DATE":null,"LICENSEINF":"LICENSE NO.: AR4484 CERT. CARD NO.: 17558 ISSUED DATE: 01/01/2010 EXPIRATION DATE: 12/31/2010","TYPE":"GENERAL HOSPITAL","BEGIN_DATE":"08312010","EDIT_COMME":null,"LONGITUDE":-94.18314667,"LATITUDE":36.30873111,"STATE":"AR","id":"a63zzibj8j8m","ADDRESS":"2710 RIFE MEDICAL LANE","MEDICAREBE":165,"LICENSEDBE":165,"COUNTY":"BENTON"},"type":"Feature","geometry":{"type":"Point","coordinates":[-94.1831395785301,36.3087245961235]}},{"properties":{"CITY":"JONESBORO","NAME":"ST. BERNARDS MEDICAL CENTER","ZIP":72401,"ACCREDITAT":"LICENSED ONLY","PHONE":"870-932-2800","EDIT_DATE":null,"LICENSEINF":"LICENSE NO.: AR4645 CERT. CARD NO.: 17575 ISSUED DATE: 01/01/2010 EXPIRATION DATE: 12/31/2010","TYPE":"PSYCHIATRIC HOSPITAL","BEGIN_DATE":"08312010","EDIT_COMME":null,"LONGITUDE":-90.66972667,"LATITUDE":35.85222667,"STATE":"AR","id":"a63zzi7bhxls","ADDRESS":"2712 EAST JOHNSON AVENUE","MEDICAREBE":0,"LICENSEDBE":60,"COUNTY":"CRAIGHEAD"},"type":"Feature","geometry":{"type":"Point","coordinates":[-90.6697205613455,35.852220066667]}},{"properties":{"CITY":"LAKE VILLAGE","NAME":"CHICOT MEMORIAL MEDICAL CENTER","ZIP":71653,"ACCREDITAT":"NON-ACCREDITED","PHONE":"870-265-5351","EDIT_DATE":null,"LICENSEINF":"LICENSE NO.: AR4649 CERT. CARD NO.: 17690 ISSUED DATE: 01/01/2010 EXPIRATION DATE: 12/31/2010","TYPE":"GENERAL HOSPITAL - (CAH)","BEGIN_DATE":"08312010","EDIT_COMME":null,"LONGITUDE":-91.28933278,"LATITUDE":33.30649833,"STATE":"AR","id":"a63zziajh811","ADDRESS":"2729 SOUTH HIGHWAY 65 &amp; 82","MEDICAREBE":25,"LICENSEDBE":25,"COUNTY":"CHICOT"},"type":"Feature","geometry":{"type":"Point","coordinates":[-91.2893266661579,33.3064922620038]}},{"properties":{"CITY":"LAKE VILLAGE","NAME":"SOUTHEAST REHABILITATION HOSPITAL","ZIP":71653,"ACCREDITAT":"NON-ACCREDITED","PHONE":"870-265-4333","EDIT_DATE":null,"LICENSEINF":"LICENSE NO.: AR4376 CERT. CARD NO.: 17567 ISSUED DATE: 01/01/2010 EXPIRATION DATE: 12/31/2010","TYPE":"REHABILITATION HOSPITAL","BEGIN_DATE":"08312010","EDIT_COMME":null,"LONGITUDE":-91.28933278,"LATITUDE":33.30649833,"STATE":"AR","id":"a63zzihl9rao","ADDRESS":"2729A HIGHWAY 65 &amp; 82 SOUTH","MEDICAREBE":15,"LICENSEDBE":15,"COUNTY":"CHICOT"},"type":"Feature","geometry":{"type":"Point","coordinates":[-91.2893266661579,33.3064922620038]}},{"properties":{"CITY":"POCAHONTAS","NAME":"FIVE RIVERS MEDICAL CENTER","ZIP":72455,"ACCREDITAT":"NON-ACCREDITED","PHONE":"870-892-6000","EDIT_DATE":null,"LICENSEINF":"LICENSE NO.: AR4457 CERT. CARD NO.: 17636 ISSUED DATE: 01/01/2010 EXPIRATION DATE: 12/31/2010","TYPE":"SURGERY &amp; GENERAL MEDICAL CARE HOSPITAL","BEGIN_DATE":"08312010","EDIT_COMME":null,"LONGITUDE":-90.9974,"LATITUDE":36.28975444,"STATE":"AR","id":"a63zzi9bjaut","ADDRESS":"2801 MEDICAL CENTER DRIVE","MEDICAREBE":50,"LICENSEDBE":50,"COUNTY":"RANDOLPH"},"type":"Feature","geometry":{"type":"Point","coordinates":[-90.9973937727846,36.2897477769907]}},{"properties":{"CITY":"HOT SPRINGS","NAME":"LEO N. LEVI NATIONAL ARTHRITIS HOSPITAL","ZIP":71901,"ACCREDITAT":"NON-ACCREDITED","PHONE":"501-624-1281","EDIT_DATE":null,"LICENSEINF":"LICENSE NO.: 2393 CERT. CARD NO.: 17592 ISSUED DATE: 01/01/2010 EXPIRATION DATE: 12/31/2010","TYPE":"SURGERY &amp; GENERAL MEDICAL CARE HOSPITAL","BEGIN_DATE":"08312010","EDIT_COMME":null,"LONGITUDE":-93.05765333,"LATITUDE":34.51018278,"STATE":"AR","id":"a63zzi7qbynw","ADDRESS":"300 PROSPECT AVENUE","MEDICAREBE":81,"LICENSEDBE":81,"COUNTY":"GARLAND"},"type":"Feature","geometry":{"type":"Point","coordinates":[-93.0576466715295,34.5101765450538]}},{"properties":{"CITY":"HOT SPRINGS","NAME":"ST. JOSEPH'S MERCY HEALTH CENTER, INC.","ZIP":71913,"ACCREDITAT":"JCAHO ACCREDITED","PHONE":"501-622-1000","EDIT_DATE":null,"LICENSEINF":"LICENSE NO.: AR4058 CERT. CARD NO.: 17594 ISSUED DATE: 01/01/2010 EXPIRATION DATE: 12/31/2010","TYPE":"GENERAL HOSPITAL","BEGIN_DATE":"08312010","EDIT_COMME":null,"LONGITUDE":-93.06614667,"LATITUDE":34.46780222,"STATE":"AR","id":"a63zzihjklr3","ADDRESS":"300 WERNER STREET","MEDICAREBE":282,"LICENSEDBE":282,"COUNTY":"GARLAND"},"type":"Feature","geometry":{"type":"Point","coordinates":[-93.0661400061087,34.4677959989641]}},{"properties":{"CITY":"HOT SPRINGS","NAME":"ADVANCE CARE HOSPITAL","ZIP":71913,"ACCREDITAT":"JCAHO ACCREDITED","PHONE":"501-609-4300","EDIT_DATE":null,"LICENSEINF":"LICENSE NO.: AR3678 CERT. CARD NO.: 17589 ISSUED DATE: 01/01/2010 EXPIRATION DATE: 12/31/2010","TYPE":"SURGERY &amp; GENERAL MEDICAL CARE HOSPITAL - (LTAC)","BEGIN_DATE":"08312010","EDIT_COMME":null,"LONGITUDE":-93.06614667,"LATITUDE":34.46780222,"STATE":"AR","id":"a63zzi9ur85m","ADDRESS":"300 WERNER STREET, 3RD FLOOR EAST","MEDICAREBE":27,"LICENSEDBE":27,"COUNTY":"GARLAND"},"type":"Feature","geometry":{"type":"Point","coordinates":[-93.0661400061087,34.4677959989641]}},{"properties":{"CITY":"BENTONVILLE","NAME":"NORTHWEST MEDICAL CENTER - BENTONVILLE","ZIP":72712,"ACCREDITAT":"LICENSED ONLY","PHONE":"479-553-1000","EDIT_DATE":null,"LICENSEINF":"LICENSE NO.: AR4474 CERT. CARD NO.: 17559 ISSUED DATE: 01/01/2010 EXPIRATION DATE: 12/31/2010","TYPE":"GENERAL HOSPITAL","BEGIN_DATE":"08312010","EDIT_COMME":null,"LONGITUDE":-94.19132333,"LATITUDE":36.33991444,"STATE":"AR","id":"a63zzi9r5a5l","ADDRESS":"3000 MEDICAL CENTER PARKWAY","MEDICAREBE":0,"LICENSEDBE":128,"COUNTY":"BENTON"},"type":"Feature","geometry":{"type":"Point","coordinates":[-94.1913162395103,36.3399079236095]}},{"properties":{"CITY":"JONESBORO","NAME":"NEA BAPTIST MEMORIAL HOSPITAL","ZIP":72401,"ACCREDITAT":"JCAHO ACCREDITED","PHONE":"870-972-7000","EDIT_DATE":null,"LICENSEINF":"LICENSE NO.: AR4485 CERT. CARD NO.: 17574 ISSUED DATE: 01/01/2010 EXPIRATION DATE: 12/31/2010","TYPE":"GENERAL HOSPITAL","BEGIN_DATE":"08312010","EDIT_COMME":null,"LONGITUDE":-90.66644444,"LATITUDE":35.80827444,"STATE":"AR","id":"a63zzigka0sf","ADDRESS":"3024 STADIUM BOULEVARD","MEDICAREBE":88,"LICENSEDBE":88,"COUNTY":"CRAIGHEAD"},"type":"Feature","geometry":{"type":"Point","coordinates":[-90.6664383433219,35.8082678528036]}},{"properties":{"CITY":"LITTLE ROCK","NAME":"ARKANSAS STATE HOSPITAL","ZIP":72205,"ACCREDITAT":"JCAHO ACCREDITED","PHONE":"501-686-9000","EDIT_DATE":null,"LICENSEINF":"LICENSE NO.: AR4512 CERT. CARD NO.: 17619 ISSUED DATE: 01/01/2010 EXPIRATION DATE: 12/31/2010","TYPE":"PSYCHIATRIC HOSPITAL","BEGIN_DATE":"08312010","EDIT_COMME":null,"LONGITUDE":-92.32436556,"LATITUDE":34.75080944,"STATE":"AR","id":"a63zzik9xkel","ADDRESS":"305 SOUTH PALM STREET","MEDICAREBE":321,"LICENSEDBE":321,"COUNTY":"PULASKI"},"type":"Feature","geometry":{"type":"Point","coordinates":[-92.32435907595,34.750803132728]}},{"properties":{"CITY":"ARKADELPHIA","NAME":"BAPTIST HEALTH MEDICAL CENTER - ARKADELPHIA","ZIP":71923,"ACCREDITAT":"JCAHO ACCREDITED","PHONE":"870-245-2622","EDIT_DATE":null,"LICENSEINF":"LICENSE NO.: AR4227 CERT. CARD NO.: 17568 ISSUED DATE: 01/01/2010 EXPIRATION DATE: 12/31/2010","TYPE":"GENERAL HOSPITAL - (CAH)","BEGIN_DATE":"08312010","EDIT_COMME":null,"LONGITUDE":-93.08884778,"LATITUDE":34.12291833,"STATE":"AR","id":"a63zzikfri89","ADDRESS":"3050 TWIN RIVERS DRIVE","MEDICAREBE":25,"LICENSEDBE":25,"COUNTY":"CLARK"},"type":"Feature","geometry":{"type":"Point","coordinates":[-93.0888411328367,34.1229121759148]}},{"properties":{"CITY":"WYNNE","NAME":"CROSSRIDGE COMMUNITY HOSPITAL","ZIP":72396,"ACCREDITAT":"JCAHO ACCREDITED","PHONE":"870-238-3300","EDIT_DATE":null,"LICENSEINF":"LICENSE NO.: AR4063 CERT. CARD NO.: 17580 ISSUED DATE: 01/01/2010 EXPIRATION DATE: 12/31/2010","TYPE":"SURGERY &amp; GENERAL MEDICAL CARE HOSPITAL - (CAH)","BEGIN_DATE":"08312010","EDIT_COMME":null,"LONGITUDE":-90.78662056,"LATITUDE":35.21980556,"STATE":"AR","id":"a63zzihdn8d3","ADDRESS":"310 SOUTH FALLS BOULEVARD","MEDICAREBE":25,"LICENSEDBE":25,"COUNTY":"CROSS"},"type":"Feature","geometry":{"type":"Point","coordinates":[-90.7866144606518,35.2197990822613]}},{"properties":{"CITY":"MENA","NAME":"MENA REGIONAL HEALTH SYSTEM","ZIP":71953,"ACCREDITAT":"NON-ACCREDITED","PHONE":"479-394-6100","EDIT_DATE":null,"LICENSEINF":"LICENSE NO.: AR4321 CERT. CARD NO.: 17614 ISSUED DATE: 01/01/2010 EXPIRATION DATE: 12/31/2010","TYPE":"GENERAL HOSPITAL","BEGIN_DATE":"08312010","EDIT_COMME":null,"LONGITUDE":-94.22138,"LATITUDE":34.58900722,"STATE":"AR","id":"a63zzifmotpt","ADDRESS":"311 NORTH MORROW STREET","MEDICAREBE":65,"LICENSEDBE":65,"COUNTY":"POLK"},"type":"Feature","geometry":{"type":"Point","coordinates":[-94.2213730258498,34.5890010281146]}},{"properties":{"CITY":"SEARCY","NAME":"WHITE COUNTY MEDICAL CENTER","ZIP":72143,"ACCREDITAT":"JCAHO ACCREDITED","PHONE":"501-268-6121","EDIT_DATE":null,"LICENSEINF":"LICENSE NO.: AR4389 CERT. CARD NO.: 17664 ISSUED DATE: 01/01/2010 EXPIRATION DATE: 12/31/2010","TYPE":"GENERAL HOSPITAL","BEGIN_DATE":"08312010","EDIT_COMME":null,"LONGITUDE":-91.69589556,"LATITUDE":35.25185056,"STATE":"AR","id":"a63zziipreyf","ADDRESS":"3214 EAST RACE AVENUE","MEDICAREBE":438,"LICENSEDBE":245,"COUNTY":"WHITE"},"type":"Feature","geometry":{"type":"Point","coordinates":[-91.6958892116406,35.2518441189478]}},{"properties":{"CITY":"FAYETTEVILLE","NAME":"WASHINGTON REGIONAL MEDICAL CENTER AT NORTH HILLS","ZIP":72703,"ACCREDITAT":"JCAHO ACCREDITED","PHONE":"479-713-1000","EDIT_DATE":null,"LICENSEINF":"LICENSE NO.: AR4097 CERT. CARD NO.: 17661 ISSUED DATE: 01/01/2010 EXPIRATION DATE: 12/31/2010","TYPE":"GENERAL HOSPITAL","BEGIN_DATE":"08312010","EDIT_COMME":null,"LONGITUDE":-94.16000667,"LATITUDE":36.109315,"STATE":"AR","id":"a63zzifodrvk","ADDRESS":"3215 NORTH HILLS BOULEVARD","MEDICAREBE":383,"LICENSEDBE":366,"COUNTY":"WASHINGTON"},"type":"Feature","geometry":{"type":"Point","coordinates":[-94.1599995994357,36.1093085200009]}},{"properties":{"CITY":"NORTH LITTLE ROCK","NAME":"BAPTIST HEALTH MEDICAL CENTER - NORTH LITTLE ROCK","ZIP":72117,"ACCREDITAT":"JCAHO ACCREDITED","PHONE":"501-202-3000","EDIT_DATE":null,"LICENSEINF":"LICENSE NO.: AR3828 CERT. CARD NO.: 17624 ISSUED DATE: 01/01/2010 EXPIRATION DATE: 12/31/2010","TYPE":"GENERAL HOSPITAL","BEGIN_DATE":"08312010","EDIT_COMME":null,"LONGITUDE":-92.22310389,"LATITUDE":34.78376556,"STATE":"AR","id":"a63zzidkxdyq","ADDRESS":"3333 SPRINGHILL DRIVE","MEDICAREBE":220,"LICENSEDBE":220,"COUNTY":"PULASKI"},"type":"Feature","geometry":{"type":"Point","coordinates":[-92.2230974337329,34.7837592319312]}},{"properties":{"CITY":"FAYETTEVILLE","NAME":"PHYSICIANS' SPECIALTY HOSPITAL","ZIP":72703,"ACCREDITAT":"NON-ACCREDITED","PHONE":"479-571-7002","EDIT_DATE":null,"LICENSEINF":"LICENSE NO.: AR4553 CERT. CARD NO.: 17655 ISSUED DATE: 01/01/2010 EXPIRATION DATE: 12/31/2010","TYPE":"SURGERY &amp; GENERAL MEDICAL CARE HOSPITAL","BEGIN_DATE":"08312010","EDIT_COMME":null,"LONGITUDE":-94.13404056,"LATITUDE":36.12134556,"STATE":"AR","id":"a63zzibar09q","ADDRESS":"3873 NORTH PARKVIEW DRIVE","MEDICAREBE":21,"LICENSEDBE":21,"COUNTY":"WASHINGTON"},"type":"Feature","geometry":{"type":"Point","coordinates":[-94.1340334934291,36.1213390723062]}},{"properties":{"CITY":"MORRILTON","NAME":"ST. ANTHONY'S MEDICAL CENTER","ZIP":72110,"ACCREDITAT":"NON-ACCREDITED","PHONE":"501-977-2300","EDIT_DATE":null,"LICENSEINF":"LICENSE NO.: AR4313 CERT. CARD NO.: 17572 ISSUED DATE: 01/01/2010 EXPIRATION DATE: 12/31/2010","TYPE":"GENERAL HOSPITAL - (CAH)","BEGIN_DATE":"08312010","EDIT_COMME":null,"LONGITUDE":-92.72142611,"LATITUDE":35.16802444,"STATE":"AR","id":"a63zziel1kn6","ADDRESS":"4 HOSPITAL DRIVE","MEDICAREBE":25,"LICENSEDBE":25,"COUNTY":"CONWAY"},"type":"Feature","geometry":{"type":"Point","coordinates":[-92.7214194955475,35.1680180705244]}},{"properties":{"CITY":"WARREN","NAME":"BRADLEY COUNTY MEDICAL CENTER","ZIP":71671,"ACCREDITAT":"NON-ACCREDITED","PHONE":"870-226-3731","EDIT_DATE":null,"LICENSEINF":"LICENSE NO.: AR4304 CERT. CARD NO.: 17563 ISSUED DATE: 01/01/2010 EXPIRATION DATE: 12/31/2010","TYPE":"GENERAL HOSPITAL - (CAH)","BEGIN_DATE":"08312010","EDIT_COMME":null,"LONGITUDE":-92.05935111,"LATITUDE":33.61034944,"STATE":"AR","id":"a63zziegdp0x","ADDRESS":"404 SOUTH BRADLEY STREET","MEDICAREBE":35,"LICENSEDBE":35,"COUNTY":"BRADLEY"},"type":"Feature","geometry":{"type":"Point","coordinates":[-92.059344774388,33.6103433434111]}},{"properties":{"CITY":"FAYETTEVILLE","NAME":"VISTA HEALTH","ZIP":72703,"ACCREDITAT":"JCAHO ACCREDITED","PHONE":"479-521-5731","EDIT_DATE":null,"LICENSEINF":"LICENSE NO.: AR3849 CERT. CARD NO.: 17659 ISSUED DATE: 01/01/2010 EXPIRATION DATE: 12/31/2010","TYPE":"PSYCHIATRIC HOSPITAL","BEGIN_DATE":"08312010","EDIT_COMME":null,"LONGITUDE":-94.11988167,"LATITUDE":36.12790889,"STATE":"AR","id":"a63zziiph70z","ADDRESS":"4253 CROSSOVER ROAD","MEDICAREBE":92,"LICENSEDBE":92,"COUNTY":"WASHINGTON"},"type":"Feature","geometry":{"type":"Point","coordinates":[-94.1198746084157,36.1279024027377]}},{"properties":{"CITY":"JOHNSON","NAME":"NORTHWEST MEDICAL CENTER - WILLOW CREEK WOMEN'S HOSPITAL","ZIP":72741,"ACCREDITAT":"LICENSED ONLY","PHONE":"479-684-3000","EDIT_DATE":null,"LICENSEINF":"LICENSE NO.: AR4450 CERT. CARD NO.: 17654 ISSUED DATE: 01/01/2010 EXPIRATION DATE: 12/31/2010","TYPE":"GENERAL HOSPITAL","BEGIN_DATE":"08312010","EDIT_COMME":null,"LONGITUDE":-94.18637167,"LATITUDE":36.135535,"STATE":"AR","id":"a63zzia6rndp","ADDRESS":"4301 GREATHOUSE SPRINGS ROAD","MEDICAREBE":0,"LICENSEDBE":64,"COUNTY":"WASHINGTON"},"type":"Feature","geometry":{"type":"Point","coordinates":[-94.1863645908784,36.1355285158542]}},{"properties":{"CITY":"LITTLE ROCK","NAME":"UAMS MEDICAL CENTER","ZIP":72205,"ACCREDITAT":"JCAHO ACCREDITED","PHONE":"501-686-5000","EDIT_DATE":null,"LICENSEINF":"LICENSE NO.: AR4128 CERT. CARD NO.: 17634 ISSUED DATE: 01/01/2010 EXPIRATION DATE: 12/31/2010","TYPE":"GENERAL HOSPITAL","BEGIN_DATE":"08312010","EDIT_COMME":null,"LONGITUDE":-92.320685,"LATITUDE":34.74829889,"STATE":"AR","id":"a63zzik4g515","ADDRESS":"4301 WEST MARKHAM STREET, SLOT 557","MEDICAREBE":400,"LICENSEDBE":400,"COUNTY":"PULASKI"},"type":"Feature","geometry":{"type":"Point","coordinates":[-92.3206785209861,34.748292577043]}},{"properties":{"CITY":"ASHDOWN","NAME":"LITTLE RIVER MEMORIAL HOSPITAL","ZIP":71822,"ACCREDITAT":"NON-ACCREDITED","PHONE":"870-898-5011","EDIT_DATE":null,"LICENSEINF":"LICENSE NO.: AR4204 CERT. CARD NO.: 17606 ISSUED DATE: 01/01/2010 EXPIRATION DATE: 12/31/2010","TYPE":"SURGERY &amp; GENERAL MEDICAL CARE HOSPITAL - (CAH)","BEGIN_DATE":"08312010","EDIT_COMME":null,"LONGITUDE":-94.13482444,"LATITUDE":33.66926556,"STATE":"AR","id":"a63zzil3ysv6","ADDRESS":"451 WEST LOCKE STREET","MEDICAREBE":25,"LICENSEDBE":25,"COUNTY":"LITTLE RIVER"},"type":"Feature","geometry":{"type":"Point","coordinates":[-94.1348175519562,33.6692595320367]}},{"properties":{"CITY":"PARIS","NAME":"NORTH LOGAN MERCY HOSPITAL","ZIP":72855,"ACCREDITAT":"NON-ACCREDITED","PHONE":"479-963-6101","EDIT_DATE":null,"LICENSEINF":"LICENSE NO.: AR3710 CERT. CARD NO.: 17608 ISSUED DATE: 01/01/2010 EXPIRATION DATE: 12/31/2010","TYPE":"SURGERY &amp; GENERAL MEDICAL CARE HOSPITAL - (CAH)","BEGIN_DATE":"08312010","EDIT_COMME":null,"LONGITUDE":-93.72489778,"LATITUDE":35.28919833,"STATE":"AR","id":"a63zzii24252","ADDRESS":"500 EAST ACADEMY","MEDICAREBE":16,"LICENSEDBE":16,"COUNTY":"LOGAN"},"type":"Feature","geometry":{"type":"Point","coordinates":[-93.7248908855948,35.2891919847398]}},{"properties":{"CITY":"NORTH LITTLE ROCK","NAME":"ARKANSAS SURGICAL HOSPITAL","ZIP":72118,"ACCREDITAT":"JCAHO ACCREDITED","PHONE":"501-748-8000","EDIT_DATE":null,"LICENSEINF":"LICENSE NO.: AR4280 CERT. CARD NO.: 17620 ISSUED DATE: 01/01/2010 EXPIRATION DATE: 12/31/2010","TYPE":"SURGERY &amp; GENERAL MEDICAL CARE HOSPITAL","BEGIN_DATE":"08312010","EDIT_COMME":null,"LONGITUDE":-92.34860278,"LATITUDE":34.80012778,"STATE":"AR","id":"a63zzif4r8ji","ADDRESS":"5201 NORTH SHORE DRIVE","MEDICAREBE":51,"LICENSEDBE":51,"COUNTY":"PULASKI"},"type":"Feature","geometry":{"type":"Point","coordinates":[-92.3485962871892,34.8001214576899]}},{"properties":{"CITY":"SPRINGDALE","NAME":"NORTHWEST MEDICAL CENTER","ZIP":72764,"ACCREDITAT":"JCAHO ACCREDITED","PHONE":"479-751-5711","EDIT_DATE":null,"LICENSEINF":"LICENSE NO.: AR4449 CERT. CARD NO.: 17653 ISSUED DATE: 01/01/2010 EXPIRATION DATE: 12/31/2010","TYPE":"SURGERY &amp; GENERAL MEDICAL CARE HOSPITAL","BEGIN_DATE":"08312010","EDIT_COMME":null,"LONGITUDE":-94.13684333,"LATITUDE":36.18061333,"STATE":"AR","id":"a63zzia118h1","ADDRESS":"609 WEST MAPLE AVENUE","MEDICAREBE":414,"LICENSEDBE":222,"COUNTY":"WASHINGTON"},"type":"Feature","geometry":{"type":"Point","coordinates":[-94.1368362673573,36.1806068394966]}},{"properties":{"CITY":"SPRINGDALE","NAME":"REGENCY HOSPITAL OF SPRINGDALE","ZIP":72764,"ACCREDITAT":"LICENSED ONLY","PHONE":"479-757-2600","EDIT_DATE":null,"LICENSEINF":"LICENSE NO.: AR4245 CERT. CARD NO.: 17657 ISSUED DATE: 01/01/2010 EXPIRATION DATE: 12/31/2010","TYPE":"SURGERY &amp; GENERAL MEDICAL CARE HOSPITAL - (LTAC)","BEGIN_DATE":"08312010","EDIT_COMME":null,"LONGITUDE":-94.13684333,"LATITUDE":36.18061333,"STATE":"AR","id":"a63zzieepayd","ADDRESS":"609 WEST MAPLE AVENUE","MEDICAREBE":0,"LICENSEDBE":25,"COUNTY":"WASHINGTON"},"type":"Feature","geometry":{"type":"Point","coordinates":[-94.1368362673573,36.1806068394966]}},{"properties":{"CITY":"LITTLE ROCK","NAME":"ST. VINCENT REHABILITATION HOSPITAL","ZIP":72205,"ACCREDITAT":"LICENSED ONLY","PHONE":"501-834-1800","EDIT_DATE":null,"LICENSEINF":"LICENSE NO.: AR4632 CERT. CARD NO.: 17023 ISSUED DATE: 01/01/2010 EXPIRATION DATE: 12/31/2010","TYPE":"REHABILITATION HOSPITAL","BEGIN_DATE":"08312010","EDIT_COMME":null,"LONGITUDE":-92.34411444,"LATITUDE":34.74787833,"STATE":"AR","id":"a63zzig0rqfk","ADDRESS":"6101 ST. VINCENT CIRCLE","MEDICAREBE":0,"LICENSEDBE":23,"COUNTY":"PULASKI"},"type":"Feature","geometry":{"type":"Point","coordinates":[-92.3441079594184,34.7478720229388]}},{"properties":{"CITY":"OSCEOLA","NAME":"SOUTH MISSISSIPPI COUNTY REGIONAL MEDICAL CENTER","ZIP":72370,"ACCREDITAT":"JCAHO ACCREDITED","PHONE":"870-563-7000","EDIT_DATE":null,"LICENSEINF":"LICENSE NO.: AR4563 CERT. CARD NO.: 17610 ISSUED DATE: 01/01/2010 EXPIRATION DATE: 12/31/2010","TYPE":"SURGERY &amp; GENERAL MEDICAL CARE HOSPITAL - (CAH)","BEGIN_DATE":"08312010","EDIT_COMME":null,"LONGITUDE":-89.97560556,"LATITUDE":35.69973944,"STATE":"AR","id":"a63zzihyay5w","ADDRESS":"611 WEST LEE AVENUE","MEDICAREBE":25,"LICENSEDBE":25,"COUNTY":"MISSISSIPPI"},"type":"Feature","geometry":{"type":"Point","coordinates":[-89.975599653445,35.6997328423252]}},{"properties":{"CITY":"HARRISON","NAME":"NORTH ARKANSAS REGIONAL MEDICAL CENTER","ZIP":72601,"ACCREDITAT":"NON-ACCREDITED","PHONE":"870-414-4000","EDIT_DATE":null,"LICENSEINF":"LICENSE NO.: AR4480 CERT. CARD NO.: 17562 ISSUED DATE: 01/01/2010 EXPIRATION DATE: 12/31/2010","TYPE":"GENERAL HOSPITAL","BEGIN_DATE":"08312010","EDIT_COMME":null,"LONGITUDE":-93.10914111,"LATITUDE":36.23654667,"STATE":"AR","id":"a63zzijv9m8o","ADDRESS":"620 NORTH MAIN STREET","MEDICAREBE":174,"LICENSEDBE":174,"COUNTY":"BOONE"},"type":"Feature","geometry":{"type":"Point","coordinates":[-93.1091343144036,36.2365401111635]}},{"properties":{"CITY":"MOUNTAIN HOME","NAME":"BAXTER REGIONAL MEDICAL CENTER","ZIP":72653,"ACCREDITAT":"NON-ACCREDITED","PHONE":"870-508-1000","EDIT_DATE":null,"LICENSEINF":"LICENSE NO.: AR3827 CERT. CARD NO.: 17557 ISSUED DATE: 01/01/2010 EXPIRATION DATE: 12/31/2010","TYPE":"GENERAL HOSPITAL","BEGIN_DATE":"08312010","EDIT_COMME":null,"LONGITUDE":-92.39653611,"LATITUDE":36.34209778,"STATE":"AR","id":"a63zzila38ja","ADDRESS":"624 HOSPITAL DRIVE","MEDICAREBE":268,"LICENSEDBE":268,"COUNTY":"BAXTER"},"type":"Feature","geometry":{"type":"Point","coordinates":[-92.3965294977661,36.3420911682244]}},{"properties":{"CITY":"CAMDEN","NAME":"OUACHITA COUNTY MEDICAL CENTER","ZIP":71701,"ACCREDITAT":"JCAHO ACCREDITED","PHONE":"870-836-1000","EDIT_DATE":null,"LICENSEINF":"LICENSE NO.: 2653 CERT. CARD NO.: 17611 ISSUED DATE: 01/01/2010 EXPIRATION DATE: 12/31/2010","TYPE":"GENERAL HOSPITAL","BEGIN_DATE":"08312010","EDIT_COMME":null,"LONGITUDE":-92.83702778,"LATITUDE":33.57584667,"STATE":"AR","id":"a63zzifbespc","ADDRESS":"638 CALIFORNIA AVENUE","MEDICAREBE":98,"LICENSEDBE":98,"COUNTY":"OUACHITA"},"type":"Feature","geometry":{"type":"Point","coordinates":[-92.8370212339843,33.5758406053033]}},{"properties":{"CITY":"SALEM","NAME":"FULTON COUNTY HOSPITAL","ZIP":72576,"ACCREDITAT":"NON-ACCREDITED","PHONE":"870-895-2691","EDIT_DATE":null,"LICENSEINF":"LICENSE NO.: AR4230 CERT. CARD NO.: 17588 ISSUED DATE: 01/01/2010 EXPIRATION DATE: 12/31/2010","TYPE":"SURGERY &amp; GENERAL MEDICAL CARE HOSPITAL - (CAH)","BEGIN_DATE":"08312010","EDIT_COMME":null,"LONGITUDE":-91.81023611,"LATITUDE":36.38289778,"STATE":"AR","id":"a63zzi88fcl9","ADDRESS":"679 NORTH MAIN STREET","MEDICAREBE":25,"LICENSEDBE":25,"COUNTY":"FULTON"},"type":"Feature","geometry":{"type":"Point","coordinates":[-91.8102296557129,36.3828911318015]}},{"properties":{"CITY":"EL DORADO","NAME":"MEDICAL CENTER OF SOUTH ARKANSAS","ZIP":71730,"ACCREDITAT":"JCAHO ACCREDITED","PHONE":"870-863-2000","EDIT_DATE":null,"LICENSEINF":"LICENSE NO.: AR3950 CERT. CARD NO.: 17649 ISSUED DATE: 01/01/2010 EXPIRATION DATE: 12/31/2010","TYPE":"GENERAL HOSPITAL","BEGIN_DATE":"08312010","EDIT_COMME":null,"LONGITUDE":-92.67099278,"LATITUDE":33.22055111,"STATE":"AR","id":"a63zziamyf5c","ADDRESS":"700 WEST GROVE STREET","MEDICAREBE":166,"LICENSEDBE":166,"COUNTY":"UNION"},"type":"Feature","geometry":{"type":"Point","coordinates":[-92.6709862997343,33.2205451137449]}},{"properties":{"CITY":"TEXARKANA","NAME":"VISTA HEALTH TEXARKANA","ZIP":71854,"ACCREDITAT":"NON-ACCREDITED","PHONE":"870-772-5028","EDIT_DATE":null,"LICENSEINF":"LICENSE NO.: AR4610 CERT. CARD NO.: 17667 ISSUED DATE: 01/01/2010 EXPIRATION DATE: 12/31/2010","TYPE":"PSYCHIATRIC HOSPITAL","BEGIN_DATE":"08312010","EDIT_COMME":null,"LONGITUDE":-94.03412667,"LATITUDE":33.46115222,"STATE":"AR","id":"a63zzi69470f","ADDRESS":"701 ARKANSAS BOULEVARD, SUITE 300","MEDICAREBE":62,"LICENSEDBE":62,"COUNTY":"MILLER"},"type":"Feature","geometry":{"type":"Point","coordinates":[-94.0341198134784,33.4611462355427]}},{"properties":{"CITY":"FORT SMITH","NAME":"ST. EDWARD MERCY MEDICAL CENTER","ZIP":72903,"ACCREDITAT":"JCAHO ACCREDITED","PHONE":"479-314-6000","EDIT_DATE":null,"LICENSEINF":"LICENSE NO.: 412 CERT. CARD NO.: 17644 ISSUED DATE: 01/01/2010 EXPIRATION DATE: 12/31/2010","TYPE":"GENERAL HOSPITAL","BEGIN_DATE":"08312010","EDIT_COMME":null,"LONGITUDE":-94.35338556,"LATITUDE":35.35583889,"STATE":"AR","id":"a63zzidg1a47","ADDRESS":"7301 ROGERS AVENUE","MEDICAREBE":336,"LICENSEDBE":336,"COUNTY":"SEBASTIAN"},"type":"Feature","geometry":{"type":"Point","coordinates":[-94.3533784930457,35.3558325578666]}},{"properties":{"CITY":"FORT SMITH","NAME":"ADVANCE CARE HOSPITAL OF FORT SMITH","ZIP":72903,"ACCREDITAT":"JCAHO ACCREDITED","PHONE":"479-314-4900","EDIT_DATE":null,"LICENSEINF":"LICENSE NO.: AR4139 CERT. CARD NO.: 17640 ISSUED DATE: 01/01/2010 EXPIRATION DATE: 12/31/2010","TYPE":"SURGERY &amp; GENERAL MEDICAL CARE HOSPITAL - (LTAC)","BEGIN_DATE":"08312010","EDIT_COMME":null,"LONGITUDE":-94.35338556,"LATITUDE":35.35583889,"STATE":"AR","id":"a63zzib8btzg","ADDRESS":"7301 ROGERS AVENUE, 4TH FLOOR","MEDICAREBE":25,"LICENSEDBE":25,"COUNTY":"SEBASTIAN"},"type":"Feature","geometry":{"type":"Point","coordinates":[-94.3533784930457,35.3558325578666]}},{"properties":{"CITY":"PINE BLUFF","NAME":"ARKANSAS DEPARTMENT OF CORRECTION - DIAGNOSTIC UNIT INPATIENT CARE FACILITY","ZIP":71603,"ACCREDITAT":"LICENSED ONLY","PHONE":"870-267-6450","EDIT_DATE":null,"LICENSEINF":"LICENSE NO.: AR3899 CERT. CARD NO.: 17602 ISSUED DATE: 01/01/2010 EXPIRATION DATE: 12/31/2010","TYPE":"SURGERY &amp; GENERAL MEDICAL CARE HOSPITAL","BEGIN_DATE":"08312010","EDIT_COMME":null,"LONGITUDE":-92.08264444,"LATITUDE":34.22218111,"STATE":"AR","id":"a63zziiusib5","ADDRESS":"7500 CORRECTIONS CIRCLE","MEDICAREBE":28,"LICENSEDBE":28,"COUNTY":"JEFFERSON"},"type":"Feature","geometry":{"type":"Point","coordinates":[-92.0826380625038,34.2221748911423]}},{"properties":{"CITY":"MONTICELLO","NAME":"DREW MEMORIAL HOSPITAL","ZIP":71655,"ACCREDITAT":"NON-ACCREDITED","PHONE":"870-367-2411","EDIT_DATE":null,"LICENSEINF":"LICENSE NO.: 2870 CERT. CARD NO.: 17584 ISSUED DATE: 01/01/2010 EXPIRATION DATE: 12/31/2010","TYPE":"GENERAL HOSPITAL","BEGIN_DATE":"08312010","EDIT_COMME":null,"LONGITUDE":-91.81667444,"LATITUDE":33.61104556,"STATE":"AR","id":"a63zzifzkfza","ADDRESS":"778 SCOGIN DRIVE","MEDICAREBE":49,"LICENSEDBE":49,"COUNTY":"DREW"},"type":"Feature","geometry":{"type":"Point","coordinates":[-91.8166681727238,33.6110394443463]}},{"properties":{"CITY":"OZARK","NAME":"MERCY HOSPITAL TURNER MEMORIAL","ZIP":72949,"ACCREDITAT":"NON-ACCREDITED","PHONE":"479-667-4138","EDIT_DATE":null,"LICENSEINF":"LICENSE NO.: AR3777 CERT. CARD NO.: 17587 ISSUED DATE: 01/01/2010 EXPIRATION DATE: 12/31/2010","TYPE":"SURGERY &amp; GENERAL MEDICAL CARE HOSPITAL - (CAH)","BEGIN_DATE":"08312010","EDIT_COMME":null,"LONGITUDE":-93.83402444,"LATITUDE":35.48576778,"STATE":"AR","id":"a63zziehs28o","ADDRESS":"801 WEST RIVER STREET","MEDICAREBE":25,"LICENSEDBE":25,"COUNTY":"FRANKLIN"},"type":"Feature","geometry":{"type":"Point","coordinates":[-93.8340175087233,35.4857613968365]}},{"properties":{"CITY":"DUMAS","NAME":"DELTA MEMORIAL HOSPITAL","ZIP":71639,"ACCREDITAT":"NON-ACCREDITED","PHONE":"870-382-4303","EDIT_DATE":null,"LICENSEINF":"LICENSE NO.: AR4392 CERT. CARD NO.: 17582 ISSUED DATE: 01/01/2010 EXPIRATION DATE: 12/31/2010","TYPE":"GENERAL HOSPITAL - (CAH)","BEGIN_DATE":"08312010","EDIT_COMME":null,"LONGITUDE":-91.484505,"LATITUDE":33.88380333,"STATE":"AR","id":"a63zziijm75j","ADDRESS":"811 HIGHWAY 65 SOUTH","MEDICAREBE":25,"LICENSEDBE":25,"COUNTY":"DESHA"},"type":"Feature","geometry":{"type":"Point","coordinates":[-91.4844988011521,33.883797154677]}},{"properties":{"CITY":"BOONEVILLE","NAME":"BOONEVILLE COMMUNITY HOSPITAL","ZIP":72927,"ACCREDITAT":"NON-ACCREDITED","PHONE":"479-675-2800","EDIT_DATE":null,"LICENSEINF":"LICENSE NO.: AR4154 CERT. CARD NO.: 17607 ISSUED DATE: 01/01/2010 EXPIRATION DATE: 12/31/2010","TYPE":"SURGERY &amp; GENERAL MEDICAL CARE HOSPITAL - (CAH)","BEGIN_DATE":"08312010","EDIT_COMME":null,"LONGITUDE":-93.93514444,"LATITUDE":35.140285,"STATE":"AR","id":"a63zzibsf67p","ADDRESS":"880 WEST MAIN","MEDICAREBE":25,"LICENSEDBE":25,"COUNTY":"LOGAN"},"type":"Feature","geometry":{"type":"Point","coordinates":[-93.9351375071278,35.1402786889205]}},{"properties":{"CITY":"MCGEHEE","NAME":"MCGEHEE HOSPITAL","ZIP":71654,"ACCREDITAT":"NON-ACCREDITED","PHONE":"870-222-5600","EDIT_DATE":null,"LICENSEINF":"LICENSE NO.: AR4657 CERT. CARD NO.: 17703 ISSUED DATE: 01/01/2010 EXPIRATION DATE: 12/31/2010","TYPE":"SURGERY &amp; GENERAL MEDICAL CARE HOSPITAL - (CAH)","BEGIN_DATE":"08312010","EDIT_COMME":null,"LONGITUDE":-91.39225389,"LATITUDE":33.618395,"STATE":"AR","id":"a63zziav65tk","ADDRESS":"900 SOUTH THIRD STREET","MEDICAREBE":25,"LICENSEDBE":25,"COUNTY":"DESHA"},"type":"Feature","geometry":{"type":"Point","coordinates":[-91.3922477306294,33.6183888703711]}},{"properties":{"CITY":"PARAGOULD","NAME":"ARKANSAS METHODIST MEDICAL CENTER","ZIP":72450,"ACCREDITAT":"JCAHO ACCREDITED","PHONE":"870-239-7000","EDIT_DATE":null,"LICENSEINF":"LICENSE NO.: AR4056 CERT. CARD NO.: 17595 ISSUED DATE: 01/01/2010 EXPIRATION DATE: 12/31/2010","TYPE":"GENERAL HOSPITAL","BEGIN_DATE":"08312010","EDIT_COMME":null,"LONGITUDE":-90.49839,"LATITUDE":36.051985,"STATE":"AR","id":"a63zzi7fmre4","ADDRESS":"900 WEST KINGSHIGHWAY","MEDICAREBE":129,"LICENSEDBE":129,"COUNTY":"GREENE"},"type":"Feature","geometry":{"type":"Point","coordinates":[-90.4983839272768,36.0519783527362]}},{"properties":{"CITY":"JONESBORO","NAME":"THE SURGICAL HOSPITAL OF JONESBORO","ZIP":72401,"ACCREDITAT":"LICENSED ONLY","PHONE":"870-336-1100","EDIT_DATE":null,"LICENSEINF":"LICENSE NO.: AR4527 CERT. CARD NO.: 17577 ISSUED DATE: 01/01/2010 EXPIRATION DATE: 12/31/2010","TYPE":"SURGERY &amp; GENERAL MEDICAL CARE HOSPITAL","BEGIN_DATE":"08312010","EDIT_COMME":null,"LONGITUDE":-90.69161722,"LATITUDE":35.81004389,"STATE":"AR","id":"a63zzi84ok3l","ADDRESS":"909 ENTERPRISE DRIVE","MEDICAREBE":0,"LICENSEDBE":12,"COUNTY":"CRAIGHEAD"},"type":"Feature","geometry":{"type":"Point","coordinates":[-90.6916111135996,35.8100372972824]}},{"properties":{"CITY":"LITTLE ROCK","NAME":"BAPTIST HEALTH REHABILITATION INSTITUTE","ZIP":72205,"ACCREDITAT":"JCAHO ACCREDITED","PHONE":"501-202-7578","EDIT_DATE":null,"LICENSEINF":"LICENSE NO.: AR3782 CERT. CARD NO.: 17625 ISSUED DATE: 01/01/2010 EXPIRATION DATE: 12/31/2010","TYPE":"REHABILITATION HOSPITAL","BEGIN_DATE":"08312010","EDIT_COMME":null,"LONGITUDE":-92.38134944,"LATITUDE":34.74456,"STATE":"AR","id":"a63zzifuv3nt","ADDRESS":"9601 INTERSTATE 630, EXIT 7","MEDICAREBE":120,"LICENSEDBE":120,"COUNTY":"PULASKI"},"type":"Feature","geometry":{"type":"Point","coordinates":[-92.381342948032,34.7445536916013]}},{"properties":{"CITY":"LITTLE ROCK","NAME":"BAPTIST HEALTH MEDICAL CENTER - LITTLE ROCK","ZIP":72205,"ACCREDITAT":"JCAHO ACCREDITED","PHONE":"501-202-2200","EDIT_DATE":null,"LICENSEINF":"LICENSE NO.: AR3886 CERT. CARD NO.: 17622 ISSUED DATE: 01/01/2010 EXPIRATION DATE: 12/31/2010","TYPE":"GENERAL HOSPITAL","BEGIN_DATE":"08312010","EDIT_COMME":null,"LONGITUDE":-92.38143056,"LATITUDE":34.74456,"STATE":"AR","id":"a63zzihmprdb","ADDRESS":"9601 INTERSTATE 630, EXIT 7","MEDICAREBE":843,"LICENSEDBE":827,"COUNTY":"PULASKI"},"type":"Feature","geometry":{"type":"Point","coordinates":[-92.3814240606267,34.7445536925149]}},{"properties":{"CITY":"LITTLE ROCK","NAME":"BAPTIST HEALTH EXTENDED CARE HOSPITAL-LITTLE ROCK, INC.","ZIP":72205,"ACCREDITAT":"NON-ACCREDITED","PHONE":"501-202-6000","EDIT_DATE":null,"LICENSEINF":"LICENSE NO.: AR4489 CERT. CARD NO.: 17621 ISSUED DATE: 01/01/2010 EXPIRATION DATE: 12/31/2010","TYPE":"SURGERY &amp; GENERAL MEDICAL CARE HOSPITAL - (LTAC)","BEGIN_DATE":"08312010","EDIT_COMME":null,"LONGITUDE":-92.38160722,"LATITUDE":34.74466833,"STATE":"AR","id":"a63zziimstck","ADDRESS":"9601 INTERSTATE 630, EXIT 7, 10TH FLOOR","MEDICAREBE":37,"LICENSEDBE":37,"COUNTY":"PULASKI"},"type":"Feature","geometry":{"type":"Point","coordinates":[-92.3816007264638,34.7446620258579]}},{"properties":{"CITY":"VAN BUREN","NAME":"SUMMIT MEDICAL CENTER","ZIP":72956,"ACCREDITAT":"JCAHO ACCREDITED","PHONE":"479-474-3401","EDIT_DATE":null,"LICENSEINF":"LICENSE NO.: AR4672 CERT. CARD NO.: 17709 ISSUED DATE: 01/01/2010 EXPIRATION DATE: 12/31/2010","TYPE":"SURGERY &amp; GENERAL MEDICAL CARE HOSPITAL","BEGIN_DATE":"08312010","EDIT_COMME":null,"LONGITUDE":-94.338795,"LATITUDE":35.43541722,"STATE":"AR","id":"a63zzihgl2f4","ADDRESS":"EAST MAIN &amp; SOUTH 20TH STREETS","MEDICAREBE":103,"LICENSEDBE":103,"COUNTY":"CRAWFORD"},"type":"Feature","geometry":{"type":"Point","coordinates":[-94.3387879361475,35.4354108749791]}},{"properties":{"CITY":"DANVILLE","NAME":"JOHN ED CHAMBERS MEMORIAL HOSPITAL, INC.","ZIP":72833,"ACCREDITAT":"NON-ACCREDITED","PHONE":"479-495-2241","EDIT_DATE":null,"LICENSEINF":"LICENSE NO.: AR4293 CERT. CARD NO.: 17665 ISSUED DATE: 01/01/2010 EXPIRATION DATE: 12/31/2010","TYPE":"SURGERY &amp; GENERAL MEDICAL CARE HOSPITAL","BEGIN_DATE":"08312010","EDIT_COMME":null,"LONGITUDE":-93.38806111,"LATITUDE":35.05440667,"STATE":"AR","id":"a63zzi61htp8","ADDRESS":"HIGHWAY 10 AT DETROIT STREET","MEDICAREBE":41,"LICENSEDBE":41,"COUNTY":"YELL"},"type":"Feature","geometry":{"type":"Point","coordinates":[-93.3880543262497,35.0544003450688]}},{"properties":{"CITY":"MOUNTAIN VIEW","NAME":"STONE COUNTY MEDICAL CENTER","ZIP":72560,"ACCREDITAT":"NON-ACCREDITED","PHONE":"870-269-4361","EDIT_DATE":null,"LICENSEINF":"LICENSE NO.: AR4198 CERT. CARD NO.: 17648 ISSUED DATE: 01/01/2010 EXPIRATION DATE: 12/31/2010","TYPE":"SURGERY &amp; GENERAL MEDICAL CARE HOSPITAL - (CAH)","BEGIN_DATE":"08312010","EDIT_COMME":null,"LONGITUDE":-92.08285167,"LATITUDE":35.85661222,"STATE":"AR","id":"a63zzicsb9ga","ADDRESS":"HIGHWAY 14 EAST","MEDICAREBE":25,"LICENSEDBE":25,"COUNTY":"STONE"},"type":"Feature","geometry":{"type":"Point","coordinates":[-92.0828451757559,35.8566056874069]}},{"properties":{"CITY":"LITTLE ROCK","NAME":"SELECT SPECIALTY HOSPITAL - LITTLE ROCK","ZIP":72205,"ACCREDITAT":"JCAHO ACCREDITED","PHONE":"501-661-4198","EDIT_DATE":null,"LICENSEINF":"LICENSE NO.: AR3790 CERT. CARD NO.: 17628 ISSUED DATE: 01/01/2010 EXPIRATION DATE: 12/31/2010","TYPE":"SURGERY &amp; GENERAL MEDICAL CARE HOSPITAL - (LTAC)","BEGIN_DATE":"08312010","EDIT_COMME":null,"LONGITUDE":-92.33929111,"LATITUDE":34.75048111,"STATE":"AR","id":"a63zzi51foxv","ADDRESS":"ST. VINCENT INFIRMARY MEDICAL CENTER, SIXTH FLOOR, TWO ST. VINCENT CIRCLE","MEDICAREBE":43,"LICENSEDBE":43,"COUNTY":"PULASKI"},"type":"Feature","geometry":{"type":"Point","coordinates":[-92.3392846258738,34.7504747990393]}},{"properties":{"CITY":"LITTLE ROCK","NAME":"ST. VINCENT INFIRMARY MEDICAL CENTER","ZIP":72205,"ACCREDITAT":"JCAHO ACCREDITED","PHONE":"501-552-3000","EDIT_DATE":null,"LICENSEINF":"LICENSE NO.: AR4582 CERT. CARD NO.: 17630 ISSUED DATE: 01/01/2010 EXPIRATION DATE: 12/31/2010","TYPE":"GENERAL HOSPITAL","BEGIN_DATE":"08312010","EDIT_COMME":null,"LONGITUDE":-92.33929111,"LATITUDE":34.75048111,"STATE":"AR","id":"a63zzijmcm7m","ADDRESS":"TWO ST. VINCENT CIRCLE","MEDICAREBE":897,"LICENSEDBE":615,"COUNTY":"PULASKI"},"type":"Feature","geometry":{"type":"Point","coordinates":[-92.3392846258738,34.7504747990393]}}],"is_temporal":false,"author":{"url":"http://www.geostor.arkansas.gov","metadata":"http://www.geostor.arkansas.gov","contact_name":"","contact_address":"","source":"AGIO (Arkansas Department of Health)","contact_phone":""},"source":"http://www.geostor.arkansas.gov","pagination":{"sort":null,"start":0,"total":112,"limit":1000000},"state":"complete","tags":"","published":"2010-09-01T16:00:00Z","id":68859}