{"type":"FeatureCollection","data_type":"Dataset","url_type":null,"permissions":[{"permissions":{"download":true,"view":true},"group_id":"everyone"}],"classification":null,"title":"All Deals","count":133,"stream_id":69406,"contributor":{"url":"http://geocommons.com/users/17425","name":"maptastic"},"data_attributes":null,"calculation_params":null,"icon_link":null,"link":"http://geocommons.com/overlays/69406.json","extent":[-122.401,32.7088,-116.928,47.8612],"geometry_types":["point"],"unique_name":null,"name":"All Deals","feature_count":133,"description":"","next_feature":null,"is_raster":false,"short_classification":"Y","stats":{"latitude":{"max":47.861154,"mean":40.0814983759399,"variance":54.8193099209025,"stdev":7.40400634257579,"min":32.708824,"median":33.166788},"deal_id":{"max":169,"mean":84.1804511278196,"variance":2178.45203918888,"stdev":46.6738903369848,"min":7,"median":85},"longitude":{"max":-116.927794,"mean":-119.731491300752,"variance":6.5565000885947,"stdev":2.5605663609043,"min":-122.400573,"median":-117.343347}},"features":[{"properties":{"address1":"421 East Thomas St.","city":"Seattle","deal":"$13 for Tuesday's 5-Course Tapas Experience ($26 Value)","category":"Restaurants","parent_category":null,"zip":"98102","latitude":47.620688,"deal_id":7,"merchant":"Thomas Street Bistro","longitude":-122.326206,"id":"a69pryzmsens","state":"WA"},"type":"Feature","geometry":{"type":"Point","coordinates":[-122.326206,47.620688]}},{"properties":{"address1":"27.194386","city":"-80.198448","deal":"$10 for $20 Worth of Authentic Caribbean Cuisine","category":"Restaurants","parent_category":null,"zip":"98118","latitude":47.558287,"deal_id":8,"merchant":"Island Soul Caribbean Restaurant","longitude":-122.285486,"id":"a69prz8l0f5p","state":"WA"},"type":"Feature","geometry":{"type":"Point","coordinates":[-122.285486,47.558287]}},{"properties":{"address1":"3308 E Spring St.","city":"Seattle","deal":"$30 for 1 Month of Unlimited Yoga ($130 Value)","category":"Yoga","parent_category":"Active Life","zip":"98122","latitude":47.611754,"deal_id":9,"merchant":"Mountain Flow Yoga","longitude":-122.290194,"id":"a69pryx5rr4r","state":"WA"},"type":"Feature","geometry":{"type":"Point","coordinates":[-122.290194,47.611754]}},{"properties":{"address1":"12729 Northup Way Ste 3","city":"Bellevue","deal":"$99 for a Luxurious Spa Package Including a 50 Minute Massage, Citrus Twist Pedicure and More ($230 value)","category":"Day Spas","parent_category":"Beauty and Spas","zip":"98005","latitude":47.628216,"deal_id":10,"merchant":"Ajara Spa &amp; Wellness Center","longitude":-122.17059,"id":"a69pryxin9og","state":"WA"},"type":"Feature","geometry":{"type":"Point","coordinates":[-122.17059,47.628216]}},{"properties":{"address1":"3312 E. Spring St.","city":"Seattle","deal":"$50 for $100 Worth of Revitalizing Salon Services","category":"Day Spas","parent_category":"Beauty and Spas","zip":"98122","latitude":47.611775,"deal_id":11,"merchant":"Kismet Salon &amp; Spa","longitude":-122.29015,"id":"a69prywfusys","state":"WA"},"type":"Feature","geometry":{"type":"Point","coordinates":[-122.29015,47.611775]}},{"properties":{"address1":"1356 Garnet Avenue","city":"San Diego","deal":"$21 for a Professional Brazilian Wax ($45 Value)","category":"Hair Removal","parent_category":"Beauty and Spas","zip":"92109","latitude":32.798888,"deal_id":12,"merchant":"Viva Brazil","longitude":-117.245373,"id":"a69prz76tryg","state":"CA"},"type":"Feature","geometry":{"type":"Point","coordinates":[-117.245373,32.798888]}},{"properties":{"address1":"3939 Voltaire Street","city":"San Diego","deal":"$95 for 3 Mini Microdermabrasion Sessions ($210 Value)","category":"Skin Care","parent_category":"Beauty and Spas","zip":"92107","latitude":32.741617,"deal_id":13,"merchant":"ASerenity Skin Care","longitude":-117.231696,"id":"a69pryusb93p","state":"CA"},"type":"Feature","geometry":{"type":"Point","coordinates":[-117.231696,32.741617]}},{"properties":{"address1":"4026 Hawk St","city":"San Diego","deal":"$47 for an Award-winning Vegan Botanical Facial ($125 Value)","category":"Skin Care","parent_category":"Beauty and Spas","zip":"92103","latitude":32.750383,"deal_id":14,"merchant":"Sara Elizabeth Skincare &amp; Nail Boutique","longitude":-117.17246,"id":"a69prz4dqga2","state":"CA"},"type":"Feature","geometry":{"type":"Point","coordinates":[-117.17246,32.750383]}},{"properties":{"address1":"1065 4th Ave","city":"San Diego","deal":"$10 for $20 Worth of Food, Drinks and Fun!","category":"Restaurants","parent_category":null,"zip":"92101","latitude":32.716346,"deal_id":15,"merchant":"The Local Eatery and Drinking Hole","longitude":-117.160893,"id":"a69pryxq2qgx","state":"CA"},"type":"Feature","geometry":{"type":"Point","coordinates":[-117.160893,32.716346]}},{"properties":{"address1":"52.165699","city":"-128.145157","deal":"$150 for a Brazilian Blowout Hair Treatment ($350 Value)","category":"Hair Salons","parent_category":"Beauty and Spas","zip":"92024","latitude":33.054398,"deal_id":16,"merchant":"Bella Bella Salon and Boutique","longitude":-117.261468,"id":"a69pryx54efv","state":"CA"},"type":"Feature","geometry":{"type":"Point","coordinates":[-117.261468,33.054398]}},{"properties":{"address1":"34.619532","city":"-103.757611","deal":"$12 for $25 Worth of Specialty Beers and American Cuisine","category":"Bars","parent_category":"Nightlife","zip":"92037","latitude":32.840941,"deal_id":17,"merchant":"La Jolla Brew House","longitude":-117.274099,"id":"a69pryuocj95","state":"CA"},"type":"Feature","geometry":{"type":"Point","coordinates":[-117.274099,32.840941]}},{"properties":{"address1":"40.297958","city":"-75.942513","deal":"$15 for $30 Worth of Food and Drink","category":"Restaurants","parent_category":null,"zip":"92101","latitude":32.714801,"deal_id":18,"merchant":"Bare Back Grill","longitude":-117.158959,"id":"a69pryyaj2ao","state":"CA"},"type":"Feature","geometry":{"type":"Point","coordinates":[-117.158959,32.714801]}},{"properties":{"address1":"746 Emerald St.","city":"San Diego","deal":"$10 for $20 Worth of Beachfront Dining","category":"Restaurants","parent_category":null,"zip":"92109","latitude":32.798457,"deal_id":19,"merchant":"Mad Dogs Cafe","longitude":-117.256512,"id":"a69prz7x4v8y","state":"CA"},"type":"Feature","geometry":{"type":"Point","coordinates":[-117.256512,32.798457]}},{"properties":{"address1":"4615 Park Blvd","city":"San Diego","deal":"$7 for $15 Worth of Gourmet Pizza, Salads, Paninis, and Drinks","category":"Restaurants","parent_category":null,"zip":"92116","latitude":32.761266,"deal_id":20,"merchant":"Pizza Gourmet Express","longitude":-117.146144,"id":"a69pryv8u4cy","state":"CA"},"type":"Feature","geometry":{"type":"Point","coordinates":[-117.146144,32.761266]}},{"properties":{"address1":"208 N El Camino Real","city":"Encinitas","deal":"$39 for a 50-Minute Signature Facial ($79 Value)","category":"Active Life","parent_category":null,"zip":"92024","latitude":33.049336,"deal_id":21,"merchant":"Facelogic","longitude":-117.260277,"id":"a69pryzv5mly","state":"CA"},"type":"Feature","geometry":{"type":"Point","coordinates":[-117.260277,33.049336]}},{"properties":{"address1":"1414 Garnet Ave","city":"San Diego","deal":"$22 for a One-Hour Healing Massage by Student Massage Practitioners ($45 value)","category":"Massage","parent_category":"Beauty and Spas","zip":"92109","latitude":32.799168,"deal_id":23,"merchant":"IPSB Massage Therapy Center","longitude":-117.244166,"id":"a69prz2n2e7d","state":"CA"},"type":"Feature","geometry":{"type":"Point","coordinates":[-117.244166,32.799168]}},{"properties":{"address1":"611 B St","city":"San Diego","deal":"$15 for $30 Worth of Tasty Euro-Tapas and Drinks","category":"Restaurants","parent_category":null,"zip":"92101","latitude":32.71766,"deal_id":24,"merchant":"La Gran Tapa","longitude":-117.159084,"id":"a69prz1fjl7c","state":"CA"},"type":"Feature","geometry":{"type":"Point","coordinates":[-117.159084,32.71766]}},{"properties":{"address1":"4901 Morena Blvd","city":"San Diego","deal":"$25 for Your Choice of Any 5 Fitness Classes in Pilates Reformer, Yoga, Boot Camp, or Ballet Bar ($140 Value)","category":"Pilates","parent_category":"Active Life","zip":"92117","latitude":32.826071,"deal_id":25,"merchant":"Club Pilates San Diego","longitude":-117.229994,"id":"a69prz2hupez","state":"CA"},"type":"Feature","geometry":{"type":"Point","coordinates":[-117.229994,32.826071]}},{"properties":{"address1":"515 5th Ave","city":"San Diego","deal":"$15 for $30 Worth of Authentic Italian Food and Drinks","category":"Restaurants","parent_category":null,"zip":"92101","latitude":32.71067,"deal_id":26,"merchant":"Trattoria La Bocca","longitude":-117.159958,"id":"a69prz2tadz4","state":"CA"},"type":"Feature","geometry":{"type":"Point","coordinates":[-117.159958,32.71067]}},{"properties":{"address1":"17535 Ballinger Way NE","city":"Seattle","deal":"$15 for $30 Worth of All-American Lunch Favorites","category":"Sport Bars","parent_category":"Nightlife","zip":"98155","latitude":47.755564,"deal_id":27,"merchant":"Lake Forest Park Bar &amp; Grill","longitude":-122.27951,"id":"a69pryyhh148","state":"WA"},"type":"Feature","geometry":{"type":"Point","coordinates":[-122.27951,47.755564]}},{"properties":{"address1":"17535 Ballinger Way NE","city":"Seattle","deal":"$25 for $50 Worth of Beer, Food and Fun!","category":"Sport Bars","parent_category":"Nightlife","zip":"98155","latitude":47.755564,"deal_id":28,"merchant":"Lake Forest Park Bar &amp; Grill","longitude":-122.27951,"id":"a69prz5soy4i","state":"WA"},"type":"Feature","geometry":{"type":"Point","coordinates":[-122.27951,47.755564]}},{"properties":{"address1":"905 E Pike St","city":"Seattle","deal":"$108 for a 1-Year Membership to Designer Underwear of the Month Club ($250 Value)","category":"Arts &amp; Entertainment","parent_category":null,"zip":"98122","latitude":47.613969,"deal_id":29,"merchant":"Retail Therapy","longitude":-122.320617,"id":"a69pryvg1s1f","state":"WA"},"type":"Feature","geometry":{"type":"Point","coordinates":[-122.320617,47.613969]}},{"properties":{"address1":"West Seattle","city":"Seattle","deal":"$20 for $40 Worth of Baked Goods from The Radical Cupcake","category":"Desserts","parent_category":"Food","zip":"98106","latitude":47.541,"deal_id":30,"merchant":"The Radical Cupcake","longitude":-122.354954,"id":"a69pryxi84c9","state":"WA"},"type":"Feature","geometry":{"type":"Point","coordinates":[-122.354954,47.541]}},{"properties":{"address1":"6005 12th Ave S","city":"Seattle","deal":"$10 for $20 Worth of Neapolitan Pizza and Cuisine","category":"Restaurants","parent_category":null,"zip":"98108","latitude":47.549079,"deal_id":31,"merchant":"Via Tribunali","longitude":-122.31738,"id":"a69prz5fcp7s","state":"WA"},"type":"Feature","geometry":{"type":"Point","coordinates":[-122.31738,47.549079]}},{"properties":{"address1":"8550 Costa Verde Blvd","city":"San Diego","deal":"$51 for 1-Hour Photo Session and 8x10 Print ($300 Value)","category":"Event Planning &amp; Services","parent_category":null,"zip":"92122","latitude":32.866964,"deal_id":32,"merchant":"Emilio Azevedo Photography","longitude":-117.216688,"id":"a69prz4dpdly","state":"CA"},"type":"Feature","geometry":{"type":"Point","coordinates":[-117.216688,32.866964]}},{"properties":{"address1":"12729 Northup Way Ste 3","city":"Bellevue","deal":"$50 for 10 Yoga or Pilates Classes at Ajara Spa and Wellness Center ($155 Value)","category":"Yoga","parent_category":"Active Life","zip":"98005","latitude":47.628216,"deal_id":34,"merchant":"Ajara Spa &amp; Wellness Center","longitude":-122.17059,"id":"a69prz8wkv9n","state":"WA"},"type":"Feature","geometry":{"type":"Point","coordinates":[-122.17059,47.628216]}},{"properties":{"address1":"1100 W G St","city":"San Diego","deal":"$29 for a 4 Week Maximum Fat Loss Challenge ($347 Value)","category":"Fitness &amp; Instruction","parent_category":"Active Life","zip":"92101","latitude":32.712669,"deal_id":36,"merchant":"bootique fitness","longitude":-117.15459,"id":"a69prz1sm1nh","state":"CA"},"type":"Feature","geometry":{"type":"Point","coordinates":[-117.15459,32.712669]}},{"properties":{"address1":"1269 Garnet Ave","city":"San Diego","deal":"$10 for $20 Worth of Food and Drink","category":"Restaurants","parent_category":null,"zip":"92109","latitude":32.798264,"deal_id":38,"merchant":"The TapRoom","longitude":-117.246943,"id":"a69prz4imfxk","state":"CA"},"type":"Feature","geometry":{"type":"Point","coordinates":[-117.246943,32.798264]}},{"properties":{"address1":"106 1st Ave N","city":"Seattle","deal":"$15 for $30 Worth of Food and Drink","category":"Restaurants","parent_category":null,"zip":"98109","latitude":47.618782,"deal_id":39,"merchant":"Hula Hula","longitude":-122.355241,"id":"a69prz7sde80","state":"WA"},"type":"Feature","geometry":{"type":"Point","coordinates":[-122.355241,47.618782]}},{"properties":{"address1":"100 Denny Way","city":"Seattle","deal":"$27 for VIP Cocktail Making Class - Includes 2 Martini Glasses and a Tini Bigs Martini Recipe Book ($55 value)","category":"Lounges","parent_category":"Nightlife","zip":"98109","latitude":47.618694,"deal_id":40,"merchant":"Tini Bigs Lounge","longitude":-122.355042,"id":"a69prz3wgi6e","state":"WA"},"type":"Feature","geometry":{"type":"Point","coordinates":[-122.355042,47.618694]}},{"properties":{"address1":"1207 Pine St","city":"Seattle","deal":"$10 for $20 Worth of Coffee, Espresso Drinks, Breakfast Pastries and Cocktails","category":"Restaurants","parent_category":null,"zip":"98101","latitude":47.614926,"deal_id":41,"merchant":"The Baltic Room","longitude":-122.328517,"id":"a69pryxg36bt","state":"WA"},"type":"Feature","geometry":{"type":"Point","coordinates":[-122.328517,47.614926]}},{"properties":{"address1":"1514 E Olive Way","city":"Seattle","deal":"$20 for $40 Worth of European Fare","category":"Restaurants","parent_category":null,"zip":"98122","latitude":47.618187,"deal_id":42,"merchant":"Dinette","longitude":-122.326097,"id":"a69pryyi5aoe","state":"WA"},"type":"Feature","geometry":{"type":"Point","coordinates":[-122.326097,47.618187]}},{"properties":{"address1":"1356 Garnet Avenue","city":"San Diego","deal":"$21 for a Custom Brazilian Wax ($45 Value)","category":"Hair Removal","parent_category":"Beauty and Spas","zip":"92109","latitude":32.798888,"deal_id":43,"merchant":"Viva Brazil","longitude":-117.245373,"id":"a69prz8dnljq","state":"CA"},"type":"Feature","geometry":{"type":"Point","coordinates":[-117.245373,32.798888]}},{"properties":{"address1":"6830 La Jolla Blvd. #201","city":"La Jolla","deal":"$27 for One Month of Unlimited Classes in Yoga, Pilates, Nia, Weights, and Perfect Posture ($98 Value)","category":"Fitness &amp; Instruction","parent_category":"Active Life","zip":"92037","latitude":32.831192,"deal_id":44,"merchant":"Eight Elements West","longitude":-117.276423,"id":"a69prz3yzqpf","state":"CA"},"type":"Feature","geometry":{"type":"Point","coordinates":[-117.276423,32.831192]}},{"properties":{"address1":"5333 Mission Center Road Suite 100","city":"San Diego","deal":"$49 for an Initial Chiropractic Exam and Two Treatments ($250 Value)","category":"Health and Medical","parent_category":null,"zip":"92108","latitude":32.772122,"deal_id":45,"merchant":"Advanced Body Therapeutics","longitude":-117.154542,"id":"a69pryvl6ax8","state":"CA"},"type":"Feature","geometry":{"type":"Point","coordinates":[-117.154542,32.772122]}},{"properties":{"address1":"4033 Aurora Ave N","city":"Seattle","deal":"$43 for a Paddleboard Rental ($86 value)","category":"Active Life","parent_category":null,"zip":"98103","latitude":47.655819,"deal_id":46,"merchant":"Wave Hounds","longitude":-122.347454,"id":"a69prz8ja5q3","state":"WA"},"type":"Feature","geometry":{"type":"Point","coordinates":[-122.347454,47.655819]}},{"properties":{"address1":"3939 Voltaire Street","city":"San Diego","deal":"$95 for 3 Mini Microdermabrasion Sessions ($210 Value)","category":"Skin Care","parent_category":"Beauty and Spas","zip":"92107","latitude":32.741617,"deal_id":47,"merchant":"ASerenity Skin Care","longitude":-117.231696,"id":"a69prz08oeqb","state":"CA"},"type":"Feature","geometry":{"type":"Point","coordinates":[-117.231696,32.741617]}},{"properties":{"address1":"1065 4th Ave","city":"San Diego","deal":"$10 for $20 Worth of Food, Drinks and Fun!","category":"Restaurants","parent_category":null,"zip":"92101","latitude":32.716346,"deal_id":48,"merchant":"The Local Eatery and Drinking Hole","longitude":-117.160893,"id":"a69prz8ltpkw","state":"CA"},"type":"Feature","geometry":{"type":"Point","coordinates":[-117.160893,32.716346]}},{"properties":{"address1":"1100 W G St","city":"San Diego","deal":"$29 for a 4 Week Maximum Fat Loss Challenge ($347 Value)","category":"Fitness &amp; Instruction","parent_category":"Active Life","zip":"92101","latitude":32.712669,"deal_id":50,"merchant":"bootique fitness","longitude":-117.15459,"id":"a69pryt4asm3","state":"CA"},"type":"Feature","geometry":{"type":"Point","coordinates":[-117.15459,32.712669]}},{"properties":{"address1":"2828 University Ave #105","city":"San Diego","deal":"$45 for 2 Intro to Pole Dancing Classes and 1 Beginning Pole Tricks Class ($95 Value)","category":"Dance Studios","parent_category":"Active Life","zip":"92104","latitude":32.748512,"deal_id":51,"merchant":"Fun Pole Fitness","longitude":-117.132777,"id":"a69prz6864cn","state":"CA"},"type":"Feature","geometry":{"type":"Point","coordinates":[-117.132777,32.748512]}},{"properties":{"address1":"Anywhere you want","city":"Seattle","deal":"$50 for a Private, At-Home Yoga Class for You and 4 Friends ($100 Value)","category":"Yoga","parent_category":"Active Life","zip":"98122","latitude":47.61002,"deal_id":52,"merchant":"Phyzz Yoga","longitude":-122.304359,"id":"a69pryxpgnwb","state":"WA"},"type":"Feature","geometry":{"type":"Point","coordinates":[-122.304359,47.61002]}},{"properties":{"address1":"5041 Rainier Ave S","city":"Seattle","deal":"$10 For $20 Worth of Artisan Ice Cream","category":"Desserts","parent_category":"Food","zip":"98118","latitude":47.556636,"deal_id":53,"merchant":"Full Tilt Ice Cream","longitude":-122.284576,"id":"a69prz7laqr2","state":"WA"},"type":"Feature","geometry":{"type":"Point","coordinates":[-122.284576,47.556636]}},{"properties":{"address1":"2160 Avenida De La Playa","city":"La Jolla","deal":"$30 for $60 Worth of Surf Lesson Dollars","category":"Fitness &amp; Instruction","parent_category":"Active Life","zip":"92037","latitude":32.854017,"deal_id":54,"merchant":"Surf Diva Surf School","longitude":-117.256478,"id":"a69prytk5uc6","state":"CA"},"type":"Feature","geometry":{"type":"Point","coordinates":[-117.256478,32.854017]}},{"properties":{"address1":"3312 E. Spring St.","city":"Seattle","deal":"$50 for $100 Worth of Revitalizing Salon Services","category":"Day Spas","parent_category":"Beauty and Spas","zip":"98122","latitude":47.611775,"deal_id":55,"merchant":"Kismet Salon &amp; Spa","longitude":-122.29015,"id":"a69prz7u9wp9","state":"WA"},"type":"Feature","geometry":{"type":"Point","coordinates":[-122.29015,47.611775]}},{"properties":{"address1":"12729 Northup Way Ste 3","city":"Bellevue","deal":"$99 for a Luxurious Spa Package Including a 50 Minute Massage, Citrus Twist Pedicure and More ($230 value)","category":"Day Spas","parent_category":"Beauty and Spas","zip":"98005","latitude":47.628216,"deal_id":56,"merchant":"Ajara Spa &amp; Wellness Center","longitude":-122.17059,"id":"a69pryv9va61","state":"WA"},"type":"Feature","geometry":{"type":"Point","coordinates":[-122.17059,47.628216]}},{"properties":{"address1":"5141 Santa Fe St Suite A","city":"San Diego","deal":"$39 for an Introductory Scuba Diving Lesson ($100 Value)","category":"Diving","parent_category":"Active Life","zip":"92109","latitude":32.816322,"deal_id":57,"merchant":"House of Scuba","longitude":-117.221604,"id":"a69pryvjhfjs","state":"CA"},"type":"Feature","geometry":{"type":"Point","coordinates":[-117.221604,32.816322]}},{"properties":{"address1":"3308 E Spring St.","city":"Seattle","deal":"$30 for One Month of Unlimited Yoga ($130 Value)","category":"Yoga","parent_category":"Active Life","zip":"98122","latitude":47.611754,"deal_id":59,"merchant":"Mountain Flow Yoga","longitude":-122.290194,"id":"a69prz95mk5y","state":"WA"},"type":"Feature","geometry":{"type":"Point","coordinates":[-122.290194,47.611754]}},{"properties":{"address1":"4033 Aurora Ave N","city":"Seattle","deal":"$43 for a Paddleboard Rental ($86 value)","category":"Active Life","parent_category":null,"zip":"98103","latitude":47.655819,"deal_id":60,"merchant":"Wave Hounds","longitude":-122.347454,"id":"a69pryu65989","state":"WA"},"type":"Feature","geometry":{"type":"Point","coordinates":[-122.347454,47.655819]}},{"properties":{"address1":"6005 12th Ave S","city":"Seattle","deal":"$10 for $20 Worth of Neapolitan Pizza and Cuisine","category":"Restaurants","parent_category":null,"zip":"98108","latitude":47.549079,"deal_id":61,"merchant":"Via Tribunali","longitude":-122.31738,"id":"a69prz3wk200","state":"WA"},"type":"Feature","geometry":{"type":"Point","coordinates":[-122.31738,47.549079]}},{"properties":{"address1":"1414 Garnet Ave","city":"San Diego","deal":"$22 for a One-Hour Healing Massage by Student Massage Practitioners ($45 value)","category":"Massage","parent_category":"Beauty and Spas","zip":"92109","latitude":32.799168,"deal_id":64,"merchant":"IPSB Massage Therapy Center","longitude":-117.244166,"id":"a69prywecklo","state":"CA"},"type":"Feature","geometry":{"type":"Point","coordinates":[-117.244166,32.799168]}},{"properties":{"address1":"4869 Rainier Ave","city":"Seattle","deal":"$10 for $20 Worth of Authentic Caribbean Cuisine","category":"Restaurants","parent_category":null,"zip":"98118","latitude":47.558287,"deal_id":65,"merchant":"Island Soul Caribbean Restaurant","longitude":-122.285486,"id":"a69pryy1l0b5","state":"WA"},"type":"Feature","geometry":{"type":"Point","coordinates":[-122.285486,47.558287]}},{"properties":{"address1":"4901 Morena Blvd","city":"San Diego","deal":"$25 for Five 50-Minute Pilates Reformer, Yoga, Boot Camp, or Ballet Bar Classes ($140 Value)","category":"Pilates","parent_category":"Active Life","zip":"92117","latitude":32.826071,"deal_id":66,"merchant":"Club Pilates San Diego","longitude":-117.229994,"id":"a69prywiq3ef","state":"CA"},"type":"Feature","geometry":{"type":"Point","coordinates":[-117.229994,32.826071]}},{"properties":{"address1":"746 Emerald St.","city":"San Diego","deal":"$10 for $20 Worth of Beachfront Dining","category":"Restaurants","parent_category":null,"zip":"92109","latitude":32.798457,"deal_id":67,"merchant":"Mad Dogs Cafe","longitude":-117.256512,"id":"a69prywmkpxh","state":"CA"},"type":"Feature","geometry":{"type":"Point","coordinates":[-117.256512,32.798457]}},{"properties":{"address1":"7536 Fay Ave","city":"La Jolla","deal":"$12 for $25 Worth of Specialty Beers and American Cuisine","category":"Bars","parent_category":"Nightlife","zip":"92037","latitude":32.840941,"deal_id":68,"merchant":"La Jolla Brew House","longitude":-117.274099,"id":"a69prz93l1mg","state":"CA"},"type":"Feature","geometry":{"type":"Point","coordinates":[-117.274099,32.840941]}},{"properties":{"address1":"4615 Park Blvd","city":"San Diego","deal":"$7 for $15 Worth of Gourmet Pizza, Salads, Paninis, and Drinks","category":"Restaurants","parent_category":null,"zip":"92116","latitude":32.761266,"deal_id":70,"merchant":"Pizza Gourmet Express","longitude":-117.146144,"id":"a69prz5rihmm","state":"CA"},"type":"Feature","geometry":{"type":"Point","coordinates":[-117.146144,32.761266]}},{"properties":{"address1":"532 Belmont Ave E #102","city":"Seattle","deal":"$35 for One Month Unlimited Bootcamp Sessions ($150 value)","category":"Active Life","parent_category":null,"zip":"98102","latitude":47.623899,"deal_id":72,"merchant":"Fuel Theory","longitude":-122.323862,"id":"a69prz03dmr7","state":"WA"},"type":"Feature","geometry":{"type":"Point","coordinates":[-122.323862,47.623899]}},{"properties":{"address1":"5401 Leary Ave NW","city":"Seattle","deal":"$55 for a 1-Hour Hot Stone Massage ($120 Value)","category":"Massage","parent_category":"Beauty and Spas","zip":"98107","latitude":47.666945,"deal_id":73,"merchant":"Massage Heights","longitude":-122.382757,"id":"a69prz12rzju","state":"WA"},"type":"Feature","geometry":{"type":"Point","coordinates":[-122.382757,47.666945]}},{"properties":{"address1":"7851 Mission Center Ct","city":"San Diego","deal":"$20 for a Brazilian Wax ($50 Value)","category":"Hair Removal","parent_category":"Beauty and Spas","zip":"92108","latitude":32.773527,"deal_id":74,"merchant":"AHN Skin &amp; Beauty","longitude":-117.155004,"id":"a69prz8rn347","state":"CA"},"type":"Feature","geometry":{"type":"Point","coordinates":[-117.155004,32.773527]}},{"properties":{"address1":"1205 E Pike St","city":"Seattle","deal":"$10 for $20 Worth of Homemade Ice Cream, Local Draft Microbrews, Organic Espresso and More","category":"Desserts","parent_category":"Food","zip":"98122","latitude":47.614015,"deal_id":75,"merchant":"Bluebird","longitude":-122.316644,"id":"a69prz8mxuge","state":"WA"},"type":"Feature","geometry":{"type":"Point","coordinates":[-122.316644,47.614015]}},{"properties":{"address1":"3717 John J. Montgomery Dr","city":"San Diego","deal":"$67 for a \"Downtown Fly-Around\" Sky Tour ($135 Value)","category":"Active Life","parent_category":null,"zip":"92123","latitude":32.810915,"deal_id":78,"merchant":"San Diego Sky Tours","longitude":-117.139974,"id":"a69prz0cocjg","state":"CA"},"type":"Feature","geometry":{"type":"Point","coordinates":[-117.139974,32.810915]}},{"properties":{"address1":"2021 India St","city":"San Diego","deal":"$25 for a 2-Hour Electric Bicycle Rental (Value $50)","category":"Bike Rentals","parent_category":"Active Life","zip":"92101","latitude":32.725729,"deal_id":79,"merchant":"Ivan Stewart's Electric Bike Center","longitude":-117.168963,"id":"a69prz5fjxvp","state":"CA"},"type":"Feature","geometry":{"type":"Point","coordinates":[-117.168963,32.725729]}},{"properties":{"address1":"1430 34th Ave","city":"Seattle","deal":"$15 for a 3-Course Latin Dining Experience ($30 Value)","category":"Restaurants","parent_category":null,"zip":"98122","latitude":47.613296,"deal_id":80,"merchant":"Dulces Latin Bistro","longitude":-122.289092,"id":"a69prz33fdwu","state":"WA"},"type":"Feature","geometry":{"type":"Point","coordinates":[-122.289092,47.613296]}},{"properties":{"address1":"5301 Leary Ave NW","city":"Seattle","deal":"$25 for a 1-Month Membership, 2 Personal Training Sessions, and Unlimited Tanning for that Month ($255 Value)","category":"Fitness &amp; Instruction","parent_category":"Active Life","zip":"98107","latitude":47.666668,"deal_id":81,"merchant":"Olympic Athletic Club","longitude":-122.382217,"id":"a69pryv6fiza","state":"WA"},"type":"Feature","geometry":{"type":"Point","coordinates":[-122.382217,47.666668]}},{"properties":{"address1":"5105 Ballard Ave NW","city":"Seattle","deal":"$10 for $20 Worth of Food and Drink","category":"Sport Bars","parent_category":"Nightlife","zip":"98107","latitude":47.664538,"deal_id":82,"merchant":"Ballard Loft","longitude":-122.381265,"id":"a69prz937kai","state":"WA"},"type":"Feature","geometry":{"type":"Point","coordinates":[-122.381265,47.664538]}},{"properties":{"address1":"159 Denny Way Ste 105","city":"Seattle","deal":"$10 for $20 Worth of Food and Drink","category":"Bars","parent_category":"Nightlife","zip":"98109","latitude":47.618524,"deal_id":83,"merchant":"Barracuda Taqueria","longitude":-122.353577,"id":"a69prz284j6c","state":"WA"},"type":"Feature","geometry":{"type":"Point","coordinates":[-122.353577,47.618524]}},{"properties":{"address1":"851 Jamacha Rd","city":"El Cajon","deal":"$29 for a 4-Week Adventure Boot Camp ($299 Value)","category":"Fitness &amp; Instruction","parent_category":"Active Life","zip":"92019","latitude":32.784721,"deal_id":84,"merchant":"San Diego Adventure Boot Camp","longitude":-116.927794,"id":"a69pryy6gclv","state":"CA"},"type":"Feature","geometry":{"type":"Point","coordinates":[-116.927794,32.784721]}},{"properties":{"address1":"5100 Wilson Ave S","city":"Seattle","deal":"$10 for $20 Worth of Regional Mexican Gourmet Cuisine","category":"Food","parent_category":null,"zip":"98118","latitude":47.55557,"deal_id":85,"merchant":"Saffron","longitude":-122.270169,"id":"a69prz7w60h0","state":"WA"},"type":"Feature","geometry":{"type":"Point","coordinates":[-122.270169,47.55557]}},{"properties":{"address1":"5658 Mission Center Road","city":"San Diego","deal":"$125 for a Brazilian Blowout ($250 Value)","category":"Hair Salons","parent_category":"Beauty and Spas","zip":"92108","latitude":32.776516,"deal_id":86,"merchant":"Fantastic Sams","longitude":-117.154492,"id":"a69pryxi6och","state":"CA"},"type":"Feature","geometry":{"type":"Point","coordinates":[-117.154492,32.776516]}},{"properties":{"address1":"117 106th Ave NE","city":"Bellvue","deal":"$60 for One Month of Unlimited Hot Yoga ($135 Value)","category":"Yoga","parent_category":"Active Life","zip":"98004","latitude":47.611189,"deal_id":87,"merchant":"Hot Yoga Inc","longitude":-122.199023,"id":"a69prz51683d","state":"WA"},"type":"Feature","geometry":{"type":"Point","coordinates":[-122.199023,47.611189]}},{"properties":{"address1":"4541 California Ave SW","city":"Seattle","deal":"$13 for Two Dozen Mini Cupcakes ($26 Value)","category":"Desserts","parent_category":"Food","zip":"98116","latitude":47.56245,"deal_id":88,"merchant":"Sugar Rush Baking Co","longitude":-122.386924,"id":"a69pryuei30x","state":"WA"},"type":"Feature","geometry":{"type":"Point","coordinates":[-122.386924,47.56245]}},{"properties":{"address1":"501 Washington St Ste 704","city":"San Diego","deal":"$99 Teeth Whitening With Consultation and X-Rays ($350 Value)","category":"Dentists","parent_category":"Health and Medical","zip":"92103","latitude":32.749826,"deal_id":89,"merchant":"Zen Diego Dental Arts","longitude":-117.16038,"id":"a69prz2hgyuw","state":"CA"},"type":"Feature","geometry":{"type":"Point","coordinates":[-117.16038,32.749826]}},{"properties":{"address1":"1514 E Olive Way","city":"Seattle","deal":"$20 for $40 Worth of European Fare","category":"Restaurants","parent_category":null,"zip":"98122","latitude":47.618187,"deal_id":90,"merchant":"Dinette","longitude":-122.326097,"id":"a69pryu5if47","state":"WA"},"type":"Feature","geometry":{"type":"Point","coordinates":[-122.326097,47.618187]}},{"properties":{"address1":"1817 Queen Anne Ave N","city":"Seattle","deal":"$42 for Iderm Facial Treatment ($85 value)","category":"Skin Care","parent_category":"Beauty and Spas","zip":"98109","latitude":47.635038,"deal_id":91,"merchant":"Dermaspace","longitude":-122.357152,"id":"a69prytrx3a5","state":"WA"},"type":"Feature","geometry":{"type":"Point","coordinates":[-122.357152,47.635038]}},{"properties":{"address1":"5301 Leary Ave NW","city":"Seattle","deal":"$429 for a 1-Year Membership ($859 value)","category":"Gyms","parent_category":"Active Life","zip":"98107","latitude":47.666668,"deal_id":92,"merchant":"Olympic Athletic Club","longitude":-122.382217,"id":"a69prz08cz65","state":"WA"},"type":"Feature","geometry":{"type":"Point","coordinates":[-122.382217,47.666668]}},{"properties":{"address1":"159 Denny Way Ste 105","city":"Seattle","deal":"$10 for $20 Worth of Food and Drink","category":"Restaurants","parent_category":null,"zip":"98109","latitude":47.618524,"deal_id":93,"merchant":"Barracuda Taqueria","longitude":-122.353577,"id":"a69prz0kmprs","state":"WA"},"type":"Feature","geometry":{"type":"Point","coordinates":[-122.353577,47.618524]}},{"properties":{"address1":"2222 Avenida De La Playa","city":"La Jolla","deal":"$20 for a 2-Hour Double Seat Kayak Rental ($45 Value)","category":"Active Life","parent_category":null,"zip":"92037","latitude":32.853984,"deal_id":94,"merchant":"Bike and Kayak Tours, Inc.","longitude":-117.255146,"id":"a69prz40fj0w","state":"CA"},"type":"Feature","geometry":{"type":"Point","coordinates":[-117.255146,32.853984]}},{"properties":{"address1":"8709 161st Ave NE","city":"Redmond","deal":"$70 for 8 Weeks of Boot Camp Classes at Gas Works Park ($149 Value)","category":"Fitness &amp; Instruction","parent_category":"Active Life","zip":"98052","latitude":47.680088,"deal_id":95,"merchant":"Sgt. Mike's Endurance Training and Boot Camp","longitude":-122.125715,"id":"a69prz8ga37o","state":"WA"},"type":"Feature","geometry":{"type":"Point","coordinates":[-122.125715,47.680088]}},{"properties":{"address1":"7301 Girard Ave Ste 202","city":"La Jolla","deal":"$99 for 4 Laser Hair Removal Treatments ($800 Value)","category":"Laser Hair Removal","parent_category":"Beauty and Spas","zip":"92037","latitude":32.83797,"deal_id":96,"merchant":"New You Medical Group","longitude":-117.271615,"id":"a69prz6gnva1","state":"CA"},"type":"Feature","geometry":{"type":"Point","coordinates":[-117.271615,32.83797]}},{"properties":{"address1":"89 Yesler Way 3rd Floor","city":"Seattle","deal":"$35 for $70 Worth of Pilates Classes (Equipment Intro or Mat Class Series)","category":"Pilates","parent_category":"Active Life","zip":"98104","latitude":47.601702,"deal_id":97,"merchant":"Bodytonic Pilates","longitude":-122.334984,"id":"a69prz6w16l4","state":"WA"},"type":"Feature","geometry":{"type":"Point","coordinates":[-122.334984,47.601702]}},{"properties":{"address1":"411 Strander Blvd Suite 108","city":"Tukwila","deal":"$185 for Zoom! Teeth Whitening and Cosmetic Consultation ($600 Value)","category":"Active Life","parent_category":null,"zip":"98188","latitude":47.4557,"deal_id":98,"merchant":"Southcenter Dental","longitude":-122.253529,"id":"a69pryxejdwf","state":"WA"},"type":"Feature","geometry":{"type":"Point","coordinates":[-122.253529,47.4557]}},{"properties":{"address1":"4026 Hawk St","city":"San Diego","deal":"$19 for a Custom Airbrush Bronzing Session ($45 Value)","category":"Skin Care","parent_category":"Beauty and Spas","zip":"92103","latitude":32.750383,"deal_id":100,"merchant":"Sara Elizabeth Skincare &amp; Nail Boutique","longitude":-117.17246,"id":"a69pryvsqp47","state":"CA"},"type":"Feature","geometry":{"type":"Point","coordinates":[-117.17246,32.750383]}},{"properties":{"address1":"1240 116th Ave., NE Suite 110","city":"Bellevue","deal":"$99 for Three Laser Hair Removal Treatments ($375 Value)","category":"Hair Removal","parent_category":"Beauty and Spas","zip":"98004","latitude":47.621353,"deal_id":101,"merchant":"Avanti Skin &amp; Laser Lipo Clinics","longitude":-122.185477,"id":"a69prz85cppq","state":"WA"},"type":"Feature","geometry":{"type":"Point","coordinates":[-122.185477,47.621353]}},{"properties":{"address1":"7301 Girard Ave Ste 202","city":"La Jolla","deal":"$99 for 4 Laser Hair Removal Treatments ($800 Value)","category":"Laser Hair Removal","parent_category":"Beauty and Spas","zip":"92037","latitude":32.83797,"deal_id":102,"merchant":"New You Medical Group","longitude":-117.271615,"id":"a69prz26rzy4","state":"CA"},"type":"Feature","geometry":{"type":"Point","coordinates":[-117.271615,32.83797]}},{"properties":{"address1":"2211 Pacific Beach Drive","city":"San Diego","deal":"$20 for a 2-Hour Stand Up Paddle Board Class and Rental ($60 Value)","category":"Active Life","parent_category":null,"zip":"92109","latitude":32.796469,"deal_id":103,"merchant":"Adventure Water Sports","longitude":-117.227668,"id":"a69prz16cw22","state":"CA"},"type":"Feature","geometry":{"type":"Point","coordinates":[-117.227668,32.796469]}},{"properties":{"address1":"2260 Jimmy Durante Blvd","city":"Del Mar","deal":"$30 for a Flying Trapeze Class ($60 value)","category":"Active Life","parent_category":null,"zip":"92014","latitude":32.97255,"deal_id":104,"merchant":"Circus Fund","longitude":-117.258098,"id":"a69pryyuqtzn","state":"CA"},"type":"Feature","geometry":{"type":"Point","coordinates":[-117.258098,32.97255]}},{"properties":{"address1":"4836 Rolando Blvd.","city":"San Diego","deal":"$25 for One Month of Unlimited Yoga, Boot Camp, and Specialty MIX Classes ($75 Value)","category":"Active Life","parent_category":null,"zip":"92115","latitude":32.766176,"deal_id":105,"merchant":"MIX","longitude":-117.056775,"id":"a69prz2vnuo1","state":"CA"},"type":"Feature","geometry":{"type":"Point","coordinates":[-117.056775,32.766176]}},{"properties":{"address1":"626 120th Ave NE","city":"Bellevue","deal":"$30 for One Month of Unlimited Hot Yoga ($140 Value)","category":"Yoga","parent_category":"Active Life","zip":"98005","latitude":47.61587,"deal_id":107,"merchant":"Bikram Hot Yoga Bellevue","longitude":-122.180095,"id":"a69prz783c3m","state":"WA"},"type":"Feature","geometry":{"type":"Point","coordinates":[-122.180095,47.61587]}},{"properties":{"address1":"611 B St","city":"San Diego","deal":"$15 for $30 Worth of Tasty Euro-Tapas and Drinks","category":"Restaurants","parent_category":null,"zip":"92101","latitude":32.71766,"deal_id":108,"merchant":"La Gran Tapa","longitude":-117.159084,"id":"a69pryx17u9y","state":"CA"},"type":"Feature","geometry":{"type":"Point","coordinates":[-117.159084,32.71766]}},{"properties":{"address1":"4541 California Ave SW","city":"Seattle","deal":"$13 for Two Dozen Mini Cupcakes ($26 Value)","category":"Desserts","parent_category":"Food","zip":"98116","latitude":47.56245,"deal_id":109,"merchant":"Sugar Rush Baking Co","longitude":-122.386924,"id":"a69pryuklecu","state":"WA"},"type":"Feature","geometry":{"type":"Point","coordinates":[-122.386924,47.56245]}},{"properties":{"address1":"910 Lenora Ave Suite 160","city":"Seattle","deal":"$37 for a One Hour Massage Plus Chiropractic Exam ($100 Value)","category":"Massage","parent_category":"Beauty and Spas","zip":"98121","latitude":47.617364,"deal_id":110,"merchant":"Align Chiropractic","longitude":-122.337011,"id":"a69pryzqc0b8","state":"WA"},"type":"Feature","geometry":{"type":"Point","coordinates":[-122.337011,47.617364]}},{"properties":{"address1":"823 Camino Del Mar","city":"Del Mar","deal":"$69 for a 1 Hour Microdermabrasion Facial With Relaxing Massage ($165 Value)","category":"Day Spas","parent_category":"Beauty and Spas","zip":"92014","latitude":32.952564,"deal_id":111,"merchant":"Re-Nous Skin &amp; Body Spa","longitude":-117.262449,"id":"a69prz0um7q0","state":"CA"},"type":"Feature","geometry":{"type":"Point","coordinates":[-117.262449,32.952564]}},{"properties":{"address1":"3112 University Ave","city":"North Park","deal":"$99 for a Bottle Service With 10 People on Guest List ($250 Value)","category":"Lounges","parent_category":"Nightlife","zip":"92104","latitude":32.748552,"deal_id":112,"merchant":"U-31 Cocktail Lounge &amp; Bar","longitude":-117.127256,"id":"a69prysxwmca","state":"CA"},"type":"Feature","geometry":{"type":"Point","coordinates":[-117.127256,32.748552]}},{"properties":{"address1":"2106 N 45th Street","city":"Seattle","deal":"$99 for Three Laser Hair Removal Treatments On a Small Area ($375 Value)","category":"Laser Hair Removal","parent_category":"Beauty and Spas","zip":"98103","latitude":47.661527,"deal_id":113,"merchant":"Radiant MedSpa","longitude":-122.333535,"id":"a69pryxpq4kb","state":"WA"},"type":"Feature","geometry":{"type":"Point","coordinates":[-122.333535,47.661527]}},{"properties":{"address1":"230 Second Street Ste 102","city":"Encinitas","deal":"$30 for a Glycolic Peel with Light Therapy and Soothing Healing Mask ($90 Value)","category":"Skin Care","parent_category":"Beauty and Spas","zip":"92024","latitude":33.04942,"deal_id":115,"merchant":"Pacific Skin Care Studio","longitude":-117.295419,"id":"a69pryvzjila","state":"CA"},"type":"Feature","geometry":{"type":"Point","coordinates":[-117.295419,33.04942]}},{"properties":{"address1":"1020 108th Ave NE","city":"Bellevue","deal":"$50 for One Month of Unlimited Classes ($100 Value)","category":"Fitness &amp; Instruction","parent_category":"Active Life","zip":"98004","latitude":47.61983,"deal_id":116,"merchant":"barre3","longitude":-122.196113,"id":"a69pryyur4m2","state":"WA"},"type":"Feature","geometry":{"type":"Point","coordinates":[-122.196113,47.61983]}},{"properties":{"address1":"1205 2nd Ave","city":"Seattle","deal":"$49 for Chiropractic Exam Plus X-Ray and 2 Treatments ($327 Value)","category":"Health and Medical","parent_category":null,"zip":"98101","latitude":47.606798,"deal_id":117,"merchant":"Devine Chiropractic and Rehab Center","longitude":-122.336807,"id":"a69prz4g947q","state":"WA"},"type":"Feature","geometry":{"type":"Point","coordinates":[-122.336807,47.606798]}},{"properties":{"address1":"2106 N 45th Street","city":"Seattle","deal":"$45 for a Rejuvenating Micro-Peel","category":"Day Spas","parent_category":"Beauty and Spas","zip":"98103","latitude":47.661527,"deal_id":118,"merchant":"Radiant MedSpa","longitude":-122.333535,"id":"a69pryyewvf5","state":"WA"},"type":"Feature","geometry":{"type":"Point","coordinates":[-122.333535,47.661527]}},{"properties":{"address1":"1001 Fairview Ave N","city":"Seattle","deal":"$15 for $30 Worth of Food and Drink","category":"Lounges","parent_category":"Nightlife","zip":"98109","latitude":47.628006,"deal_id":120,"merchant":"Citrus Lounge","longitude":-122.332056,"id":"a69pryu28nhl","state":"WA"},"type":"Feature","geometry":{"type":"Point","coordinates":[-122.332056,47.628006]}},{"properties":{"address1":"899 Market St","city":"San Diego","deal":"$10 for $25 Worth of Hair Services","category":"Hair Salons","parent_category":"Beauty and Spas","zip":"92101","latitude":32.711442,"deal_id":123,"merchant":"Floyd's 99 Barbershop","longitude":-117.156596,"id":"a69prz76tz8s","state":"CA"},"type":"Feature","geometry":{"type":"Point","coordinates":[-117.156596,32.711442]}},{"properties":{"address1":"15111 Main St","city":"Mill Creek","deal":"$69 for 10 Units of Botox","category":"Skin Care","parent_category":"Beauty and Spas","zip":"98012","latitude":47.861154,"deal_id":124,"merchant":"Mill Creek Skin &amp; Laser Center","longitude":-122.220394,"id":"a69pryv6kcfe","state":"WA"},"type":"Feature","geometry":{"type":"Point","coordinates":[-122.220394,47.861154]}},{"properties":{"address1":"541 S. Coast Hwy 101","city":"Encinitas","deal":"$75 for Eyelash Extensions ($170 Value)","category":"Beauty and Spas","parent_category":null,"zip":"92024","latitude":33.045432,"deal_id":125,"merchant":"Luscious Lashes SD","longitude":-117.293622,"id":"a69pryy52ih9","state":"CA"},"type":"Feature","geometry":{"type":"Point","coordinates":[-117.293622,33.045432]}},{"properties":{"address1":"5001 44th Ave NE","city":"Seattle","deal":"$20 for $50 in Cleaning Services","category":"Active Life","parent_category":null,"zip":"98105","latitude":47.665123,"deal_id":126,"merchant":"A Sure Clean","longitude":-122.280658,"id":"a69prz37694e","state":"WA"},"type":"Feature","geometry":{"type":"Point","coordinates":[-122.280658,47.665123]}},{"properties":{"address1":"5400 Leary Ave NW","city":"Seattle","deal":"$90 for One Full Set of Eyelash Extensions ($180 Value)","category":"Beauty and Spas","parent_category":null,"zip":"98107","latitude":47.667113,"deal_id":127,"merchant":"Source Salon","longitude":-122.382445,"id":"a69pryvrbu0j","state":"WA"},"type":"Feature","geometry":{"type":"Point","coordinates":[-122.382445,47.667113]}},{"properties":{"address1":"716 Rainier Ave S.","city":"Seattle","deal":"$10 For $20 Worth of Espresso, Iced Drinks and Other Lunch Fare","category":"Food","parent_category":null,"zip":"98144","latitude":47.596526,"deal_id":129,"merchant":"@Cafe","longitude":-122.311808,"id":"a69pryym3o4e","state":"WA"},"type":"Feature","geometry":{"type":"Point","coordinates":[-122.311808,47.596526]}},{"properties":{"address1":"2211 Pacific Beach Drive","city":"San Diego","deal":"$20 for a 2-Hour Stand Up Paddle Board Class and Rental ($60 Value)","category":"Active Life","parent_category":null,"zip":"92109","latitude":32.796469,"deal_id":130,"merchant":"Adventure Water Sports","longitude":-117.227668,"id":"a69prytnc7yb","state":"CA"},"type":"Feature","geometry":{"type":"Point","coordinates":[-117.227668,32.796469]}},{"properties":{"address1":"2810 Pio Pico Drive","city":"Carlsbad","deal":"$29 for Deep Conditioning, Haircut, Blow Dry &amp; Style ($70 Value)","category":"Hair Salons","parent_category":"Beauty and Spas","zip":"92008","latitude":33.166788,"deal_id":131,"merchant":"Shear Indulgence Salon &amp; Day Spa","longitude":-117.343347,"id":"a69prz81kav8","state":"CA"},"type":"Feature","geometry":{"type":"Point","coordinates":[-117.343347,33.166788]}},{"properties":{"address1":"11048 Ice Skate Pl","city":"San Diego","deal":"$15 for Three Ice-Skating Passes + Skate Rental ($36 Value)","category":"Active Life","parent_category":null,"zip":"92126","latitude":32.921205,"deal_id":132,"merchant":"San Diego Ice Arena","longitude":-117.122153,"id":"a69pryzan6pn","state":"CA"},"type":"Feature","geometry":{"type":"Point","coordinates":[-117.122153,32.921205]}},{"properties":{"address1":"6950 Friars Road Suite 100","city":"San Diego","deal":"$99 for 6 Sessions of Laser Hair Removal ($900 Value)","category":"Laser Hair Removal","parent_category":"Beauty and Spas","zip":"92108","latitude":32.769349,"deal_id":134,"merchant":"Global Laser Cosmetics","longitude":-117.170644,"id":"a69pryx71xqm","state":"CA"},"type":"Feature","geometry":{"type":"Point","coordinates":[-117.170644,32.769349]}},{"properties":{"address1":"5701 Airport Way S","city":"Seattle","deal":"$30 for $60 Worth of Waxing","category":"Hair Removal","parent_category":"Beauty and Spas","zip":"98108","latitude":47.551194,"deal_id":135,"merchant":"Wax Sabbath Spa","longitude":-122.318939,"id":"a69prz59ud15","state":"WA"},"type":"Feature","geometry":{"type":"Point","coordinates":[-122.318939,47.551194]}},{"properties":{"address1":"13150 Southeast 32nd Street","city":"Bellevue","deal":"$18 Ticket to Girl Power Hour ($40 Value)","category":"Arts &amp; Entertainment","parent_category":null,"zip":"98005","latitude":47.582069,"deal_id":136,"merchant":"Girl Power Hour","longitude":-122.165214,"id":"a69prz4epm0y","state":"WA"},"type":"Feature","geometry":{"type":"Point","coordinates":[-122.165214,47.582069]}},{"properties":{"address1":"7710 Balboa Ave","city":"San Diego","deal":"$69 for 7 Spa, Salon, or Holistic Health Services","category":"Beauty and Spas","parent_category":null,"zip":"92111","latitude":32.821961,"deal_id":137,"merchant":"mind body partnerships","longitude":-117.157396,"id":"a69pryy8ouog","state":"CA"},"type":"Feature","geometry":{"type":"Point","coordinates":[-117.157396,32.821961]}},{"properties":{"address1":"7553 Girard Avenue","city":"La Jolla","deal":"$90 for an Authentic Brazilian Blowout ($350 Value)","category":"Hair Salons","parent_category":"Beauty and Spas","zip":"92037","latitude":32.841294,"deal_id":138,"merchant":"model call salon","longitude":-117.27258,"id":"a69prz6e4hvo","state":"CA"},"type":"Feature","geometry":{"type":"Point","coordinates":[-117.27258,32.841294]}},{"properties":{"address1":"2301 1st Ave","city":"Seattle","deal":"$40 for $80 in Salon Services","category":"Hair Salons","parent_category":"Beauty and Spas","zip":"98121","latitude":47.613384,"deal_id":139,"merchant":"Salon Ciba","longitude":-122.346733,"id":"a69prz4oniaq","state":"WA"},"type":"Feature","geometry":{"type":"Point","coordinates":[-122.346733,47.613384]}},{"properties":{"address1":"1817 Queen Anne Ave. N","city":"Seattle","deal":"$42 For A One Hour Acupuncture or Reiki Treatment","category":"Beauty and Spas","parent_category":null,"zip":"98109","latitude":47.635038,"deal_id":140,"merchant":"Bamboo Wellness","longitude":-122.357152,"id":"a69prz0ljmqa","state":"WA"},"type":"Feature","geometry":{"type":"Point","coordinates":[-122.357152,47.635038]}},{"properties":{"address1":"930 Market St","city":"San Diego","deal":"$10 for $25 Gift Card for Use Towards Bowling, Food and Drinks","category":"Arts &amp; Entertainment","parent_category":null,"zip":"92101","latitude":32.71168,"deal_id":141,"merchant":"East Village Tavern and Bowl","longitude":-117.156179,"id":"a69pryw1ir79","state":"CA"},"type":"Feature","geometry":{"type":"Point","coordinates":[-117.156179,32.71168]}},{"properties":{"address1":"345 Sixth Ave","city":"San Diego","deal":"$30 for 1 Hour Swedish, Deep Tissue or Prenatal Massage ($80 Value)","category":"Massage","parent_category":"Beauty and Spas","zip":"92101","latitude":32.708824,"deal_id":142,"merchant":"DCOMPRESSDOWNTOWN","longitude":-117.159028,"id":"a69prz4suc8w","state":"CA"},"type":"Feature","geometry":{"type":"Point","coordinates":[-117.159028,32.708824]}},{"properties":{"address1":"11100 NE 6th Street","city":"Bellevue","deal":"$10 Admission for Two to a Jazz Documentary ($20 Value)","category":"Arts &amp; Entertainment","parent_category":null,"zip":"98004","latitude":47.615649,"deal_id":144,"merchant":"Bellevue Downtown Association","longitude":-122.192264,"id":"a69prz808q31","state":"WA"},"type":"Feature","geometry":{"type":"Point","coordinates":[-122.192264,47.615649]}},{"properties":{"address1":"114 Sansome St. #950","city":"San Francisco","deal":"$20 for 4 Movie Tickets ($56 Value)","category":"Arts &amp; Entertainment","parent_category":null,"zip":"94104","latitude":37.791418,"deal_id":145,"merchant":"Weekly Cinema","longitude":-122.400573,"id":"a69pryx1lwof","state":"CA"},"type":"Feature","geometry":{"type":"Point","coordinates":[-122.400573,37.791418]}},{"properties":{"address1":"543 Encinitas Blvd","city":"Encinitas","deal":"$49 for 4 Private Music Lessons ($170 Value)","category":"Arts &amp; Entertainment","parent_category":null,"zip":"92024","latitude":33.04671,"deal_id":146,"merchant":"California Music Studios","longitude":-117.280746,"id":"a69pryy5r065","state":"CA"},"type":"Feature","geometry":{"type":"Point","coordinates":[-117.280746,33.04671]}},{"properties":{"address1":"21205 SE 260th St","city":"Maple Valley","deal":"$65 for a One to Two Hour Photography Session + Prints ($171 Value)","category":"Arts &amp; Entertainment","parent_category":null,"zip":"98038","latitude":47.368629,"deal_id":148,"merchant":"criativo photography","longitude":-122.058157,"id":"a69prz7nj9ps","state":"WA"},"type":"Feature","geometry":{"type":"Point","coordinates":[-122.058157,47.368629]}},{"properties":{"address1":"721 Pine Street","city":"Seattle","deal":"$20 Ticket to Sips &amp; Shoes Wine Tasting Event &amp; Shoe Extravaganza ($40 Value)","category":"Party &amp; Event Planning","parent_category":"Event Planning &amp; Services","zip":"98101","latitude":47.61259,"deal_id":150,"merchant":"Wine Events &amp; Promotions","longitude":-122.333887,"id":"a69prz935wrl","state":"WA"},"type":"Feature","geometry":{"type":"Point","coordinates":[-122.333887,47.61259]}},{"properties":{"address1":"2221 Camino del Rio South","city":"San Diego","deal":"$49 for $125 Worth of Spa Services","category":"Beauty and Spas","parent_category":null,"zip":"92108","latitude":32.76835,"deal_id":151,"merchant":"Mission Valley Skin Care","longitude":-117.141313,"id":"a69pryyadxz5","state":"CA"},"type":"Feature","geometry":{"type":"Point","coordinates":[-117.141313,32.76835]}},{"properties":{"address1":"2225 Carillon Point","city":"Kirkland","deal":"$59 for One Month Unlimited Bootcamp Classes","category":"Fitness &amp; Instruction","parent_category":"Active Life","zip":"98003","latitude":47.313331,"deal_id":153,"merchant":"Fly Fitness","longitude":-122.313572,"id":"a69prz54wmyw","state":"WA"},"type":"Feature","geometry":{"type":"Point","coordinates":[-122.313572,47.313331]}},{"properties":{"address1":"6830 La Jolla Blvd. #201","city":"La Jolla","deal":"$27 for One Month of Unlimited Classes in Yoga, Pilates, Nia, Weights, and Perfect Posture ($98 Value)","category":"Fitness &amp; Instruction","parent_category":"Active Life","zip":"92037","latitude":32.831192,"deal_id":156,"merchant":"Eight Elements West","longitude":-117.276423,"id":"a69prz4i335k","state":"CA"},"type":"Feature","geometry":{"type":"Point","coordinates":[-117.276423,32.831192]}},{"properties":{"address1":"421 East Thomas St.","city":"Seattle","deal":"$17 For a Four-Course French Dinner ($35 Value)","category":"Restaurants","parent_category":null,"zip":"98102","latitude":47.620688,"deal_id":157,"merchant":"Thomas Street Bistro","longitude":-122.326206,"id":"a69prz1j94s7","state":"WA"},"type":"Feature","geometry":{"type":"Point","coordinates":[-122.326206,47.620688]}},{"properties":{"address1":"5304 Metro St","city":"San Diego","deal":"$52 for a Month of Unlimited Dance Classes ($300 Value)","category":"Dance Studios","parent_category":"Active Life","zip":"92110","latitude":32.766415,"deal_id":158,"merchant":"Metro Dance Studio","longitude":-117.196849,"id":"a69pryz9bts6","state":"CA"},"type":"Feature","geometry":{"type":"Point","coordinates":[-117.196849,32.766415]}},{"properties":{"address1":"2160 Avenida De La Playa","city":"La Jolla","deal":"Adventure Photo Shoot w/ Mini Portrait Session (Biking, Kayaking, Surfing and More!) ($275 Value)","category":"Active Life","parent_category":null,"zip":"92037","latitude":32.854017,"deal_id":159,"merchant":"Beach Shoot San Diego","longitude":-117.256478,"id":"a69prz86kl7u","state":"CA"},"type":"Feature","geometry":{"type":"Point","coordinates":[-117.256478,32.854017]}},{"properties":{"address1":"345 Sixth Ave","city":"San Diego","deal":"$30 for 1 Hour Swedish, Deep Tissue or Prenatal Massage ($80 Value)","category":"Massage","parent_category":"Beauty and Spas","zip":"92101","latitude":32.708824,"deal_id":162,"merchant":"DCOMPRESSDOWNTOWN","longitude":-117.159028,"id":"a69prz5zcoy9","state":"CA"},"type":"Feature","geometry":{"type":"Point","coordinates":[-117.159028,32.708824]}},{"properties":{"address1":"1100 W G St","city":"San Diego","deal":"$39 for a 21-Day Fat Loss Challenge ($321 value)","category":"Fitness &amp; Instruction","parent_category":"Active Life","zip":"92101","latitude":32.712669,"deal_id":163,"merchant":"Bootique Fitness San Diego","longitude":-117.15459,"id":"a69pryy2qppk","state":"CA"},"type":"Feature","geometry":{"type":"Point","coordinates":[-117.15459,32.712669]}},{"properties":{"address1":"15 Nickerson St","city":"Seattle","deal":"$15 for $30 Worth of Food and Drink","category":"Restaurants","parent_category":null,"zip":"98109","latitude":47.649386,"deal_id":164,"merchant":"Thai Fusion","longitude":-122.357186,"id":"a69prz93naf4","state":"WA"},"type":"Feature","geometry":{"type":"Point","coordinates":[-122.357186,47.649386]}},{"properties":{"address1":"1017 10th Ave","city":"San Diego","deal":"$50 for $110 Worth of All Hair Services","category":"Hair Salons","parent_category":"Beauty and Spas","zip":"92101","latitude":32.715978,"deal_id":165,"merchant":"Lady Luxe Hair Saloon And Skincare","longitude":-117.155456,"id":"a69prz3whp0b","state":"CA"},"type":"Feature","geometry":{"type":"Point","coordinates":[-117.155456,32.715978]}},{"properties":{"address1":"2891 University Avenue","city":"San Diego","deal":"$50 Tickets to Celebrity Fundraiser \"Malashock Thinks You Can Dance\" ($100 Value)","category":"Performing Arts","parent_category":"Arts &amp; Entertainment","zip":"92104","latitude":32.748342,"deal_id":168,"merchant":"Birch North Park Theater","longitude":-117.131537,"id":"a69prz61gstm","state":"CA"},"type":"Feature","geometry":{"type":"Point","coordinates":[-117.131537,32.748342]}},{"properties":{"address1":"124 Denny Way","city":"Seattle","deal":"$20 for $40 in Halloween Costumes, Accessories, and Party Supplies","category":"Party &amp; Event Planning","parent_category":"Event Planning &amp; Services","zip":"98109","latitude":47.6188,"deal_id":169,"merchant":"Champion Party Supply","longitude":-122.354654,"id":"a69prytbcezb","state":"WA"},"type":"Feature","geometry":{"type":"Point","coordinates":[-122.354654,47.6188]}}],"is_temporal":false,"author":{"url":"","metadata":"","contact_name":"","contact_address":"","source":"","contact_phone":""},"source":"","pagination":{"sort":null,"start":0,"total":133,"limit":1000000},"state":"complete","tags":"","published":"2014-08-10T22:38:16-04:00","id":69406}