{"type":"FeatureCollection","data_type":"Dataset","url_type":null,"permissions":[{"permissions":{"download":true,"view":true},"group_id":"everyone"}],"classification":null,"title":"sushi","count":19,"stream_id":69424,"contributor":{"url":"http://geocommons.com/users/16404","name":"gisprofessor"},"data_attributes":null,"calculation_params":null,"icon_link":null,"link":"http://geocommons.com/overlays/69424.json","extent":[-93.4782,44.912,-93.2251,45.1594],"geometry_types":["point"],"unique_name":null,"name":"sushi","feature_count":19,"description":"","next_feature":null,"is_raster":false,"short_classification":"Y","stats":{"latitude":{"max":45.159408,"mean":44.9799410526316,"variance":0.00256063704183035,"stdev":0.0506027374934435,"min":44.912007,"median":44.975942},"longitude":{"max":-93.225102,"mean":-93.2916765263158,"variance":0.00427845769259646,"stdev":0.0654099204448106,"min":-93.478227,"median":-93.275533},"wednesday open":{"max":1200,"mean":1120.0,"variance":2000.0,"stdev":44.7213595499958,"min":1100,"median":1100},"thursday open":{"max":1200,"mean":1120.0,"variance":2000.0,"stdev":44.7213595499958,"min":1100,"median":1100}},"features":[{"properties":{"city":"Minneapolis","thursday close":null,"executive first name":"Thom","latitude":44.956417,"company name":"Anemoni Sushi &amp; Oyster Bar","zip code":"55404","website":"Aziarestaurant.Com","executive last name":"Pham","wednesday close":null,"longitude":-93.277878,"id":"a686n503az5l","address":"2550 Nicollet Ave","wednesday open":null,"thursday open":null,"state":"MN"},"type":"Feature","geometry":{"type":"Point","coordinates":[-93.277878,44.956417]}},{"properties":{"city":"Minneapolis","thursday close":null,"executive first name":null,"latitude":44.975942,"company name":"Della Vita Bar &amp; Sushi","zip code":"55402","website":null,"executive last name":null,"wednesday close":null,"longitude":-93.268816,"id":"a686n50y5cl5","address":"615 2nd Ave S","wednesday open":null,"thursday open":null,"state":"MN"},"type":"Feature","geometry":{"type":"Point","coordinates":[-93.268816,44.975942]}},{"properties":{"city":"Minneapolis","thursday close":null,"executive first name":"Tom","latitude":44.948659,"company name":"Fuji Ya","zip code":"55408","website":"Fujiyasushi.Com","executive last name":"Hanson","wednesday close":null,"longitude":-93.287282,"id":"a686n530kyne","address":"600 W Lake St","wednesday open":null,"thursday open":null,"state":"MN"},"type":"Feature","geometry":{"type":"Point","coordinates":[-93.287282,44.948659]}},{"properties":{"city":"Minneapolis","thursday close":null,"executive first name":"Jim","latitude":44.970161,"company name":"Ichiban Japanese Steak House","zip code":"55403","website":"Ichiban.Ca","executive last name":"Reynolds","wednesday close":null,"longitude":-93.277787,"id":"a686n4sk2aqc","address":"1333 Nicollet Ave","wednesday open":null,"thursday open":null,"state":"MN"},"type":"Feature","geometry":{"type":"Point","coordinates":[-93.277787,44.970161]}},{"properties":{"city":"Minneapolis","thursday close":"2200","executive first name":"Kuh-Hong","latitude":44.985782,"company name":"Kikugawa At Riverplace","zip code":"55414","website":"Kikugawa-Restaurant.Com","executive last name":"Chen","wednesday close":"2200","longitude":-93.258152,"id":"a686n556sdyh","address":"43 Main St SE","wednesday open":1100,"thursday open":1100,"state":"MN"},"type":"Feature","geometry":{"type":"Point","coordinates":[-93.258152,44.985782]}},{"properties":{"city":"Minneapolis","thursday close":"1400","executive first name":"Virginia","latitude":45.019129,"company name":"Kobe Japanese Restaurant","zip code":"55447","website":"Kobemn.Com","executive last name":"Ng","wednesday close":"1400","longitude":-93.478227,"id":"a686n4us51cu","address":"15555 34th Ave N","wednesday open":1100,"thursday open":1100,"state":"MN"},"type":"Feature","geometry":{"type":"Point","coordinates":[-93.478227,45.019129]}},{"properties":{"city":"Minneapolis","thursday close":null,"executive first name":"Midori","latitude":44.948114,"company name":"Midori's Floating World Cafe","zip code":"55406","website":null,"executive last name":"Flomer","wednesday close":null,"longitude":-93.233423,"id":"a686n4xgntlv","address":"2629 E Lake St","wednesday open":null,"thursday open":null,"state":"MN"},"type":"Feature","geometry":{"type":"Point","coordinates":[-93.233423,44.948114]}},{"properties":{"city":"Minneapolis","thursday close":null,"executive first name":null,"latitude":44.951199,"company name":"Mt Fuji","zip code":"55408","website":null,"executive last name":null,"wednesday close":null,"longitude":-93.297867,"id":"a686n540xl8a","address":"2819 Hennepin Ave","wednesday open":null,"thursday open":null,"state":"MN"},"type":"Feature","geometry":{"type":"Point","coordinates":[-93.297867,44.951199]}},{"properties":{"city":"Minneapolis","thursday close":null,"executive first name":"Kiminobu","latitude":44.984714,"company name":"Origami","zip code":"55401","website":"Origamirestaurant.Com","executive last name":"Ichikawa","wednesday close":null,"longitude":-93.267478,"id":"a686n4t68xbe","address":"30 N 1st St # 1","wednesday open":null,"thursday open":null,"state":"MN"},"type":"Feature","geometry":{"type":"Point","coordinates":[-93.267478,44.984714]}},{"properties":{"city":"Minneapolis","thursday close":null,"executive first name":null,"latitude":44.912007,"company name":"Raku Japanese Restaurant","zip code":"55424","website":null,"executive last name":null,"wednesday close":null,"longitude":-93.330485,"id":"a686n4uocpti","address":"3939 W 50th St","wednesday open":null,"thursday open":null,"state":"MN"},"type":"Feature","geometry":{"type":"Point","coordinates":[-93.330485,44.912007]}},{"properties":{"city":"Minneapolis","thursday close":null,"executive first name":"James","latitude":44.977988,"company name":"Seven Sushi Ultralounge","zip code":"55403","website":"7mpls.Com","executive last name":"Wallenberg","wednesday close":null,"longitude":-93.275533,"id":"a686n4zr3dzu","address":"700 Hennepin Ave","wednesday open":null,"thursday open":null,"state":"MN"},"type":"Feature","geometry":{"type":"Point","coordinates":[-93.275533,44.977988]}},{"properties":{"city":"Minneapolis","thursday close":null,"executive first name":"David","latitude":44.973627,"company name":"Sushi Express Inc","zip code":"55414","website":null,"executive last name":"Hui","wednesday close":null,"longitude":-93.225102,"id":"a686n4ru55i6","address":"929 Washington Ave SE","wednesday open":null,"thursday open":null,"state":"MN"},"type":"Feature","geometry":{"type":"Point","coordinates":[-93.225102,44.973627]}},{"properties":{"city":"Minneapolis","thursday close":"2030","executive first name":"Tony","latitude":45.027328,"company name":"Sushi Of Tokyo","zip code":"55441","website":null,"executive last name":"Kong","wednesday close":"2030","longitude":-93.447458,"id":"a686n53vojsm","address":"3900 Vinewood Ln N # 6","wednesday open":1100,"thursday open":1100,"state":"MN"},"type":"Feature","geometry":{"type":"Point","coordinates":[-93.447458,45.027328]}},{"properties":{"city":"Minneapolis","thursday close":null,"executive first name":"Lisa","latitude":44.948174,"company name":"Sushi Tango","zip code":"55408","website":"Sushitango.Com","executive last name":"Vuong Deo Camp","wednesday close":null,"longitude":-93.298262,"id":"a686n50qj857","address":"3001 Hennepin Ave # F201","wednesday open":null,"thursday open":null,"state":"MN"},"type":"Feature","geometry":{"type":"Point","coordinates":[-93.298262,44.948174]}},{"properties":{"city":"Minneapolis","thursday close":"2200","executive first name":"Ralph","latitude":45.159408,"company name":"T Asia Bar &amp; Sushi Restaurant","zip code":"55449","website":null,"executive last name":"Zaubtke","wednesday close":"2200","longitude":-93.232913,"id":"a686n53b0pf4","address":"10340 Baltimore St NE # 100","wednesday open":1100,"thursday open":1100,"state":"MN"},"type":"Feature","geometry":{"type":"Point","coordinates":[-93.232913,45.159408]}},{"properties":{"city":"Minneapolis","thursday close":null,"executive first name":"Kazuo","latitude":44.975969,"company name":"Tensuke Sushi","zip code":"55402","website":null,"executive last name":"Sometani","wednesday close":null,"longitude":-93.271146,"id":"a686n4w8c47h","address":"733 Marquette Ave # 225","wednesday open":null,"thursday open":null,"state":"MN"},"type":"Feature","geometry":{"type":"Point","coordinates":[-93.271146,44.975969]}},{"properties":{"city":"Minneapolis","thursday close":null,"executive first name":"Chris","latitude":44.950635,"company name":"Tiger Sushi II","zip code":"55408","website":"Tigersushiusa.Com","executive last name":"Katayama","wednesday close":null,"longitude":-93.28805,"id":"a686n4qy0nqr","address":"2841 Lyndale Ave S","wednesday open":null,"thursday open":null,"state":"MN"},"type":"Feature","geometry":{"type":"Point","coordinates":[-93.28805,44.950635]}},{"properties":{"city":"Minneapolis","thursday close":"0200","executive first name":"Tim","latitude":44.976452,"company name":"Wasabi","zip code":"55415","website":"Wasabimn.Com","executive last name":"Huang","wednesday close":"0200","longitude":-93.255864,"id":"a686n4sm76xw","address":"903 Washington Ave S # 200","wednesday open":1200,"thursday open":1200,"state":"MN"},"type":"Feature","geometry":{"type":"Point","coordinates":[-93.255864,44.976452]}},{"properties":{"city":"Minneapolis","thursday close":null,"executive first name":"Lina","latitude":44.977175,"company name":"Zen Box Japanese Eatery","zip code":"55402","website":"Zen-Box.Com","executive last name":"Goh","wednesday close":null,"longitude":-93.270131,"id":"a686n4royjor","address":"601 Marquette Ave # 204","wednesday open":null,"thursday open":null,"state":"MN"},"type":"Feature","geometry":{"type":"Point","coordinates":[-93.270131,44.977175]}}],"is_temporal":false,"author":{"url":"","metadata":"","contact_name":"","contact_address":"","source":"","contact_phone":""},"source":"","pagination":{"sort":null,"start":0,"total":19,"limit":1000000},"state":"complete","tags":"","published":"2014-08-10T22:41:47-04:00","id":69424}