{"type":"FeatureCollection","data_type":"Dataset","url_type":null,"permissions":[{"permissions":{"download":true,"view":true},"group_id":"everyone"}],"classification":null,"title":"Local Food Sources in Westcott Neighborhood, Syracuse, NY","count":17,"stream_id":69673,"contributor":{"url":"http://geocommons.com/users/17554","name":"anabarbu"},"data_attributes":null,"calculation_params":null,"icon_link":null,"link":"http://geocommons.com/overlays/69673.json","extent":[-76.4898,40.6348,-74.1814,43.2257],"geometry_types":["point"],"unique_name":null,"name":"Local Food Sources in Westcott Neighborhood, Syracuse, NY","feature_count":17,"description":"This layer includes some of Westcott Nation's local food purveyors. ","next_feature":null,"is_raster":false,"short_classification":"Y","stats":{"geo_score":{"max":0.883,"mean":0.724823529411765,"variance":0.0398622794117647,"stdev":0.199655401659371,"min":0.338,"median":0.815}},"features":[{"properties":{"aa purveyor":"Byrne Dairy","city":"Syracuse, NY","ac website":"http://www.byrnedairy.com/","ab food provided to the westcott nation":"dairy products for Alto Cinco","zip":"13202","geo_score":0.883,"aca phone":"315-475-2111","id":"a6gib6r5zpqi","address":"240 Oneida St.","geo_precision":"range"},"type":"Feature","geometry":{"type":"Point","coordinates":[-76.153845,43.041836]}},{"properties":{"aa purveyor":"Central New York Regional Market Authority","city":"Syracuse, NY","ac website":"http://bit.ly/aFdKDz","ab food provided to the westcott nation":"vegetables for Syracuse Real Food Co-op","zip":"13208","geo_score":0.824,"aca phone":"315-422-8647","id":"a6gib6rblwyq","address":"2100 Park St.","geo_precision":"range"},"type":"Feature","geometry":{"type":"Point","coordinates":[-76.168348,43.072686]}},{"properties":{"aa purveyor":"Cobblestone Valley Farm","city":"Preble, NY","ac website":"http://www.cobblestonevalley.com/","ab food provided to the westcott nation":"turkey for Syracuse Real Food Co-op","zip":"13141","geo_score":0.878,"aca phone":"607-749-4032","id":"a6gib6uwtulb","address":"2023 Preble Rd.","geo_precision":"range"},"type":"Feature","geometry":{"type":"Point","coordinates":[-76.13926,42.733321]}},{"properties":{"aa purveyor":"Frosty Morning Farm","city":"Truxton, NY","ac website":"http://bit.ly/cnrqp5","ab food provided to the westcott nation":"rhubarb, garlic, shallots for Syracuse Real Food Co-op","zip":"13158","geo_score":0.732,"aca phone":"607-842-6799","id":"a6gib6ri8onw","address":"4211 State Rte. 13","geo_precision":"range"},"type":"Feature","geometry":{"type":"Point","coordinates":[-76.296337,43.225672]}},{"properties":{"aa purveyor":"Gillie Brook Farm","city":"Memphis, NY","ac website":"http://www.gilliefarms.com/","ab food provided to the westcott nation":"garlic for Syracuse Real Food Co-op","zip":"13112","geo_score":0.816,"aca phone":"315-672-3706","id":"a6gib71srj4o","address":"6147 Gillie Brook Rd.","geo_precision":"range"},"type":"Feature","geometry":{"type":"Point","coordinates":[-76.355505,43.068068]}},{"properties":{"aa purveyor":"Harvest Home Organics","city":"Moravia, NY","ac website":"http://bit.ly/a2Bl2a","ab food provided to the westcott nation":"vegetables for Syracuse Real Food Co-op","zip":"13118","geo_score":0.751,"aca phone":"315-497-0351","id":"a6gib6riunzg","address":"4574 Duryea Rd.","geo_precision":"range"},"type":"Feature","geometry":{"type":"Point","coordinates":[-76.437039,42.786987]}},{"properties":{"aa purveyor":"Hillcrest Dairy Farm","city":"Moravia, NY","ac website":"http://bit.ly/cFZ3BK","ab food provided to the westcott nation":"milk, heavy cream, cheese for Syracuse Real Food Co-op","zip":"13118","geo_score":0.362,"aca phone":"315-497-0659","id":"a6gib71yde08","address":"W. Cayuga St.","geo_precision":"street"},"type":"Feature","geometry":{"type":"Point","coordinates":[-76.421675,42.713403]}},{"properties":{"aa purveyor":"Husted Dairy, Inc.","city":"Liverpool, NY","ac website":"http://bit.ly/9grtB7","ab food provided to the westcott nation":"dairy products for Alto Cinco","zip":"13088","geo_score":0.338,"aca phone":"315-475-0014","id":"a6gib6qtswzi","address":"210 W. Terminal Rd.","geo_precision":"street"},"type":"Feature","geometry":{"type":"Point","coordinates":[-76.166873,43.085505]}},{"properties":{"aa purveyor":"Monarch Farm","city":"Homer, NY","ac website":"http://www.monarchfarmny.com/","ab food provided to the westcott nation":"vegetables for Alto Cinco","zip":"13077","geo_score":0.805,"aca phone":"607-749-2144","id":"a6gib74nvw3i","address":"7272 Vincent Hill Rd.","geo_precision":"range"},"type":"Feature","geometry":{"type":"Point","coordinates":[-76.263593,42.758797]}},{"properties":{"aa purveyor":"Pasta's Daily Bake Shop","city":"Syracuse, NY","ac website":"http://www.pastabilities.com/bakery.htm","ab food provided to the westcott nation":"strech bread for Syracuse Real Food Co-op","zip":"13202","geo_score":0.439,"aca phone":"315-701-0224","id":"a6gib6rw8sxf","address":"308 S. Franklin St.","geo_precision":"street"},"type":"Feature","geometry":{"type":"Point","coordinates":[-76.155476,43.050945]}},{"properties":{"aa purveyor":"Patisserie","city":"Skaneateles, NY","ac website":"http://bit.ly/cFZ3BK","ab food provided to the westcott nation":"bread and brownies for Syracuse Real Food Co-op","zip":"13152","geo_score":0.812,"aca phone":"315-685-2433","id":"a6gib71cmndr","address":"4 Hannum St.","geo_precision":"range"},"type":"Feature","geometry":{"type":"Point","coordinates":[-76.431951,42.945193]}},{"properties":{"aa purveyor":"Queensboro Farm Products, Inc.","city":"Canasota, NY","ac website":"http://bit.ly/dmftMS","ab food provided to the westcott nation":"sour cream for Alto Cinco","zip":"13032","geo_score":0.815,"aca phone":"315-697-2235","id":"a6gib71q5n88","address":"4 Rasbach St.","geo_precision":"range"},"type":"Feature","geometry":{"type":"Point","coordinates":[-75.750835,43.072751]}},{"properties":{"aa purveyor":"Recess Coffee House and Roastery","city":"Syracuse, NY","ac website":"http://www.myspace.com/recesscoffee","ab food provided to the westcott nation":"fair trade roasted coffee for Alto Cinco and Syracuse Real Food Co-op","zip":"13210","geo_score":0.883,"aca phone":"315-410-0090","id":"a6gib74qcrko","address":"110 Harvard Pl.","geo_precision":"range"},"type":"Feature","geometry":{"type":"Point","coordinates":[-76.119228,43.041509]}},{"properties":{"aa purveyor":"Royal Coffee New York, Inc.","city":"Staten Island, NY","ac website":"http://royalny.com/","ab food provided to the westcott nation":"fair trade coffee beans for Recess Coffee House and Roastery","zip":"10303","geo_score":0.819,"aca phone":"718-815-5600","id":"a6gib6wncuyq","address":"239 Western Ave.","geo_precision":"range"},"type":"Feature","geometry":{"type":"Point","coordinates":[-74.181421,40.634808]}},{"properties":{"aa purveyor":"Syracuse Real Food Co-op","city":"Syracuse, NY","ac website":"http://syracuserealfood.coop/","ab food provided to the westcott nation":"baking goods for Alto Cinco, Recess Coffee House and Roastery","zip":"13210","geo_score":0.883,"aca phone":"315-472-1385","id":"a6gib6rcdugd","address":"618 Kensington Rd.","geo_precision":"range"},"type":"Feature","geometry":{"type":"Point","coordinates":[-76.117118,43.031948]}},{"properties":{"aa purveyor":"Two Hearts Farm","city":"Morrisville, NY","ac website":"http://bit.ly/9rD6rr","ab food provided to the westcott nation":"eggs, meat for Syracuse Real Food Co-op","zip":"13408","geo_score":0.404,"aca phone":"315-684-7816","id":"a6gib76nnkm5","address":"4273 State Rte. 20","geo_precision":"street"},"type":"Feature","geometry":{"type":"Point","coordinates":[-75.672078,42.900195]}},{"properties":{"aa purveyor":"Wake Robin Farm","city":"Jordan, NY","ac website":"http://www.wakerobinfarm.org/","ab food provided to the westcott nation":"yogurt for Syracuse Real Food Co-op","zip":"13080","geo_score":0.878,"aca phone":"315-689-0034","id":"a6gib74ehotm","address":"125 Brutus Rd.","geo_precision":"range"},"type":"Feature","geometry":{"type":"Point","coordinates":[-76.489832,43.056838]}}],"is_temporal":false,"author":{"url":"","metadata":"","contact_name":"","contact_address":"","source":"","contact_phone":""},"source":"","pagination":{"sort":null,"start":0,"total":17,"limit":1000000},"state":"complete","tags":"","published":"2014-08-10T22:59:12-04:00","id":69673}