{"type":"FeatureCollection","data_type":"Dataset","url_type":null,"permissions":[{"permissions":{"download":true,"view":true},"group_id":"everyone"}],"classification":null,"title":"Salida Building Permits - Unclassified","count":238,"stream_id":70126,"contributor":{"url":"http://geocommons.com/users/17572","name":"weetabix"},"data_attributes":null,"calculation_params":null,"icon_link":null,"link":"http://geocommons.com/overlays/70126.json","extent":[-106.133,38.4867,-105.91,38.8392],"geometry_types":["point"],"unique_name":null,"name":"Salida Building Permits - Unclassified","feature_count":238,"description":"","next_feature":null,"is_raster":false,"short_classification":"Y","stats":{"geo_score":{"max":0.922,"mean":0.799226890756301,"variance":0.0228417964046378,"stdev":0.151135027060698,"min":0.457,"median":0.849}},"features":[{"properties":{"city":"Salida","applicant":"Rocky Mtn Cabinet","date":{"end_time":"2003/01/02 00:00:00 -0500","original":"1/1/03","granularity":"day","time":"2003/01/01 00:00:00 -0500"},"geo_score":0.824,"zip code":"81201","description":"Rocky Mtn Cabinet","id":"a6btn17uanzv","address":"500 West 7th Street","geo_precision":"range","state":"CO"},"type":"Feature","geometry":{"type":"Point","coordinates":[-106.000619,38.53372]}},{"properties":{"city":"Salida","applicant":"Marilyn Rau","date":{"end_time":"2003/01/02 00:00:00 -0500","original":"1/1/03","granularity":"day","time":"2003/01/01 00:00:00 -0500"},"geo_score":0.922,"zip code":"81201","description":"Marilyn Rau","id":"a6btn1af2jiy","address":"604 H Street","geo_precision":"range","state":"CO"},"type":"Feature","geometry":{"type":"Point","coordinates":[-105.998103,38.533312]}},{"properties":{"city":"Salida","applicant":"Kenneth Emslie","date":{"end_time":"2003/01/02 00:00:00 -0500","original":"1/1/03","granularity":"day","time":"2003/01/01 00:00:00 -0500"},"geo_score":0.922,"zip code":"81201","description":"Kenneth Emslie","id":"a6btn17n01nj","address":"542 G Street","geo_precision":"range","state":"CO"},"type":"Feature","geometry":{"type":"Point","coordinates":[-105.996418,38.533221]}},{"properties":{"city":"Salida","applicant":"Russell Granzella","date":{"end_time":"2003/01/02 00:00:00 -0500","original":"1/1/03","granularity":"day","time":"2003/01/01 00:00:00 -0500"},"geo_score":0.922,"zip code":"81201","description":"Russell Granzella","id":"a6btn1a2kte9","address":"301 Oak Street","geo_precision":"range","state":"CO"},"type":"Feature","geometry":{"type":"Point","coordinates":[-105.984694,38.53004]}},{"properties":{"city":"Salida","applicant":"Brenda Warren","date":{"end_time":"2003/07/22 00:00:00 -0400","original":"7/21/03","granularity":"day","time":"2003/07/21 00:00:00 -0400"},"geo_score":0.922,"zip code":"81201","description":"Brenda Warren","id":"a6btn119c5xf","address":"348 G Street","geo_precision":"range","state":"CO"},"type":"Feature","geometry":{"type":"Point","coordinates":[-105.994839,38.534837]}},{"properties":{"city":"Salida","applicant":"Douglas Peltier","date":{"end_time":"2003/07/23 00:00:00 -0400","original":"7/22/03","granularity":"day","time":"2003/07/22 00:00:00 -0400"},"geo_score":0.842,"zip code":"81201","description":"Douglas Peltier","id":"a6btn168ealx","address":"540 West Sackett","geo_precision":"range","state":"CO"},"type":"Feature","geometry":{"type":"Point","coordinates":[-105.994078,38.539768]}},{"properties":{"city":"Salida","applicant":"Adam Rhude","date":{"end_time":"2003/07/24 00:00:00 -0400","original":"7/23/03","granularity":"day","time":"2003/07/23 00:00:00 -0400"},"geo_score":0.824,"zip code":"81201","description":"Adam Rhude","id":"a6btn18ge8n8","address":"734 West Second Street","geo_precision":"range","state":"CO"},"type":"Feature","geometry":{"type":"Point","coordinates":[-105.997756,38.539869]}},{"properties":{"city":"Salida","applicant":"Scott building","date":{"end_time":"2003/08/06 00:00:00 -0400","original":"8/5/03","granularity":"day","time":"2003/08/05 00:00:00 -0400"},"geo_score":0.88,"zip code":"81201","description":"Scott building","id":"a6btn0xhn2l2","address":"29 Silver Spruce","geo_precision":"range","state":"CO"},"type":"Feature","geometry":{"type":"Point","coordinates":[-106.014496,38.535595]}},{"properties":{"city":"Salida","applicant":"Sunset Vistas","date":{"end_time":"2003/08/08 00:00:00 -0400","original":"8/7/03","granularity":"day","time":"2003/08/07 00:00:00 -0400"},"geo_score":0.922,"zip code":"81201","description":"Sunset Vistas","id":"a6btn16oebvi","address":"1436 H Street","geo_precision":"range","state":"CO"},"type":"Feature","geometry":{"type":"Point","coordinates":[-106.004872,38.526402]}},{"properties":{"city":"Salida","applicant":"Fredrick Kaan","date":{"end_time":"2003/08/08 00:00:00 -0400","original":"8/7/03","granularity":"day","time":"2003/08/07 00:00:00 -0400"},"geo_score":0.922,"zip code":"81201","description":"Fredrick Kaan","id":"a6btn19ykui8","address":"719 H Street","geo_precision":"range","state":"CO"},"type":"Feature","geometry":{"type":"Point","coordinates":[-105.998998,38.532401]}},{"properties":{"city":"Salida","applicant":"Richard Drobney","date":{"end_time":"2003/08/08 00:00:00 -0400","original":"8/7/03","granularity":"day","time":"2003/08/07 00:00:00 -0400"},"geo_score":0.824,"zip code":"81201","description":"Richard Drobney","id":"a6btn16ntjwe","address":"904 West Third Street","geo_precision":"range","state":"CO"},"type":"Feature","geometry":{"type":"Point","coordinates":[-106.000342,38.540539]}},{"properties":{"city":"Salida","applicant":"Verizon","date":{"end_time":"2003/08/09 00:00:00 -0400","original":"8/8/03","granularity":"day","time":"2003/08/08 00:00:00 -0400"},"geo_score":0.511,"zip code":"81201","description":"Verizon","id":"a6btn0yck14m","address":"407 E. Hwy 50","geo_precision":"street","state":"CO"},"type":"Feature","geometry":{"type":"Point","coordinates":[-106.002873,38.524127]}},{"properties":{"city":"Salida","applicant":"Hylton Lumber Co.","date":{"end_time":"2003/08/14 00:00:00 -0400","original":"8/13/03","granularity":"day","time":"2003/08/13 00:00:00 -0400"},"geo_score":0.922,"zip code":"81201","description":"Hylton Lumber Co.","id":"a6btn129vhay","address":"348 H Street","geo_precision":"range","state":"CO"},"type":"Feature","geometry":{"type":"Point","coordinates":[-105.995877,38.535488]}},{"properties":{"city":"Salida","applicant":"Jim &amp; Ellen McCormick","date":{"end_time":"2003/08/14 00:00:00 -0400","original":"8/13/03","granularity":"day","time":"2003/08/13 00:00:00 -0400"},"geo_score":0.842,"zip code":"81201","description":"Jim &amp; Ellen McCormick","id":"a6btn1322pq4","address":"704 Crestone","geo_precision":"range","state":"CO"},"type":"Feature","geometry":{"type":"Point","coordinates":[-106.008549,38.541323]}},{"properties":{"city":"Salida","applicant":"Forrest E. Rodgers","date":{"end_time":"2003/08/14 00:00:00 -0400","original":"8/13/03","granularity":"day","time":"2003/08/13 00:00:00 -0400"},"geo_score":0.922,"zip code":"81201","description":"Forrest E. Rodgers","id":"a6btn14630l0","address":"600 Maxwell Street","geo_precision":"range","state":"CO"},"type":"Feature","geometry":{"type":"Point","coordinates":[-105.98661,38.529073]}},{"properties":{"city":"Salida","applicant":"Dr. Tim Mcleod","date":{"end_time":"2003/08/22 00:00:00 -0400","original":"8/21/03","granularity":"day","time":"2003/08/21 00:00:00 -0400"},"geo_score":0.922,"zip code":"81201","description":"Dr. Tim Mcleod","id":"a6btn0xdcphl","address":"305 G Street","geo_precision":"range","state":"CO"},"type":"Feature","geometry":{"type":"Point","coordinates":[-105.994557,38.535218]}},{"properties":{"city":"Salida","applicant":"Dr. Tim Mcleod","date":{"end_time":"2003/08/22 00:00:00 -0400","original":"8/21/03","granularity":"day","time":"2003/08/21 00:00:00 -0400"},"geo_score":0.493,"zip code":"81201","description":"Dr. Tim Mcleod","id":"a6btn14b839r","address":"325 W. Rainbow","geo_precision":"street","state":"CO"},"type":"Feature","geometry":{"type":"Point","coordinates":[-106.004439,38.52413]}},{"properties":{"city":"Salida","applicant":"Henry Saucke","date":{"end_time":"2003/08/26 00:00:00 -0400","original":"8/25/03","granularity":"day","time":"2003/08/25 00:00:00 -0400"},"geo_score":0.922,"zip code":"81201","description":"Henry Saucke","id":"a6btn18kiadi","address":"117 Oak Street","geo_precision":"range","state":"CO"},"type":"Feature","geometry":{"type":"Point","coordinates":[-105.984723,38.532012]}},{"properties":{"city":"Salida","applicant":"Leslie Pulos","date":{"end_time":"2003/08/26 00:00:00 -0400","original":"8/25/03","granularity":"day","time":"2003/08/25 00:00:00 -0400"},"geo_score":0.922,"zip code":"81201","description":"Leslie Pulos","id":"a6btn18coz0h","address":"536 I Street","geo_precision":"range","state":"CO"},"type":"Feature","geometry":{"type":"Point","coordinates":[-105.998581,38.534442]}},{"properties":{"city":"Salida","applicant":"Western Hospitality Kim","date":{"end_time":"2003/09/03 00:00:00 -0400","original":"9/2/03","granularity":"day","time":"2003/09/02 00:00:00 -0400"},"geo_score":0.518,"zip code":"81201","description":"Western Hospitality Kim","id":"a6btn0ywgqs7","address":"7400 W. Hwy 50","geo_precision":"street","state":"CO"},"type":"Feature","geometry":{"type":"Point","coordinates":[-106.00198,38.524122]}},{"properties":{"city":"Salida","applicant":"Wes Hill","date":{"end_time":"2003/09/03 00:00:00 -0400","original":"9/2/03","granularity":"day","time":"2003/09/02 00:00:00 -0400"},"geo_score":0.922,"zip code":"81201","description":"Wes Hill","id":"a6btn1am7ybm","address":"123 F Street","geo_precision":"range","state":"CO"},"type":"Feature","geometry":{"type":"Point","coordinates":[-105.991927,38.536092]}},{"properties":{"city":"Salida","applicant":"Barbara Holms","date":{"end_time":"2003/09/03 00:00:00 -0400","original":"9/2/03","granularity":"day","time":"2003/09/02 00:00:00 -0400"},"geo_score":0.922,"zip code":"81201","description":"Barbara Holms","id":"a6btn18y3prw","address":"124 Blake Street","geo_precision":"range","state":"CO"},"type":"Feature","geometry":{"type":"Point","coordinates":[-105.991126,38.530828]}},{"properties":{"city":"Salida","applicant":"Ronald Duhon","date":{"end_time":"2003/09/03 00:00:00 -0400","original":"9/2/03","granularity":"day","time":"2003/09/02 00:00:00 -0400"},"geo_score":0.6,"zip code":"81201","description":"Ronald Duhon","id":"a6btn19vmezr","address":"910 J Street Sp. B7","geo_precision":"street","state":"CO"},"type":"Feature","geometry":{"type":"Point","coordinates":[-105.988378,38.532862]}},{"properties":{"city":"Salida","applicant":"Jim Mathews","date":{"end_time":"2003/09/03 00:00:00 -0400","original":"9/2/03","granularity":"day","time":"2003/09/02 00:00:00 -0400"},"geo_score":0.518,"zip code":"81201","description":"Jim Mathews","id":"a6btn18zuiv9","address":"7330 W. Hwy 50","geo_precision":"street","state":"CO"},"type":"Feature","geometry":{"type":"Point","coordinates":[-106.00198,38.524122]}},{"properties":{"city":"Salida","applicant":"Kevin Thomas","date":{"end_time":"2003/09/05 00:00:00 -0400","original":"9/4/03","granularity":"day","time":"2003/09/04 00:00:00 -0400"},"geo_score":0.922,"zip code":"81201","description":"Kevin Thomas","id":"a6btn11dxxza","address":"843 H Street","geo_precision":"range","state":"CO"},"type":"Feature","geometry":{"type":"Point","coordinates":[-105.999975,38.53137]}},{"properties":{"city":"Salida","applicant":"Jodis Take &amp; Bake","date":{"end_time":"2003/09/06 00:00:00 -0400","original":"9/5/03","granularity":"day","time":"2003/09/05 00:00:00 -0400"},"geo_score":0.849,"zip code":"81201","description":"Jodis Take &amp; Bake","id":"a6btn1a2vaws","address":"944 East Hwy 50","geo_precision":"range","state":"CO"},"type":"Feature","geometry":{"type":"Point","coordinates":[-105.991466,38.524065]}},{"properties":{"city":"Salida","applicant":"Hayden Mellsop","date":{"end_time":"2003/09/09 00:00:00 -0400","original":"9/8/03","granularity":"day","time":"2003/09/08 00:00:00 -0400"},"geo_score":0.849,"zip code":"81201","description":"Hayden Mellsop","id":"a6btn0v12du7","address":"233 Teller","geo_precision":"range","state":"CO"},"type":"Feature","geometry":{"type":"Point","coordinates":[-105.992402,38.52951]}},{"properties":{"city":"Salida","applicant":"David Bokel","date":{"end_time":"2003/09/10 00:00:00 -0400","original":"9/9/03","granularity":"day","time":"2003/09/09 00:00:00 -0400"},"geo_score":0.922,"zip code":"81201","description":"David Bokel","id":"a6btn19zinsi","address":"528 I Street","geo_precision":"range","state":"CO"},"type":"Feature","geometry":{"type":"Point","coordinates":[-105.998509,38.534533]}},{"properties":{"city":"Salida","applicant":"Leslie Pulos","date":{"end_time":"2003/09/13 00:00:00 -0400","original":"9/12/03","granularity":"day","time":"2003/09/12 00:00:00 -0400"},"geo_score":0.605,"zip code":"81201","description":"Leslie Pulos","id":"a6btn0wpn38d","address":"Shangre-La #53","geo_precision":"zip","state":"CO"},"type":"Feature","geometry":{"type":"Point","coordinates":[-105.91001,38.486664]}},{"properties":{"city":"Salida","applicant":"Dennis Daley","date":{"end_time":"2003/09/16 00:00:00 -0400","original":"9/15/03","granularity":"day","time":"2003/09/15 00:00:00 -0400"},"geo_score":0.886,"zip code":"81201","description":"Dennis Daley","id":"a6btn18pjgsl","address":"501Blake Street","geo_precision":"zip","state":"CO"},"type":"Feature","geometry":{"type":"Point","coordinates":[-105.91001,38.486664]}},{"properties":{"city":"Salida","applicant":"Eric &amp; Claudia Knight","date":{"end_time":"2003/09/23 00:00:00 -0400","original":"9/22/03","granularity":"day","time":"2003/09/22 00:00:00 -0400"},"geo_score":0.922,"zip code":"81201","description":"Eric &amp; Claudia Knight","id":"a6btn0y38rwq","address":"335 Oak Street","geo_precision":"range","state":"CO"},"type":"Feature","geometry":{"type":"Point","coordinates":[-105.984695,38.529729]}},{"properties":{"city":"Salida","applicant":"Newton Arlene Breth","date":{"end_time":"2003/09/24 00:00:00 -0400","original":"9/23/03","granularity":"day","time":"2003/09/23 00:00:00 -0400"},"geo_score":0.922,"zip code":"81201","description":"Newton Arlene Breth","id":"a6btn119qab2","address":"47 Rex Circle","geo_precision":"range","state":"CO"},"type":"Feature","geometry":{"type":"Point","coordinates":[-106.017825,38.52503]}},{"properties":{"city":"Salida","applicant":"Leslie Pulos","date":{"end_time":"2003/10/01 00:00:00 -0400","original":"9/30/03","granularity":"day","time":"2003/09/30 00:00:00 -0400"},"geo_score":0.922,"zip code":"81201","description":"Leslie Pulos","id":"a6btn0wceaaa","address":"536 I Street","geo_precision":"range","state":"CO"},"type":"Feature","geometry":{"type":"Point","coordinates":[-105.998581,38.534442]}},{"properties":{"city":"Salida","applicant":"Ken Mahorney","date":{"end_time":"2003/10/09 00:00:00 -0400","original":"10/8/03","granularity":"day","time":"2003/10/08 00:00:00 -0400"},"geo_score":0.922,"zip code":"81201","description":"Ken Mahorney","id":"a6btn0ygt9vc","address":"626 Walnut Street","geo_precision":"range","state":"CO"},"type":"Feature","geometry":{"type":"Point","coordinates":[-105.985677,38.526791]}},{"properties":{"city":"Salida","applicant":"Douglas  Wagley","date":{"end_time":"2003/10/22 00:00:00 -0400","original":"10/21/03","granularity":"day","time":"2003/10/21 00:00:00 -0400"},"geo_score":0.922,"zip code":"81201","description":"Douglas  Wagley","id":"a6btn14ul00o","address":"216 F Street","geo_precision":"range","state":"CO"},"type":"Feature","geometry":{"type":"Point","coordinates":[-105.992724,38.535302]}},{"properties":{"city":"Salida","applicant":"Leslie Walker","date":{"end_time":"2003/10/22 00:00:00 -0400","original":"10/21/03","granularity":"day","time":"2003/10/21 00:00:00 -0400"},"geo_score":0.922,"zip code":"81201","description":"Leslie Walker","id":"a6btn0vxixpl","address":"118 North F street","geo_precision":"range","state":"CO"},"type":"Feature","geometry":{"type":"Point","coordinates":[-105.991672,38.536428]}},{"properties":{"city":"Salida","applicant":"Donald Scott Hinton","date":{"end_time":"2003/10/24 00:00:00 -0400","original":"10/23/03","granularity":"day","time":"2003/10/23 00:00:00 -0400"},"geo_score":0.605,"zip code":"81201","description":"Donald Scott Hinton","id":"a6btn10qm9tu","address":"1 Trailside Circle","geo_precision":"zip","state":"CO"},"type":"Feature","geometry":{"type":"Point","coordinates":[-105.91001,38.486664]}},{"properties":{"city":"Salida","applicant":"Donald Scott Hinton","date":{"end_time":"2003/10/24 00:00:00 -0400","original":"10/23/03","granularity":"day","time":"2003/10/23 00:00:00 -0400"},"geo_score":0.605,"zip code":"81201","description":"Donald Scott Hinton","id":"a6btn10n01ym","address":"56 Trailside Circle","geo_precision":"zip","state":"CO"},"type":"Feature","geometry":{"type":"Point","coordinates":[-105.91001,38.486664]}},{"properties":{"city":"Salida","applicant":"Donald Scott Hinton","date":{"end_time":"2003/10/24 00:00:00 -0400","original":"10/23/03","granularity":"day","time":"2003/10/23 00:00:00 -0400"},"geo_score":0.605,"zip code":"81201","description":"Donald Scott Hinton","id":"a6btn160bgm1","address":"53 Trailside Circle","geo_precision":"zip","state":"CO"},"type":"Feature","geometry":{"type":"Point","coordinates":[-105.91001,38.486664]}},{"properties":{"city":"Salida","applicant":"Ron Mazzeo","date":{"end_time":"2003/10/30 00:00:00 -0500","original":"10/29/03","granularity":"day","time":"2003/10/29 00:00:00 -0500"},"geo_score":0.727,"zip code":"81201","description":"Ron Mazzeo","id":"a6btn16vagby","address":"427 West First","geo_precision":"range","state":"CO"},"type":"Feature","geometry":{"type":"Point","coordinates":[-105.994134,38.53822]}},{"properties":{"city":"Salida","applicant":"Ark Valley Publishing","date":{"end_time":"2003/11/21 00:00:00 -0500","original":"11/20/03","granularity":"day","time":"2003/11/20 00:00:00 -0500"},"geo_score":0.824,"zip code":"81201","description":"Ark Valley Publishing","id":"a6btn0xgpprg","address":"125 East Second Street","geo_precision":"range","state":"CO"},"type":"Feature","geometry":{"type":"Point","coordinates":[-105.992416,38.535281]}},{"properties":{"city":"Salida","applicant":"X-cel Energy","date":{"end_time":"2003/11/21 00:00:00 -0500","original":"11/20/03","granularity":"day","time":"2003/11/20 00:00:00 -0500"},"geo_score":0.922,"zip code":"81201","description":"X-cel Energy","id":"a6btn1480cqz","address":"800 J Street","geo_precision":"range","state":"CO"},"type":"Feature","geometry":{"type":"Point","coordinates":[-106.001809,38.533013]}},{"properties":{"city":"Salida","applicant":"Norma Smith","date":{"end_time":"2003/11/22 00:00:00 -0500","original":"11/21/03","granularity":"day","time":"2003/11/21 00:00:00 -0500"},"geo_score":0.922,"zip code":"81201","description":"Norma Smith","id":"a6btn1aurg03","address":"731 F Street","geo_precision":"range","state":"CO"},"type":"Feature","geometry":{"type":"Point","coordinates":[-105.996954,38.531011]}},{"properties":{"city":"Salida","applicant":"Alan Sulzenfuss","date":{"end_time":"2003/12/18 00:00:00 -0500","original":"12/17/03","granularity":"day","time":"2003/12/17 00:00:00 -0500"},"geo_score":0.6,"zip code":"81201","description":"Alan Sulzenfuss","id":"a6btn1azi7ao","address":"316 E. Street","geo_precision":"street","state":"CO"},"type":"Feature","geometry":{"type":"Point","coordinates":[-105.991562,38.53479]}},{"properties":{"city":"Salida","applicant":"Michelle and Harold Riggio","date":{"end_time":"2003/12/20 00:00:00 -0500","original":"12/19/03","granularity":"day","time":"2003/12/19 00:00:00 -0500"},"geo_score":0.729,"zip code":"81201","description":"Michelle and Harold Riggio","id":"a6btn18h2t3g","address":"222 &amp; 222 1/2 F Street","geo_precision":"street","state":"CO"},"type":"Feature","geometry":{"type":"Point","coordinates":[-105.991782,38.536286]}},{"properties":{"city":"Salida","applicant":"Patti Chivvis","date":{"end_time":"2003/12/23 00:00:00 -0500","original":"12/22/03","granularity":"day","time":"2003/12/22 00:00:00 -0500"},"geo_score":0.922,"zip code":"81201","description":"Patti Chivvis","id":"a6btn197ff0d","address":"940 E Street","geo_precision":"range","state":"CO"},"type":"Feature","geometry":{"type":"Point","coordinates":[-105.997588,38.528607]}},{"properties":{"city":"Salida","applicant":"Rod Lichtenegger","date":{"end_time":"2003/12/23 00:00:00 -0500","original":"12/22/03","granularity":"day","time":"2003/12/22 00:00:00 -0500"},"geo_score":0.922,"zip code":"81201","description":"Rod Lichtenegger","id":"a6btn1452h6v","address":"317 Teller Street","geo_precision":"range","state":"CO"},"type":"Feature","geometry":{"type":"Point","coordinates":[-105.992394,38.528725]}},{"properties":{"city":"Salida","applicant":"Chris &amp; Lorri Lau","date":{"end_time":"2003/12/23 00:00:00 -0500","original":"12/22/03","granularity":"day","time":"2003/12/22 00:00:00 -0500"},"geo_score":0.922,"zip code":"81201","description":"Chris &amp; Lorri Lau","id":"a6btn0znc95g","address":"744 W sackett Ave","geo_precision":"range","state":"CO"},"type":"Feature","geometry":{"type":"Point","coordinates":[-105.99564,38.541151]}},{"properties":{"city":"Salida","applicant":"Frank Guccione","date":{"end_time":"2003/12/24 00:00:00 -0500","original":"12/23/03","granularity":"day","time":"2003/12/23 00:00:00 -0500"},"geo_score":0.88,"zip code":"81201","description":"Frank Guccione","id":"a6btn0wx1qb6","address":"24 Silver Spruce","geo_precision":"range","state":"CO"},"type":"Feature","geometry":{"type":"Point","coordinates":[-106.014458,38.535357]}},{"properties":{"city":"Salida","applicant":"Donald Scott Hinton","date":{"end_time":"2004/01/22 00:00:00 -0500","original":"1/21/04","granularity":"day","time":"2004/01/21 00:00:00 -0500"},"geo_score":0.605,"zip code":"81201","description":"Donald Scott Hinton","id":"a6btn0zt63ct","address":"33 Trailside Court","geo_precision":"zip","state":"CO"},"type":"Feature","geometry":{"type":"Point","coordinates":[-105.91001,38.486664]}},{"properties":{"city":"Salida","applicant":"Presbyterian Church","date":{"end_time":"2004/01/28 00:00:00 -0500","original":"1/27/04","granularity":"day","time":"2004/01/27 00:00:00 -0500"},"geo_score":0.922,"zip code":"81201","description":"Presbyterian Church","id":"a6btn16adcdk","address":"7 Poncha Blvd","geo_precision":"range","state":"CO"},"type":"Feature","geometry":{"type":"Point","coordinates":[-105.997085,38.536767]}},{"properties":{"city":"Salida","applicant":"Danny Granzella","date":{"end_time":"2004/01/30 00:00:00 -0500","original":"1/29/04","granularity":"day","time":"2004/01/29 00:00:00 -0500"},"geo_score":0.922,"zip code":"81201","description":"Danny Granzella","id":"a6btn185et39","address":"338 Oak Street","geo_precision":"range","state":"CO"},"type":"Feature","geometry":{"type":"Point","coordinates":[-105.984696,38.529487]}},{"properties":{"city":"Salida","applicant":"Lowell Brooks","date":{"end_time":"2004/02/07 00:00:00 -0500","original":"2/6/04","granularity":"day","time":"2004/02/06 00:00:00 -0500"},"geo_score":0.922,"zip code":"81201","description":"Lowell Brooks","id":"a6btn11xb3ia","address":"1412 I Street","geo_precision":"range","state":"CO"},"type":"Feature","geometry":{"type":"Point","coordinates":[-106.005771,38.527241]}},{"properties":{"city":"Salida","applicant":"Cut no Slak Cons","date":{"end_time":"2004/02/13 00:00:00 -0500","original":"2/12/04","granularity":"day","time":"2004/02/12 00:00:00 -0500"},"geo_score":0.824,"zip code":"81201","description":"Cut no Slak Cons","id":"a6btn122gyol","address":"220 West Fourth St.","geo_precision":"range","state":"CO"},"type":"Feature","geometry":{"type":"Point","coordinates":[-105.995573,38.5346]}},{"properties":{"city":"Salida","applicant":"Richard Smith","date":{"end_time":"2004/02/14 00:00:00 -0500","original":"2/13/04","granularity":"day","time":"2004/02/13 00:00:00 -0500"},"geo_score":0.922,"zip code":"81201","description":"Richard Smith","id":"a6btn0zkbn99","address":"302 Hunt Street","geo_precision":"range","state":"CO"},"type":"Feature","geometry":{"type":"Point","coordinates":[-105.988432,38.529066]}},{"properties":{"city":"Salida","applicant":"Tom &amp; Karen Karnuta","date":{"end_time":"2004/02/21 00:00:00 -0500","original":"2/20/04","granularity":"day","time":"2004/02/20 00:00:00 -0500"},"geo_score":0.922,"zip code":"81201","description":"Tom &amp; Karen Karnuta","id":"a6btn180so9p","address":"668 West Sackett Ave.","geo_precision":"range","state":"CO"},"type":"Feature","geometry":{"type":"Point","coordinates":[-105.995079,38.540731]}},{"properties":{"city":"Salida","applicant":"Greg Amidon","date":{"end_time":"2004/02/25 00:00:00 -0500","original":"2/24/04","granularity":"day","time":"2004/02/24 00:00:00 -0500"},"geo_score":0.849,"zip code":"81201","description":"Greg Amidon","id":"a6btn19mhwbd","address":"112 West Hwy 50","geo_precision":"range","state":"CO"},"type":"Feature","geometry":{"type":"Point","coordinates":[-106.003725,38.524126]}},{"properties":{"city":"Salida","applicant":"Larry and Ida Hansen","date":{"end_time":"2004/02/25 00:00:00 -0500","original":"2/24/04","granularity":"day","time":"2004/02/24 00:00:00 -0500"},"geo_score":0.922,"zip code":"81201","description":"Larry and Ida Hansen","id":"a6btn187lxup","address":"1028 I Street","geo_precision":"range","state":"CO"},"type":"Feature","geometry":{"type":"Point","coordinates":[-106.002574,38.530448]}},{"properties":{"city":"Salida","applicant":"Donald Scott Hinton","date":{"end_time":"2004/02/26 00:00:00 -0500","original":"2/25/04","granularity":"day","time":"2004/02/25 00:00:00 -0500"},"geo_score":0.605,"zip code":"81201","description":"Donald Scott Hinton","id":"a6btn193ihiz","address":"15 Trailside Circle","geo_precision":"zip","state":"CO"},"type":"Feature","geometry":{"type":"Point","coordinates":[-105.91001,38.486664]}},{"properties":{"city":"Salida","applicant":"Anthony Niemann","date":{"end_time":"2004/03/02 00:00:00 -0500","original":"3/1/04","granularity":"day","time":"2004/03/01 00:00:00 -0500"},"geo_score":0.922,"zip code":"81201","description":"Anthony Niemann","id":"a6btn0wqez8d","address":"718 E Street","geo_precision":"range","state":"CO"},"type":"Feature","geometry":{"type":"Point","coordinates":[-105.995798,38.530463]}},{"properties":{"city":"Salida","applicant":"Bill Talbert","date":{"end_time":"2004/03/09 00:00:00 -0500","original":"3/8/04","granularity":"day","time":"2004/03/08 00:00:00 -0500"},"geo_score":0.922,"zip code":"81201","description":"Bill Talbert","id":"a6btn15cby68","address":"103 Illinois Ave.","geo_precision":"range","state":"CO"},"type":"Feature","geometry":{"type":"Point","coordinates":[-105.992361,38.525867]}},{"properties":{"city":"Salida","applicant":"Kurt Westman","date":{"end_time":"2004/03/09 00:00:00 -0500","original":"3/8/04","granularity":"day","time":"2004/03/08 00:00:00 -0500"},"geo_score":0.922,"zip code":"81201","description":"Kurt Westman","id":"a6btn13bku2y","address":"904 F Street","geo_precision":"range","state":"CO"},"type":"Feature","geometry":{"type":"Point","coordinates":[-105.998429,38.529559]}},{"properties":{"city":"Salida","applicant":"Alan Sulzenfuss","date":{"end_time":"2004/03/12 00:00:00 -0500","original":"3/11/04","granularity":"day","time":"2004/03/11 00:00:00 -0500"},"geo_score":0.922,"zip code":"81201","description":"Alan Sulzenfuss","id":"a6btn13ah782","address":"316 E Street","geo_precision":"range","state":"CO"},"type":"Feature","geometry":{"type":"Point","coordinates":[-105.992663,38.533597]}},{"properties":{"city":"Salida","applicant":"Dr. David Arnett","date":{"end_time":"2004/03/16 00:00:00 -0500","original":"3/15/04","granularity":"day","time":"2004/03/15 00:00:00 -0500"},"geo_score":0.824,"zip code":"81201","description":"Dr. David Arnett","id":"a6btn0urxiqq","address":"320 East First Street","geo_precision":"range","state":"CO"},"type":"Feature","geometry":{"type":"Point","coordinates":[-105.989478,38.534854]}},{"properties":{"city":"Salida","applicant":"Allan Doran","date":{"end_time":"2004/03/27 00:00:00 -0500","original":"3/26/04","granularity":"day","time":"2004/03/26 00:00:00 -0500"},"geo_score":0.727,"zip code":"81201","description":"Allan Doran","id":"a6btn0wvno0z","address":"348 West First","geo_precision":"range","state":"CO"},"type":"Feature","geometry":{"type":"Point","coordinates":[-105.993648,38.537743]}},{"properties":{"city":"Salida","applicant":"James &amp; Christa Johnson","date":{"end_time":"2004/04/02 00:00:00 -0500","original":"4/1/04","granularity":"day","time":"2004/04/01 00:00:00 -0500"},"geo_score":0.922,"zip code":"81201","description":"James &amp; Christa Johnson","id":"a6btn0ye0bav","address":"926 F Street","geo_precision":"range","state":"CO"},"type":"Feature","geometry":{"type":"Point","coordinates":[-105.998574,38.529369]}},{"properties":{"city":"Salida","applicant":"John Ordaz","date":{"end_time":"2004/04/02 00:00:00 -0500","original":"4/1/04","granularity":"day","time":"2004/04/01 00:00:00 -0500"},"geo_score":0.922,"zip code":"81201","description":"John Ordaz","id":"a6btn19vdirr","address":"715 D Street","geo_precision":"range","state":"CO"},"type":"Feature","geometry":{"type":"Point","coordinates":[-105.994716,38.529863]}},{"properties":{"city":"Salida","applicant":"Marc Weinsenfield","date":{"end_time":"2004/04/09 00:00:00 -0400","original":"4/8/04","granularity":"day","time":"2004/04/08 00:00:00 -0400"},"geo_score":0.564,"zip code":"81201","description":"Marc Weinsenfield","id":"a6btn0y3h26v","address":"117-119 N. F Street","geo_precision":"street","state":"CO"},"type":"Feature","geometry":{"type":"Point","coordinates":[-105.991782,38.536286]}},{"properties":{"city":"Salida","applicant":"Stanley Cymansky","date":{"end_time":"2004/04/13 00:00:00 -0400","original":"4/12/04","granularity":"day","time":"2004/04/12 00:00:00 -0400"},"geo_score":0.824,"zip code":"81201","description":"Stanley Cymansky","id":"a6btn15994qj","address":"445 East Third Street","geo_precision":"range","state":"CO"},"type":"Feature","geometry":{"type":"Point","coordinates":[-105.989879,38.532366]}},{"properties":{"city":"Salida","applicant":"Donald Scott Hinton","date":{"end_time":"2004/04/13 00:00:00 -0400","original":"4/12/04","granularity":"day","time":"2004/04/12 00:00:00 -0400"},"geo_score":0.605,"zip code":"81201","description":"Donald Scott Hinton","id":"a6btn0ymcp1y","address":"56 Trailside circle","geo_precision":"zip","state":"CO"},"type":"Feature","geometry":{"type":"Point","coordinates":[-105.91001,38.486664]}},{"properties":{"city":"Salida","applicant":"Brian Moore","date":{"end_time":"2004/04/16 00:00:00 -0400","original":"4/15/04","granularity":"day","time":"2004/04/15 00:00:00 -0400"},"geo_score":0.457,"zip code":"81201","description":"Brian Moore","id":"a6btn10xduud","address":"32 Rex Circle (garage)","geo_precision":"street","state":"CO"},"type":"Feature","geometry":{"type":"Point","coordinates":[-106.015554,38.52569]}},{"properties":{"city":"Salida","applicant":"Sandy Lyle/Dan Maltby","date":{"end_time":"2004/04/21 00:00:00 -0400","original":"4/20/04","granularity":"day","time":"2004/04/20 00:00:00 -0400"},"geo_score":0.922,"zip code":"81201","description":"Sandy Lyle/Dan Maltby","id":"a6btn0w8n8zt","address":"243 F Street","geo_precision":"range","state":"CO"},"type":"Feature","geometry":{"type":"Point","coordinates":[-105.992896,38.535079]}},{"properties":{"city":"Salida","applicant":"Ron &amp; Theresa Mazzeo","date":{"end_time":"2004/04/21 00:00:00 -0400","original":"4/20/04","granularity":"day","time":"2004/04/20 00:00:00 -0400"},"geo_score":0.529,"zip code":"81201","description":"Ron &amp; Theresa Mazzeo","id":"a6btn0wxcx5m","address":"427 W. First Street","geo_precision":"street","state":"CO"},"type":"Feature","geometry":{"type":"Point","coordinates":[-105.991782,38.536286]}},{"properties":{"city":"Salida","applicant":"Jeff Post","date":{"end_time":"2004/04/22 00:00:00 -0400","original":"4/21/04","granularity":"day","time":"2004/04/21 00:00:00 -0400"},"geo_score":0.812,"zip code":"81201","description":"Jeff Post","id":"a6btn11dltmb","address":"434 Ouray","geo_precision":"range","state":"CO"},"type":"Feature","geometry":{"type":"Point","coordinates":[-106.004129,38.536765]}},{"properties":{"city":"Salida","applicant":"Marc Weinsenfield","date":{"end_time":"2004/05/01 00:00:00 -0400","original":"4/30/04","granularity":"day","time":"2004/04/30 00:00:00 -0400"},"geo_score":0.564,"zip code":"81201","description":"Marc Weinsenfield","id":"a6btn141dh09","address":"117-119 N. F Street","geo_precision":"street","state":"CO"},"type":"Feature","geometry":{"type":"Point","coordinates":[-105.991782,38.536286]}},{"properties":{"city":"Salida","applicant":"Drew &amp; Lordes Smith","date":{"end_time":"2004/05/01 00:00:00 -0400","original":"4/30/04","granularity":"day","time":"2004/04/30 00:00:00 -0400"},"geo_score":0.88,"zip code":"81201","description":"Drew &amp; Lordes Smith","id":"a6btn172lef6","address":"2 Silver Spruce","geo_precision":"range","state":"CO"},"type":"Feature","geometry":{"type":"Point","coordinates":[-106.014456,38.534946]}},{"properties":{"city":"Salida","applicant":"Rod Lichtenegger","date":{"end_time":"2004/05/07 00:00:00 -0400","original":"5/6/04","granularity":"day","time":"2004/05/06 00:00:00 -0400"},"geo_score":0.922,"zip code":"81201","description":"Rod Lichtenegger","id":"a6btn0yyscv9","address":"317 Teller Street","geo_precision":"range","state":"CO"},"type":"Feature","geometry":{"type":"Point","coordinates":[-105.992394,38.528725]}},{"properties":{"city":"Salida","applicant":"Valley Homes Inc.","date":{"end_time":"2004/05/08 00:00:00 -0400","original":"5/7/04","granularity":"day","time":"2004/05/07 00:00:00 -0400"},"geo_score":0.922,"zip code":"81201","description":"Valley Homes Inc.","id":"a6btn15ulolg","address":"905 Maple Drive","geo_precision":"range","state":"CO"},"type":"Feature","geometry":{"type":"Point","coordinates":[-105.9831,38.528038]}},{"properties":{"city":"Salida","applicant":"Walt Harder","date":{"end_time":"2004/05/14 00:00:00 -0400","original":"5/13/04","granularity":"day","time":"2004/05/13 00:00:00 -0400"},"geo_score":0.518,"zip code":"81201","description":"Walt Harder","id":"a6btn14fqr93","address":"7590 W. Hwy 50","geo_precision":"street","state":"CO"},"type":"Feature","geometry":{"type":"Point","coordinates":[-106.00198,38.524122]}},{"properties":{"city":"Salida","applicant":"Wayne Dechatelets","date":{"end_time":"2004/05/15 00:00:00 -0400","original":"5/14/04","granularity":"day","time":"2004/05/14 00:00:00 -0400"},"geo_score":0.922,"zip code":"81201","description":"Wayne Dechatelets","id":"a6btn0xzd2if","address":"1025 F Street","geo_precision":"range","state":"CO"},"type":"Feature","geometry":{"type":"Point","coordinates":[-105.99939,38.528547]}},{"properties":{"city":"Salida","applicant":"Rick Shovald","date":{"end_time":"2004/05/21 00:00:00 -0400","original":"5/20/04","granularity":"day","time":"2004/05/20 00:00:00 -0400"},"geo_score":0.922,"zip code":"81201","description":"Rick Shovald","id":"a6btn15bs3v9","address":"541 Vine Street","geo_precision":"range","state":"CO"},"type":"Feature","geometry":{"type":"Point","coordinates":[-105.986628,38.526866]}},{"properties":{"city":"Salida","applicant":"Ron Stowell","date":{"end_time":"2004/05/21 00:00:00 -0400","original":"5/20/04","granularity":"day","time":"2004/05/20 00:00:00 -0400"},"geo_score":0.849,"zip code":"81201","description":"Ron Stowell","id":"a6btn0ybxhw1","address":"413 W Hwy 50","geo_precision":"range","state":"CO"},"type":"Feature","geometry":{"type":"Point","coordinates":[-106.008641,38.524153]}},{"properties":{"city":"Salida","applicant":"Jim Elmore","date":{"end_time":"2004/05/21 00:00:00 -0400","original":"5/20/04","granularity":"day","time":"2004/05/20 00:00:00 -0400"},"geo_score":0.511,"zip code":"81201","description":"Jim Elmore","id":"a6btn11rx0pn","address":"302 W. Park Ave.","geo_precision":"street","state":"CO"},"type":"Feature","geometry":{"type":"Point","coordinates":[-105.999043,38.536975]}},{"properties":{"city":"Salida","applicant":"Todd &amp; Julie Bright","date":{"end_time":"2004/05/21 00:00:00 -0400","original":"5/20/04","granularity":"day","time":"2004/05/20 00:00:00 -0400"},"geo_score":0.922,"zip code":"81201","description":"Todd &amp; Julie Bright","id":"a6btn0ushoxf","address":"1105 J Street","geo_precision":"range","state":"CO"},"type":"Feature","geometry":{"type":"Point","coordinates":[-106.004303,38.530493]}},{"properties":{"city":"Salida","applicant":"Steven Sunter","date":{"end_time":"2004/05/26 00:00:00 -0400","original":"5/25/04","granularity":"day","time":"2004/05/25 00:00:00 -0400"},"geo_score":0.863,"zip code":"81201","description":"Steven Sunter","id":"a6btn0v7sfjf","address":"520 Chilcott","geo_precision":"range","state":"CO"},"type":"Feature","geometry":{"type":"Point","coordinates":[-105.987464,38.528089]}},{"properties":{"city":"Salida","applicant":"Pete Crossan","date":{"end_time":"2004/06/09 00:00:00 -0400","original":"6/8/04","granularity":"day","time":"2004/06/08 00:00:00 -0400"},"geo_score":0.824,"zip code":"81201","description":"Pete Crossan","id":"a6btn14tlvtf","address":"539 East Second St.","geo_precision":"range","state":"CO"},"type":"Feature","geometry":{"type":"Point","coordinates":[-105.988147,38.532678]}},{"properties":{"city":"Salida","applicant":"The City of Salida","date":{"end_time":"2004/06/09 00:00:00 -0400","original":"6/8/04","granularity":"day","time":"2004/06/08 00:00:00 -0400"},"geo_score":0.895,"zip code":"81201","description":"The City of Salida","id":"a6btn1a9s8bx","address":"210 East Sackett Ave.","geo_precision":"range","state":"CO"},"type":"Feature","geometry":{"type":"Point","coordinates":[-105.991775,38.537634]}},{"properties":{"city":"Salida","applicant":"Pam Wedige","date":{"end_time":"2004/06/11 00:00:00 -0400","original":"6/10/04","granularity":"day","time":"2004/06/10 00:00:00 -0400"},"geo_score":0.922,"zip code":"81201","description":"Pam Wedige","id":"a6btn10e4p49","address":"215 Teller Street","geo_precision":"range","state":"CO"},"type":"Feature","geometry":{"type":"Point","coordinates":[-105.992401,38.529776]}},{"properties":{"city":"Salida","applicant":"Salida Vineyard church","date":{"end_time":"2004/06/24 00:00:00 -0400","original":"6/23/04","granularity":"day","time":"2004/06/23 00:00:00 -0400"},"geo_score":0.849,"zip code":"81201","description":"Salida Vineyard church","id":"a6btn0y2pkcb","address":"1201 East Hwy 50","geo_precision":"range","state":"CO"},"type":"Feature","geometry":{"type":"Point","coordinates":[-105.987723,38.524052]}},{"properties":{"city":"Salida","applicant":"Scott Breunich","date":{"end_time":"2004/07/10 00:00:00 -0400","original":"7/9/04","granularity":"day","time":"2004/07/09 00:00:00 -0400"},"geo_score":0.824,"zip code":"81201","description":"Scott Breunich","id":"a6btn16iujip","address":"337 East 2nd Street","geo_precision":"range","state":"CO"},"type":"Feature","geometry":{"type":"Point","coordinates":[-105.990181,38.5339]}},{"properties":{"city":"Salida","applicant":"Billy and Cynthia Carlisle","date":{"end_time":"2004/07/10 00:00:00 -0400","original":"7/9/04","granularity":"day","time":"2004/07/09 00:00:00 -0400"},"geo_score":0.922,"zip code":"81201","description":"Billy and Cynthia Carlisle","id":"a6btn1682vgq","address":"208 Mesa Court","geo_precision":"range","state":"CO"},"type":"Feature","geometry":{"type":"Point","coordinates":[-106.011604,38.537409]}},{"properties":{"city":"Salida","applicant":"Kevin Thomas","date":{"end_time":"2004/07/27 00:00:00 -0400","original":"7/26/04","granularity":"day","time":"2004/07/26 00:00:00 -0400"},"geo_score":0.824,"zip code":"81201","description":"Kevin Thomas","id":"a6btn19myhm0","address":"318 East Third Street","geo_precision":"range","state":"CO"},"type":"Feature","geometry":{"type":"Point","coordinates":[-105.991165,38.533172]}},{"properties":{"city":"Salida","applicant":"Salida Vineyard church","date":{"end_time":"2004/07/27 00:00:00 -0400","original":"7/26/04","granularity":"day","time":"2004/07/26 00:00:00 -0400"},"geo_score":0.849,"zip code":"81201","description":"Salida Vineyard church","id":"a6btn1792qez","address":"1201 East Hwy 50","geo_precision":"range","state":"CO"},"type":"Feature","geometry":{"type":"Point","coordinates":[-105.987723,38.524052]}},{"properties":{"city":"Salida","applicant":"Waste Management","date":{"end_time":"2004/07/28 00:00:00 -0400","original":"7/27/04","granularity":"day","time":"2004/07/27 00:00:00 -0400"},"geo_score":0.69,"zip code":"81201","description":"Waste Management","id":"a6btn0yvc4s7","address":"230 Jones Street","geo_precision":"range","state":"CO"},"type":"Feature","geometry":{"type":"Point","coordinates":[-105.99075,38.524911]}},{"properties":{"city":"Salida","applicant":"The Country Bounty","date":{"end_time":"2004/07/28 00:00:00 -0400","original":"7/27/04","granularity":"day","time":"2004/07/27 00:00:00 -0400"},"geo_score":0.849,"zip code":"81201","description":"The Country Bounty","id":"a6btn0zq73nd","address":"413 West Hwy 50","geo_precision":"range","state":"CO"},"type":"Feature","geometry":{"type":"Point","coordinates":[-106.008641,38.524153]}},{"properties":{"city":"Salida","applicant":"SunShine Bank","date":{"end_time":"2004/07/30 00:00:00 -0400","original":"7/29/04","granularity":"day","time":"2004/07/29 00:00:00 -0400"},"geo_score":0.838,"zip code":"81201","description":"SunShine Bank","id":"a6btn1939by4","address":"230 W 16th Street","geo_precision":"range","state":"CO"},"type":"Feature","geometry":{"type":"Point","coordinates":[-106.00562,38.524681]}},{"properties":{"city":"Salida","applicant":"Jeanette Arellano","date":{"end_time":"2004/07/30 00:00:00 -0400","original":"7/29/04","granularity":"day","time":"2004/07/29 00:00:00 -0400"},"geo_score":0.922,"zip code":"81201","description":"Jeanette Arellano","id":"a6btn1ahrxtm","address":"633 Vine Street","geo_precision":"range","state":"CO"},"type":"Feature","geometry":{"type":"Point","coordinates":[-105.986624,38.526263]}},{"properties":{"city":"Salida","applicant":"Earl &amp; Judy Kittleman","date":{"end_time":"2004/07/30 00:00:00 -0400","original":"7/29/04","granularity":"day","time":"2004/07/29 00:00:00 -0400"},"geo_score":0.529,"zip code":"81201","description":"Earl &amp; Judy Kittleman","id":"a6btn10yg2td","address":"211 W. First Street","geo_precision":"street","state":"CO"},"type":"Feature","geometry":{"type":"Point","coordinates":[-105.991782,38.536286]}},{"properties":{"city":"Salida","applicant":"Randy &amp; June Giron","date":{"end_time":"2004/08/17 00:00:00 -0400","original":"8/16/04","granularity":"day","time":"2004/08/16 00:00:00 -0400"},"geo_score":0.529,"zip code":"81201","description":"Randy &amp; June Giron","id":"a6btn0xvegvg","address":"535 W. First Street","geo_precision":"street","state":"CO"},"type":"Feature","geometry":{"type":"Point","coordinates":[-105.991782,38.536286]}},{"properties":{"city":"Salida","applicant":"Fred Shubert","date":{"end_time":"2004/08/18 00:00:00 -0400","original":"8/17/04","granularity":"day","time":"2004/08/17 00:00:00 -0400"},"geo_score":0.529,"zip code":"81201","description":"Fred Shubert","id":"a6btn0wksdt5","address":"226 E. Second Street","geo_precision":"street","state":"CO"},"type":"Feature","geometry":{"type":"Point","coordinates":[-105.991562,38.53479]}},{"properties":{"city":"Salida","applicant":"Chaffee County","date":{"end_time":"2004/08/18 00:00:00 -0400","original":"8/17/04","granularity":"day","time":"2004/08/17 00:00:00 -0400"},"geo_score":0.922,"zip code":"81201","description":"Chaffee County","id":"a6btn0xpfiq4","address":"104 Crestone Ave.","geo_precision":"range","state":"CO"},"type":"Feature","geometry":{"type":"Point","coordinates":[-105.998369,38.53745]}},{"properties":{"city":"Salida","applicant":"Tom &amp; Mary McEnany","date":{"end_time":"2004/08/18 00:00:00 -0400","original":"8/17/04","granularity":"day","time":"2004/08/17 00:00:00 -0400"},"geo_score":0.922,"zip code":"81201","description":"Tom &amp; Mary McEnany","id":"a6btn0uo8wzp","address":"214 Caldwell Ave.","geo_precision":"range","state":"CO"},"type":"Feature","geometry":{"type":"Point","coordinates":[-105.987624,38.529944]}},{"properties":{"city":"Salida","applicant":"Columbine Manor","date":{"end_time":"2004/08/19 00:00:00 -0400","original":"8/18/04","granularity":"day","time":"2004/08/18 00:00:00 -0400"},"geo_score":0.643,"zip code":"81201","description":"Columbine Manor","id":"a6btn17ah228","address":"1530 West 15th Street","geo_precision":"street","state":"CO"},"type":"Feature","geometry":{"type":"Point","coordinates":[-106.009827,38.528526]}},{"properties":{"city":"Salida","applicant":"Bev Gray","date":{"end_time":"2004/08/28 00:00:00 -0400","original":"8/27/04","granularity":"day","time":"2004/08/27 00:00:00 -0400"},"geo_score":0.922,"zip code":"81201","description":"Bev Gray","id":"a6btn14vzy9a","address":"150 I Street","geo_precision":"range","state":"CO"},"type":"Feature","geometry":{"type":"Point","coordinates":[-105.99454,38.537591]}},{"properties":{"city":"Salida","applicant":"Fredrickson Brown Ins.","date":{"end_time":"2004/08/28 00:00:00 -0400","original":"8/27/04","granularity":"day","time":"2004/08/27 00:00:00 -0400"},"geo_score":0.838,"zip code":"81201","description":"Fredrickson Brown Ins.","id":"a6btn14twqik","address":"230 W 16th Street","geo_precision":"range","state":"CO"},"type":"Feature","geometry":{"type":"Point","coordinates":[-106.00562,38.524681]}},{"properties":{"city":"Salida","applicant":"Don Wyble","date":{"end_time":"2004/09/04 00:00:00 -0400","original":"9/3/04","granularity":"day","time":"2004/09/03 00:00:00 -0400"},"geo_score":0.922,"zip code":"81201","description":"Don Wyble","id":"a6btn10qzcmg","address":"724 D Street","geo_precision":"range","state":"CO"},"type":"Feature","geometry":{"type":"Point","coordinates":[-105.994783,38.529778]}},{"properties":{"city":"Salida","applicant":"Val Valdez","date":{"end_time":"2004/09/09 00:00:00 -0400","original":"9/8/04","granularity":"day","time":"2004/09/08 00:00:00 -0400"},"geo_score":0.922,"zip code":"81201","description":"Val Valdez","id":"a6btn0vtvw2o","address":"232 I Street","geo_precision":"range","state":"CO"},"type":"Feature","geometry":{"type":"Point","coordinates":[-105.995297,38.537037]}},{"properties":{"city":"Salida","applicant":"Ron Stowell","date":{"end_time":"2004/09/09 00:00:00 -0400","original":"9/8/04","granularity":"day","time":"2004/09/08 00:00:00 -0400"},"geo_score":0.922,"zip code":"81201","description":"Ron Stowell","id":"a6btn13zylo3","address":"711 G Street","geo_precision":"range","state":"CO"},"type":"Feature","geometry":{"type":"Point","coordinates":[-105.997868,38.531812]}},{"properties":{"city":"Salida","applicant":"Bryan &amp; Beckie Bond","date":{"end_time":"2004/09/18 00:00:00 -0400","original":"9/17/04","granularity":"day","time":"2004/09/17 00:00:00 -0400"},"geo_score":0.812,"zip code":"81201","description":"Bryan &amp; Beckie Bond","id":"a6btn19c5oq7","address":"334 Ouray","geo_precision":"range","state":"CO"},"type":"Feature","geometry":{"type":"Point","coordinates":[-106.002429,38.537002]}},{"properties":{"city":"Salida","applicant":"Steph Brady","date":{"end_time":"2004/09/23 00:00:00 -0400","original":"9/22/04","granularity":"day","time":"2004/09/22 00:00:00 -0400"},"geo_score":0.922,"zip code":"81201","description":"Steph Brady","id":"a6btn0zneo9q","address":"123 F Street","geo_precision":"range","state":"CO"},"type":"Feature","geometry":{"type":"Point","coordinates":[-105.991927,38.536092]}},{"properties":{"city":"Salida","applicant":"Pat and George Koenig","date":{"end_time":"2004/10/14 00:00:00 -0400","original":"10/13/04","granularity":"day","time":"2004/10/13 00:00:00 -0400"},"geo_score":0.6,"zip code":"81201","description":"Pat and George Koenig","id":"a6btn0zhtas6","address":"101 thru 109 M &amp; M Lane","geo_precision":"street","state":"CO"},"type":"Feature","geometry":{"type":"Point","coordinates":[-105.998395,38.540388]}},{"properties":{"city":"Salida","applicant":"Tyrone Winkler","date":{"end_time":"2004/10/22 00:00:00 -0400","original":"10/21/04","granularity":"day","time":"2004/10/21 00:00:00 -0400"},"geo_score":0.922,"zip code":"81201","description":"Tyrone Winkler","id":"a6btn16go3vf","address":"41 Rex Circle","geo_precision":"range","state":"CO"},"type":"Feature","geometry":{"type":"Point","coordinates":[-106.017588,38.526132]}},{"properties":{"city":"Salida","applicant":"Wayne Sawyer","date":{"end_time":"2004/11/20 00:00:00 -0500","original":"11/19/04","granularity":"day","time":"2004/11/19 00:00:00 -0500"},"geo_score":0.922,"zip code":"81201","description":"Wayne Sawyer","id":"a6btn13whjxk","address":"424 F Street","geo_precision":"range","state":"CO"},"type":"Feature","geometry":{"type":"Point","coordinates":[-105.994428,38.533563]}},{"properties":{"city":"Salida","applicant":"Stephen Tucker","date":{"end_time":"2004/12/03 00:00:00 -0500","original":"12/2/04","granularity":"day","time":"2004/12/02 00:00:00 -0500"},"geo_score":0.824,"zip code":"81201","description":"Stephen Tucker","id":"a6btn19d0yxu","address":"809 West First Street","geo_precision":"range","state":"CO"},"type":"Feature","geometry":{"type":"Point","coordinates":[-105.99744,38.541159]}},{"properties":{"city":"Salida","applicant":"Tim Brown &amp; Ann Casey","date":{"end_time":"2004/12/25 00:00:00 -0500","original":"12/24/04","granularity":"day","time":"2004/12/24 00:00:00 -0500"},"geo_score":0.922,"zip code":"81201","description":"Tim Brown &amp; Ann Casey","id":"a6btn0z4ytoe","address":"1330 Angelview Circle","geo_precision":"range","state":"CO"},"type":"Feature","geometry":{"type":"Point","coordinates":[-106.006625,38.530273]}},{"properties":{"city":"Salida","applicant":"Joe and Paige Judd","date":{"end_time":"2004/12/29 00:00:00 -0500","original":"12/28/04","granularity":"day","time":"2004/12/28 00:00:00 -0500"},"geo_score":0.674,"zip code":"81201","description":"Joe and Paige Judd","id":"a6btn19i8d36","address":"228 O Street units A and B","geo_precision":"range","state":"CO"},"type":"Feature","geometry":{"type":"Point","coordinates":[-105.988586,38.532586]}},{"properties":{"city":"Salida","applicant":"Joe and Paige Judd","date":{"end_time":"2004/12/29 00:00:00 -0500","original":"12/28/04","granularity":"day","time":"2004/12/28 00:00:00 -0500"},"geo_score":0.6,"zip code":"81201","description":"Joe and Paige Judd","id":"a6btn16yyhv6","address":"1004 West Third St. units A &amp; B","geo_precision":"street","state":"CO"},"type":"Feature","geometry":{"type":"Point","coordinates":[-105.988378,38.532862]}},{"properties":{"city":"Salida","applicant":"Super Bowl Lanes (Dave Culp)","date":{"end_time":"2005/01/02 00:00:00 -0500","original":"1/1/05","granularity":"day","time":"2005/01/01 00:00:00 -0500"},"geo_score":0.727,"zip code":"81201","description":"Super Bowl Lanes (Dave Culp)","id":"a6btn12qn59n","address":"7615 W Hwy 50","geo_precision":"range","state":"CO"},"type":"Feature","geometry":{"type":"Point","coordinates":[-106.020826,38.523191]}},{"properties":{"city":"Salida","applicant":"Chris J.Hertrich","date":{"end_time":"2005/01/04 00:00:00 -0500","original":"1/3/05","granularity":"day","time":"2005/01/03 00:00:00 -0500"},"geo_score":0.656,"zip code":"81201","description":"Chris J.Hertrich","id":"a6btn16ul9uo","address":"605 1/2 Palmer","geo_precision":"street","state":"CO"},"type":"Feature","geometry":{"type":"Point","coordinates":[-105.98976,38.531064]}},{"properties":{"city":"Salida","applicant":"Kathy Younghans","date":{"end_time":"2005/01/06 00:00:00 -0500","original":"1/5/05","granularity":"day","time":"2005/01/05 00:00:00 -0500"},"geo_score":0.529,"zip code":"81201","description":"Kathy Younghans","id":"a6btn0wj66yn","address":"218 E. 3rd. Street","geo_precision":"street","state":"CO"},"type":"Feature","geometry":{"type":"Point","coordinates":[-105.991835,38.533601]}},{"properties":{"city":"Salida","applicant":"Mary Pine","date":{"end_time":"2005/01/08 00:00:00 -0500","original":"1/7/05","granularity":"day","time":"2005/01/07 00:00:00 -0500"},"geo_score":0.922,"zip code":"81201","description":"Mary Pine","id":"a6btn11j2odz","address":"1202 D Street","geo_precision":"range","state":"CO"},"type":"Feature","geometry":{"type":"Point","coordinates":[-105.998739,38.525779]}},{"properties":{"city":"Salida","applicant":"Shelly Copeland","date":{"end_time":"2005/01/12 00:00:00 -0500","original":"1/11/05","granularity":"day","time":"2005/01/11 00:00:00 -0500"},"geo_score":0.922,"zip code":"81201","description":"Shelly Copeland","id":"a6btn13nbsye","address":"734 E Street","geo_precision":"range","state":"CO"},"type":"Feature","geometry":{"type":"Point","coordinates":[-105.995904,38.530327]}},{"properties":{"city":"Salida","applicant":"Angela Graff","date":{"end_time":"2005/01/19 00:00:00 -0500","original":"1/18/05","granularity":"day","time":"2005/01/18 00:00:00 -0500"},"geo_score":0.922,"zip code":"81201","description":"Angela Graff","id":"a6btn19utjfu","address":"104 Wood Ave.","geo_precision":"range","state":"CO"},"type":"Feature","geometry":{"type":"Point","coordinates":[-105.987581,38.532024]}},{"properties":{"city":"Salida","applicant":"Jeff Webb","date":{"end_time":"2005/01/25 00:00:00 -0500","original":"1/24/05","granularity":"day","time":"2005/01/24 00:00:00 -0500"},"geo_score":0.886,"zip code":"81201","description":"Jeff Webb","id":"a6btn0y8zzfi","address":"Oak Street","geo_precision":"street","state":"CO"},"type":"Feature","geometry":{"type":"Point","coordinates":[-105.98469,38.531543]}},{"properties":{"city":"Salida","applicant":"Rod Lichtenegger","date":{"end_time":"2005/01/26 00:00:00 -0500","original":"1/25/05","granularity":"day","time":"2005/01/25 00:00:00 -0500"},"geo_score":0.824,"zip code":"81201","description":"Rod Lichtenegger","id":"a6btn0zshw6o","address":"433 West First Street","geo_precision":"range","state":"CO"},"type":"Feature","geometry":{"type":"Point","coordinates":[-105.994176,38.538269]}},{"properties":{"city":"Salida","applicant":"Bruce Hutchinson","date":{"end_time":"2005/02/01 00:00:00 -0500","original":"1/31/05","granularity":"day","time":"2005/01/31 00:00:00 -0500"},"geo_score":0.922,"zip code":"81201","description":"Bruce Hutchinson","id":"a6btn1a8bbe9","address":"1330 H Street","geo_precision":"range","state":"CO"},"type":"Feature","geometry":{"type":"Point","coordinates":[-106.004004,38.527292]}},{"properties":{"city":"Salida","applicant":"James Camp","date":{"end_time":"2005/02/01 00:00:00 -0500","original":"1/31/05","granularity":"day","time":"2005/01/31 00:00:00 -0500"},"geo_score":0.886,"zip code":"81201","description":"James Camp","id":"a6btn19dxrpg","address":"346 Grand Ave  (demolition permit)","geo_precision":"street","state":"CO"},"type":"Feature","geometry":{"type":"Point","coordinates":[-106.005184,38.542055]}},{"properties":{"city":"Salida","applicant":"Roxys  (greg &amp; Roxy Amidon)","date":{"end_time":"2005/02/01 00:00:00 -0500","original":"1/31/05","granularity":"day","time":"2005/01/31 00:00:00 -0500"},"geo_score":0.922,"zip code":"81201","description":"Roxys  (greg &amp; Roxy Amidon)","id":"a6btn18btejb","address":"102 E Rainbow Blvd.","geo_precision":"range","state":"CO"},"type":"Feature","geometry":{"type":"Point","coordinates":[-106.003516,38.524125]}},{"properties":{"city":"Salida","applicant":"Pinon Development","date":{"end_time":"2005/02/01 00:00:00 -0500","original":"1/31/05","granularity":"day","time":"2005/01/31 00:00:00 -0500"},"geo_score":0.605,"zip code":"81201","description":"Pinon Development","id":"a6btn0zuvmtw","address":"5 Trailside Circle","geo_precision":"zip","state":"CO"},"type":"Feature","geometry":{"type":"Point","coordinates":[-105.91001,38.486664]}},{"properties":{"city":"Salida","applicant":"John and Mary Roberts","date":{"end_time":"2005/02/12 00:00:00 -0500","original":"2/11/05","granularity":"day","time":"2005/02/11 00:00:00 -0500"},"geo_score":0.605,"zip code":"81201","description":"John and Mary Roberts","id":"a6btn11i2z28","address":"14 Trailside Circle","geo_precision":"zip","state":"CO"},"type":"Feature","geometry":{"type":"Point","coordinates":[-105.91001,38.486664]}},{"properties":{"city":"Salida","applicant":"Community Banks of the Rockies","date":{"end_time":"2005/02/15 00:00:00 -0500","original":"2/14/05","granularity":"day","time":"2005/02/14 00:00:00 -0500"},"geo_score":0.849,"zip code":"81201","description":"Community Banks of the Rockies","id":"a6btn12hiskz","address":"7480 West Hwy 50","geo_precision":"range","state":"CO"},"type":"Feature","geometry":{"type":"Point","coordinates":[-106.018134,38.523752]}},{"properties":{"city":"Salida","applicant":"John Chivvis &amp; Linda Lovell","date":{"end_time":"2005/03/02 00:00:00 -0500","original":"3/1/05","granularity":"day","time":"2005/03/01 00:00:00 -0500"},"geo_score":0.885,"zip code":"81201","description":"John Chivvis &amp; Linda Lovell","id":"a6btn129kxlu","address":"28 Hilside","geo_precision":"range","state":"CO"},"type":"Feature","geometry":{"type":"Point","coordinates":[-105.988,38.545107]}},{"properties":{"city":"Salida","applicant":"John &amp; Marilyn Coleman","date":{"end_time":"2005/03/12 00:00:00 -0500","original":"3/11/05","granularity":"day","time":"2005/03/11 00:00:00 -0500"},"geo_score":0.922,"zip code":"81201","description":"John &amp; Marilyn Coleman","id":"a6btn10hwnfq","address":"1117 I Street","geo_precision":"range","state":"CO"},"type":"Feature","geometry":{"type":"Point","coordinates":[-106.00331,38.529725]}},{"properties":{"city":"Salida","applicant":"Stuart Anderson","date":{"end_time":"2005/03/12 00:00:00 -0500","original":"3/11/05","granularity":"day","time":"2005/03/11 00:00:00 -0500"},"geo_score":0.922,"zip code":"81201","description":"Stuart Anderson","id":"a6btn0zlnnlx","address":"429 Poncha Blvd.","geo_precision":"range","state":"CO"},"type":"Feature","geometry":{"type":"Point","coordinates":[-106.003734,38.53568]}},{"properties":{"city":"Salida","applicant":"Clark Roberts","date":{"end_time":"2005/03/15 00:00:00 -0500","original":"3/14/05","granularity":"day","time":"2005/03/14 00:00:00 -0500"},"geo_score":0.922,"zip code":"81201","description":"Clark Roberts","id":"a6btn13pok02","address":"1041 E Street","geo_precision":"range","state":"CO"},"type":"Feature","geometry":{"type":"Point","coordinates":[-105.998416,38.527773]}},{"properties":{"city":"Salida","applicant":"Community Banks of the Rockies (manufacture)","date":{"end_time":"2005/03/18 00:00:00 -0500","original":"3/17/05","granularity":"day","time":"2005/03/17 00:00:00 -0500"},"geo_score":0.849,"zip code":"81201","description":"Community Banks of the Rockies (manufacture)","id":"a6btn1283ha4","address":"7480 West Hwy 50","geo_precision":"range","state":"CO"},"type":"Feature","geometry":{"type":"Point","coordinates":[-106.018134,38.523752]}},{"properties":{"city":"Salida","applicant":"Charles Rose &amp; Jeannie Peters","date":{"end_time":"2005/04/01 00:00:00 -0500","original":"3/31/05","granularity":"day","time":"2005/03/31 00:00:00 -0500"},"geo_score":0.529,"zip code":"81201","description":"Charles Rose &amp; Jeannie Peters","id":"a6btn128su9u","address":"348 E. Third Street","geo_precision":"street","state":"CO"},"type":"Feature","geometry":{"type":"Point","coordinates":[-105.991835,38.533601]}},{"properties":{"city":"Salida","applicant":"Terry Wareham (change of use)","date":{"end_time":"2005/04/08 00:00:00 -0400","original":"4/7/05","granularity":"day","time":"2005/04/07 00:00:00 -0400"},"geo_score":0.922,"zip code":"81201","description":"Terry Wareham (change of use)","id":"a6btn0ya4evr","address":"225 F Street","geo_precision":"range","state":"CO"},"type":"Feature","geometry":{"type":"Point","coordinates":[-105.992777,38.535234]}},{"properties":{"city":"Salida","applicant":"Pinon Development","date":{"end_time":"2005/04/19 00:00:00 -0400","original":"4/18/05","granularity":"day","time":"2005/04/18 00:00:00 -0400"},"geo_score":0.605,"zip code":"81201","description":"Pinon Development","id":"a6btn0y529xz","address":"51 Trailside Circle","geo_precision":"zip","state":"CO"},"type":"Feature","geometry":{"type":"Point","coordinates":[-105.91001,38.486664]}},{"properties":{"city":"Salida","applicant":"William McCormick III","date":{"end_time":"2005/04/29 00:00:00 -0400","original":"4/28/05","granularity":"day","time":"2005/04/28 00:00:00 -0400"},"geo_score":0.922,"zip code":"81201","description":"William McCormick III","id":"a6btn1ascnkx","address":"1230 I Street","geo_precision":"range","state":"CO"},"type":"Feature","geometry":{"type":"Point","coordinates":[-106.004242,38.528759]}},{"properties":{"city":"Salida","applicant":"Anne Marie Lippert","date":{"end_time":"2005/05/05 00:00:00 -0400","original":"5/4/05","granularity":"day","time":"2005/05/04 00:00:00 -0400"},"geo_score":0.922,"zip code":"81201","description":"Anne Marie Lippert","id":"a6btn0ybolz7","address":"33 Rex Circle","geo_precision":"range","state":"CO"},"type":"Feature","geometry":{"type":"Point","coordinates":[-106.016065,38.525709]}},{"properties":{"city":"Salida","applicant":"Thomas and Karen Karnuta","date":{"end_time":"2005/05/05 00:00:00 -0400","original":"5/4/05","granularity":"day","time":"2005/05/04 00:00:00 -0400"},"geo_score":0.922,"zip code":"81201","description":"Thomas and Karen Karnuta","id":"a6btn19khzmf","address":"625 West Sackett Ave.","geo_precision":"range","state":"CO"},"type":"Feature","geometry":{"type":"Point","coordinates":[-105.994768,38.540371]}},{"properties":{"city":"Salida","applicant":"N. Lee Mathews","date":{"end_time":"2005/05/05 00:00:00 -0400","original":"5/4/05","granularity":"day","time":"2005/05/04 00:00:00 -0400"},"geo_score":0.922,"zip code":"81201","description":"N. Lee Mathews","id":"a6btn0yq9l04","address":"135 Park Ave.","geo_precision":"range","state":"CO"},"type":"Feature","geometry":{"type":"Point","coordinates":[-105.992022,38.531083]}},{"properties":{"city":"Salida","applicant":"Cowgirl Coffee","date":{"end_time":"2005/05/14 00:00:00 -0400","original":"5/13/05","granularity":"day","time":"2005/05/13 00:00:00 -0400"},"geo_score":0.922,"zip code":"81201","description":"Cowgirl Coffee","id":"a6btn10vs1dk","address":"105 F Street","geo_precision":"range","state":"CO"},"type":"Feature","geometry":{"type":"Point","coordinates":[-105.991808,38.536251]}},{"properties":{"city":"Salida","applicant":"Charles &amp; Yvonne Stenzel","date":{"end_time":"2005/05/14 00:00:00 -0400","original":"5/13/05","granularity":"day","time":"2005/05/13 00:00:00 -0400"},"geo_score":0.922,"zip code":"81201","description":"Charles &amp; Yvonne Stenzel","id":"a6btn12w44ay","address":"248 Wood Ave.","geo_precision":"range","state":"CO"},"type":"Feature","geometry":{"type":"Point","coordinates":[-105.98623,38.532021]}},{"properties":{"city":"Salida","applicant":"Rcky Mtn. Mini Golf","date":{"end_time":"2005/05/14 00:00:00 -0400","original":"5/13/05","granularity":"day","time":"2005/05/13 00:00:00 -0400"},"geo_score":0.493,"zip code":"81201","description":"Rcky Mtn. Mini Golf","id":"a6btn16jjhw6","address":"413 W. Rainbow Blvd.","geo_precision":"street","state":"CO"},"type":"Feature","geometry":{"type":"Point","coordinates":[-106.004439,38.52413]}},{"properties":{"city":"Salida","applicant":"Judith Hilmer","date":{"end_time":"2005/05/14 00:00:00 -0400","original":"5/13/05","granularity":"day","time":"2005/05/13 00:00:00 -0400"},"geo_score":0.922,"zip code":"81201","description":"Judith Hilmer","id":"a6btn100hbe7","address":"316 G Street","geo_precision":"range","state":"CO"},"type":"Feature","geometry":{"type":"Point","coordinates":[-105.994634,38.535114]}},{"properties":{"city":"Salida","applicant":"Storyville Cinema &amp; Nightspot","date":{"end_time":"2005/05/14 00:00:00 -0400","original":"5/13/05","granularity":"day","time":"2005/05/13 00:00:00 -0400"},"geo_score":0.529,"zip code":"81201","description":"Storyville Cinema &amp; Nightspot","id":"a6btn16owdqv","address":"135 W. First Street","geo_precision":"street","state":"CO"},"type":"Feature","geometry":{"type":"Point","coordinates":[-105.991782,38.536286]}},{"properties":{"city":"Salida","applicant":"Dennis Ridley","date":{"end_time":"2005/05/19 00:00:00 -0400","original":"5/18/05","granularity":"day","time":"2005/05/18 00:00:00 -0400"},"geo_score":0.518,"zip code":"81201","description":"Dennis Ridley","id":"a6btn1aa69al","address":"7537 W. HWY 50","geo_precision":"street","state":"CO"},"type":"Feature","geometry":{"type":"Point","coordinates":[-106.00198,38.524122]}},{"properties":{"city":"Salida","applicant":"Frank Ordaz (Stonebridge Builders)","date":{"end_time":"2005/05/20 00:00:00 -0400","original":"5/19/05","granularity":"day","time":"2005/05/19 00:00:00 -0400"},"geo_score":0.824,"zip code":"81201","description":"Frank Ordaz (Stonebridge Builders)","id":"a6btn1761yyf","address":"602 West Third Street","geo_precision":"range","state":"CO"},"type":"Feature","geometry":{"type":"Point","coordinates":[-105.997645,38.538098]}},{"properties":{"city":"Salida","applicant":"Sonic","date":{"end_time":"2005/05/24 00:00:00 -0400","original":"5/23/05","granularity":"day","time":"2005/05/23 00:00:00 -0400"},"geo_score":0.48,"zip code":"81201","description":"Sonic","id":"a6btn0ybh9wo","address":"7820 W. Hwy. 50","geo_precision":"street","state":"CO"},"type":"Feature","geometry":{"type":"Point","coordinates":[-106.003544,38.524125]}},{"properties":{"city":"Salida","applicant":"Rich Edgington","date":{"end_time":"2005/05/25 00:00:00 -0400","original":"5/24/05","granularity":"day","time":"2005/05/24 00:00:00 -0400"},"geo_score":0.605,"zip code":"81201","description":"Rich Edgington","id":"a6btn19rs4hs","address":"52 Trailside Circle","geo_precision":"zip","state":"CO"},"type":"Feature","geometry":{"type":"Point","coordinates":[-105.91001,38.486664]}},{"properties":{"city":"Salida","applicant":"Jim Foster","date":{"end_time":"2005/05/27 00:00:00 -0400","original":"5/26/05","granularity":"day","time":"2005/05/26 00:00:00 -0400"},"geo_score":0.922,"zip code":"81201","description":"Jim Foster","id":"a6btn10ymiin","address":"831 E Street","geo_precision":"range","state":"CO"},"type":"Feature","geometry":{"type":"Point","coordinates":[-105.996704,38.529526]}},{"properties":{"city":"Salida","applicant":"Peter &amp; Barb Crossan","date":{"end_time":"2005/06/02 00:00:00 -0400","original":"6/1/05","granularity":"day","time":"2005/06/01 00:00:00 -0400"},"geo_score":0.824,"zip code":"81201","description":"Peter &amp; Barb Crossan","id":"a6btn0ynuny2","address":"539 East 2nd Street","geo_precision":"range","state":"CO"},"type":"Feature","geometry":{"type":"Point","coordinates":[-105.988147,38.532678]}},{"properties":{"city":"Salida","applicant":"Many Minis Storage","date":{"end_time":"2005/06/16 00:00:00 -0400","original":"6/15/05","granularity":"day","time":"2005/06/15 00:00:00 -0400"},"geo_score":0.849,"zip code":"81201","description":"Many Minis Storage","id":"a6btn0ywwh4a","address":"916 Palmer","geo_precision":"range","state":"CO"},"type":"Feature","geometry":{"type":"Point","coordinates":[-105.989864,38.522919]}},{"properties":{"city":"Salida","applicant":"Pinon Development","date":{"end_time":"2005/07/23 00:00:00 -0400","original":"7/22/05","granularity":"day","time":"2005/07/22 00:00:00 -0400"},"geo_score":0.605,"zip code":"81201","description":"Pinon Development","id":"a6btn12e67lo","address":"48 Trailside Circle","geo_precision":"zip","state":"CO"},"type":"Feature","geometry":{"type":"Point","coordinates":[-105.91001,38.486664]}},{"properties":{"city":"Salida","applicant":"Kathy Younghans","date":{"end_time":"2005/08/04 00:00:00 -0400","original":"8/3/05","granularity":"day","time":"2005/08/03 00:00:00 -0400"},"geo_score":0.564,"zip code":"81201","description":"Kathy Younghans","id":"a6btn11xqidt","address":"136 N. M Street","geo_precision":"street","state":"CO"},"type":"Feature","geometry":{"type":"Point","coordinates":[-105.996396,38.541776]}},{"properties":{"city":"Salida","applicant":"Hayden and Kym Mellsop","date":{"end_time":"2005/08/06 00:00:00 -0400","original":"8/5/05","granularity":"day","time":"2005/08/05 00:00:00 -0400"},"geo_score":0.697,"zip code":"81201","description":"Hayden and Kym Mellsop","id":"a6btn16js1pm","address":"1005 J Street units A and B","geo_precision":"range","state":"CO"},"type":"Feature","geometry":{"type":"Point","coordinates":[-106.003505,38.531302]}},{"properties":{"city":"Salida","applicant":"Unknown","date":{"end_time":"2005/11/29 00:00:00 -0500","original":"11/28/05","granularity":"day","time":"2005/11/28 00:00:00 -0500"},"geo_score":0.6,"zip code":"81201","description":"Unknown","id":"a6btn0uy392l","address":"549 E. Street","geo_precision":"street","state":"CO"},"type":"Feature","geometry":{"type":"Point","coordinates":[-105.991562,38.53479]}},{"properties":{"city":"Salida","applicant":"Unknown","date":{"end_time":"2005/11/29 00:00:00 -0500","original":"11/28/05","granularity":"day","time":"2005/11/28 00:00:00 -0500"},"geo_score":0.922,"zip code":"81201","description":"Unknown","id":"a6btn14gjuw9","address":"429 G Street","geo_precision":"range","state":"CO"},"type":"Feature","geometry":{"type":"Point","coordinates":[-105.995519,38.534171]}},{"properties":{"city":"Salida","applicant":"Many Minis Storage","date":{"end_time":"2005/11/29 00:00:00 -0500","original":"11/28/05","granularity":"day","time":"2005/11/28 00:00:00 -0500"},"geo_score":0.849,"zip code":"81201","description":"Many Minis Storage","id":"a6btn13ud9pr","address":"916 Palmer","geo_precision":"range","state":"CO"},"type":"Feature","geometry":{"type":"Point","coordinates":[-105.989864,38.522919]}},{"properties":{"city":"Salida","applicant":"Charles Drake","date":{"end_time":"2005/11/30 00:00:00 -0500","original":"11/29/05","granularity":"day","time":"2005/11/29 00:00:00 -0500"},"geo_score":0.922,"zip code":"81201","description":"Charles Drake","id":"a6btn0x26d1j","address":"847 Park Ave.","geo_precision":"range","state":"CO"},"type":"Feature","geometry":{"type":"Point","coordinates":[-105.984306,38.531028]}},{"properties":{"city":"Salida","applicant":"Dee Logan","date":{"end_time":"2005/11/30 00:00:00 -0500","original":"11/29/05","granularity":"day","time":"2005/11/29 00:00:00 -0500"},"geo_score":0.842,"zip code":"81201","description":"Dee Logan","id":"a6btn12of5vu","address":"644 Crestone","geo_precision":"range","state":"CO"},"type":"Feature","geometry":{"type":"Point","coordinates":[-106.006713,38.54105]}},{"properties":{"city":"Salida","applicant":"Mike &amp; Hanley Harvey","date":{"end_time":"2005/12/06 00:00:00 -0500","original":"12/5/05","granularity":"day","time":"2005/12/05 00:00:00 -0500"},"geo_score":0.857,"zip code":"81201","description":"Mike &amp; Hanley Harvey","id":"a6btn0voy03g","address":"348 Shavano","geo_precision":"range","state":"CO"},"type":"Feature","geometry":{"type":"Point","coordinates":[-106.074217,38.511805]}},{"properties":{"city":"Salida","applicant":"Rich Edgington","date":{"end_time":"2005/12/28 00:00:00 -0500","original":"12/27/05","granularity":"day","time":"2005/12/27 00:00:00 -0500"},"geo_score":0.605,"zip code":"81201","description":"Rich Edgington","id":"a6btn12fpga6","address":"9 Trailside Circle","geo_precision":"zip","state":"CO"},"type":"Feature","geometry":{"type":"Point","coordinates":[-105.91001,38.486664]}},{"properties":{"city":"Salida","applicant":"Wes Hill","date":{"end_time":"2005/12/29 00:00:00 -0500","original":"12/28/05","granularity":"day","time":"2005/12/28 00:00:00 -0500"},"geo_score":0.493,"zip code":"81201","description":"Wes Hill","id":"a6btn18q6azb","address":"129 E. Rainbow Blvd.","geo_precision":"street","state":"CO"},"type":"Feature","geometry":{"type":"Point","coordinates":[-106.002873,38.524127]}},{"properties":{"city":"Salida","applicant":"Ron and Theresa Mazzeo","date":{"end_time":"2005/12/29 00:00:00 -0500","original":"12/28/05","granularity":"day","time":"2005/12/28 00:00:00 -0500"},"geo_score":0.529,"zip code":"81201","description":"Ron and Theresa Mazzeo","id":"a6btn18gslz6","address":"423 W. First Street","geo_precision":"street","state":"CO"},"type":"Feature","geometry":{"type":"Point","coordinates":[-105.991782,38.536286]}},{"properties":{"city":"Salida","applicant":"Ron and Theresa Mazzeo","date":{"end_time":"2006/01/11 00:00:00 -0500","original":"1/10/06","granularity":"day","time":"2006/01/10 00:00:00 -0500"},"geo_score":0.529,"zip code":"81201","description":"Ron and Theresa Mazzeo","id":"a6btn0v55ygt","address":"423 W. First Street 1 car garage","geo_precision":"street","state":"CO"},"type":"Feature","geometry":{"type":"Point","coordinates":[-105.991782,38.536286]}},{"properties":{"city":"Salida","applicant":"High Country Bank","date":{"end_time":"2006/01/25 00:00:00 -0500","original":"1/24/06","granularity":"day","time":"2006/01/24 00:00:00 -0500"},"geo_score":0.824,"zip code":"81201","description":"High Country Bank","id":"a6btn1agvbtt","address":"130 West Second Street","geo_precision":"range","state":"CO"},"type":"Feature","geometry":{"type":"Point","coordinates":[-105.992934,38.535644]}},{"properties":{"city":"Salida","applicant":"Pinon Development","date":{"end_time":"2006/02/04 00:00:00 -0500","original":"2/3/06","granularity":"day","time":"2006/02/03 00:00:00 -0500"},"geo_score":0.605,"zip code":"81201","description":"Pinon Development","id":"a6btn113wcox","address":"47 Trailside Circle","geo_precision":"zip","state":"CO"},"type":"Feature","geometry":{"type":"Point","coordinates":[-105.91001,38.486664]}},{"properties":{"city":"Salida","applicant":"Mike Perschbacher","date":{"end_time":"2006/02/14 00:00:00 -0500","original":"2/13/06","granularity":"day","time":"2006/02/13 00:00:00 -0500"},"geo_score":0.922,"zip code":"81201","description":"Mike Perschbacher","id":"a6btn14eoaa4","address":"1416 G Street","geo_precision":"range","state":"CO"},"type":"Feature","geometry":{"type":"Point","coordinates":[-106.003664,38.525913]}},{"properties":{"city":"Salida","applicant":"Dick Rudolph (Labrador LLC)","date":{"end_time":"2006/02/14 00:00:00 -0500","original":"2/13/06","granularity":"day","time":"2006/02/13 00:00:00 -0500"},"geo_score":0.809,"zip code":"81201","description":"Dick Rudolph (Labrador LLC)","id":"a6btn131hfkj","address":"733 West Sackett Unit B","geo_precision":"range","state":"CO"},"type":"Feature","geometry":{"type":"Point","coordinates":[-105.995594,38.541099]}},{"properties":{"city":"Salida","applicant":"Karen Karnuta","date":{"end_time":"2006/03/17 00:00:00 -0500","original":"3/16/06","granularity":"day","time":"2006/03/16 00:00:00 -0500"},"geo_score":0.922,"zip code":"81201","description":"Karen Karnuta","id":"a6btn115xu2y","address":"917 G Street","geo_precision":"range","state":"CO"},"type":"Feature","geometry":{"type":"Point","coordinates":[-105.999546,38.530098]}},{"properties":{"city":"Salida","applicant":"Jeremy &amp; Meredith Wallace","date":{"end_time":"2006/03/23 00:00:00 -0500","original":"3/22/06","granularity":"day","time":"2006/03/22 00:00:00 -0500"},"geo_score":0.886,"zip code":"81201","description":"Jeremy &amp; Meredith Wallace","id":"a6btn1axkh6e","address":"Unknown","geo_precision":"zip","state":"CO"},"type":"Feature","geometry":{"type":"Point","coordinates":[-105.91001,38.486664]}},{"properties":{"city":"Salida","applicant":"Pinon Development","date":{"end_time":"2006/03/23 00:00:00 -0500","original":"3/22/06","granularity":"day","time":"2006/03/22 00:00:00 -0500"},"geo_score":0.605,"zip code":"81201","description":"Pinon Development","id":"a6btn0wnaigo","address":"6 Trailside Circle","geo_precision":"zip","state":"CO"},"type":"Feature","geometry":{"type":"Point","coordinates":[-105.91001,38.486664]}},{"properties":{"city":"Salida","applicant":"Judith K. Christ-Janer  (Danny Knight)","date":{"end_time":"2006/04/01 00:00:00 -0500","original":"3/31/06","granularity":"day","time":"2006/03/31 00:00:00 -0500"},"geo_score":0.838,"zip code":"81201","description":"Judith K. Christ-Janer  (Danny Knight)","id":"a6btn10q12q0","address":"449 West 12th Street","geo_precision":"range","state":"CO"},"type":"Feature","geometry":{"type":"Point","coordinates":[-106.00462,38.529368]}},{"properties":{"city":"Salida","applicant":"Fran Cornelius","date":{"end_time":"2006/04/18 00:00:00 -0400","original":"4/17/06","granularity":"day","time":"2006/04/17 00:00:00 -0400"},"geo_score":0.922,"zip code":"81201","description":"Fran Cornelius","id":"a6btn0zijxav","address":"847 E Street","geo_precision":"range","state":"CO"},"type":"Feature","geometry":{"type":"Point","coordinates":[-105.996808,38.52939]}},{"properties":{"city":"Salida","applicant":"Ross Elgin","date":{"end_time":"2006/04/18 00:00:00 -0400","original":"4/17/06","granularity":"day","time":"2006/04/17 00:00:00 -0400"},"geo_score":0.922,"zip code":"81201","description":"Ross Elgin","id":"a6btn0uq3058","address":"339 G Street","geo_precision":"range","state":"CO"},"type":"Feature","geometry":{"type":"Point","coordinates":[-105.994775,38.534923]}},{"properties":{"city":"Salida","applicant":"Margaret Armstrong","date":{"end_time":"2006/05/02 00:00:00 -0400","original":"5/1/06","granularity":"day","time":"2006/05/01 00:00:00 -0400"},"geo_score":0.824,"zip code":"81201","description":"Margaret Armstrong","id":"a6btn1a5mt64","address":"124 East Second Street","geo_precision":"range","state":"CO"},"type":"Feature","geometry":{"type":"Point","coordinates":[-105.992416,38.535281]}},{"properties":{"city":"Salida","applicant":"Agnes Irwin","date":{"end_time":"2006/05/06 00:00:00 -0400","original":"5/5/06","granularity":"day","time":"2006/05/05 00:00:00 -0400"},"geo_score":0.834,"zip code":"81201","description":"Agnes Irwin","id":"a6btn19y5o4t","address":"247 Sackett","geo_precision":"range","state":"CO"},"type":"Feature","geometry":{"type":"Point","coordinates":[-105.989478,38.536151]}},{"properties":{"city":"Salida","applicant":"Tom and Kay Breunich","date":{"end_time":"2006/05/10 00:00:00 -0400","original":"5/9/06","granularity":"day","time":"2006/05/09 00:00:00 -0400"},"geo_score":0.922,"zip code":"81201","description":"Tom and Kay Breunich","id":"a6btn10j8veg","address":"203 Shavano Ave.","geo_precision":"range","state":"CO"},"type":"Feature","geometry":{"type":"Point","coordinates":[-106.000184,38.538393]}},{"properties":{"city":"Salida","applicant":"Jack Stockton","date":{"end_time":"2006/05/12 00:00:00 -0400","original":"5/11/06","granularity":"day","time":"2006/05/11 00:00:00 -0400"},"geo_score":0.518,"zip code":"81201","description":"Jack Stockton","id":"a6btn0vgw478","address":"225 E. 11th. Street","geo_precision":"street","state":"CO"},"type":"Feature","geometry":{"type":"Point","coordinates":[-105.999509,38.527601]}},{"properties":{"city":"Salida","applicant":"Zack &amp; Susan Hughes","date":{"end_time":"2006/05/16 00:00:00 -0400","original":"5/15/06","granularity":"day","time":"2006/05/15 00:00:00 -0400"},"geo_score":0.838,"zip code":"81201","description":"Zack &amp; Susan Hughes","id":"a6btn1aw8bjr","address":"125 East 11th Street","geo_precision":"range","state":"CO"},"type":"Feature","geometry":{"type":"Point","coordinates":[-105.999509,38.527601]}},{"properties":{"city":"Salida","applicant":"Robert Grether","date":{"end_time":"2006/05/18 00:00:00 -0400","original":"5/17/06","granularity":"day","time":"2006/05/17 00:00:00 -0400"},"geo_score":0.922,"zip code":"81201","description":"Robert Grether","id":"a6btn0vmvork","address":"502 Ouray Ave.","geo_precision":"range","state":"CO"},"type":"Feature","geometry":{"type":"Point","coordinates":[-106.005305,38.536614]}},{"properties":{"city":"Salida","applicant":"Phyllis Cron","date":{"end_time":"2006/05/23 00:00:00 -0400","original":"5/22/06","granularity":"day","time":"2006/05/22 00:00:00 -0400"},"geo_score":0.922,"zip code":"81201","description":"Phyllis Cron","id":"a6btn146z35s","address":"306 Dodge Street","geo_precision":"range","state":"CO"},"type":"Feature","geometry":{"type":"Point","coordinates":[-105.989693,38.530089]}},{"properties":{"city":"Salida","applicant":"Mike Sherman","date":{"end_time":"2006/05/26 00:00:00 -0400","original":"5/25/06","granularity":"day","time":"2006/05/25 00:00:00 -0400"},"geo_score":0.543,"zip code":"81201","description":"Mike Sherman","id":"a6btn0z022jq","address":"315 Cottonwood Circle","geo_precision":"street","state":"CO"},"type":"Feature","geometry":{"type":"Point","coordinates":[-106.132828,38.839158]}},{"properties":{"city":"Salida","applicant":"Douglas Tracey","date":{"end_time":"2006/06/16 00:00:00 -0400","original":"6/15/06","granularity":"day","time":"2006/06/15 00:00:00 -0400"},"geo_score":0.922,"zip code":"81201","description":"Douglas Tracey","id":"a6btn0xbhdsw","address":"132 F Street","geo_precision":"range","state":"CO"},"type":"Feature","geometry":{"type":"Point","coordinates":[-105.991992,38.536003]}},{"properties":{"city":"Salida","applicant":"Kenny &amp; Sara Wilcox","date":{"end_time":"2006/06/16 00:00:00 -0400","original":"6/15/06","granularity":"day","time":"2006/06/15 00:00:00 -0400"},"geo_score":0.922,"zip code":"81201","description":"Kenny &amp; Sara Wilcox","id":"a6btn14p4rnq","address":"1134 F Street","geo_precision":"range","state":"CO"},"type":"Feature","geometry":{"type":"Point","coordinates":[-106.000273,38.527634]}},{"properties":{"city":"Salida","applicant":"William &amp; Shannon Bevington","date":{"end_time":"2006/06/20 00:00:00 -0400","original":"6/19/06","granularity":"day","time":"2006/06/19 00:00:00 -0400"},"geo_score":0.922,"zip code":"81201","description":"William &amp; Shannon Bevington","id":"a6btn194pxi3","address":"546 C Street","geo_precision":"range","state":"CO"},"type":"Feature","geometry":{"type":"Point","coordinates":[-105.99251,38.530317]}},{"properties":{"city":"Salida","applicant":"Wayne Sawyer","date":{"end_time":"2006/06/23 00:00:00 -0400","original":"6/22/06","granularity":"day","time":"2006/06/22 00:00:00 -0400"},"geo_score":0.922,"zip code":"81201","description":"Wayne Sawyer","id":"a6btn0zbn6gp","address":"434 F Street","geo_precision":"range","state":"CO"},"type":"Feature","geometry":{"type":"Point","coordinates":[-105.994493,38.53348]}},{"properties":{"city":"Salida","applicant":"Chris Gredig","date":{"end_time":"2006/06/24 00:00:00 -0400","original":"6/23/06","granularity":"day","time":"2006/06/23 00:00:00 -0400"},"geo_score":0.564,"zip code":"81201","description":"Chris Gredig","id":"a6btn0uye357","address":"110 N. D Street","geo_precision":"street","state":"CO"},"type":"Feature","geometry":{"type":"Point","coordinates":[-105.989648,38.534988]}},{"properties":{"city":"Salida","applicant":"David Schultz","date":{"end_time":"2006/07/01 00:00:00 -0400","original":"6/30/06","granularity":"day","time":"2006/06/30 00:00:00 -0400"},"geo_score":0.812,"zip code":"81201","description":"David Schultz","id":"a6btn15i814j","address":"327 Ouray","geo_precision":"range","state":"CO"},"type":"Feature","geometry":{"type":"Point","coordinates":[-106.002325,38.537022]}},{"properties":{"city":"Salida","applicant":"Al Mazza","date":{"end_time":"2006/07/13 00:00:00 -0400","original":"7/12/06","granularity":"day","time":"2006/07/12 00:00:00 -0400"},"geo_score":0.849,"zip code":"81201","description":"Al Mazza","id":"a6btn0x3lytb","address":"542 Palmer","geo_precision":"range","state":"CO"},"type":"Feature","geometry":{"type":"Point","coordinates":[-105.989788,38.52659]}},{"properties":{"city":"Salida","applicant":"Philip Seeling","date":{"end_time":"2006/07/13 00:00:00 -0400","original":"7/12/06","granularity":"day","time":"2006/07/12 00:00:00 -0400"},"geo_score":0.457,"zip code":"81201","description":"Philip Seeling","id":"a6btn19xs4o4","address":"1436 (A) H Street","geo_precision":"street","state":"CO"},"type":"Feature","geometry":{"type":"Point","coordinates":[-105.997216,38.534231]}},{"properties":{"city":"Salida","applicant":"Pinon Development","date":{"end_time":"2006/07/15 00:00:00 -0400","original":"7/14/06","granularity":"day","time":"2006/07/14 00:00:00 -0400"},"geo_score":0.605,"zip code":"81201","description":"Pinon Development","id":"a6btn0zi9a3t","address":"49 Trailside Circle","geo_precision":"zip","state":"CO"},"type":"Feature","geometry":{"type":"Point","coordinates":[-105.91001,38.486664]}},{"properties":{"city":"Salida","applicant":"Pinon Development","date":{"end_time":"2006/07/15 00:00:00 -0400","original":"7/14/06","granularity":"day","time":"2006/07/14 00:00:00 -0400"},"geo_score":0.605,"zip code":"81201","description":"Pinon Development","id":"a6btn0ymo6ci","address":"11 Trailside Circle","geo_precision":"zip","state":"CO"},"type":"Feature","geometry":{"type":"Point","coordinates":[-105.91001,38.486664]}},{"properties":{"city":"Salida","applicant":"Keith Wilken","date":{"end_time":"2006/07/19 00:00:00 -0400","original":"7/18/06","granularity":"day","time":"2006/07/18 00:00:00 -0400"},"geo_score":0.922,"zip code":"81201","description":"Keith Wilken","id":"a6btn12v63g5","address":"834 H Street","geo_precision":"range","state":"CO"},"type":"Feature","geometry":{"type":"Point","coordinates":[-105.999924,38.531437]}},{"properties":{"city":"Salida","applicant":"Frank Chelf","date":{"end_time":"2006/07/20 00:00:00 -0400","original":"7/19/06","granularity":"day","time":"2006/07/19 00:00:00 -0400"},"geo_score":0.922,"zip code":"81201","description":"Frank Chelf","id":"a6btn13jllgp","address":"724 J Street","geo_precision":"range","state":"CO"},"type":"Feature","geometry":{"type":"Point","coordinates":[-106.001171,38.533647]}},{"properties":{"city":"Salida","applicant":"Pinon Development","date":{"end_time":"2006/07/21 00:00:00 -0400","original":"7/20/06","granularity":"day","time":"2006/07/20 00:00:00 -0400"},"geo_score":0.605,"zip code":"81201","description":"Pinon Development","id":"a6btn152lub7","address":"13 Trailside Circle","geo_precision":"zip","state":"CO"},"type":"Feature","geometry":{"type":"Point","coordinates":[-105.91001,38.486664]}},{"properties":{"city":"Salida","applicant":"Daniel Evans &amp; Rene Otto","date":{"end_time":"2006/08/01 00:00:00 -0400","original":"7/31/06","granularity":"day","time":"2006/07/31 00:00:00 -0400"},"geo_score":0.922,"zip code":"81201","description":"Daniel Evans &amp; Rene Otto","id":"a6btn12ov41t","address":"1540 H Street","geo_precision":"range","state":"CO"},"type":"Feature","geometry":{"type":"Point","coordinates":[-106.00572,38.525532]}},{"properties":{"city":"Salida","applicant":"H.R.R.M.C","date":{"end_time":"2006/08/29 00:00:00 -0400","original":"8/28/06","granularity":"day","time":"2006/08/28 00:00:00 -0400"},"geo_score":0.532,"zip code":"81201","description":"H.R.R.M.C","id":"a6btn12pffa9","address":"1000 Rush Drive","geo_precision":"street","state":"CO"},"type":"Feature","geometry":{"type":"Point","coordinates":[-106.017043,38.525235]}},{"properties":{"city":"Salida","applicant":"Dustin Lewis","date":{"end_time":"2006/09/01 00:00:00 -0400","original":"8/31/06","granularity":"day","time":"2006/08/31 00:00:00 -0400"},"geo_score":0.922,"zip code":"81201","description":"Dustin Lewis","id":"a6btn0vmz4y0","address":"23 Rex Circle","geo_precision":"range","state":"CO"},"type":"Feature","geometry":{"type":"Point","coordinates":[-106.017281,38.525099]}},{"properties":{"city":"Salida","applicant":"Church of Christ","date":{"end_time":"2006/09/01 00:00:00 -0400","original":"8/31/06","granularity":"day","time":"2006/08/31 00:00:00 -0400"},"geo_score":0.922,"zip code":"81201","description":"Church of Christ","id":"a6btn0y17ufc","address":"114 Dodge Street","geo_precision":"range","state":"CO"},"type":"Feature","geometry":{"type":"Point","coordinates":[-105.99226,38.530098]}},{"properties":{"city":"Salida","applicant":"Ascension Episcopal Church","date":{"end_time":"2006/09/16 00:00:00 -0400","original":"9/15/06","granularity":"day","time":"2006/09/15 00:00:00 -0400"},"geo_score":0.743,"zip code":"81201","description":"Ascension Episcopal Church","id":"a6btn0vq17f9","address":"349 E Street (new porch)","geo_precision":"street","state":"CO"},"type":"Feature","geometry":{"type":"Point","coordinates":[-105.999304,38.541197]}},{"properties":{"city":"Salida","applicant":"Robert Grether","date":{"end_time":"2006/09/16 00:00:00 -0400","original":"9/15/06","granularity":"day","time":"2006/09/15 00:00:00 -0400"},"geo_score":0.886,"zip code":"81201","description":"Robert Grether","id":"a6btn0w6oxum","address":"502 Ouray Ave. (covered patio)","geo_precision":"street","state":"CO"},"type":"Feature","geometry":{"type":"Point","coordinates":[-106.001988,38.537085]}},{"properties":{"city":"Salida","applicant":"Salida Golf Course","date":{"end_time":"2006/09/16 00:00:00 -0400","original":"9/15/06","granularity":"day","time":"2006/09/15 00:00:00 -0400"},"geo_score":0.922,"zip code":"81201","description":"Salida Golf Course","id":"a6btn0uocz47","address":"404 Grant Street","geo_precision":"range","state":"CO"},"type":"Feature","geometry":{"type":"Point","coordinates":[-106.003519,38.539133]}},{"properties":{"city":"Salida","applicant":"Darrell Donahoe (handicap ramp)","date":{"end_time":"2006/09/21 00:00:00 -0400","original":"9/20/06","granularity":"day","time":"2006/09/20 00:00:00 -0400"},"geo_score":0.824,"zip code":"81201","description":"Darrell Donahoe (handicap ramp)","id":"a6btn13x2j9a","address":"401 East Third Street","geo_precision":"range","state":"CO"},"type":"Feature","geometry":{"type":"Point","coordinates":[-105.990248,38.532655]}},{"properties":{"city":"Salida","applicant":"Drew &amp; Lourdes Smith","date":{"end_time":"2006/09/28 00:00:00 -0400","original":"9/27/06","granularity":"day","time":"2006/09/27 00:00:00 -0400"},"geo_score":0.922,"zip code":"81201","description":"Drew &amp; Lourdes Smith","id":"a6btn192sb8j","address":"6 Rex Circle","geo_precision":"range","state":"CO"},"type":"Feature","geometry":{"type":"Point","coordinates":[-106.016378,38.52637]}},{"properties":{"city":"Salida","applicant":"Tracy Smith","date":{"end_time":"2006/09/28 00:00:00 -0400","original":"9/27/06","granularity":"day","time":"2006/09/27 00:00:00 -0400"},"geo_score":0.922,"zip code":"81201","description":"Tracy Smith","id":"a6btn11i0sx7","address":"13 Silver Spruce Drive","geo_precision":"range","state":"CO"},"type":"Feature","geometry":{"type":"Point","coordinates":[-106.013681,38.53632]}},{"properties":{"city":"Salida","applicant":"Frank Darracott","date":{"end_time":"2006/09/30 00:00:00 -0400","original":"9/29/06","granularity":"day","time":"2006/09/29 00:00:00 -0400"},"geo_score":0.922,"zip code":"81201","description":"Frank Darracott","id":"a6btn0uohox2","address":"702 F Street","geo_precision":"range","state":"CO"},"type":"Feature","geometry":{"type":"Point","coordinates":[-105.996769,38.53125]}},{"properties":{"city":"Salida","applicant":"Marjorie Conrad","date":{"end_time":"2006/10/19 00:00:00 -0400","original":"10/18/06","granularity":"day","time":"2006/10/18 00:00:00 -0400"},"geo_score":0.922,"zip code":"81201","description":"Marjorie Conrad","id":"a6btn0w95u78","address":"944 F Street","geo_precision":"range","state":"CO"},"type":"Feature","geometry":{"type":"Point","coordinates":[-105.998694,38.529214]}},{"properties":{"city":"Salida","applicant":"Jim &amp; John Foster","date":{"end_time":"2006/10/28 00:00:00 -0400","original":"10/27/06","granularity":"day","time":"2006/10/27 00:00:00 -0400"},"geo_score":0.922,"zip code":"81201","description":"Jim &amp; John Foster","id":"a6btn15qkap1","address":"110 Mesa Circle","geo_precision":"range","state":"CO"},"type":"Feature","geometry":{"type":"Point","coordinates":[-106.011286,38.535406]}},{"properties":{"city":"Salida","applicant":"John E. Coleman","date":{"end_time":"2006/11/01 00:00:00 -0500","original":"10/31/06","granularity":"day","time":"2006/10/31 00:00:00 -0500"},"geo_score":0.824,"zip code":"81201","description":"John E. Coleman","id":"a6btn0vaedci","address":"619 West First Street","geo_precision":"range","state":"CO"},"type":"Feature","geometry":{"type":"Point","coordinates":[-105.995726,38.539643]}},{"properties":{"city":"Salida","applicant":"Pinon Development","date":{"end_time":"2006/11/01 00:00:00 -0500","original":"10/31/06","granularity":"day","time":"2006/10/31 00:00:00 -0500"},"geo_score":0.605,"zip code":"81201","description":"Pinon Development","id":"a6btn126zo7i","address":"50 Trailside Circle","geo_precision":"zip","state":"CO"},"type":"Feature","geometry":{"type":"Point","coordinates":[-105.91001,38.486664]}},{"properties":{"city":"Salida","applicant":"Pinon Development","date":{"end_time":"2006/11/04 00:00:00 -0500","original":"11/3/06","granularity":"day","time":"2006/11/03 00:00:00 -0500"},"geo_score":0.605,"zip code":"81201","description":"Pinon Development","id":"a6btn0x3yxa5","address":"19 Trailside Circle","geo_precision":"zip","state":"CO"},"type":"Feature","geometry":{"type":"Point","coordinates":[-105.91001,38.486664]}},{"properties":{"city":"Salida","applicant":"Dunk Decew","date":{"end_time":"2006/11/07 00:00:00 -0500","original":"11/6/06","granularity":"day","time":"2006/11/06 00:00:00 -0500"},"geo_score":0.922,"zip code":"81201","description":"Dunk Decew","id":"a6btn19x3h4o","address":"522 Nichols Ave.","geo_precision":"range","state":"CO"},"type":"Feature","geometry":{"type":"Point","coordinates":[-105.987469,38.527123]}},{"properties":{"city":"Salida","applicant":"Gary Lacy","date":{"end_time":"2006/11/07 00:00:00 -0500","original":"11/6/06","granularity":"day","time":"2006/11/06 00:00:00 -0500"},"geo_score":0.649,"zip code":"81201","description":"Gary Lacy","id":"a6btn0wwr0q3","address":"332 1/2 West Sackett","geo_precision":"street","state":"CO"},"type":"Feature","geometry":{"type":"Point","coordinates":[-105.990959,38.537113]}},{"properties":{"city":"Salida","applicant":"Karen Karnuta","date":{"end_time":"2006/11/16 00:00:00 -0500","original":"11/15/06","granularity":"day","time":"2006/11/15 00:00:00 -0500"},"geo_score":0.922,"zip code":"81201","description":"Karen Karnuta","id":"a6btn103vjjt","address":"413 Park Ave.","geo_precision":"range","state":"CO"},"type":"Feature","geometry":{"type":"Point","coordinates":[-105.988363,38.531053]}},{"properties":{"city":"Salida","applicant":"Rusty Granzella","date":{"end_time":"2006/11/21 00:00:00 -0500","original":"11/20/06","granularity":"day","time":"2006/11/20 00:00:00 -0500"},"geo_score":0.6,"zip code":"81201","description":"Rusty Granzella","id":"a6btn0xh1mj3","address":"547 Scott Street Units A &amp; B(out of City)","geo_precision":"street","state":"CO"},"type":"Feature","geometry":{"type":"Point","coordinates":[-105.988378,38.532862]}},{"properties":{"city":"Salida","applicant":"David Erbsen","date":{"end_time":"2006/11/21 00:00:00 -0500","original":"11/20/06","granularity":"day","time":"2006/11/20 00:00:00 -0500"},"geo_score":0.922,"zip code":"81201","description":"David Erbsen","id":"a6btn15ny7tb","address":"735 Blake Street","geo_precision":"range","state":"CO"},"type":"Feature","geometry":{"type":"Point","coordinates":[-105.991123,38.524618]}},{"properties":{"city":"Salida","applicant":"Michelle Riggio","date":{"end_time":"2006/11/29 00:00:00 -0500","original":"11/28/06","granularity":"day","time":"2006/11/28 00:00:00 -0500"},"geo_score":0.729,"zip code":"81201","description":"Michelle Riggio","id":"a6btn0vmavep","address":"233 1/2 F Street","geo_precision":"street","state":"CO"},"type":"Feature","geometry":{"type":"Point","coordinates":[-105.991782,38.536286]}},{"properties":{"city":"Salida","applicant":"Chris and Lorri Lau","date":{"end_time":"2006/12/05 00:00:00 -0500","original":"12/4/06","granularity":"day","time":"2006/12/04 00:00:00 -0500"},"geo_score":0.922,"zip code":"81201","description":"Chris and Lorri Lau","id":"a6btn19kpb5u","address":"1214 E Street","geo_precision":"range","state":"CO"},"type":"Feature","geometry":{"type":"Point","coordinates":[-105.999886,38.526327]}},{"properties":{"city":"Salida","applicant":"Pinon Development","date":{"end_time":"2006/12/05 00:00:00 -0500","original":"12/4/06","granularity":"day","time":"2006/12/04 00:00:00 -0500"},"geo_score":0.605,"zip code":"81201","description":"Pinon Development","id":"a6btn0wnikqj","address":"55 Trailside Circle","geo_precision":"zip","state":"CO"},"type":"Feature","geometry":{"type":"Point","coordinates":[-105.91001,38.486664]}},{"properties":{"city":"Salida","applicant":"Laurie Newman","date":{"end_time":"2006/12/05 00:00:00 -0500","original":"12/4/06","granularity":"day","time":"2006/12/04 00:00:00 -0500"},"geo_score":0.824,"zip code":"81201","description":"Laurie Newman","id":"a6btn1a327tt","address":"146 East Sixth Street","geo_precision":"range","state":"CO"},"type":"Feature","geometry":{"type":"Point","coordinates":[-105.995617,38.531861]}},{"properties":{"city":"Salida","applicant":"Steven Duhaime","date":{"end_time":"2007/01/10 00:00:00 -0500","original":"1/9/07","granularity":"day","time":"2007/01/09 00:00:00 -0500"},"geo_score":0.922,"zip code":"81201","description":"Steven Duhaime -","id":"a6btn19aqfbg","address":"335 Oak Street","geo_precision":"range","state":"CO"},"type":"Feature","geometry":{"type":"Point","coordinates":[-105.984695,38.529729]}},{"properties":{"city":"Salida","applicant":"Latter-Day Saints Church","date":{"end_time":"2008/01/19 00:00:00 -0500","original":"1/18/08","granularity":"day","time":"2008/01/18 00:00:00 -0500"},"geo_score":0.728,"zip code":"81201","description":"Latter-Day Saints Church","id":"a6btn1a2ydz3","address":"1140 Poncha Blvd.","geo_precision":"street","state":"CO"},"type":"Feature","geometry":{"type":"Point","coordinates":[-106.010978,38.534576]}},{"properties":{"city":"Salida","applicant":"David Schultz","date":{"end_time":"2008/04/15 00:00:00 -0400","original":"4/14/08","granularity":"day","time":"2008/04/14 00:00:00 -0400"},"geo_score":0.824,"zip code":"81201","description":"David Schultz - Change of use (from Residential to Commercial)","id":"a6btn1apuh4d","address":"536 East First Street","geo_precision":"range","state":"CO"},"type":"Feature","geometry":{"type":"Point","coordinates":[-105.986869,38.533274]}},{"properties":{"city":"Salida","applicant":"Christy Hinners","date":{"end_time":"2008/08/13 00:00:00 -0400","original":"8/12/08","granularity":"day","time":"2008/08/12 00:00:00 -0400"},"geo_score":0.824,"zip code":"81201","description":"Christy Hinners - Change of use (from Residential to Commercial)","id":"a6btn0vy9hxa","address":"427 West 1st Street","geo_precision":"range","state":"CO"},"type":"Feature","geometry":{"type":"Point","coordinates":[-105.994134,38.53822]}},{"properties":{"city":"Salida","applicant":"Robert Grether","date":{"end_time":"2009/02/04 00:00:00 -0500","original":"2/3/09","granularity":"day","time":"2009/02/03 00:00:00 -0500"},"geo_score":0.922,"zip code":"81201","description":"Robert Grether - (PLAN CHANGE)Accessory Dwelling Unit","id":"a6btn0x0rd9y","address":"502 Ouray Avenue","geo_precision":"range","state":"CO"},"type":"Feature","geometry":{"type":"Point","coordinates":[-106.005305,38.536614]}},{"properties":{"city":"Salida","applicant":"Ron Mazzeo","date":{"end_time":"2009/08/29 00:00:00 -0400","original":"8/28/09","granularity":"day","time":"2009/08/28 00:00:00 -0400"},"geo_score":0.824,"zip code":"81201","description":"Ron Mazzeo - Change of use Comm. To Res.","id":"a6btn122b51f","address":"423 West First Street","geo_precision":"range","state":"CO"},"type":"Feature","geometry":{"type":"Point","coordinates":[-105.994105,38.538188]}},{"properties":{"city":"Salida","applicant":"John Quinn","date":{"end_time":"2009/10/15 00:00:00 -0400","original":"10/14/09","granularity":"day","time":"2009/10/14 00:00:00 -0400"},"geo_score":0.922,"zip code":"81201","description":"John Quinn - Change of Use from office to Retail","id":"a6btn13kabp6","address":"138 N F Street","geo_precision":"range","state":"CO"},"type":"Feature","geometry":{"type":"Point","coordinates":[-105.991549,38.536586]}},{"properties":{"city":"Salida","applicant":"Melanie Murphy","date":{"end_time":"2009/12/30 00:00:00 -0500","original":"12/29/09","granularity":"day","time":"2009/12/29 00:00:00 -0500"},"geo_score":0.729,"zip code":"81201","description":"Melanie Murphy - Change of Use","id":"a6btn11s0f6y","address":"123 1/2 N F Street","geo_precision":"street","state":"CO"},"type":"Feature","geometry":{"type":"Point","coordinates":[-105.991782,38.536286]}},{"properties":{"city":"Salida","applicant":"Brian Cumby","date":{"end_time":"2010/01/09 00:00:00 -0500","original":"1/8/10","granularity":"day","time":"2010/01/08 00:00:00 -0500"},"geo_score":0.922,"zip code":"81201","description":"Brian Cumby - Change of Use","id":"a6btn0ykih64","address":"501 Walnut Street","geo_precision":"range","state":"CO"},"type":"Feature","geometry":{"type":"Point","coordinates":[-105.985611,38.528076]}},{"properties":{"city":"Salida","applicant":"Natures Medicine","date":{"end_time":"2010/01/12 00:00:00 -0500","original":"1/11/10","granularity":"day","time":"2010/01/11 00:00:00 -0500"},"geo_score":0.518,"zip code":"81201","description":"Natures Medicine - Change of Use","id":"a6btn10d8y4y","address":"230 W. 16th Street","geo_precision":"street","state":"CO"},"type":"Feature","geometry":{"type":"Point","coordinates":[-106.00484,38.524135]}},{"properties":{"city":"Salida","applicant":"Southwest Conservation Corp.","date":{"end_time":"2010/01/29 00:00:00 -0500","original":"1/28/10","granularity":"day","time":"2010/01/28 00:00:00 -0500"},"geo_score":0.511,"zip code":"81201","description":"Southwest Conservation Corp. - Change of Use","id":"a6btn13x1dio","address":"701 E. Hwy 50","geo_precision":"street","state":"CO"},"type":"Feature","geometry":{"type":"Point","coordinates":[-106.002873,38.524127]}},{"properties":{"city":"Salida","applicant":"Phanny Jones","date":{"end_time":"2010/05/20 00:00:00 -0400","original":"5/19/10","granularity":"day","time":"2010/05/19 00:00:00 -0400"},"geo_score":0.824,"zip code":"81201","description":"Phanny Jones - Change of Use","id":"a6btn0z9rro5","address":"205 W 1st Street","geo_precision":"range","state":"CO"},"type":"Feature","geometry":{"type":"Point","coordinates":[-105.992852,38.536942]}},{"properties":{"city":"Salida","applicant":"Brenna Johnson","date":{"end_time":"2010/06/11 00:00:00 -0400","original":"6/10/10","granularity":"day","time":"2010/06/10 00:00:00 -0400"},"geo_score":0.529,"zip code":"81201","description":"Brenna Johnson - Change of Use","id":"a6btn13g9h46","address":"130 W. 1st Street","geo_precision":"street","state":"CO"},"type":"Feature","geometry":{"type":"Point","coordinates":[-105.991782,38.536286]}},{"properties":{"city":"Salida","applicant":"City/County","date":{"end_time":"2010/08/17 00:00:00 -0400","original":"8/16/10","granularity":"day","time":"2010/08/16 00:00:00 -0400"},"geo_score":0.529,"zip code":"81201","description":"City/County - Flag Pole","id":"a6btn15uiy9a","address":"448 E. 1st Street","geo_precision":"street","state":"CO"},"type":"Feature","geometry":{"type":"Point","coordinates":[-105.990725,38.535636]}}],"is_temporal":true,"author":{"url":"","metadata":"","contact_name":"","contact_address":"","source":"","contact_phone":""},"source":"","pagination":{"sort":null,"start":0,"total":238,"limit":1000000},"state":"complete","tags":"","published":"2014-08-10T11:04:12-04:00","id":70126}