{"type":"FeatureCollection","data_type":"Dataset","url_type":null,"permissions":[{"permissions":{"download":true,"view":true},"group_id":"everyone"}],"classification":null,"title":"Supporting","count":216,"stream_id":70224,"contributor":{"url":"http://geocommons.com/users/15859","name":"jessicalum"},"data_attributes":null,"calculation_params":null,"icon_link":null,"link":"http://geocommons.com/overlays/70224.json","extent":[-123.461,32.7228,-116.514,40.7159],"geometry_types":["point"],"unique_name":null,"name":"Supporting","feature_count":216,"description":"Campaign donations in support of passing Proposition 19, which would legalize and tax marijuana in California.","next_feature":null,"is_raster":false,"short_classification":"Y","stats":{"amount $":{"max":1403376.6,"mean":9535.72143518519,"variance":9209224196.51196,"stdev":95964.7028678356,"min":25.0,"median":224.52}},"features":[{"properties":{"city":"ACAMPO","zip code":"95220","donor name":"RONALD CUSSINS","id":"a62ghvrpsmug","amount $":260.24},"type":"Feature","geometry":{"type":"Point","coordinates":[-121.278559,38.17464]}},{"properties":{"city":"AGOURA HILLS","zip code":"91367","donor name":"MARY JANES","id":"a62ghvzrzvr9","amount $":109.0},"type":"Feature","geometry":{"type":"Point","coordinates":[-118.761676,34.15334]}},{"properties":{"city":"ALAMEDA","zip code":"94501","donor name":"BRIANNA LENGEL-BAIL ($198), KELSEY TILANDER ($149)","id":"a62ghvw3vkr3","amount $":347.0},"type":"Feature","geometry":{"type":"Point","coordinates":[-122.241635,37.765207]}},{"properties":{"city":"ALISO VIEJO","zip code":"92656","donor name":"ELIZABETH JAEGER","id":"a62ghvvtixf6","amount $":150.0},"type":"Feature","geometry":{"type":"Point","coordinates":[-117.725556,33.575]}},{"properties":{"city":"ANAHEIM","zip code":"92805","donor name":"WAHEED AYUBI","id":"a62ghw4znuhf","amount $":150.0},"type":"Feature","geometry":{"type":"Point","coordinates":[-117.907324,33.827605]}},{"properties":{"city":"ANAHEIM","zip code":"92807","donor name":"FAYEZ GENADRY","id":"a62ghvr74d6y","amount $":125.0},"type":"Feature","geometry":{"type":"Point","coordinates":[-117.914504,33.835293]}},{"properties":{"city":"ANTELOPE","zip code":"95843","donor name":"PAUL SCHINDLER","id":"a62ghvtj4d5k","amount $":159.24},"type":"Feature","geometry":{"type":"Point","coordinates":[-121.359881,38.714907]}},{"properties":{"city":"AROMAS","zip code":"95004","donor name":"GEORGE MORTAN","id":"a62ghvsmmsxx","amount $":1000.0},"type":"Feature","geometry":{"type":"Point","coordinates":[-121.643001,36.888565]}},{"properties":{"city":"ARTESIA","zip code":"90701","donor name":"PHYSIS","id":"a62ghvr4wwdk","amount $":100.0},"type":"Feature","geometry":{"type":"Point","coordinates":[-118.080078,33.86483]}},{"properties":{"city":"BAKERSFIELD","zip code":"93311","donor name":"GEORGE WILLIAMS","id":"a62ghvvpsbmz","amount $":100.0},"type":"Feature","geometry":{"type":"Point","coordinates":[-119.185578,35.126851]}},{"properties":{"city":"BELLA VISTA","zip code":"96008","donor name":"JUANITA PENDERGAST","id":"a62ghw66e3ez","amount $":277.27},"type":"Feature","geometry":{"type":"Point","coordinates":[-122.120301,40.715941]}},{"properties":{"city":"BELMONT","zip code":"94002","donor name":"ADAM GLICKMAN ($239.36), CARLEEN FAYBUSOVICH ($150), CHARLES STONE ($124), STEPHEN MOORE ($107.48), VAL FAYBUSOVICH ($150)","id":"a62ghvreoq9h","amount $":770.84},"type":"Feature","geometry":{"type":"Point","coordinates":[-122.305082,37.506281]}},{"properties":{"city":"BELVEDERE TIBURON","zip code":"94920","donor name":"STEPHEN SILBERSTEIN","id":"a62ghvqitil4","amount $":50000.0},"type":"Feature","geometry":{"type":"Point","coordinates":[-122.463708,37.886993]}},{"properties":{"city":"BENICIA","zip code":"94510","donor name":"MARNIX VAN AMMERS","id":"a62ghvte7fjj","amount $":100.0},"type":"Feature","geometry":{"type":"Point","coordinates":[-122.117826,38.102383]}},{"properties":{"city":"BERKELEY","zip code":"94702","donor name":"BERKELEY PATIENTS GROUP, INC. ($5000), DONALD RAMSEY ($200), ETIENNE FONTAN ($1599)","id":"a62ghvuh16wr","amount $":6799.0},"type":"Feature","geometry":{"type":"Point","coordinates":[-122.285237,37.868058]}},{"properties":{"city":"BERKELEY","zip code":"94705","donor name":"ABRAHAM EPTON ($1000), NAOMI PITCAIRN ($1000)","id":"a62ghvzk0pij","amount $":2000.0},"type":"Feature","geometry":{"type":"Point","coordinates":[-122.237027,37.861366]}},{"properties":{"city":"BERKELEY","zip code":"94704","donor name":"DR. DALE GIERINGER ($12689.28), JOHN BETHENCOURT ($297)","id":"a62ghw2jod06","amount $":12986.28},"type":"Feature","geometry":{"type":"Point","coordinates":[-122.268224,37.863738]}},{"properties":{"city":"BERKELEY","zip code":"94707","donor name":"HAYNES ALEX","id":"a62ghw6w9vec","amount $":350.0},"type":"Feature","geometry":{"type":"Point","coordinates":[-122.279567,37.898367]}},{"properties":{"city":"BERKELEY","zip code":"94703","donor name":"MAURICIO GARZON","id":"a62ghw1xghky","amount $":100.0},"type":"Feature","geometry":{"type":"Point","coordinates":[-122.273896,37.852474]}},{"properties":{"city":"BEVERLY HILLS","zip code":"90211","donor name":"ROBERT KAMEN","id":"a62ghw1nbpqb","amount $":225.0},"type":"Feature","geometry":{"type":"Point","coordinates":[-118.384178,34.066107]}},{"properties":{"city":"BEVERLY HILLS","zip code":"90210","donor name":"GOLDRING, HERTZ &amp; LICHTENSTEIN, LLP","id":"a62ghw092uz3","amount $":1000.0},"type":"Feature","geometry":{"type":"Point","coordinates":[-118.400356,34.07362]}},{"properties":{"city":"BREA","zip code":"92821","donor name":"BRUCE RUBIN","id":"a62ghvyry9la","amount $":125.0},"type":"Feature","geometry":{"type":"Point","coordinates":[-117.866307,33.925097]}},{"properties":{"city":"BRENTWOOD","zip code":"94513","donor name":"MARIO ABAD ($159.24), WILLIAM COOKSON ($65.28)","id":"a62ghw0q5xvj","amount $":224.52},"type":"Feature","geometry":{"type":"Point","coordinates":[-121.695786,37.931868]}},{"properties":{"city":"BUENA PARK","zip code":"90620","donor name":"UNITED FOOD AND COMMERCIAL WORKERS ISSUE EDUCATION FUND","id":"a62ghw3s5tvq","amount $":10000.0},"type":"Feature","geometry":{"type":"Point","coordinates":[-118.012753,33.842872]}},{"properties":{"city":"CAMARILLO","zip code":"93010","donor name":"CLAYTON FOWLER","id":"a62ghw19cr6m","amount $":125.0},"type":"Feature","geometry":{"type":"Point","coordinates":[-119.080901,34.233091]}},{"properties":{"city":"CARLSBAD","zip code":"92009","donor name":"JOHN ABRAMS","id":"a62ghvt85crn","amount $":100.0},"type":"Feature","geometry":{"type":"Point","coordinates":[-117.238216,33.098212]}},{"properties":{"city":"CONCORD","zip code":"94520","donor name":"ANTONIO VARGAS ($453), LARRY RICHARDS ($1030), RAY SMITH ($150), TIMOTHY SHERWOOD ($500)","id":"a62ghvx22q05","amount $":2233.0},"type":"Feature","geometry":{"type":"Point","coordinates":[-122.049652,37.989907]}},{"properties":{"city":"CONCORD","zip code":"94518","donor name":"CHERRI YOUNG","id":"a62ghvsvgftc","amount $":100.0},"type":"Feature","geometry":{"type":"Point","coordinates":[-122.021234,37.946121]}},{"properties":{"city":"COSTA MESA","zip code":"92627","donor name":"MATT FENNELL","id":"a62ghw4sy2ah","amount $":50.0},"type":"Feature","geometry":{"type":"Point","coordinates":[-117.919042,33.649625]}},{"properties":{"city":"DANVILLE","zip code":"94526","donor name":"VAUGHAN JOHNSON","id":"a62ghvrvts6f","amount $":125.0},"type":"Feature","geometry":{"type":"Point","coordinates":[-121.981435,37.800695]}},{"properties":{"city":"DUBLIN","zip code":"94568","donor name":"MAX HUNT ($160.24), ROBERT SIMCOCK ($200)","id":"a62ghvs6rq1u","amount $":360.24},"type":"Feature","geometry":{"type":"Point","coordinates":[-121.907486,37.713038]}},{"properties":{"city":"EL CAJON","zip code":"92020","donor name":"ERIC ISAACSON","id":"a62ghvv0cd6a","amount $":125.0},"type":"Feature","geometry":{"type":"Point","coordinates":[-116.967581,32.796322]}},{"properties":{"city":"EL CERRITO","zip code":"94530","donor name":"HILARY CROSBY","id":"a62ghvr6wkqp","amount $":104.2},"type":"Feature","geometry":{"type":"Point","coordinates":[-122.293743,37.920206]}},{"properties":{"city":"EL DORADO","zip code":"95623","donor name":"ROD MILLER","id":"a62ghvv8r9zr","amount $":125.0},"type":"Feature","geometry":{"type":"Point","coordinates":[-120.861378,38.610078]}},{"properties":{"city":"EL SOBRANTE","zip code":"94803","donor name":"PATRICIA BACCHETTI","id":"a62ghvre41up","amount $":210.86},"type":"Feature","geometry":{"type":"Point","coordinates":[-122.276731,37.958725]}},{"properties":{"city":"ENCINO","zip code":"91316","donor name":"LISA SAWOYA","id":"a62ghvrdd7gv","amount $":295.0},"type":"Feature","geometry":{"type":"Point","coordinates":[-118.51559,34.16855]}},{"properties":{"city":"ENCINO","zip code":"91436","donor name":"RUSSELL SCHMIDT($125), KEVIN BRIGHT ($77000)","id":"a62ghvwulpvm","amount $":78125.0},"type":"Feature","geometry":{"type":"Point","coordinates":[-118.492235,34.154005]}},{"properties":{"city":"ESCONDIDO","zip code":"92025","donor name":"THOMAS SHAPARD","id":"a62ghw19u1tm","amount $":150.0},"type":"Feature","geometry":{"type":"Point","coordinates":[-117.044101,33.086449]}},{"properties":{"city":"FAIRFIELD","zip code":"94534","donor name":"SANDRA MORIARTY","id":"a62ghw1besqw","amount $":1000.0},"type":"Feature","geometry":{"type":"Point","coordinates":[-122.106467,38.267263]}},{"properties":{"city":"FELTON","zip code":"95018","donor name":"LAWRENCE MANZO ($125), JAMES GEARY ($130)","id":"a62ghvyuj5lx","amount $":255.0},"type":"Feature","geometry":{"type":"Point","coordinates":[-122.073297,37.051337]}},{"properties":{"city":"FREMONT","zip code":"94538","donor name":"GEORGE ZIMMER","id":"a62ghvu70kks","amount $":70500.0},"type":"Feature","geometry":{"type":"Point","coordinates":[-121.958687,37.501143]}},{"properties":{"city":"FRESNO","zip code":"93705","donor name":"GREGG EDWARDS","id":"a62ghvxokjrh","amount $":256.98},"type":"Feature","geometry":{"type":"Point","coordinates":[-119.829443,36.789028]}},{"properties":{"city":"GARDEN GROVE","zip code":"92845","donor name":"BRIAN ALLAN","id":"a62ghw3np0mo","amount $":100.0},"type":"Feature","geometry":{"type":"Point","coordinates":[-118.027391,33.785268]}},{"properties":{"city":"GILROY","zip code":"95020","donor name":"CHRIS CUEVAS","id":"a62ghvrafam6","amount $":160.24},"type":"Feature","geometry":{"type":"Point","coordinates":[-121.399899,37.040456]}},{"properties":{"city":"HAYWARD","zip code":"94542","donor name":"WILLIAM QUIRK","id":"a62ghvvkiumo","amount $":250.0},"type":"Feature","geometry":{"type":"Point","coordinates":[-122.021234,37.649984]}},{"properties":{"city":"HAYWARD","zip code":"94541","donor name":"DENISE MARTELLACCI","id":"a62ghvxr3h5e","amount $":310.0},"type":"Feature","geometry":{"type":"Point","coordinates":[-122.100787,37.673724]}},{"properties":{"city":"HERCULES","zip code":"94547","donor name":"MICHAEL NOLIN","id":"a62ghw687ftr","amount $":4500.0},"type":"Feature","geometry":{"type":"Point","coordinates":[-122.262553,38.008249]}},{"properties":{"city":"HERMOSA BEACH","zip code":"90254","donor name":"MILES SATTELMEIER","id":"a62ghw24zvne","amount $":100.0},"type":"Feature","geometry":{"type":"Point","coordinates":[-118.395863,33.863364]}},{"properties":{"city":"HOLLISTER","zip code":"95023","donor name":"ALEX LEIJA ($150), DEREK STONE ($150)","id":"a62ghvz38ma7","amount $":300.0},"type":"Feature","geometry":{"type":"Point","coordinates":[-121.401602,36.852455]}},{"properties":{"city":"HUNTINGTON BEACH","zip code":"92648","donor name":"GARY SCAPELLATI","id":"a62ghvsqkzre","amount $":1200.0},"type":"Feature","geometry":{"type":"Point","coordinates":[-118.012753,33.678196]}},{"properties":{"city":"HUNTINGTON BEACH","zip code":"92646","donor name":"DOUGLAS CABLE","id":"a62ghvuf4b01","amount $":500.0},"type":"Feature","geometry":{"type":"Point","coordinates":[-117.965904,33.66908]}},{"properties":{"city":"IRVINE","zip code":"92618","donor name":"MARK WELLNER","id":"a62ghvxid333","amount $":125.0},"type":"Feature","geometry":{"type":"Point","coordinates":[-117.725608,33.670933]}},{"properties":{"city":"IRVINE","zip code":"92606","donor name":"JAMES YAMADA","id":"a62ghw66b03e","amount $":100.0},"type":"Feature","geometry":{"type":"Point","coordinates":[-117.725608,33.670933]}},{"properties":{"city":"LA CRESCENTA","zip code":"91214","donor name":"LORING GREENE","id":"a62ghw44dnli","amount $":100.0},"type":"Feature","geometry":{"type":"Point","coordinates":[-118.240967,34.242634]}},{"properties":{"city":"LA MESA","zip code":"91941","donor name":"STEVE WHITTINGTON","id":"a62ghvwfkpqk","amount $":396.0},"type":"Feature","geometry":{"type":"Point","coordinates":[-116.979355,32.762226]}},{"properties":{"city":"LAFAYETTE","zip code":"94549","donor name":"JEFF WILCOX ($30099), WILCOX EMBARCADERO ASSOCIATES LLC ($10000)","id":"a62ghvxwbu6p","amount $":40099.0},"type":"Feature","geometry":{"type":"Point","coordinates":[-122.117826,37.892946]}},{"properties":{"city":"LAGUNA WOODS","zip code":"92637","donor name":"WILLIAM SCHWIED","id":"a62ghvshomg5","amount $":155.0},"type":"Feature","geometry":{"type":"Point","coordinates":[-117.728541,33.610868]}},{"properties":{"city":"LAKE FOREST","zip code":"92630","donor name":"WILLIAM BARRETT","id":"a62ghvsgbnv8","amount $":125.0},"type":"Feature","geometry":{"type":"Point","coordinates":[-117.684551,33.644752]}},{"properties":{"city":"LAKEPORT","zip code":"95453","donor name":"EDWARD FAYLE","id":"a62ghw37lxca","amount $":100.0},"type":"Feature","geometry":{"type":"Point","coordinates":[-122.921226,39.066956]}},{"properties":{"city":"LANDERS","zip code":"92285","donor name":"TERRY TURNER","id":"a62ghvtfrozi","amount $":649.0},"type":"Feature","geometry":{"type":"Point","coordinates":[-116.513796,34.361173]}},{"properties":{"city":"LOMPOC","zip code":"93436","donor name":"MATHEW ANDRESEN","id":"a62ghvzxqvyh","amount $":100.0},"type":"Feature","geometry":{"type":"Point","coordinates":[-120.389665,34.562191]}},{"properties":{"city":"LONG BEACH","zip code":"90814","donor name":"VINCENT SCULLY","id":"a62ghvsrtnqm","amount $":545.0},"type":"Feature","geometry":{"type":"Point","coordinates":[-118.142989,33.770905]}},{"properties":{"city":"LOS ALTOS","zip code":"94022","donor name":"SHANTHI MANIAN ($224), ZAKI MANIAN ($125)","id":"a62ghw4mtbam","amount $":349.0},"type":"Feature","geometry":{"type":"Point","coordinates":[-122.140541,37.369401]}},{"properties":{"city":"LOS ALTOS","zip code":"94024","donor name":"JOSEPH LONSDALE ($5000), PAUL BUCHHEIT ($5000)","id":"a62ghw03d3c2","amount $":10000.0},"type":"Feature","geometry":{"type":"Point","coordinates":[-122.117826,37.337866]}},{"properties":{"city":"LOS ANGELES","zip code":"90035","donor name":"FRANKLYN ADAMS","id":"a62ghw0un7n5","amount $":420.0},"type":"Feature","geometry":{"type":"Point","coordinates":[-118.384178,34.050751]}},{"properties":{"city":"LOS ANGELES","zip code":"90039","donor name":"MARK KULKIS","id":"a62ghvwj07jg","amount $":500.0},"type":"Feature","geometry":{"type":"Point","coordinates":[-118.25851,34.110341]}},{"properties":{"city":"LOS ANGELES","zip code":"90027","donor name":"JOSHUA ORANSKY","id":"a62ghvqlk8ih","amount $":100.0},"type":"Feature","geometry":{"type":"Point","coordinates":[-118.293589,34.122055]}},{"properties":{"city":"LOS ANGELES","zip code":"90045","donor name":"ROBBIE JAMES","id":"a62ghw6h06ek","amount $":50.0},"type":"Feature","geometry":{"type":"Point","coordinates":[-118.404626,33.956003]}},{"properties":{"city":"LOS ANGELES","zip code":"90046","donor name":"CHRIS IOVENKO ($1000), SAMANTHA M. MARTIN ($100)","id":"a62ghw2ktnbr","amount $":1100.0},"type":"Feature","geometry":{"type":"Point","coordinates":[-118.363726,34.114731]}},{"properties":{"city":"LOS ANGELES","zip code":"90048","donor name":"ALEXANDER CAMPBELL ($7365), ODAM COLLECTIVE ($8011), ELENA DE LEONARDIS ($100)","id":"a62ghw6vs0jv","amount $":15476.0},"type":"Feature","geometry":{"type":"Point","coordinates":[-118.372491,34.074155]}},{"properties":{"city":"LOS ANGELES","zip code":"90064","donor name":"NEAL DONNER ($1350), SKUNK RUNNER MEDIA LLC ($1000)","id":"a62ghvsegxrw","amount $":2350.0},"type":"Feature","geometry":{"type":"Point","coordinates":[-118.422152,34.038666]}},{"properties":{"city":"LOS ANGELES","zip code":"91356","donor name":"ALAN HEINRICH","id":"a62ghvvq8xhs","amount $":1000.0},"type":"Feature","geometry":{"type":"Point","coordinates":[-118.544779,34.166285]}},{"properties":{"city":"LOS ANGELES","zip code":"90077","donor name":"ROBERT SCHWARZ","id":"a62ghvs1d3hf","amount $":100.0},"type":"Feature","geometry":{"type":"Point","coordinates":[-118.457197,34.101486]}},{"properties":{"city":"LOS ANGELES","zip code":"90068","donor name":"ALEXANDER ROUSMANIERE","id":"a62ghvx3b1gh","amount $":1500.0},"type":"Feature","geometry":{"type":"Point","coordinates":[-118.328661,34.123516]}},{"properties":{"city":"LOS ANGELES","zip code":"90010","donor name":"PATRICK MCGINN","id":"a62ghvuodyl7","amount $":175.0},"type":"Feature","geometry":{"type":"Point","coordinates":[-118.308934,34.062545]}},{"properties":{"city":"LOS ANGELES","zip code":"90066","donor name":"HOWARD PARIS","id":"a62ghvzsnsuj","amount $":100.0},"type":"Feature","geometry":{"type":"Point","coordinates":[-118.433834,34.005017]}},{"properties":{"city":"LOS ANGELES","zip code":"90005","donor name":"DUSTIN PARSONS","id":"a62ghvwnc17a","amount $":125.0},"type":"Feature","geometry":{"type":"Point","coordinates":[-118.309665,34.057881]}},{"properties":{"city":"LOS GATOS","zip code":"95033","donor name":"BRUCE RENOUARD","id":"a62ghvv88abi","amount $":1000.0},"type":"Feature","geometry":{"type":"Point","coordinates":[-122.004179,37.160484]}},{"properties":{"city":"MARTINEZ","zip code":"94553","donor name":"WENDY SCHILLINGER","id":"a62ghvzfbo8n","amount $":478.72},"type":"Feature","geometry":{"type":"Point","coordinates":[-122.151897,37.987359]}},{"properties":{"city":"MENIFEE","zip code":"92584","donor name":"THOMAS SWICK","id":"a62ghvwejxvz","amount $":124.0},"type":"Feature","geometry":{"type":"Point","coordinates":[-117.185294,33.655739]}},{"properties":{"city":"MENLO PARK","zip code":"94025","donor name":"JAMES FADIMAN","id":"a62ghvs2mrt1","amount $":100.0},"type":"Feature","geometry":{"type":"Point","coordinates":[-122.180281,37.448491]}},{"properties":{"city":"MILL VALLEY","zip code":"94941","donor name":"ALAN SCOTT ($100), BARRY LYNN ($5)","id":"a62ghvyb73go","amount $":105.0},"type":"Feature","geometry":{"type":"Point","coordinates":[-122.542931,37.891055]}},{"properties":{"city":"MILLBRAE","zip code":"94030","donor name":"RICCI WYNNE","id":"a62ghw69sws8","amount $":159.24},"type":"Feature","geometry":{"type":"Point","coordinates":[-122.407083,37.599372]}},{"properties":{"city":"MODESTO","zip code":"95355","donor name":"ANTHONY VERRUSO ($159.24), JOHN KUNKEL ($159.24)","id":"a62ghvtu96x8","amount $":318.48},"type":"Feature","geometry":{"type":"Point","coordinates":[-120.93026,37.67045]}},{"properties":{"city":"MONTEREY","zip code":"93940","donor name":"MICHAEL HAM","id":"a62ghvrc2l25","amount $":200.0},"type":"Feature","geometry":{"type":"Point","coordinates":[-121.822098,36.576041]}},{"properties":{"city":"MONTEREY PARK","zip code":"91754","donor name":"SHANNON AHERN","id":"a62ghvv973ks","amount $":193.0},"type":"Feature","geometry":{"type":"Point","coordinates":[-118.141526,34.047232]}},{"properties":{"city":"MOORPARK","zip code":"93021","donor name":"JIM CEKLARZ","id":"a62ghw5k28z2","amount $":100.0},"type":"Feature","geometry":{"type":"Point","coordinates":[-118.882982,34.294277]}},{"properties":{"city":"MORRO BAY","zip code":"93442","donor name":"JACOB WITORT ($159.24), MICHAEL WITORT ($159.24)","id":"a62ghvxout5m","amount $":318.48},"type":"Feature","geometry":{"type":"Point","coordinates":[-120.780968,35.39295]}},{"properties":{"city":"MOUNTAIN VIEW","zip code":"94043","donor name":"ALAN FENG ($124), DANIEL WAYLONIS ($149)","id":"a62ghvs9jjsj","amount $":273.0},"type":"Feature","geometry":{"type":"Point","coordinates":[-122.072382,37.428434]}},{"properties":{"city":"MOUNTAIN VIEW","zip code":"94041","donor name":"SUE TEMPEY","id":"a62ghvsjmqrf","amount $":199.0},"type":"Feature","geometry":{"type":"Point","coordinates":[-122.075222,37.386773]}},{"properties":{"city":"MOUNTAIN VIEW","zip code":"94040","donor name":"DANIEL IGNATOFF ($224), NATHAN GAYLINN ($2000)","id":"a62ghvtgq9jo","amount $":2224.0},"type":"Feature","geometry":{"type":"Point","coordinates":[-122.086585,37.378535]}},{"properties":{"city":"NEWARK","zip code":"94560","donor name":"TROY BURLEIGH","id":"a62ghw687as0","amount $":240.36},"type":"Feature","geometry":{"type":"Point","coordinates":[-122.04024,37.529659]}},{"properties":{"city":"NIPOMO","zip code":"93444","donor name":"MARY STACKHOUSE","id":"a62ghvx9cbg1","amount $":200.0},"type":"Feature","geometry":{"type":"Point","coordinates":[-120.458806,35.044361]}},{"properties":{"city":"OAKLAND","zip code":"94610","donor name":"JAMES SILVA ($916.49), JC ALVORD ($317.49), JOEL GILBERTSON-WHITE ($199)","id":"a62ghw12trpy","amount $":1433.97},"type":"Feature","geometry":{"type":"Point","coordinates":[-122.239864,37.810449]}},{"properties":{"city":"OAKLAND","zip code":"94609","donor name":"DAN RUSH ($100), JOHN WAGERS ($130), RONIN PUBLISHING INC. ($100), SEAN LUSE ($250)","id":"a62ghvu4dtz4","amount $":580.0},"type":"Feature","geometry":{"type":"Point","coordinates":[-122.262553,37.832117]}},{"properties":{"city":"OAKLAND","zip code":"94611","donor name":"CARISON STOKES ($160.24), GREG COVER ($309)","id":"a62ghw5uzu9d","amount $":469.24},"type":"Feature","geometry":{"type":"Point","coordinates":[-122.202983,37.833628]}},{"properties":{"city":"OAKLAND","zip code":"94608","donor name":"NANCY NADEL","id":"a62ghvt1zw4j","amount $":125.0},"type":"Feature","geometry":{"type":"Point","coordinates":[-122.282402,37.837959]}},{"properties":{"city":"OAKLAND","zip code":"94607","donor name":"K.L. FRY","id":"a62ghw5afcjx","amount $":200.0},"type":"Feature","geometry":{"type":"Point","coordinates":[-122.290908,37.809143]}},{"properties":{"city":"OAKLAND","zip code":"94612","donor name":"CALIFORNIA CAPITAL GROUP ($250), JAMES WHEATON ATTORNEY AT LAW ($200), JEFFREY JONES ($3450), JIM SEKOCH ($159.24), LINDA JACKSON ($150), MINNIE WATSON ($5000), OLIVER SCOTT ($159.24), PAT SPEESE ($1959.37), REBECCA SCHNEIDER ($50)","id":"a62ghvzz64xu","amount $":11377.85},"type":"Feature","geometry":{"type":"Point","coordinates":[-122.268224,37.811316]}},{"properties":{"city":"OAKLAND","zip code":"94618","donor name":"PATRICIA DEDEKIAN","id":"a62ghw3d6zrr","amount $":105.43},"type":"Feature","geometry":{"type":"Point","coordinates":[-122.237027,37.842303]}},{"properties":{"city":"OAKLAND","zip code":"94111","donor name":"GERALD CARROLL","id":"a62ghvzwaiyw","amount $":204.0},"type":"Feature","geometry":{"type":"Point","coordinates":[-122.400003,37.798318]}},{"properties":{"city":"OAKLAND","zip code":"94619","donor name":"FELICIA SHAW","id":"a62ghvwh5ii4","amount $":200.0},"type":"Feature","geometry":{"type":"Point","coordinates":[-122.146219,37.793681]}},{"properties":{"city":"OAKLAND","zip code":"94606","donor name":"DAVID ABERNATHY","id":"a62ghvr40uil","amount $":497.61},"type":"Feature","geometry":{"type":"Point","coordinates":[-122.245536,37.794409]}},{"properties":{"city":"OAKLAND","zip code":"94605","donor name":"GEORGE ROSEN","id":"a62ghvtbhtxv","amount $":198.0},"type":"Feature","geometry":{"type":"Point","coordinates":[-122.134863,37.758945]}},{"properties":{"city":"OAKLAND","zip code":"94602","donor name":"CHRISTIAN SMITHERUM ($139.36), LINDA CARLTON ($105.43), SCOTT MACPHERSON ($100)","id":"a62ghvqep7z9","amount $":544.79},"type":"Feature","geometry":{"type":"Point","coordinates":[-122.211495,37.804802]}},{"properties":{"city":"OCEANSIDE","zip code":"92056","donor name":"DION MARKGRAAFF","id":"a62ghw3yzlmr","amount $":125.0},"type":"Feature","geometry":{"type":"Point","coordinates":[-117.297003,33.198755]}},{"properties":{"city":"OJAI","zip code":"93023","donor name":"PAT MCPHERSON ($100), RINALDO BRUTOCO ($1000)","id":"a62ghw4jgd5d","amount $":1100.0},"type":"Feature","geometry":{"type":"Point","coordinates":[-118.906279,34.633751]}},{"properties":{"city":"ONTARIO","zip code":"91764","donor name":"ANTHONY WICHER","id":"a62ghvsx2mn9","amount $":200.0},"type":"Feature","geometry":{"type":"Point","coordinates":[-117.614146,34.073987]}},{"properties":{"city":"ORANGE","zip code":"92868","donor name":"DARIN BROWN","id":"a62ghvu87tw7","amount $":180.0},"type":"Feature","geometry":{"type":"Point","coordinates":[-117.875098,33.78659]}},{"properties":{"city":"ORINDA","zip code":"94563","donor name":"ROBERT BOYD","id":"a62ghw22l0bz","amount $":100.0},"type":"Feature","geometry":{"type":"Point","coordinates":[-122.185957,37.891253]}},{"properties":{"city":"Oakland","zip code":"94612","donor name":"S.K. Seymour LLC, Oaksterdam University and affiliated entities","id":"a62ghvzvppj3","amount $":1403376.6},"type":"Feature","geometry":{"type":"Point","coordinates":[-122.269679,37.805985]}},{"properties":{"city":"PACIFIC PALISADES","zip code":"90272","donor name":"LUKE SINQUEFIELD","id":"a62ghw2znk7s","amount $":1000.0},"type":"Feature","geometry":{"type":"Point","coordinates":[-118.544779,34.084525]}},{"properties":{"city":"PACIFICA","zip code":"94044","donor name":"MICHAEL MARINACCI","id":"a62ghvwdw941","amount $":100.0},"type":"Feature","geometry":{"type":"Point","coordinates":[-122.458047,37.598045]}},{"properties":{"city":"PALO ALTO","zip code":"94301","donor name":"BETSY CURRIE ($500), BRIAN ANDERSON ($175), ANDY HERTZFELD ($3000)","id":"a62ghw6ufygn","amount $":3675.0},"type":"Feature","geometry":{"type":"Point","coordinates":[-122.157574,37.445797]}},{"properties":{"city":"PALO ALTO","zip code":"94303","donor name":"MATTHEW LENNIG","id":"a62ghw4sek6b","amount $":186.0},"type":"Feature","geometry":{"type":"Point","coordinates":[-122.123505,37.45613]}},{"properties":{"city":"PASADENA","zip code":"91104","donor name":"PHILLIP BLUM","id":"a62ghw4stzpf","amount $":269.0},"type":"Feature","geometry":{"type":"Point","coordinates":[-118.11812,34.165771]}},{"properties":{"city":"PASADENA","zip code":"91106","donor name":"DANIEL MONTANES","id":"a62ghvtyp0wk","amount $":159.24},"type":"Feature","geometry":{"type":"Point","coordinates":[-118.126898,34.140543]}},{"properties":{"city":"PEBBLE BEACH","zip code":"93953","donor name":"DAVID SPILKER","id":"a62ghvws0eax","amount $":349.0},"type":"Feature","geometry":{"type":"Point","coordinates":[-121.941623,36.584194]}},{"properties":{"city":"PENN VALLEY","zip code":"95946","donor name":"GENE WEST","id":"a62ghvrh3ov3","amount $":50.0},"type":"Feature","geometry":{"type":"Point","coordinates":[-121.205396,39.228051]}},{"properties":{"city":"PENNGROVE","zip code":"94951","donor name":"H.R. DOWNS","id":"a62ghw4vmh8d","amount $":125.0},"type":"Feature","geometry":{"type":"Point","coordinates":[-122.6447,38.323659]}},{"properties":{"city":"PETALUMA","zip code":"94955","donor name":"JIM MCCAFFREY","id":"a62ghw6ukns2","amount $":232.98},"type":"Feature","geometry":{"type":"Point","coordinates":[-122.64,38.23]}},{"properties":{"city":"PHILO","zip code":"95466","donor name":"ERIC ARBANOVELLA","id":"a62ghvxtkqjg","amount $":2000.0},"type":"Feature","geometry":{"type":"Point","coordinates":[-123.460774,39.117384]}},{"properties":{"city":"PLEASANT HILL","zip code":"94523","donor name":"LAURA UNRUH","id":"a62ghvztiycl","amount $":100.0},"type":"Feature","geometry":{"type":"Point","coordinates":[-122.072382,37.944892]}},{"properties":{"city":"PLEASANTON","zip code":"94588","donor name":"JON TAYLOR","id":"a62ghw5qasan","amount $":125.0},"type":"Feature","geometry":{"type":"Point","coordinates":[-121.913176,37.687391]}},{"properties":{"city":"PLEASANTON","zip code":"94566","donor name":"DARRELL CLARIDGE","id":"a62ghvtx4rke","amount $":420.0},"type":"Feature","geometry":{"type":"Point","coordinates":[-121.867646,37.64362]}},{"properties":{"city":"PLYMOUTH","zip code":"95669","donor name":"MICHAEL BALDINELLI","id":"a62ghvx03iot","amount $":125.0},"type":"Feature","geometry":{"type":"Point","coordinates":[-120.872861,38.482902]}},{"properties":{"city":"PORTOLA VALLEY","zip code":"94028","donor name":"BRIAN MCCLENDON","id":"a62ghw3dd5jz","amount $":500.0},"type":"Feature","geometry":{"type":"Point","coordinates":[-122.208658,37.387118]}},{"properties":{"city":"RANCHO CUCAMONGA","zip code":"91701","donor name":"DAVID ALDRICH","id":"a62ghw42rbvf","amount $":50.0},"type":"Feature","geometry":{"type":"Point","coordinates":[-117.614146,34.135667]}},{"properties":{"city":"RANCHO MURIETA","zip code":"95683","donor name":"WILBUR HAINES","id":"a62ghvvwkmdg","amount $":102.0},"type":"Feature","geometry":{"type":"Point","coordinates":[-121.102294,38.491989]}},{"properties":{"city":"REDDING","zip code":"96003","donor name":"PATTI T. SWAIM","id":"a62ghvxjf8bu","amount $":211.99},"type":"Feature","geometry":{"type":"Point","coordinates":[-122.289072,40.70998]}},{"properties":{"city":"REDWOOD CITY","zip code":"94062","donor name":"BRIAN ESCOBAR ($100), MARC JACOBS ($250)","id":"a62ghw63i5lz","amount $":350.0},"type":"Feature","geometry":{"type":"Point","coordinates":[-122.288073,37.410893]}},{"properties":{"city":"SACRAMENTO","zip code":"95842","donor name":"DRUG POLICY ACTION COMMITTEE TO TAX AND REGULATE MARIJUANA","id":"a62ghw5i82he","amount $":35000.0},"type":"Feature","geometry":{"type":"Point","coordinates":[-121.348445,38.680413]}},{"properties":{"city":"SACRAMENTO","zip code":"95816","donor name":"ROBERT SULLIVAN, MD","id":"a62ghw2ojetr","amount $":100.0},"type":"Feature","geometry":{"type":"Point","coordinates":[-121.462758,38.570535]}},{"properties":{"city":"SAN BRUNO","zip code":"94066","donor name":"ELIZABETH SWEETMAN","id":"a62ghw0otfre","amount $":318.48},"type":"Feature","geometry":{"type":"Point","coordinates":[-122.429737,37.62107]}},{"properties":{"city":"SAN CARLOS","zip code":"94070","donor name":"CONNIE DESAUTELS","id":"a62ghvuacj7r","amount $":50.0},"type":"Feature","geometry":{"type":"Point","coordinates":[-122.27106,37.497517]}},{"properties":{"city":"SAN DIEGO","zip code":"92119","donor name":"ROBERT W. HOLDENVENZON","id":"a62ghvuedxka","amount $":124.0},"type":"Feature","geometry":{"type":"Point","coordinates":[-117.038216,32.811287]}},{"properties":{"city":"SAN DIEGO","zip code":"92104","donor name":"DANNY CRAIG","id":"a62ghw4sid8t","amount $":100.0},"type":"Feature","geometry":{"type":"Point","coordinates":[-117.132358,32.747575]}},{"properties":{"city":"SAN DIEGO","zip code":"92106","donor name":"ERIC KAUFMAN","id":"a62ghvx7bqhx","amount $":200.0},"type":"Feature","geometry":{"type":"Point","coordinates":[-117.238216,32.722844]}},{"properties":{"city":"SAN DIEGO","zip code":"92117","donor name":"HOWARD KNUDSEN ($135), JASON GRESCHLER ($125), MARGARET KETNER ($159.24)","id":"a62ghvzmnugo","amount $":419.24},"type":"Feature","geometry":{"type":"Point","coordinates":[-117.202936,32.825077]}},{"properties":{"city":"SAN DIEGO","zip code":"92109","donor name":"RA HALEVI","id":"a62ghvsoxp2a","amount $":125.0},"type":"Feature","geometry":{"type":"Point","coordinates":[-117.249975,32.803617]}},{"properties":{"city":"SAN DIEGO","zip code":"92116","donor name":"SACHI WILSON","id":"a62ghvsbp18v","amount $":125.0},"type":"Feature","geometry":{"type":"Point","coordinates":[-117.123534,32.762693]}},{"properties":{"city":"SAN DIEGO","zip code":"92123","donor name":"RICK ERICSON","id":"a62ghvzvjthd","amount $":100.0},"type":"Feature","geometry":{"type":"Point","coordinates":[-117.132358,32.810253]}},{"properties":{"city":"SAN DIEGO","zip code":"92129","donor name":"ROBERT GREENHALL","id":"a62ghw21tsxb","amount $":500.0},"type":"Feature","geometry":{"type":"Point","coordinates":[-117.13824,32.960197]}},{"properties":{"city":"SAN DIEGO","zip code":"92127","donor name":"ANDREW GOOD","id":"a62ghw454lcy","amount $":100.0},"type":"Feature","geometry":{"type":"Point","coordinates":[-117.114709,33.028256]}},{"properties":{"city":"SAN DIEGO","zip code":"92121","donor name":"MATT ZIMMERMAN","id":"a62ghvw9cygn","amount $":100.0},"type":"Feature","geometry":{"type":"Point","coordinates":[-117.202936,32.898114]}},{"properties":{"city":"SAN DIEGO","zip code":"92120","donor name":"LAWRENCE E. HESS","id":"a62ghvqtwjs1","amount $":5000.0},"type":"Feature","geometry":{"type":"Point","coordinates":[-117.073524,32.792626]}},{"properties":{"city":"SAN DIEGO","zip code":"92126","donor name":"KEVIN LINDGREN","id":"a62ghvupf9eu","amount $":50.0},"type":"Feature","geometry":{"type":"Point","coordinates":[-117.13824,32.918476]}},{"properties":{"city":"SAN FRANCISCO","zip code":"94127","donor name":"CODY PHIPPS","id":"a62ghvvqpn08","amount $":159.24},"type":"Feature","geometry":{"type":"Point","coordinates":[-122.463708,37.734646]}},{"properties":{"city":"SAN FRANCISCO","zip code":"94123","donor name":"MARSHA ROSENBAUM ($1000), DOUGLAS GOLDMAN ($5000), LISA GOLDMAN ($5000)","id":"a62ghw6p95eh","amount $":11000.0},"type":"Feature","geometry":{"type":"Point","coordinates":[-122.438231,37.802041]}},{"properties":{"city":"SAN FRANCISCO","zip code":"94131","donor name":"GEORGE REY","id":"a62ghw20l0rr","amount $":25.0},"type":"Feature","geometry":{"type":"Point","coordinates":[-122.438231,37.740104]}},{"properties":{"city":"SAN FRANCISCO","zip code":"94122","donor name":"JENNY OH","id":"a62ghw1a3ub6","amount $":105.43},"type":"Feature","geometry":{"type":"Point","coordinates":[-122.475029,37.759748]}},{"properties":{"city":"SAN FRANCISCO","zip code":"94133","donor name":"NEDRA RUIZ","id":"a62ghvxzt10o","amount $":125.0},"type":"Feature","geometry":{"type":"Point","coordinates":[-122.409915,37.801226]}},{"properties":{"city":"SAN FRANCISCO","zip code":"91134","donor name":"SIGN DISPLAY &amp; ALLIED CRAFTS LOCAL 510 PAC","id":"a62ghvs6bvf8","amount $":500.0},"type":"Feature","geometry":{"type":"Point","coordinates":[-122.39771,37.793477]}},{"properties":{"city":"SAN FRANCISCO","zip code":"94117","donor name":"JACQUELINE PRITZKER ($1000), LATANYA LINZIE ($400), MARK STONER ($125), JOHN GILMORE ($2000)","id":"a62ghvx4d831","amount $":3525.0},"type":"Feature","geometry":{"type":"Point","coordinates":[-122.443893,37.771719]}},{"properties":{"city":"SAN FRANCISCO","zip code":"94129","donor name":"PETER THIEL","id":"a62ghw15hkax","amount $":70000.0},"type":"Feature","geometry":{"type":"Point","coordinates":[-122.466538,37.798085]}},{"properties":{"city":"SAN FRANCISCO","zip code":"94114","donor name":"ADRIENNE SMITH ($119), C STEVEN SHORT ($155), DAVID C. GOLDMAN ($100), DAVID GARNER ($800), JOHN STAHL ($250), MAX MEIER ($100)","id":"a62ghvz9uqwt","amount $":1524.0},"type":"Feature","geometry":{"type":"Point","coordinates":[-122.432568,37.756144]}},{"properties":{"city":"SAN FRANCISCO","zip code":"94110","donor name":"ADAM HUPP ($500), DUSTIN MOSKOVITZ ($70,000), JAMES UPCHURCH ($100), JUSTIN ROSENSTEIN ($1275), MARK HUNTER ($100)","id":"a62ghvwahi4t","amount $":71975.0},"type":"Feature","geometry":{"type":"Point","coordinates":[-122.418411,37.748582]}},{"properties":{"city":"SAN FRANCISCO","zip code":"94109","donor name":"ALEXANDER KUTIK ($250), GREG GRIMALA ($50)","id":"a62ghvw0xf6z","amount $":300.0},"type":"Feature","geometry":{"type":"Point","coordinates":[-122.421242,37.792979]}},{"properties":{"city":"SAN FRANCISCO","zip code":"94108","donor name":"JAYNE GOLDSTEIN","id":"a62ghvvrnr9h","amount $":125.0},"type":"Feature","geometry":{"type":"Point","coordinates":[-122.408499,37.790943]}},{"properties":{"city":"SAN FRANCISCO","zip code":"94107","donor name":"ADAM WIGGINS ($4000), GIL SHAFIR ($100)","id":"a62ghvykv09j","amount $":4100.0},"type":"Feature","geometry":{"type":"Point","coordinates":[-122.398587,37.761824]}},{"properties":{"city":"SAN FRANCISCO","zip code":"94105","donor name":"CREDO VICTORY FUND - YES WE CANNABIS","id":"a62ghvvqirl9","amount $":1449.97},"type":"Feature","geometry":{"type":"Point","coordinates":[-122.394339,37.79053]}},{"properties":{"city":"SAN FRANCISCO","zip code":"94103","donor name":"CAROL RUTH SILVER","id":"a62ghvr9flwn","amount $":50.0},"type":"Feature","geometry":{"type":"Point","coordinates":[-122.409915,37.77264]}},{"properties":{"city":"SAN FRANCISCO","zip code":"94960","donor name":"MARTIN KAUFMAN","id":"a62ghvzgvwdc","amount $":1000.0},"type":"Feature","geometry":{"type":"Point","coordinates":[-122.565555,37.988536]}},{"properties":{"city":"SAN FRANCISCO","zip code":"94115","donor name":"JENNIFER PHILLIPS","id":"a62ghvv9zlx3","amount $":40.0},"type":"Feature","geometry":{"type":"Point","coordinates":[-122.438231,37.787752]}},{"properties":{"city":"SAN GERONIMO","zip code":"94963","donor name":"MR. GEORGE BIANCHINI","id":"a62ghvrql1y3","amount $":1316.29},"type":"Feature","geometry":{"type":"Point","coordinates":[-122.667302,37.994899]}},{"properties":{"city":"SAN JOSE","zip code":"95134","donor name":"MICHAEL LOPEZ","id":"a62ghvy0tbdv","amount $":100.0},"type":"Feature","geometry":{"type":"Point","coordinates":[-121.952999,37.43085]}},{"properties":{"city":"SAN JOSE","zip code":"95121","donor name":"RICHARD STEEB","id":"a62ghvrvbwa5","amount $":279.2},"type":"Feature","geometry":{"type":"Point","coordinates":[-121.805012,37.302108]}},{"properties":{"city":"SAN JOSE","zip code":"95117","donor name":"JOHN ROPER","id":"a62ghvru8r7c","amount $":420.0},"type":"Feature","geometry":{"type":"Point","coordinates":[-121.961531,37.310524]}},{"properties":{"city":"SAN JOSE","zip code":"95123","donor name":"PETKO PETKOV","id":"a62ghw2b78ga","amount $":125.0},"type":"Feature","geometry":{"type":"Point","coordinates":[-121.827792,37.237485]}},{"properties":{"city":"SAN JOSE","zip code":"95128","donor name":"JACK SHANNON","id":"a62ghvwavw9f","amount $":100.0},"type":"Feature","geometry":{"type":"Point","coordinates":[-121.930245,37.312713]}},{"properties":{"city":"SAN JOSE","zip code":"95139","donor name":"JEFFREY SWANSON","id":"a62ghw46mvd4","amount $":130.56},"type":"Feature","geometry":{"type":"Point","coordinates":[-121.762287,37.225711]}},{"properties":{"city":"SAN LUIS OBISPO","zip code":"93401","donor name":"GENE COURTER","id":"a62ghvv2qt2a","amount $":100.0},"type":"Feature","geometry":{"type":"Point","coordinates":[-120.642999,35.232662]}},{"properties":{"city":"SAN MATEO","zip code":"94402","donor name":"ALAN RATHBURN","id":"a62ghvw98g97","amount $":200.0},"type":"Feature","geometry":{"type":"Point","coordinates":[-122.339094,37.524597]}},{"properties":{"city":"SANTA ANA","zip code":"92707","donor name":"IAN KOSKELA","id":"a62ghvzqi5pm","amount $":125.0},"type":"Feature","geometry":{"type":"Point","coordinates":[-117.872168,33.702309]}},{"properties":{"city":"SANTA BARBARA","zip code":"93140","donor name":"DAVID GIBBS","id":"a62ghvuzsp3m","amount $":1000.0},"type":"Feature","geometry":{"type":"Point","coordinates":[-119.68,34.42]}},{"properties":{"city":"SANTA BARBARA","zip code":"93108","donor name":"RICHARD B. MAZESS","id":"a62ghvu92rhf","amount $":50000.0},"type":"Feature","geometry":{"type":"Point","coordinates":[-119.615143,34.438141]}},{"properties":{"city":"SANTA BARBARA","zip code":"93105","donor name":"ELAINE GIBSON ($100), PEG JARROTT ($100), LEN JARROTT ($2000)","id":"a62ghvv75fb9","amount $":2200.0},"type":"Feature","geometry":{"type":"Point","coordinates":[-119.812079,34.010912]}},{"properties":{"city":"SANTA CLARA","zip code":"95050","donor name":"HEDLEY RAINNIE ($150), THE INTERNATIONAL CANNABIS &amp; HEMP EXPO ($100)","id":"a62ghw3s2eky","amount $":250.0},"type":"Feature","geometry":{"type":"Point","coordinates":[-121.952999,37.353966]}},{"properties":{"city":"SANTA CLARA","zip code":"95054","donor name":"BRYAN BOOT","id":"a62ghvvalymz","amount $":553.0},"type":"Feature","geometry":{"type":"Point","coordinates":[-121.964374,37.398604]}},{"properties":{"city":"SANTA CRUZ","zip code":"95062","donor name":"DOUGLAS BERGENGREN","id":"a62ghw113otu","amount $":1000.0},"type":"Feature","geometry":{"type":"Point","coordinates":[-121.987122,36.977452]}},{"properties":{"city":"SANTA CRUZ","zip code":"95060","donor name":"ETHAN WEISS ($824), JASALAH LEVERETTE ($159.24)","id":"a62ghw2wksqr","amount $":983.24},"type":"Feature","geometry":{"type":"Point","coordinates":[-122.117826,37.010531]}},{"properties":{"city":"SANTA MONICA","zip code":"90404","donor name":"DARREN SCHULTZ","id":"a62ghw65un94","amount $":125.0},"type":"Feature","geometry":{"type":"Point","coordinates":[-118.468878,34.026926]}},{"properties":{"city":"SANTA MONICA","zip code":"90405","donor name":"ANDREW LAHDE","id":"a62ghw5pywub","amount $":5000.0},"type":"Feature","geometry":{"type":"Point","coordinates":[-118.465958,34.009746]}},{"properties":{"city":"SANTA MONICA","zip code":"90403","donor name":"ANTHONY CITRANO","id":"a62ghvvvl0ua","amount $":420.0},"type":"Feature","geometry":{"type":"Point","coordinates":[-118.495155,34.02799]}},{"properties":{"city":"SANTA ROSA","zip code":"95404","donor name":"ISAAC HAUGEN","id":"a62ghw6u8p2w","amount $":477.72},"type":"Feature","geometry":{"type":"Point","coordinates":[-122.695547,38.538688]}},{"properties":{"city":"SEBASTOPOL","zip code":"95472","donor name":"MARK HANDLEY","id":"a62ghw6qmodj","amount $":107.48},"type":"Feature","geometry":{"type":"Point","coordinates":[-122.876131,38.369075]}},{"properties":{"city":"SHERMAN OAKS","zip code":"91403","donor name":"RICHARD WOLFE ($2100), NORMAN B. GOLDBERG ($5000)","id":"a62ghvsfz7bd","amount $":7100.0},"type":"Feature","geometry":{"type":"Point","coordinates":[-118.457197,34.14239]}},{"properties":{"city":"SHERMAN OAKS","zip code":"91423","donor name":"KRISTINE STIEG","id":"a62ghvubfy8o","amount $":100.0},"type":"Feature","geometry":{"type":"Point","coordinates":[-118.433834,34.148269]}},{"properties":{"city":"SOLVANG","zip code":"93463","donor name":"KAI HALLAUER ($500), RUDI VAN ENOO, DPM ($50)","id":"a62ghw6pzks8","amount $":550.0},"type":"Feature","geometry":{"type":"Point","coordinates":[-120.147383,34.63834]}},{"properties":{"city":"SONOMA","zip code":"95476","donor name":"ESTELLA CERVANTES","id":"a62ghw4wzmb2","amount $":3000.0},"type":"Feature","geometry":{"type":"Point","coordinates":[-122.458036,38.291859]}},{"properties":{"city":"STINSON BEACH","zip code":"94970","donor name":"ALBERT COLES","id":"a62ghvt1vgbw","amount $":519.0},"type":"Feature","geometry":{"type":"Point","coordinates":[-122.633397,37.910531]}},{"properties":{"city":"STOCKTON","zip code":"95207","donor name":"ALAN CHANDLER","id":"a62ghvyx7ity","amount $":473.11},"type":"Feature","geometry":{"type":"Point","coordinates":[-121.319849,37.998375]}},{"properties":{"city":"STUDIO CITY","zip code":"91604","donor name":"GLEN WHITMAN ($200), JEAN FLEMING ($95)","id":"a62ghw6g8rax","amount $":295.0},"type":"Feature","geometry":{"type":"Point","coordinates":[-118.387099,34.13956]}},{"properties":{"city":"SUMMERLAND","zip code":"93067","donor name":"STEVEN LEVINE","id":"a62ghvqswpsg","amount $":100.0},"type":"Feature","geometry":{"type":"Point","coordinates":[-119.601376,34.420919]}},{"properties":{"city":"SUNNYVALE","zip code":"94087","donor name":"RICHARD GEIGER ($965), ROBERT WEISSMAN ($50)","id":"a62ghvulk4fn","amount $":1015.0},"type":"Feature","geometry":{"type":"Point","coordinates":[-122.032602,37.34921]}},{"properties":{"city":"TEHACHAPI","zip code":"93561","donor name":"ADRIAN MOORE","id":"a62ghvwv6m8g","amount $":125.0},"type":"Feature","geometry":{"type":"Point","coordinates":[-118.533104,35.134675]}},{"properties":{"city":"THOUSAND OAKS","zip code":"91360","donor name":"STEVEN WOODWARD ($100), GARY PIPES ($1000)","id":"a62ghw6m6yw7","amount $":1100.0},"type":"Feature","geometry":{"type":"Point","coordinates":[-118.894631,34.219999]}},{"properties":{"city":"TOPANGA","zip code":"90290","donor name":"FRED DELISIO","id":"a62ghw4vt2gd","amount $":100.0},"type":"Feature","geometry":{"type":"Point","coordinates":[-118.61481,34.107698]}},{"properties":{"city":"TORRANCE","zip code":"90504","donor name":"LARRY SNYDER","id":"a62ghvtboe88","amount $":100.0},"type":"Feature","geometry":{"type":"Point","coordinates":[-118.328661,33.867327]}},{"properties":{"city":"TUJUNGA","zip code":"91042","donor name":"ROBERT ORSBURN","id":"a62ghvsbyqi4","amount $":200.0},"type":"Feature","geometry":{"type":"Point","coordinates":[-118.229271,34.296676]}},{"properties":{"city":"VACAVILLE","zip code":"95687","donor name":"MICHAEL KIM","id":"a62ghw06c4im","amount $":99.0},"type":"Feature","geometry":{"type":"Point","coordinates":[-121.913176,38.316541]}},{"properties":{"city":"VACAVILLE","zip code":"95688","donor name":"JACKIE SHIPLEY","id":"a62ghw29273m","amount $":212.98},"type":"Feature","geometry":{"type":"Point","coordinates":[-122.015549,38.408701]}},{"properties":{"city":"VALLEY CENTER","zip code":"92082","donor name":"BRETT JACKSON","id":"a62ghw53n18t","amount $":100.0},"type":"Feature","geometry":{"type":"Point","coordinates":[-117.008788,33.230094]}},{"properties":{"city":"VAN NUYS","zip code":"91406","donor name":"ROBERT BROOKS","id":"a62ghvsbe71y","amount $":75.0},"type":"Feature","geometry":{"type":"Point","coordinates":[-118.498074,34.198512]}},{"properties":{"city":"VENICE","zip code":"90291","donor name":"ELISABETH LAFFERTY","id":"a62ghw327d19","amount $":100.0},"type":"Feature","geometry":{"type":"Point","coordinates":[-118.468878,33.996214]}},{"properties":{"city":"VISALIA","zip code":"93291","donor name":"STEVEN CANTRELL","id":"a62ghw5cgcdw","amount $":100.0},"type":"Feature","geometry":{"type":"Point","coordinates":[-119.348265,36.382084]}},{"properties":{"city":"WALNUT CREEK","zip code":"94596","donor name":"BRYAN HYMAN ($150), COMPLEMENTARY ALTERNATIVE MEDICINE CORPORATION($200)","id":"a62ghw14fdp5","amount $":350.0},"type":"Feature","geometry":{"type":"Point","coordinates":[-122.032602,37.885453]}},{"properties":{"city":"WALNUT CREEK","zip code":"94595","donor name":"SALWA IBRAHIM","id":"a62ghvzhxf66","amount $":780.0},"type":"Feature","geometry":{"type":"Point","coordinates":[-122.0667,37.875107]}},{"properties":{"city":"WEST COVINA","zip code":"91791","donor name":"ALEX SMALL","id":"a62ghvu9focw","amount $":420.0},"type":"Feature","geometry":{"type":"Point","coordinates":[-117.895606,34.056638]}},{"properties":{"city":"WEST HILLS","zip code":"91307","donor name":"CLAUDE WALDBAUM ($200), PRESCRIPTION VENDING MACHINES, INC ($5000)","id":"a62ghw0b4lfa","amount $":5200.0},"type":"Feature","geometry":{"type":"Point","coordinates":[-118.684811,34.212444]}},{"properties":{"city":"WEST HOLLYWOOD","zip code":"90069","donor name":"PETER MALICK","id":"a62ghvu07hnj","amount $":100.0},"type":"Feature","geometry":{"type":"Point","coordinates":[-118.378335,34.09316]}},{"properties":{"city":"WHITTIER","zip code":"90601","donor name":"FRANCISCO SANCHEZ","id":"a62ghvzfdcgd","amount $":100.0},"type":"Feature","geometry":{"type":"Point","coordinates":[-118.030319,34.008068]}},{"properties":{"city":"WHITTIER","zip code":"90605","donor name":"JENNIFER GAYNOR","id":"a62ghvx45t3l","amount $":435.0},"type":"Feature","geometry":{"type":"Point","coordinates":[-118.027391,33.954885]}},{"properties":{"city":"WOODLAND HILLS","zip code":"91367","donor name":"HARRY FISHER","id":"a62ghw1mk3x5","amount $":100.0},"type":"Feature","geometry":{"type":"Point","coordinates":[-118.597305,34.178526]}},{"properties":{"city":"WRIGHTWOOD","zip code":"92397","donor name":"MARY MELKONIAN","id":"a62ghw4nlahh","amount $":500.0},"type":"Feature","geometry":{"type":"Point","coordinates":[-117.637617,34.376262]}},{"properties":{"city":"YUBA CITY","zip code":"95993","donor name":"KARM BAINES","id":"a62ghw6gka6z","amount $":500.0},"type":"Feature","geometry":{"type":"Point","coordinates":[-121.696744,39.071509]}}],"is_temporal":false,"author":{"url":"http://www.sos.ca.gov","metadata":"","contact_name":"Jessica Lum","contact_address":"jessica.lum@missionlocal.org","source":"California Secretary of State Campaign Finance","contact_phone":""},"source":"http://www.sos.ca.gov","pagination":{"sort":null,"start":0,"total":216,"limit":1000000},"state":"complete","tags":"19,california,district,donation,francisco,marijuana,mission,political,proposition,san","published":"2010-10-26T04:42:32Z","id":70224}