{"type":"FeatureCollection","data_type":"Dataset","url_type":null,"permissions":[{"permissions":{"download":true,"view":true},"group_id":"everyone"}],"classification":null,"title":"deals day spas","count":6,"stream_id":70764,"contributor":{"url":"http://geocommons.com/users/17425","name":"maptastic"},"data_attributes":null,"calculation_params":null,"icon_link":null,"link":"http://geocommons.com/overlays/70764.json","extent":[-122.334,32.9526,-117.262,47.6615],"geometry_types":["point"],"unique_name":null,"name":"deals day spas","feature_count":6,"description":"","next_feature":null,"is_raster":false,"short_classification":"Y","stats":{"latitude":{"max":47.661527,"mean":45.1823455,"variance":35.8965433688331,"stdev":5.99137241112861,"min":32.952564,"median":47.628216},"deal_id":{"max":118,"mean":60.1666666666667,"variance":2181.36666666667,"stdev":46.7051032186705,"min":10,"median":56},"longitude":{"max":-117.262449,"mean":-121.419577333333,"variance":4.15217363662866,"stdev":2.03768830703537,"min":-122.333535,"median":-122.17059}},"features":[{"properties":{"address1":"12729 Northup Way Ste 3","city":"Bellevue","deal":"$99 for a Luxurious Spa Package Including a 50 Minute Massage, Citrus Twist Pedicure and More ($230 value)","category":"Day Spas","parent_category":"Beauty and Spas","zip":"98005","latitude":47.628216,"deal_id":10,"merchant":"Ajara Spa &amp; Wellness Center","longitude":-122.17059,"id":"a6fgxkdmuy00","state":"WA"},"type":"Feature","geometry":{"type":"Point","coordinates":[-122.17059,47.628216]}},{"properties":{"address1":"3312 E. Spring St.","city":"Seattle","deal":"$50 for $100 Worth of Revitalizing Salon Services","category":"Day Spas","parent_category":"Beauty and Spas","zip":"98122","latitude":47.611775,"deal_id":11,"merchant":"Kismet Salon &amp; Spa","longitude":-122.29015,"id":"a6fgxkhhc2p5","state":"WA"},"type":"Feature","geometry":{"type":"Point","coordinates":[-122.29015,47.611775]}},{"properties":{"address1":"3312 E. Spring St.","city":"Seattle","deal":"$50 for $100 Worth of Revitalizing Salon Services","category":"Day Spas","parent_category":"Beauty and Spas","zip":"98122","latitude":47.611775,"deal_id":55,"merchant":"Kismet Salon &amp; Spa","longitude":-122.29015,"id":"a6fgxkfrrqgo","state":"WA"},"type":"Feature","geometry":{"type":"Point","coordinates":[-122.29015,47.611775]}},{"properties":{"address1":"12729 Northup Way Ste 3","city":"Bellevue","deal":"$99 for a Luxurious Spa Package Including a 50 Minute Massage, Citrus Twist Pedicure and More ($230 value)","category":"Day Spas","parent_category":"Beauty and Spas","zip":"98005","latitude":47.628216,"deal_id":56,"merchant":"Ajara Spa &amp; Wellness Center","longitude":-122.17059,"id":"a6fgxkbqrbrr","state":"WA"},"type":"Feature","geometry":{"type":"Point","coordinates":[-122.17059,47.628216]}},{"properties":{"address1":"823 Camino Del Mar","city":"Del Mar","deal":"$69 for a 1 Hour Microdermabrasion Facial With Relaxing Massage ($165 Value)","category":"Day Spas","parent_category":"Beauty and Spas","zip":"92014","latitude":32.952564,"deal_id":111,"merchant":"Re-Nous Skin &amp; Body Spa","longitude":-117.262449,"id":"a6fgxkl35gu4","state":"CA"},"type":"Feature","geometry":{"type":"Point","coordinates":[-117.262449,32.952564]}},{"properties":{"address1":"2106 N 45th Street","city":"Seattle","deal":"$45 for a Rejuvenating Micro-Peel","category":"Day Spas","parent_category":"Beauty and Spas","zip":"98103","latitude":47.661527,"deal_id":118,"merchant":"Radiant MedSpa","longitude":-122.333535,"id":"a6fgxkgyw630","state":"WA"},"type":"Feature","geometry":{"type":"Point","coordinates":[-122.333535,47.661527]}}],"is_temporal":false,"author":{"url":"","metadata":"","contact_name":"","contact_address":"","source":"","contact_phone":""},"source":"","pagination":{"sort":null,"start":0,"total":6,"limit":1000000},"state":"complete","tags":"","published":"2014-08-10T11:55:22-04:00","id":70764}