{"type":"FeatureCollection","data_type":"Dataset","url_type":null,"permissions":[{"permissions":{"download":true,"view":true},"group_id":"everyone"}],"classification":null,"title":"GooglePageViews-Top100Cities","count":100,"stream_id":71511,"contributor":{"url":"http://geocommons.com/users/11955","name":"saunan"},"data_attributes":null,"calculation_params":null,"icon_link":null,"link":"http://geocommons.com/overlays/71511.json","extent":[-124.026,32.7153,-114.755,40.6726],"geometry_types":["point"],"unique_name":null,"name":"GooglePageViews-Top100Cities","feature_count":100,"description":"Member Benefits web site PageViews by City.","next_feature":null,"is_raster":false,"short_classification":"Y","stats":{"pageviews":{"max":430048,"mean":8512.45,"variance":1870336453.86616,"stdev":43247.3866709442,"min":976,"median":2026},"geo_score":{"max":0.857,"mean":0.83425,"variance":0.0015802904040404,"stdev":0.0397528666141249,"min":0.73,"median":0.857}},"features":[{"properties":{"city":"Alameda","pageviews":4300,"geo_score":0.857,"id":"a665am5oqba9","geo_precision":"city","state":"California"},"type":"Feature","geometry":{"type":"Point","coordinates":[-122.264779,37.770563]}},{"properties":{"city":"Anaheim","pageviews":2381,"geo_score":0.857,"id":"a665am8x3mzq","geo_precision":"city","state":"California"},"type":"Feature","geometry":{"type":"Point","coordinates":[-117.914504,33.835293]}},{"properties":{"city":"Antelope","pageviews":1059,"geo_score":0.796,"id":"a665am3fgazm","geo_precision":"city","state":"California"},"type":"Feature","geometry":{"type":"Point","coordinates":[-117.969235,34.579991]}},{"properties":{"city":"Antioch","pageviews":990,"geo_score":0.857,"id":"a665amfkj64x","geo_precision":"city","state":"California"},"type":"Feature","geometry":{"type":"Point","coordinates":[-121.906748,37.931997]}},{"properties":{"city":"Atascadero","pageviews":2511,"geo_score":0.857,"id":"a665ame5fhni","geo_precision":"city","state":"California"},"type":"Feature","geometry":{"type":"Point","coordinates":[-120.712459,35.464793]}},{"properties":{"city":"Bakersfield","pageviews":6310,"geo_score":0.857,"id":"a665am2r9h3i","geo_precision":"city","state":"California"},"type":"Feature","geometry":{"type":"Point","coordinates":[-119.018713,35.373292]}},{"properties":{"city":"Berkeley","pageviews":1332,"geo_score":0.857,"id":"a665amcf5lqb","geo_precision":"city","state":"California"},"type":"Feature","geometry":{"type":"Point","coordinates":[-122.29673,37.860576]}},{"properties":{"city":"Bonita","pageviews":1523,"geo_score":0.762,"id":"a665amfvrvax","geo_precision":"city","state":"California"},"type":"Feature","geometry":{"type":"Point","coordinates":[-122.208609,40.255155]}},{"properties":{"city":"Buena Park","pageviews":1115,"geo_score":0.794,"id":"a665am80kpxn","geo_precision":"city","state":"California"},"type":"Feature","geometry":{"type":"Point","coordinates":[-117.208646,33.173371]}},{"properties":{"city":"Camarillo","pageviews":1209,"geo_score":0.857,"id":"a665amak86e7","geo_precision":"city","state":"California"},"type":"Feature","geometry":{"type":"Point","coordinates":[-119.084253,34.307783]}},{"properties":{"city":"Carmichael","pageviews":20144,"geo_score":0.857,"id":"a665am77rp8q","geo_precision":"city","state":"California"},"type":"Feature","geometry":{"type":"Point","coordinates":[-121.332191,38.62136]}},{"properties":{"city":"Chico","pageviews":1888,"geo_score":0.857,"id":"a665amaza9mx","geo_precision":"city","state":"California"},"type":"Feature","geometry":{"type":"Point","coordinates":[-121.840083,39.746159]}},{"properties":{"city":"Chula Vista","pageviews":1261,"geo_score":0.857,"id":"a665am6rftiy","geo_precision":"city","state":"California"},"type":"Feature","geometry":{"type":"Point","coordinates":[-116.846046,33.016928]}},{"properties":{"city":"Citrus Heights","pageviews":2583,"geo_score":0.857,"id":"a665am3o3zo4","geo_precision":"city","state":"California"},"type":"Feature","geometry":{"type":"Point","coordinates":[-121.26736,38.689802]}},{"properties":{"city":"Clovis","pageviews":1084,"geo_score":0.857,"id":"a665am9tsvqn","geo_precision":"city","state":"California"},"type":"Feature","geometry":{"type":"Point","coordinates":[-119.592146,36.832583]}},{"properties":{"city":"Coalinga","pageviews":1020,"geo_score":0.857,"id":"a665ama4uokw","geo_precision":"city","state":"California"},"type":"Feature","geometry":{"type":"Point","coordinates":[-120.381432,36.247025]}},{"properties":{"city":"Costa Mesa","pageviews":1172,"geo_score":0.73,"id":"a665am4uxx8r","geo_precision":"city","state":"California"},"type":"Feature","geometry":{"type":"Point","coordinates":[-115.967051,34.839964]}},{"properties":{"city":"Crockett","pageviews":1024,"geo_score":0.857,"id":"a665ambcu6xo","geo_precision":"city","state":"California"},"type":"Feature","geometry":{"type":"Point","coordinates":[-122.152602,37.958011]}},{"properties":{"city":"Daly City","pageviews":2933,"geo_score":0.75,"id":"a665amfg3f94","geo_precision":"city","state":"California"},"type":"Feature","geometry":{"type":"Point","coordinates":[-120.20247,39.962841]}},{"properties":{"city":"Davis","pageviews":1390,"geo_score":0.857,"id":"a665am36e14m","geo_precision":"city","state":"California"},"type":"Feature","geometry":{"type":"Point","coordinates":[-121.749016,38.521776]}},{"properties":{"city":"Durham","pageviews":2709,"geo_score":0.857,"id":"a665am34mdsy","geo_precision":"city","state":"California"},"type":"Feature","geometry":{"type":"Point","coordinates":[-121.777546,39.626362]}},{"properties":{"city":"El Dorado Hills","pageviews":2290,"geo_score":0.802,"id":"a665amakc40w","geo_precision":"city","state":"California"},"type":"Feature","geometry":{"type":"Point","coordinates":[-120.84598,38.676272]}},{"properties":{"city":"Elk Grove","pageviews":13293,"geo_score":0.768,"id":"a665amh3xupp","geo_precision":"city","state":"California"},"type":"Feature","geometry":{"type":"Point","coordinates":[-123.618031,39.076371]}},{"properties":{"city":"Eureka","pageviews":1115,"geo_score":0.857,"id":"a665amhclohu","geo_precision":"city","state":"California"},"type":"Feature","geometry":{"type":"Point","coordinates":[-124.025773,40.646324]}},{"properties":{"city":"Fair Oaks","pageviews":2142,"geo_score":0.786,"id":"a665am5ro4by","geo_precision":"city","state":"California"},"type":"Feature","geometry":{"type":"Point","coordinates":[-120.594892,35.118865]}},{"properties":{"city":"Fairfield","pageviews":3806,"geo_score":0.857,"id":"a665ami95tsw","geo_precision":"city","state":"California"},"type":"Feature","geometry":{"type":"Point","coordinates":[-122.039305,38.25584]}},{"properties":{"city":"Folsom","pageviews":1732,"geo_score":0.857,"id":"a665am54vp0t","geo_precision":"city","state":"California"},"type":"Feature","geometry":{"type":"Point","coordinates":[-121.310796,38.594181]}},{"properties":{"city":"Fremont","pageviews":1654,"geo_score":0.857,"id":"a665ame9sg76","geo_precision":"city","state":"California"},"type":"Feature","geometry":{"type":"Point","coordinates":[-121.988572,37.54827]}},{"properties":{"city":"Fresno","pageviews":20145,"geo_score":0.857,"id":"a665amei20z6","geo_precision":"city","state":"California"},"type":"Feature","geometry":{"type":"Point","coordinates":[-119.772366,36.747727]}},{"properties":{"city":"Fullerton","pageviews":2521,"geo_score":0.857,"id":"a665amgrg0so","geo_precision":"city","state":"California"},"type":"Feature","geometry":{"type":"Point","coordinates":[-117.925338,33.870292]}},{"properties":{"city":"Garden Grove","pageviews":1244,"geo_score":0.857,"id":"a665ameqg6zi","geo_precision":"city","state":"California"},"type":"Feature","geometry":{"type":"Point","coordinates":[-117.941448,33.773905]}},{"properties":{"city":"Hayward","pageviews":2902,"geo_score":0.857,"id":"a665amd3k11w","geo_precision":"city","state":"California"},"type":"Feature","geometry":{"type":"Point","coordinates":[-122.080796,37.668821]}},{"properties":{"city":"Hesperia","pageviews":1392,"geo_score":0.857,"id":"a665amgklv67","geo_precision":"city","state":"California"},"type":"Feature","geometry":{"type":"Point","coordinates":[-115.967051,34.839964]}},{"properties":{"city":"Huntington Park","pageviews":1411,"geo_score":0.819,"id":"a665amen5pyy","geo_precision":"city","state":"California"},"type":"Feature","geometry":{"type":"Point","coordinates":[-117.999227,33.660297]}},{"properties":{"city":"Irvine","pageviews":1032,"geo_score":0.857,"id":"a665amf7nyud","geo_precision":"city","state":"California"},"type":"Feature","geometry":{"type":"Point","coordinates":[-117.823111,33.669465]}},{"properties":{"city":"La Mesa","pageviews":1711,"geo_score":0.857,"id":"a665am91qb02","geo_precision":"city","state":"California"},"type":"Feature","geometry":{"type":"Point","coordinates":[-116.998102,32.76105]}},{"properties":{"city":"La Mirada","pageviews":2068,"geo_score":0.821,"id":"a665am2uga3p","geo_precision":"city","state":"California"},"type":"Feature","geometry":{"type":"Point","coordinates":[-118.007297,33.900863]}},{"properties":{"city":"Lakewood","pageviews":1565,"geo_score":0.857,"id":"a665ambbxziy","geo_precision":"city","state":"California"},"type":"Feature","geometry":{"type":"Point","coordinates":[-118.298662,33.786594]}},{"properties":{"city":"Lancaster","pageviews":1370,"geo_score":0.857,"id":"a665amblnhkj","geo_precision":"city","state":"California"},"type":"Feature","geometry":{"type":"Point","coordinates":[-118.136739,34.698041]}},{"properties":{"city":"Lodi","pageviews":1015,"geo_score":0.857,"id":"a665am55yb70","geo_precision":"city","state":"California"},"type":"Feature","geometry":{"type":"Point","coordinates":[-121.172415,38.111356]}},{"properties":{"city":"Loma Linda","pageviews":1615,"geo_score":0.762,"id":"a665am5tzq7s","geo_precision":"city","state":"California"},"type":"Feature","geometry":{"type":"Point","coordinates":[-121.641635,39.220724]}},{"properties":{"city":"Long Beach","pageviews":3185,"geo_score":0.857,"id":"a665amdhpail","geo_precision":"city","state":"California"},"type":"Feature","geometry":{"type":"Point","coordinates":[-118.189235,33.766962]}},{"properties":{"city":"Los Alamitos","pageviews":3177,"geo_score":0.753,"id":"a665amat6vzl","geo_precision":"city","state":"California"},"type":"Feature","geometry":{"type":"Point","coordinates":[-118.345664,37.400762]}},{"properties":{"city":"Los Angeles","pageviews":57014,"geo_score":0.857,"id":"a665am3ql4yd","geo_precision":"city","state":"California"},"type":"Feature","geometry":{"type":"Point","coordinates":[-118.243685,34.052234]}},{"properties":{"city":"Madera","pageviews":976,"geo_score":0.857,"id":"a665amdkj5a8","geo_precision":"city","state":"California"},"type":"Feature","geometry":{"type":"Point","coordinates":[-120.182423,36.928286]}},{"properties":{"city":"Manteca","pageviews":976,"geo_score":0.857,"id":"a665amce1u56","geo_precision":"city","state":"California"},"type":"Feature","geometry":{"type":"Point","coordinates":[-121.177601,37.807297]}},{"properties":{"city":"Mcclellan","pageviews":4160,"geo_score":0.776,"id":"a665am9i0vrw","geo_precision":"city","state":"California"},"type":"Feature","geometry":{"type":"Point","coordinates":[-121.389613,38.666653]}},{"properties":{"city":"Modesto","pageviews":8050,"geo_score":0.857,"id":"a665amhbuxlr","geo_precision":"city","state":"California"},"type":"Feature","geometry":{"type":"Point","coordinates":[-121.016796,37.669463]}},{"properties":{"city":"Montclair","pageviews":1380,"geo_score":0.857,"id":"a665am9sq754","geo_precision":"city","state":"California"},"type":"Feature","geometry":{"type":"Point","coordinates":[-115.967051,34.839964]}},{"properties":{"city":"Montebello","pageviews":1161,"geo_score":0.798,"id":"a665am61s6c5","geo_precision":"city","state":"California"},"type":"Feature","geometry":{"type":"Point","coordinates":[-120.0449,37.507159]}},{"properties":{"city":"Monterey","pageviews":1604,"geo_score":0.857,"id":"a665am3gtqly","geo_precision":"city","state":"California"},"type":"Feature","geometry":{"type":"Point","coordinates":[-121.688623,36.521811]}},{"properties":{"city":"Monterey Park","pageviews":1093,"geo_score":0.81,"id":"a665amehtxw2","geo_precision":"city","state":"California"},"type":"Feature","geometry":{"type":"Point","coordinates":[-121.688623,36.521811]}},{"properties":{"city":"Moreno Valley","pageviews":1069,"geo_score":0.738,"id":"a665am24u85c","geo_precision":"city","state":"California"},"type":"Feature","geometry":{"type":"Point","coordinates":[-121.677764,40.517936]}},{"properties":{"city":"Napa","pageviews":3555,"geo_score":0.857,"id":"a665amdunubq","geo_precision":"city","state":"California"},"type":"Feature","geometry":{"type":"Point","coordinates":[-122.311921,38.516158]}},{"properties":{"city":"Northridge","pageviews":4125,"geo_score":0.857,"id":"a665ambati2m","geo_precision":"city","state":"California"},"type":"Feature","geometry":{"type":"Point","coordinates":[-118.298662,33.786594]}},{"properties":{"city":"Norwalk","pageviews":2202,"geo_score":0.857,"id":"a665am38g9iz","geo_precision":"city","state":"California"},"type":"Feature","geometry":{"type":"Point","coordinates":[-118.076549,33.906763]}},{"properties":{"city":"Oakland","pageviews":8941,"geo_score":0.857,"id":"a665am2msyop","geo_precision":"city","state":"California"},"type":"Feature","geometry":{"type":"Point","coordinates":[-122.270803,37.804372]}},{"properties":{"city":"Orange","pageviews":2117,"geo_score":0.857,"id":"a665aman5nj6","geo_precision":"city","state":"California"},"type":"Feature","geometry":{"type":"Point","coordinates":[-117.853112,33.787795]}},{"properties":{"city":"Oxnard","pageviews":1449,"geo_score":0.792,"id":"a665amhdwel1","geo_precision":"city","state":"California"},"type":"Feature","geometry":{"type":"Point","coordinates":[-119.227886,34.163338]}},{"properties":{"city":"Piedmont","pageviews":10279,"geo_score":0.857,"id":"a665am6i2pmu","geo_precision":"city","state":"California"},"type":"Feature","geometry":{"type":"Point","coordinates":[-122.231635,37.824372]}},{"properties":{"city":"Placentia","pageviews":2434,"geo_score":0.857,"id":"a665ambmbhc8","geo_precision":"city","state":"California"},"type":"Feature","geometry":{"type":"Point","coordinates":[-117.870336,33.872237]}},{"properties":{"city":"Pomona","pageviews":1693,"geo_score":0.857,"id":"a665ameuzp1d","geo_precision":"city","state":"California"},"type":"Feature","geometry":{"type":"Point","coordinates":[-118.298662,33.786594]}},{"properties":{"city":"Porterville","pageviews":1236,"geo_score":0.857,"id":"a665am9pg65i","geo_precision":"city","state":"California"},"type":"Feature","geometry":{"type":"Point","coordinates":[-118.703592,35.973777]}},{"properties":{"city":"Rancho Cordova","pageviews":20323,"geo_score":0.857,"id":"a665amhv4bsr","geo_precision":"city","state":"California"},"type":"Feature","geometry":{"type":"Point","coordinates":[-121.270426,38.597705]}},{"properties":{"city":"Rancho Cucamonga","pageviews":1154,"geo_score":0.857,"id":"a665amgp705c","geo_precision":"city","state":"California"},"type":"Feature","geometry":{"type":"Point","coordinates":[-115.967051,34.839964]}},{"properties":{"city":"Rancho Santa Fe","pageviews":1441,"geo_score":0.802,"id":"a665am6l4ewq","geo_precision":"city","state":"California"},"type":"Feature","geometry":{"type":"Point","coordinates":[-118.53203,34.439995]}},{"properties":{"city":"Redding","pageviews":2851,"geo_score":0.857,"id":"a665am6lvyg2","geo_precision":"city","state":"California"},"type":"Feature","geometry":{"type":"Point","coordinates":[-122.391675,40.58654]}},{"properties":{"city":"Rio Linda","pageviews":2026,"geo_score":0.768,"id":"a665amdnu1ni","geo_precision":"city","state":"California"},"type":"Feature","geometry":{"type":"Point","coordinates":[-119.241544,38.027423]}},{"properties":{"city":"Riverside","pageviews":6771,"geo_score":0.857,"id":"a665am7rpiqj","geo_precision":"city","state":"California"},"type":"Feature","geometry":{"type":"Point","coordinates":[-117.396156,33.953349]}},{"properties":{"city":"Rocklin","pageviews":2486,"geo_score":0.857,"id":"a665am4yk9zj","geo_precision":"city","state":"California"},"type":"Feature","geometry":{"type":"Point","coordinates":[-121.230374,38.801233]}},{"properties":{"city":"Rohnert Park","pageviews":1812,"geo_score":0.857,"id":"a665ama4ifve","geo_precision":"city","state":"California"},"type":"Feature","geometry":{"type":"Point","coordinates":[-122.989975,38.463088]}},{"properties":{"city":"Roseville","pageviews":6191,"geo_score":0.857,"id":"a665amhd1orf","geo_precision":"city","state":"California"},"type":"Feature","geometry":{"type":"Point","coordinates":[-121.25603,38.74073]}},{"properties":{"city":"Sacramento","pageviews":430048,"geo_score":0.857,"id":"a665am89crrt","geo_precision":"city","state":"California"},"type":"Feature","geometry":{"type":"Point","coordinates":[-121.4944,38.581572]}},{"properties":{"city":"Salinas","pageviews":1945,"geo_score":0.857,"id":"a665amh6oguc","geo_precision":"city","state":"California"},"type":"Feature","geometry":{"type":"Point","coordinates":[-121.655501,36.677737]}},{"properties":{"city":"San Bernardino","pageviews":5307,"geo_score":0.857,"id":"a665amfwnein","geo_precision":"city","state":"California"},"type":"Feature","geometry":{"type":"Point","coordinates":[-117.289765,34.108345]}},{"properties":{"city":"San Diego","pageviews":17427,"geo_score":0.857,"id":"a665amc1176w","geo_precision":"city","state":"California"},"type":"Feature","geometry":{"type":"Point","coordinates":[-117.157255,32.715329]}},{"properties":{"city":"San Francisco","pageviews":39186,"geo_score":0.857,"id":"a665amhbc4nk","geo_precision":"city","state":"California"},"type":"Feature","geometry":{"type":"Point","coordinates":[-122.419416,37.77493]}},{"properties":{"city":"San Jose","pageviews":11426,"geo_score":0.857,"id":"a665amgd5phq","geo_precision":"city","state":"California"},"type":"Feature","geometry":{"type":"Point","coordinates":[-121.894956,37.339386]}},{"properties":{"city":"San Luis Obispo","pageviews":7326,"geo_score":0.736,"id":"a665amgpu2hd","geo_precision":"city","state":"California"},"type":"Feature","geometry":{"type":"Point","coordinates":[-118.345664,37.400762]}},{"properties":{"city":"San Marcos","pageviews":2525,"geo_score":0.746,"id":"a665am98vpm7","geo_precision":"city","state":"California"},"type":"Feature","geometry":{"type":"Point","coordinates":[-123.034604,40.672576]}},{"properties":{"city":"Santa Ana","pageviews":2169,"geo_score":0.857,"id":"a665am35i828","geo_precision":"city","state":"California"},"type":"Feature","geometry":{"type":"Point","coordinates":[-117.867834,33.745573]}},{"properties":{"city":"Santa Barbara","pageviews":1051,"geo_score":0.857,"id":"a665ambk2m70","geo_precision":"city","state":"California"},"type":"Feature","geometry":{"type":"Point","coordinates":[-119.69819,34.420831]}},{"properties":{"city":"Santa Fe Springs","pageviews":2102,"geo_score":0.755,"id":"a665am9zrsn3","geo_precision":"city","state":"California"},"type":"Feature","geometry":{"type":"Point","coordinates":[-119.045658,36.114674]}},{"properties":{"city":"Santa Maria","pageviews":1020,"geo_score":0.743,"id":"a665am9cm9fp","geo_precision":"city","state":"California"},"type":"Feature","geometry":{"type":"Point","coordinates":[-123.34501,39.398219]}},{"properties":{"city":"Santa Rosa","pageviews":2223,"geo_score":0.73,"id":"a665amhujtn8","geo_precision":"city","state":"California"},"type":"Feature","geometry":{"type":"Point","coordinates":[-114.849692,34.083625]}},{"properties":{"city":"Seaside","pageviews":1464,"geo_score":0.857,"id":"a665amf22npk","geo_precision":"city","state":"California"},"type":"Feature","geometry":{"type":"Point","coordinates":[-121.497712,36.429013]}},{"properties":{"city":"Stockton","pageviews":5446,"geo_score":0.857,"id":"a665am4pag43","geo_precision":"city","state":"California"},"type":"Feature","geometry":{"type":"Point","coordinates":[-121.298794,37.672196]}},{"properties":{"city":"Sunnyvale","pageviews":1626,"geo_score":0.857,"id":"a665amanmb3h","geo_precision":"city","state":"California"},"type":"Feature","geometry":{"type":"Point","coordinates":[-122.03635,37.36883]}},{"properties":{"city":"Turlock","pageviews":2027,"geo_score":0.857,"id":"a665am20xph6","geo_precision":"city","state":"California"},"type":"Feature","geometry":{"type":"Point","coordinates":[-120.844063,37.540206]}},{"properties":{"city":"Tustin","pageviews":4494,"geo_score":0.857,"id":"a665am2a6jdw","geo_precision":"city","state":"California"},"type":"Feature","geometry":{"type":"Point","coordinates":[-117.826166,33.745851]}},{"properties":{"city":"Vacaville","pageviews":2804,"geo_score":0.857,"id":"a665amg9r2qq","geo_precision":"city","state":"California"},"type":"Feature","geometry":{"type":"Point","coordinates":[-121.912773,38.35056]}},{"properties":{"city":"Vallejo","pageviews":2041,"geo_score":0.857,"id":"a665ambcwtnn","geo_precision":"city","state":"California"},"type":"Feature","geometry":{"type":"Point","coordinates":[-122.264316,38.107945]}},{"properties":{"city":"Van Nuys","pageviews":1549,"geo_score":0.755,"id":"a665am9aiyi7","geo_precision":"city","state":"California"},"type":"Feature","geometry":{"type":"Point","coordinates":[-118.460079,33.990845]}},{"properties":{"city":"Victorville","pageviews":2396,"geo_score":0.857,"id":"a665am33heza","geo_precision":"city","state":"California"},"type":"Feature","geometry":{"type":"Point","coordinates":[-114.754916,34.491985]}},{"properties":{"city":"Visalia","pageviews":1778,"geo_score":0.857,"id":"a665am7577qv","geo_precision":"city","state":"California"},"type":"Feature","geometry":{"type":"Point","coordinates":[-119.292059,36.330228]}},{"properties":{"city":"Walnut","pageviews":1829,"geo_score":0.857,"id":"a665ama4rxip","geo_precision":"city","state":"California"},"type":"Feature","geometry":{"type":"Point","coordinates":[-118.298662,33.786594]}},{"properties":{"city":"West Covina","pageviews":1557,"geo_score":0.8,"id":"a665ame27zse","geo_precision":"city","state":"California"},"type":"Feature","geometry":{"type":"Point","coordinates":[-118.298662,33.786594]}},{"properties":{"city":"West Hollywood","pageviews":1766,"geo_score":0.813,"id":"a665ami1fuwb","geo_precision":"city","state":"California"},"type":"Feature","geometry":{"type":"Point","coordinates":[-118.326743,34.098343]}},{"properties":{"city":"West Sacramento","pageviews":2003,"geo_score":0.816,"id":"a665am676mws","geo_precision":"city","state":"California"},"type":"Feature","geometry":{"type":"Point","coordinates":[-121.4944,38.581572]}},{"properties":{"city":"Yuba City","pageviews":1818,"geo_score":0.857,"id":"a665am6zcywt","geo_precision":"city","state":"California"},"type":"Feature","geometry":{"type":"Point","coordinates":[-121.612481,39.048854]}}],"is_temporal":false,"author":{"url":"","metadata":"","contact_name":"","contact_address":"","source":"CSEA","contact_phone":""},"source":"","pagination":{"sort":null,"start":0,"total":100,"limit":1000000},"state":"complete","tags":"csea","published":"2010-10-28T18:38:29Z","id":71511}