{"type":"FeatureCollection","data_type":"Dataset","url_type":null,"permissions":[{"permissions":{"download":true,"view":true},"group_id":"everyone"}],"classification":null,"title":"SMTI institutions","count":136,"stream_id":71895,"contributor":{"url":"http://geocommons.com/users/17859","name":"kredd"},"data_attributes":null,"calculation_params":null,"icon_link":null,"link":"http://geocommons.com/overlays/71895.json","extent":[-123.262,25.7743,-70.9628,46.9254],"geometry_types":["point"],"unique_name":null,"name":"SMTI institutions","feature_count":136,"description":"","next_feature":null,"is_raster":false,"short_classification":"Y","stats":{"geo_score":{"max":0.857,"mean":0.841955882352941,"variance":0.00122035359477124,"stdev":0.034933559720865,"min":0.729,"median":0.857}},"features":[{"properties":{"city":"Normal","geo_score":0.857,"id":"a638krmpk37l","institution name-official":"Alabama Agricultural and Mechanical University","geo_precision":"city","state":"AL"},"type":"Feature","geometry":{"type":"Point","coordinates":[-86.522913,34.733964]}},{"properties":{"city":"Tempe","geo_score":0.857,"id":"a638krwj3g4a","institution name-official":"Arizona State University Main","geo_precision":"city","state":"AZ"},"type":"Feature","geometry":{"type":"Point","coordinates":[-111.90931,33.414768]}},{"properties":{"city":"Auburn Univ","geo_score":0.8,"id":"a638krus479s","institution name-official":"Auburn University","geo_precision":"city","state":"AL"},"type":"Feature","geometry":{"type":"Point","coordinates":[-85.468222,32.547542]}},{"properties":{"city":"Muncie","geo_score":0.857,"id":"a638krvjc3zb","institution name-official":"Ball State University","geo_precision":"city","state":"IN"},"type":"Feature","geometry":{"type":"Point","coordinates":[-85.389874,40.142124]}},{"properties":{"city":"Boise","geo_score":0.857,"id":"a638krpv7zl2","institution name-official":"Boise State University","geo_precision":"city","state":"ID"},"type":"Feature","geometry":{"type":"Point","coordinates":[-116.203451,43.6135]}},{"properties":{"city":"Bowling Green","geo_score":0.738,"id":"a638krp4n7aj","institution name-official":"Bowling Green State University","geo_precision":"city","state":"OH"},"type":"Feature","geometry":{"type":"Point","coordinates":[-81.895974,40.76339]}},{"properties":{"city":"San Luis Obispo","geo_score":0.736,"id":"a638krjtkvp0","institution name-official":"California Polytechnic State University-San Luis Obispo","geo_precision":"city","state":"CA"},"type":"Feature","geometry":{"type":"Point","coordinates":[-118.345664,37.400762]}},{"properties":{"city":"Fresno","geo_score":0.857,"id":"a638krm4b9om","institution name-official":"California State University-Fresno","geo_precision":"city","state":"CA"},"type":"Feature","geometry":{"type":"Point","coordinates":[-119.772366,36.747727]}},{"properties":{"city":"Fullerton","geo_score":0.857,"id":"a638krtdndiq","institution name-official":"California State University-Fullerton","geo_precision":"city","state":"CA"},"type":"Feature","geometry":{"type":"Point","coordinates":[-117.925338,33.870292]}},{"properties":{"city":"Sacramento","geo_score":0.857,"id":"a638krsrza5t","institution name-official":"California State University-Sacramento","geo_precision":"city","state":"CA"},"type":"Feature","geometry":{"type":"Point","coordinates":[-121.4944,38.581572]}},{"properties":{"city":"Mount Pleasant","geo_score":0.857,"id":"a638krj7m1zs","institution name-official":"Central Michigan University","geo_precision":"city","state":"MI"},"type":"Feature","geometry":{"type":"Point","coordinates":[-86.247253,42.457251]}},{"properties":{"city":"New York","geo_score":0.857,"id":"a638krvh4210","institution name-official":"City University of New York","geo_precision":"city","state":"NY"},"type":"Feature","geometry":{"type":"Point","coordinates":[-74.005973,40.714269]}},{"properties":{"city":"New York","geo_score":0.857,"id":"a638krpi2ck3","institution name-official":"City University of New York City College","geo_precision":"city","state":"NY"},"type":"Feature","geometry":{"type":"Point","coordinates":[-74.005973,40.714269]}},{"properties":{"city":"Clemson","geo_score":0.857,"id":"a638krp45uic","institution name-official":"Clemson University","geo_precision":"city","state":"SC"},"type":"Feature","geometry":{"type":"Point","coordinates":[-82.802154,34.75974]}},{"properties":{"city":"Cleveland","geo_score":0.857,"id":"a638krxxlu9j","institution name-official":"Cleveland State University","geo_precision":"city","state":"OH"},"type":"Feature","geometry":{"type":"Point","coordinates":[-81.695409,41.499495]}},{"properties":{"city":"Fort Collins","geo_score":0.753,"id":"a638krxbn0fm","institution name-official":"Colorado State University","geo_precision":"city","state":"CO"},"type":"Feature","geometry":{"type":"Point","coordinates":[-108.685164,39.149614]}},{"properties":{"city":"Ithaca","geo_score":0.857,"id":"a638krpg9ykh","institution name-official":"Cornell University","geo_precision":"city","state":"NY"},"type":"Feature","geometry":{"type":"Point","coordinates":[-76.483999,42.402794]}},{"properties":{"city":"Dover","geo_score":0.857,"id":"a638krtgfmwg","institution name-official":"Delaware State University","geo_precision":"city","state":"DE"},"type":"Feature","geometry":{"type":"Point","coordinates":[-75.49549,39.156376]}},{"properties":{"city":"Greenville","geo_score":0.831,"id":"a638krsg7tv1","institution name-official":"East Carolina University","geo_precision":"city","state":"NC"},"type":"Feature","geometry":{"type":"Point","coordinates":[-81.703445,36.408734]}},{"properties":{"city":"Miami","geo_score":0.857,"id":"a638krn0hz88","institution name-official":"Florida International University","geo_precision":"city","state":"FL"},"type":"Feature","geometry":{"type":"Point","coordinates":[-80.193659,25.774266]}},{"properties":{"city":"Tallahassee","geo_score":0.857,"id":"a638krna8vnw","institution name-official":"Florida State University","geo_precision":"city","state":"FL"},"type":"Feature","geometry":{"type":"Point","coordinates":[-84.280733,30.438256]}},{"properties":{"city":"Fort Valley","geo_score":0.743,"id":"a638krrhiih1","institution name-official":"Fort Valley State University","geo_precision":"city","state":"GA"},"type":"Feature","geometry":{"type":"Point","coordinates":[-85.230225,33.435947]}},{"properties":{"city":"Atlanta","geo_score":0.857,"id":"a638krnin4eq","institution name-official":"Georgia Institute of Technology","geo_precision":"city","state":"GA"},"type":"Feature","geometry":{"type":"Point","coordinates":[-84.387982,33.748995]}},{"properties":{"city":"Statesboro","geo_score":0.857,"id":"a638krvl5hnd","institution name-official":"Georgia Southern University","geo_precision":"city","state":"GA"},"type":"Feature","geometry":{"type":"Point","coordinates":[-81.784956,32.425]}},{"properties":{"city":"Atlanta","geo_score":0.857,"id":"a638krwt20gx","institution name-official":"Georgia State University","geo_precision":"city","state":"GA"},"type":"Feature","geometry":{"type":"Point","coordinates":[-84.387982,33.748995]}},{"properties":{"city":"Indianapolis","geo_score":0.857,"id":"a638krmyuspx","institution name-official":"Indiana University-Purdue University Indianapolis","geo_precision":"city","state":"IN"},"type":"Feature","geometry":{"type":"Point","coordinates":[-86.158042,39.768377]}},{"properties":{"city":"Ames","geo_score":0.857,"id":"a638krummx4g","institution name-official":"Iowa State University","geo_precision":"city","state":"IA"},"type":"Feature","geometry":{"type":"Point","coordinates":[-93.600254,42.037879]}},{"properties":{"city":"Manhattan","geo_score":0.857,"id":"a638krubt6bt","institution name-official":"Kansas State University","geo_precision":"city","state":"KS"},"type":"Feature","geometry":{"type":"Point","coordinates":[-96.564589,39.209375]}},{"properties":{"city":"Jefferson City","geo_score":0.857,"id":"a638krna3r3f","institution name-official":"Lincoln University","geo_precision":"city","state":"MO"},"type":"Feature","geometry":{"type":"Point","coordinates":[-92.165194,38.494029]}},{"properties":{"city":"East Lansing","geo_score":0.805,"id":"a638krqh1z95","institution name-official":"Michigan State University","geo_precision":"city","state":"MI"},"type":"Feature","geometry":{"type":"Point","coordinates":[-84.555535,42.732535]}},{"properties":{"city":"Bozeman","geo_score":0.857,"id":"a638krkc750f","institution name-official":"Montana State University - Bozeman","geo_precision":"city","state":"MT"},"type":"Feature","geometry":{"type":"Point","coordinates":[-111.168212,45.809998]}},{"properties":{"city":"Las Cruces","geo_score":0.857,"id":"a638krtwxb2z","institution name-official":"New Mexico State University Main Campus","geo_precision":"city","state":"NM"},"type":"Feature","geometry":{"type":"Point","coordinates":[-106.778337,32.312316]}},{"properties":{"city":"Greensboro","geo_score":0.857,"id":"a638krpv5f9x","institution name-official":"North Carolina Agricultural and Technical State University","geo_precision":"city","state":"NC"},"type":"Feature","geometry":{"type":"Point","coordinates":[-79.791975,36.072636]}},{"properties":{"city":"Raleigh","geo_score":0.857,"id":"a638krygamwr","institution name-official":"North Carolina State University","geo_precision":"city","state":"NC"},"type":"Feature","geometry":{"type":"Point","coordinates":[-78.638615,35.772096]}},{"properties":{"city":"Fargo","geo_score":0.857,"id":"a638krpkadeg","institution name-official":"North Dakota State University Main Campus","geo_precision":"city","state":"ND"},"type":"Feature","geometry":{"type":"Point","coordinates":[-96.990615,46.92536]}},{"properties":{"city":"Flagstaff","geo_score":0.857,"id":"a638krr2q084","institution name-official":"Northern Arizona University","geo_precision":"city","state":"AZ"},"type":"Feature","geometry":{"type":"Point","coordinates":[-111.597853,35.932116]}},{"properties":{"city":"De Kalb","geo_score":0.738,"id":"a638krj8zz0o","institution name-official":"Northern Illinois University","geo_precision":"city","state":"IL"},"type":"Feature","geometry":{"type":"Point","coordinates":[-90.316504,38.992751]}},{"properties":{"city":"Columbus","geo_score":0.776,"id":"a638kru3mo7k","institution name-official":"Ohio State University Main Campus, The","geo_precision":"city","state":"OH"},"type":"Feature","geometry":{"type":"Point","coordinates":[-82.695724,39.998397]}},{"properties":{"city":"Athens","geo_score":0.857,"id":"a638krt9ly15","institution name-official":"Ohio University Main Campus","geo_precision":"city","state":"OH"},"type":"Feature","geometry":{"type":"Point","coordinates":[-82.013803,39.339279]}},{"properties":{"city":"Stillwater","geo_score":0.857,"id":"a638krw9lgxb","institution name-official":"Oklahoma State University Main Campus","geo_precision":"city","state":"OK"},"type":"Feature","geometry":{"type":"Point","coordinates":[-97.069061,36.101521]}},{"properties":{"city":"Corvallis","geo_score":0.857,"id":"a638krjm62wq","institution name-official":"Oregon State University","geo_precision":"city","state":"OR"},"type":"Feature","geometry":{"type":"Point","coordinates":[-123.262044,44.564566]}},{"properties":{"city":"Eugene","geo_score":0.857,"id":"a638krjd55am","institution name-official":"Oregon University System","geo_precision":"city","state":"OR"},"type":"Feature","geometry":{"type":"Point","coordinates":[-123.086754,44.052069]}},{"properties":{"city":"University Park","geo_score":0.796,"id":"a638krrk1i0z","institution name-official":"Pennsylvania State University University Park","geo_precision":"city","state":"PA"},"type":"Feature","geometry":{"type":"Point","coordinates":[-79.796714,40.473124]}},{"properties":{"city":"Portland","geo_score":0.857,"id":"a638krj6q4th","institution name-official":"Portland State University","geo_precision":"city","state":"OR"},"type":"Feature","geometry":{"type":"Point","coordinates":[-122.676207,45.523452]}},{"properties":{"city":"Prairie View","geo_score":0.857,"id":"a638krtvjigc","institution name-official":"Prairie View A&amp;M University","geo_precision":"city","state":"TX"},"type":"Feature","geometry":{"type":"Point","coordinates":[-96.013596,30.082135]}},{"properties":{"city":"West Lafayette","geo_score":0.813,"id":"a638krsb26z6","institution name-official":"Purdue University Main Campus","geo_precision":"city","state":"IN"},"type":"Feature","geometry":{"type":"Point","coordinates":[-86.830286,40.39905]}},{"properties":{"city":"San Diego","geo_score":0.857,"id":"a638krvv5ci4","institution name-official":"San Diego State University","geo_precision":"city","state":"CA"},"type":"Feature","geometry":{"type":"Point","coordinates":[-117.157255,32.715329]}},{"properties":{"city":"San Francisco","geo_score":0.857,"id":"a638krt4zybp","institution name-official":"San Francisco State University","geo_precision":"city","state":"CA"},"type":"Feature","geometry":{"type":"Point","coordinates":[-122.419416,37.77493]}},{"properties":{"city":"San Jose","geo_score":0.857,"id":"a638krwsh2uk","institution name-official":"San Jose State University","geo_precision":"city","state":"CA"},"type":"Feature","geometry":{"type":"Point","coordinates":[-121.894956,37.339386]}},{"properties":{"city":"Brookings","geo_score":0.857,"id":"a638krmko35h","institution name-official":"South Dakota State University","geo_precision":"city","state":"SD"},"type":"Feature","geometry":{"type":"Point","coordinates":[-96.762102,44.355091]}},{"properties":{"city":"Albany","geo_score":0.857,"id":"a638krp5udqr","institution name-official":"State University of New York System Office","geo_precision":"city","state":"NY"},"type":"Feature","geometry":{"type":"Point","coordinates":[-73.756232,42.652579]}},{"properties":{"city":"Albany","geo_score":0.857,"id":"a638krr1fphq","institution name-official":"State University of New York at Albany","geo_precision":"city","state":"NY"},"type":"Feature","geometry":{"type":"Point","coordinates":[-73.756232,42.652579]}},{"properties":{"city":"Binghamton","geo_score":0.857,"id":"a638krrbn66t","institution name-official":"State University of New York at Binghamton","geo_precision":"city","state":"NY"},"type":"Feature","geometry":{"type":"Point","coordinates":[-75.917974,42.098687]}},{"properties":{"city":"Buffalo","geo_score":0.857,"id":"a638kriuss8q","institution name-official":"State University of New York at Buffalo","geo_precision":"city","state":"NY"},"type":"Feature","geometry":{"type":"Point","coordinates":[-78.878369,42.886447]}},{"properties":{"city":"Stony Brook","geo_score":0.729,"id":"a638krjvw7ny","institution name-official":"State University of New York at Stony Brook","geo_precision":"city","state":"NY"},"type":"Feature","geometry":{"type":"Point","coordinates":[-74.200948,44.932057]}},{"properties":{"city":"College Station","geo_score":0.755,"id":"a638krx6w5iw","institution name-official":"Texas A&amp;M University","geo_precision":"city","state":"TX"},"type":"Feature","geometry":{"type":"Point","coordinates":[-96.586919,31.695145]}},{"properties":{"city":"College Station","geo_score":0.755,"id":"a638krkruzj7","institution name-official":"Texas A&amp;M University System Office","geo_precision":"city","state":"TX"},"type":"Feature","geometry":{"type":"Point","coordinates":[-96.586919,31.695145]}},{"properties":{"city":"San Marcos","geo_score":0.746,"id":"a638krmntye9","institution name-official":"Texas State University - San Marcos","geo_precision":"city","state":"TX"},"type":"Feature","geometry":{"type":"Point","coordinates":[-94.686315,30.577149]}},{"properties":{"city":"Lubbock","geo_score":0.857,"id":"a638krmyj64p","institution name-official":"Texas Tech University","geo_precision":"city","state":"TX"},"type":"Feature","geometry":{"type":"Point","coordinates":[-101.855167,33.577863]}},{"properties":{"city":"Long Beach","geo_score":0.857,"id":"a638krkizizc","institution name-official":"The California State University System Office","geo_precision":"city","state":"CA"},"type":"Feature","geometry":{"type":"Point","coordinates":[-118.189235,33.766962]}},{"properties":{"city":"Adelphi","geo_score":0.857,"id":"a638krt8xh1l","institution name-official":"The University System of Maryland Office","geo_precision":"city","state":"MD"},"type":"Feature","geometry":{"type":"Point","coordinates":[-76.97192,39.003166]}},{"properties":{"city":"Atlanta","geo_score":0.857,"id":"a638kry7amcn","institution name-official":"University System of Georgia Office","geo_precision":"city","state":"GA"},"type":"Feature","geometry":{"type":"Point","coordinates":[-84.387982,33.748995]}},{"properties":{"city":"Birmingham","geo_score":0.857,"id":"a638krp6dv1i","institution name-official":"University of Alabama at Birmingham","geo_precision":"city","state":"AL"},"type":"Feature","geometry":{"type":"Point","coordinates":[-86.80249,33.520661]}},{"properties":{"city":"Fayetteville","geo_score":0.857,"id":"a638krwg7ekx","institution name-official":"University of Arkansas, Fayetteville","geo_precision":"city","state":"AR"},"type":"Feature","geometry":{"type":"Point","coordinates":[-94.190997,35.974602]}},{"properties":{"city":"Oakland","geo_score":0.857,"id":"a638krv8tyed","institution name-official":"University of California System Office of the President","geo_precision":"city","state":"CA"},"type":"Feature","geometry":{"type":"Point","coordinates":[-122.270803,37.804372]}},{"properties":{"city":"Berkeley","geo_score":0.857,"id":"a638krsxn7xx","institution name-official":"University of California-Berkeley","geo_precision":"city","state":"CA"},"type":"Feature","geometry":{"type":"Point","coordinates":[-122.29673,37.860576]}},{"properties":{"city":"Davis","geo_score":0.857,"id":"a638krs96z8m","institution name-official":"University of California-Davis","geo_precision":"city","state":"CA"},"type":"Feature","geometry":{"type":"Point","coordinates":[-121.749016,38.521776]}},{"properties":{"city":"Irvine","geo_score":0.857,"id":"a638kro8h21x","institution name-official":"University of California-Irvine","geo_precision":"city","state":"CA"},"type":"Feature","geometry":{"type":"Point","coordinates":[-117.823111,33.669465]}},{"properties":{"city":"Los Angeles","geo_score":0.857,"id":"a638krrjt7a0","institution name-official":"University of California-Los Angeles","geo_precision":"city","state":"CA"},"type":"Feature","geometry":{"type":"Point","coordinates":[-118.243685,34.052234]}},{"properties":{"city":"Riverside","geo_score":0.857,"id":"a638krv9xt0w","institution name-official":"University of California-Riverside","geo_precision":"city","state":"CA"},"type":"Feature","geometry":{"type":"Point","coordinates":[-117.396156,33.953349]}},{"properties":{"city":"La Jolla","geo_score":0.857,"id":"a638krw0yfqd","institution name-official":"University of California-San Diego","geo_precision":"city","state":"CA"},"type":"Feature","geometry":{"type":"Point","coordinates":[-117.876447,33.857515]}},{"properties":{"city":"Santa Barbara","geo_score":0.857,"id":"a638krusbr4x","institution name-official":"University of California-Santa Barbara","geo_precision":"city","state":"CA"},"type":"Feature","geometry":{"type":"Point","coordinates":[-119.69819,34.420831]}},{"properties":{"city":"Santa Cruz","geo_score":0.762,"id":"a638krubvb5v","institution name-official":"University of California-Santa Cruz","geo_precision":"city","state":"CA"},"type":"Feature","geometry":{"type":"Point","coordinates":[-119.045658,36.114674]}},{"properties":{"city":"Orlando","geo_score":0.857,"id":"a638krsd3w9z","institution name-official":"University of Central Florida","geo_precision":"city","state":"FL"},"type":"Feature","geometry":{"type":"Point","coordinates":[-81.379237,28.538336]}},{"properties":{"city":"Cincinnati","geo_score":0.857,"id":"a638krkb9qca","institution name-official":"University of Cincinnati Main Campus","geo_precision":"city","state":"OH"},"type":"Feature","geometry":{"type":"Point","coordinates":[-84.456886,39.162004]}},{"properties":{"city":"Denver","geo_score":0.857,"id":"a638krnsx7is","institution name-official":"University of Colorado Denver","geo_precision":"city","state":"CO"},"type":"Feature","geometry":{"type":"Point","coordinates":[-104.984703,39.739154]}},{"properties":{"city":"Boulder","geo_score":0.857,"id":"a638krtwj8jq","institution name-official":"University of Colorado at Boulder","geo_precision":"city","state":"CO"},"type":"Feature","geometry":{"type":"Point","coordinates":[-105.250597,39.975263]}},{"properties":{"city":"Storrs","geo_score":0.857,"id":"a638kryzm46k","institution name-official":"University of Connecticut","geo_precision":"city","state":"CT"},"type":"Feature","geometry":{"type":"Point","coordinates":[-72.249523,41.808431]}},{"properties":{"city":"Newark","geo_score":0.857,"id":"a638krqnv19w","institution name-official":"University of Delaware","geo_precision":"city","state":"DE"},"type":"Feature","geometry":{"type":"Point","coordinates":[-75.749657,39.683723]}},{"properties":{"city":"Gainesville","geo_score":0.818,"id":"a638kruic97s","institution name-official":"University of Florida","geo_precision":"city","state":"FL"},"type":"Feature","geometry":{"type":"Point","coordinates":[-85.354651,30.731305]}},{"properties":{"city":"Athens","geo_score":0.857,"id":"a638kroh0raz","institution name-official":"University of Georgia","geo_precision":"city","state":"GA"},"type":"Feature","geometry":{"type":"Point","coordinates":[-83.353697,33.992902]}},{"properties":{"city":"Houston","geo_score":0.816,"id":"a638krkfvby1","institution name-official":"University of Houston","geo_precision":"city","state":"TX"},"type":"Feature","geometry":{"type":"Point","coordinates":[-96.919704,29.845783]}},{"properties":{"city":"Moscow","geo_score":0.857,"id":"a638krtsk8yu","institution name-official":"University of Idaho","geo_precision":"city","state":"ID"},"type":"Feature","geometry":{"type":"Point","coordinates":[-116.870147,46.735334]}},{"properties":{"city":"Chicago","geo_score":0.857,"id":"a638krmbkl5p","institution name-official":"University of Illinois at Chicago","geo_precision":"city","state":"IL"},"type":"Feature","geometry":{"type":"Point","coordinates":[-87.650052,41.850033]}},{"properties":{"city":"Urbana","geo_score":0.81,"id":"a638krxox9j9","institution name-official":"University of Illinois at Urbana-Champaign","geo_precision":"city","state":"IL"},"type":"Feature","geometry":{"type":"Point","coordinates":[-89.04063,37.974495]}},{"properties":{"city":"Iowa City","geo_score":0.732,"id":"a638kru7outm","institution name-official":"University of Iowa","geo_precision":"city","state":"IA"},"type":"Feature","geometry":{"type":"Point","coordinates":[-92.161281,43.198027]}},{"properties":{"city":"Lawrence","geo_score":0.857,"id":"a638krx3u1i4","institution name-official":"University of Kansas Main Campus","geo_precision":"city","state":"KS"},"type":"Feature","geometry":{"type":"Point","coordinates":[-95.283982,38.907518]}},{"properties":{"city":"Lexington","geo_score":0.857,"id":"a638krkz71m1","institution name-official":"University of Kentucky","geo_precision":"city","state":"KY"},"type":"Feature","geometry":{"type":"Point","coordinates":[-84.477715,37.988689]}},{"properties":{"city":"Louisville","geo_score":0.857,"id":"a638krydry4z","institution name-official":"University of Louisville","geo_precision":"city","state":"KY"},"type":"Feature","geometry":{"type":"Point","coordinates":[-85.759407,38.254238]}},{"properties":{"city":"Baltimore","geo_score":0.857,"id":"a638krm4w5a7","institution name-official":"University of Maryland Baltimore County","geo_precision":"city","state":"MD"},"type":"Feature","geometry":{"type":"Point","coordinates":[-76.612189,39.290385]}},{"properties":{"city":"College Park","geo_score":0.812,"id":"a638kro8cx20","institution name-official":"University of Maryland College Park","geo_precision":"city","state":"MD"},"type":"Feature","geometry":{"type":"Point","coordinates":[-76.951086,39.008721]}},{"properties":{"city":"Princess Anne","geo_score":0.857,"id":"a638krvvxexn","institution name-official":"University of Maryland Eastern Shore","geo_precision":"city","state":"MD"},"type":"Feature","geometry":{"type":"Point","coordinates":[-75.75292,38.200553]}},{"properties":{"city":"College Park","geo_score":0.812,"id":"a638krqry78v","institution name-official":"University of Maryland University College","geo_precision":"city","state":"MD"},"type":"Feature","geometry":{"type":"Point","coordinates":[-76.951086,39.008721]}},{"properties":{"city":"Amherst","geo_score":0.857,"id":"a638krkx1wg1","institution name-official":"University of Massachusetts Amherst","geo_precision":"city","state":"MA"},"type":"Feature","geometry":{"type":"Point","coordinates":[-72.464571,42.367092]}},{"properties":{"city":"Memphis","geo_score":0.857,"id":"a638krixfrvb","institution name-official":"University of Memphis, The","geo_precision":"city","state":"TN"},"type":"Feature","geometry":{"type":"Point","coordinates":[-90.04898,35.149534]}},{"properties":{"city":"Twin Cities","geo_score":0.729,"id":"a638krvutr3f","institution name-official":"University of Minnesota System","geo_precision":"city","state":"MN"},"type":"Feature","geometry":{"type":"Point","coordinates":[-92.894239,45.513447]}},{"properties":{"city":"Duluth","geo_score":0.857,"id":"a638krlhwqxv","institution name-official":"University of Minnesota-Duluth","geo_precision":"city","state":"MN"},"type":"Feature","geometry":{"type":"Point","coordinates":[-92.106579,46.783273]}},{"properties":{"city":"Minneapolis","geo_score":0.857,"id":"a638kriq2wy4","institution name-official":"University of Minnesota-Twin Cities","geo_precision":"city","state":"MN"},"type":"Feature","geometry":{"type":"Point","coordinates":[-93.263836,44.979965]}},{"properties":{"city":"Columbia","geo_score":0.857,"id":"a638krr2pkgd","institution name-official":"University of Missouri-Columbia","geo_precision":"city","state":"MO"},"type":"Feature","geometry":{"type":"Point","coordinates":[-92.334072,38.951705]}},{"properties":{"city":"Kansas City","geo_score":0.857,"id":"a638krmn4r6r","institution name-official":"University of Missouri-Kansas City","geo_precision":"city","state":"MO"},"type":"Feature","geometry":{"type":"Point","coordinates":[-94.598583,39.102404]}},{"properties":{"city":"Missoula","geo_score":0.857,"id":"a638krl6f6ux","institution name-official":"University of Montana, The","geo_precision":"city","state":"MT"},"type":"Feature","geometry":{"type":"Point","coordinates":[-113.993998,46.872146]}},{"properties":{"city":"Lincoln","geo_score":0.857,"id":"a638krkhx43x","institution name-official":"University of Nebraska System Central Administration","geo_precision":"city","state":"NE"},"type":"Feature","geometry":{"type":"Point","coordinates":[-96.66696,40.800001]}},{"properties":{"city":"Lincoln","geo_score":0.857,"id":"a638krrmixnq","institution name-official":"University of Nebraska-Lincoln","geo_precision":"city","state":"NE"},"type":"Feature","geometry":{"type":"Point","coordinates":[-96.66696,40.800001]}},{"properties":{"city":"Reno","geo_score":0.857,"id":"a638krwxfz8q","institution name-official":"University of Nevada, Reno","geo_precision":"city","state":"NV"},"type":"Feature","geometry":{"type":"Point","coordinates":[-119.813803,39.529633]}},{"properties":{"city":"Durham","geo_score":0.857,"id":"a638kriv2v5u","institution name-official":"University of New Hampshire","geo_precision":"city","state":"NH"},"type":"Feature","geometry":{"type":"Point","coordinates":[-70.962843,43.165772]}},{"properties":{"city":"Albuquerque","geo_score":0.857,"id":"a638krwqsbcf","institution name-official":"University of New Mexico Main Campus","geo_precision":"city","state":"NM"},"type":"Feature","geometry":{"type":"Point","coordinates":[-106.651137,35.084491]}},{"properties":{"city":"Chapel Hill","geo_score":0.857,"id":"a638kryhofle","institution name-official":"University of North Carolina System General Administration","geo_precision":"city","state":"NC"},"type":"Feature","geometry":{"type":"Point","coordinates":[-79.038605,35.926939]}},{"properties":{"city":"Chapel Hill","geo_score":0.857,"id":"a638krxlg4wx","institution name-official":"University of North Carolina at Chapel Hill","geo_precision":"city","state":"NC"},"type":"Feature","geometry":{"type":"Point","coordinates":[-79.038605,35.926939]}},{"properties":{"city":"Charlotte","geo_score":0.857,"id":"a638krxqdk27","institution name-official":"University of North Carolina at Charlotte","geo_precision":"city","state":"NC"},"type":"Feature","geometry":{"type":"Point","coordinates":[-80.843127,35.227087]}},{"properties":{"city":"Greensboro","geo_score":0.857,"id":"a638kryen9zs","institution name-official":"University of North Carolina at Greensboro","geo_precision":"city","state":"NC"},"type":"Feature","geometry":{"type":"Point","coordinates":[-79.791975,36.072636]}},{"properties":{"city":"Wilmington","geo_score":0.857,"id":"a638krn395q1","institution name-official":"University of North Carolina at Wilmington","geo_precision":"city","state":"NC"},"type":"Feature","geometry":{"type":"Point","coordinates":[-77.94471,34.225726]}},{"properties":{"city":"Denton","geo_score":0.857,"id":"a638krjevb9k","institution name-official":"University of North Texas","geo_precision":"city","state":"TX"},"type":"Feature","geometry":{"type":"Point","coordinates":[-99.539522,32.258742]}},{"properties":{"city":"Norman","geo_score":0.857,"id":"a638krm9cxxs","institution name-official":"University of Oklahoma Norman Campus","geo_precision":"city","state":"OK"},"type":"Feature","geometry":{"type":"Point","coordinates":[-97.44451,35.208566]}},{"properties":{"city":"Eugene","geo_score":0.857,"id":"a638kroatovm","institution name-official":"University of Oregon","geo_precision":"city","state":"OR"},"type":"Feature","geometry":{"type":"Point","coordinates":[-123.086754,44.052069]}},{"properties":{"city":"Pittsburgh","geo_score":0.857,"id":"a638krmhh5mn","institution name-official":"University of Pittsburgh, Pittsburgh Campus","geo_precision":"city","state":"PA"},"type":"Feature","geometry":{"type":"Point","coordinates":[-79.995886,40.440625]}},{"properties":{"city":"Columbia","geo_score":0.857,"id":"a638krugop5z","institution name-official":"University of South Carolina - Columbia","geo_precision":"city","state":"SC"},"type":"Feature","geometry":{"type":"Point","coordinates":[-81.024864,33.987454]}},{"properties":{"city":"Vermillion","geo_score":0.857,"id":"a638krlghmjg","institution name-official":"University of South Dakota","geo_precision":"city","state":"SD"},"type":"Feature","geometry":{"type":"Point","coordinates":[-96.973318,42.854124]}},{"properties":{"city":"Tampa","geo_score":0.857,"id":"a638krvg653d","institution name-official":"University of South Florida","geo_precision":"city","state":"FL"},"type":"Feature","geometry":{"type":"Point","coordinates":[-82.458428,27.947522]}},{"properties":{"city":"Knoxville","geo_score":0.794,"id":"a638krj89dwv","institution name-official":"University of Tennessee, Knoxville","geo_precision":"city","state":"TN"},"type":"Feature","geometry":{"type":"Point","coordinates":[-86.784443,36.16589]}},{"properties":{"city":"Arlington","geo_score":0.857,"id":"a638krmgd2fh","institution name-official":"University of Texas at Arlington","geo_precision":"city","state":"TX"},"type":"Feature","geometry":{"type":"Point","coordinates":[-97.108066,32.735687]}},{"properties":{"city":"Austin","geo_score":0.857,"id":"a638krwrka4a","institution name-official":"University of Texas at Austin","geo_precision":"city","state":"TX"},"type":"Feature","geometry":{"type":"Point","coordinates":[-97.743061,30.267153]}},{"properties":{"city":"San Antonio","geo_score":0.857,"id":"a638krvykn9x","institution name-official":"University of Texas at San Antonio","geo_precision":"city","state":"TX"},"type":"Feature","geometry":{"type":"Point","coordinates":[-98.493628,29.424122]}},{"properties":{"city":"Salt Lake City","geo_score":0.857,"id":"a638krr72yjl","institution name-official":"University of Utah","geo_precision":"city","state":"UT"},"type":"Feature","geometry":{"type":"Point","coordinates":[-111.891047,40.760779]}},{"properties":{"city":"Burlington","geo_score":0.78,"id":"a638krt8i88h","institution name-official":"University of Vermont","geo_precision":"city","state":"VT"},"type":"Feature","geometry":{"type":"Point","coordinates":[-72.575941,44.21006]}},{"properties":{"city":"Charlottesville","geo_score":0.857,"id":"a638krs340po","institution name-official":"University of Virginia","geo_precision":"city","state":"VA"},"type":"Feature","geometry":{"type":"Point","coordinates":[-78.476678,38.029306]}},{"properties":{"city":"Madison","geo_score":0.857,"id":"a638krk995vr","institution name-official":"University of Wisconsin System","geo_precision":"city","state":"WI"},"type":"Feature","geometry":{"type":"Point","coordinates":[-89.40123,43.073052]}},{"properties":{"city":"Madison","geo_score":0.857,"id":"a638krva2va0","institution name-official":"University of Wisconsin-Madison","geo_precision":"city","state":"WI"},"type":"Feature","geometry":{"type":"Point","coordinates":[-89.40123,43.073052]}},{"properties":{"city":"Milwaukee","geo_score":0.857,"id":"a638krwgg3ia","institution name-official":"University of Wisconsin-Milwaukee","geo_precision":"city","state":"WI"},"type":"Feature","geometry":{"type":"Point","coordinates":[-87.906474,43.038903]}},{"properties":{"city":"Laramie","geo_score":0.857,"id":"a638krjdugzf","institution name-official":"University of Wyoming","geo_precision":"city","state":"WY"},"type":"Feature","geometry":{"type":"Point","coordinates":[-105.801022,41.43902]}},{"properties":{"city":"Washington","geo_score":0.857,"id":"a638krw7fqjn","institution name-official":"University of the District of Columbia","geo_precision":"city","state":"DC"},"type":"Feature","geometry":{"type":"Point","coordinates":[-77.036366,38.895112]}},{"properties":{"city":"Logan","geo_score":0.857,"id":"a638krlk4evp","institution name-official":"Utah State University","geo_precision":"city","state":"UT"},"type":"Feature","geometry":{"type":"Point","coordinates":[-111.885084,41.76695]}},{"properties":{"city":"Blacksburg","geo_score":0.857,"id":"a638krssl7jc","institution name-official":"Virginia Polytechnic Institute and State University","geo_precision":"city","state":"VA"},"type":"Feature","geometry":{"type":"Point","coordinates":[-81.820401,36.75428]}},{"properties":{"city":"Morgantown","geo_score":0.857,"id":"a638krw0709r","institution name-official":"West Virginia University","geo_precision":"city","state":"WV"},"type":"Feature","geometry":{"type":"Point","coordinates":[-79.983141,39.609911]}},{"properties":{"city":"Kalamazoo","geo_score":0.857,"id":"a638krsfnijo","institution name-official":"Western Michigan University","geo_precision":"city","state":"MI"},"type":"Feature","geometry":{"type":"Point","coordinates":[-85.588195,42.274887]}},{"properties":{"city":"Wichita","geo_score":0.857,"id":"a638krrg8i1i","institution name-official":"Wichita State University","geo_precision":"city","state":"KS"},"type":"Feature","geometry":{"type":"Point","coordinates":[-97.337545,37.692236]}},{"properties":{"city":"Dayton","geo_score":0.857,"id":"a638krklzu3k","institution name-official":"Wright State University Main Campus","geo_precision":"city","state":"OH"},"type":"Feature","geometry":{"type":"Point","coordinates":[-84.191607,39.758948]}}],"is_temporal":false,"author":{"url":"","metadata":"","contact_name":"","contact_address":"","source":"","contact_phone":""},"source":"","pagination":{"sort":null,"start":0,"total":136,"limit":1000000},"state":"complete","tags":"institutions,smti","published":"2014-08-10T12:51:39-04:00","id":71895}