{"type":"FeatureCollection","data_type":"Dataset","url_type":null,"permissions":[{"permissions":{"download":true,"view":true},"group_id":"everyone"}],"classification":null,"title":"buys134","count":213,"stream_id":72284,"contributor":{"url":"http://geocommons.com/users/17425","name":"maptastic"},"data_attributes":null,"calculation_params":null,"icon_link":null,"link":"http://geocommons.com/overlays/72284.json","extent":[-157.789,21.2946,-74.4294,47.4869],"geometry_types":["point"],"unique_name":null,"name":"buys134","feature_count":213,"description":"","next_feature":null,"is_raster":false,"short_classification":"Y","stats":{"latitude_deal":{"max":32.769349,"mean":32.7693490000001,"variance":8.57275708428691e-27,"stdev":9.25891844887237e-14,"min":32.769349,"median":32.769349},"longitude_cc":{"max":-74.429439,"mean":-116.122913339623,"variance":48.6192215783561,"stdev":6.97274849527474,"min":-157.788527,"median":-117.148598},"deal_id":{"max":134,"mean":134.0,"variance":0.0,"stdev":0.0,"min":134,"median":134},"distance between":{"max":2604.487809,"mean":101.570943177118,"variance":170977.413645245,"stdev":413.4941518876,"min":0.398092044,"median":7.80689138},"latitude_cc":{"max":47.486931,"mean":33.0314601037736,"variance":4.06904955565075,"stdev":2.01718852754291,"min":21.294629,"median":32.80573},"longitude_deal":{"max":-117.170644,"mean":-117.170644,"variance":2.07775224954078e-25,"stdev":4.55823677482947e-13,"min":-117.170644,"median":-117.170644}},"features":[{"properties":{"address1":null,"city":null,"zip":null,"latitude_deal":null,"parent_category_deal":null,"longitude_cc":null,"category_deal":null,"deal_id":null,"distance between":null,"latitude_cc":null,"id":"a63cg082vs9a","state":null,"longitude_deal":null},"type":"Feature","geometry":null},{"properties":{"address1":"6818 Embarcadero Lane","city":"Carlsbad","zip":"92011","latitude_deal":32.769349,"parent_category_deal":"Beauty and Spas","longitude_cc":-117.318099,"category_deal":"Laser Hair Removal","deal_id":134,"distance between":24.93563393,"latitude_cc":33.108385,"id":"a63cg022leoe","state":"CA","longitude_deal":-117.170644},"type":"Feature","geometry":{"type":"Point","coordinates":[-117.318099,33.108385]}},{"properties":{"address1":"6314 Caminito Basilio","city":"San Diego","zip":"92111","latitude_deal":32.769349,"parent_category_deal":"Beauty and Spas","longitude_cc":-117.183239,"category_deal":"Laser Hair Removal","deal_id":134,"distance between":0.73589079,"latitude_cc":32.768215,"id":"a63cg00znqi8","state":"CA","longitude_deal":-117.170644},"type":"Feature","geometry":{"type":"Point","coordinates":[-117.183239,32.768215]}},{"properties":{"address1":"5865 Friars Rd #3204","city":"San Diego","zip":"92110","latitude_deal":32.769349,"parent_category_deal":"Beauty and Spas","longitude_cc":-117.186932,"category_deal":"Laser Hair Removal","deal_id":134,"distance between":0.980840394,"latitude_cc":32.765613,"id":"a63cfzzmboe0","state":"CA","longitude_deal":-117.170644},"type":"Feature","geometry":{"type":"Point","coordinates":[-117.186932,32.765613]}},{"properties":{"address1":"1333 Caminito Gabaldon Unit H","city":"San Diego","zip":"92108","latitude_deal":32.769349,"parent_category_deal":"Beauty and Spas","longitude_cc":-117.152535,"category_deal":"Laser Hair Removal","deal_id":134,"distance between":1.071911749,"latitude_cc":32.772324,"id":"a63cg02i10zl","state":"CA","longitude_deal":-117.170644},"type":"Feature","geometry":{"type":"Point","coordinates":[-117.152535,32.772324]}},{"properties":{"address1":"4296 5th ave","city":"San Diego","zip":"92103","latitude_deal":32.769349,"parent_category_deal":"Beauty and Spas","longitude_cc":-117.160604,"category_deal":"Laser Hair Removal","deal_id":134,"distance between":1.174454848,"latitude_cc":32.754595,"id":"a63cg0eayn71","state":"CA","longitude_deal":-117.170644},"type":"Feature","geometry":{"type":"Point","coordinates":[-117.160604,32.754595]}},{"properties":{"address1":"7220 Hyatt Street","city":"San Diego","zip":"92111","latitude_deal":32.769349,"parent_category_deal":"Beauty and Spas","longitude_cc":-117.166682,"category_deal":"Laser Hair Removal","deal_id":134,"distance between":1.457567047,"latitude_cc":32.790181,"id":"a63cg07hb62a","state":"CA","longitude_deal":-117.170644},"type":"Feature","geometry":{"type":"Point","coordinates":[-117.166682,32.790181]}},{"properties":{"address1":"1840 Lyndon Rd","city":"San Diego","zip":"92103","latitude_deal":32.769349,"parent_category_deal":"Beauty and Spas","longitude_cc":-117.181592,"category_deal":"Laser Hair Removal","deal_id":134,"distance between":1.513651585,"latitude_cc":32.749469,"id":"a63cg02akry3","state":"CA","longitude_deal":-117.170644},"type":"Feature","geometry":{"type":"Point","coordinates":[-117.181592,32.749469]}},{"properties":{"address1":"2612 Nye St.","city":"San Diego","zip":"92111","latitude_deal":32.769349,"parent_category_deal":"Beauty and Spas","longitude_cc":-117.176353,"category_deal":"Laser Hair Removal","deal_id":134,"distance between":1.528071535,"latitude_cc":32.790939,"id":"a63cg0801dmx","state":"CA","longitude_deal":-117.170644},"type":"Feature","geometry":{"type":"Point","coordinates":[-117.176353,32.790939]}},{"properties":{"address1":"1260 Cleveland Ave, #A221","city":"San Diego","zip":"92103","latitude_deal":32.769349,"parent_category_deal":"Beauty and Spas","longitude_cc":-117.152188,"category_deal":"Laser Hair Removal","deal_id":134,"distance between":1.744866992,"latitude_cc":32.749426,"id":"a63cg0cj2lwa","state":"CA","longitude_deal":-117.170644},"type":"Feature","geometry":{"type":"Point","coordinates":[-117.152188,32.749426]}},{"properties":{"address1":"1270 Cleveland Ave., #k304","city":"San Diego","zip":"92103","latitude_deal":32.769349,"parent_category_deal":"Beauty and Spas","longitude_cc":-117.152013,"category_deal":"Laser Hair Removal","deal_id":134,"distance between":1.74847395,"latitude_cc":32.749475,"id":"a63cg08n0h4h","state":"CA","longitude_deal":-117.170644},"type":"Feature","geometry":{"type":"Point","coordinates":[-117.152013,32.749475]}},{"properties":{"address1":"3502 Pringle St # 106","city":"San Diego","zip":"92110","latitude_deal":32.769349,"parent_category_deal":"Beauty and Spas","longitude_cc":-117.183309,"category_deal":"Laser Hair Removal","deal_id":134,"distance between":1.865465822,"latitude_cc":32.744538,"id":"a63cg03b74sh","state":"CA","longitude_deal":-117.170644},"type":"Feature","geometry":{"type":"Point","coordinates":[-117.183309,32.744538]}},{"properties":{"address1":"8672 Encino Avenue","city":"San Diego","zip":"92123","latitude_deal":32.769349,"parent_category_deal":"Beauty and Spas","longitude_cc":-117.14517,"category_deal":"Laser Hair Removal","deal_id":134,"distance between":1.945264728,"latitude_cc":32.787625,"id":"a63cg0crk1qk","state":"CA","longitude_deal":-117.170644},"type":"Feature","geometry":{"type":"Point","coordinates":[-117.14517,32.787625]}},{"properties":{"address1":"3814 Centre St #2","city":"San Diego","zip":"92103","latitude_deal":32.769349,"parent_category_deal":"Beauty and Spas","longitude_cc":-117.148423,"category_deal":"Laser Hair Removal","deal_id":134,"distance between":1.984627774,"latitude_cc":32.747533,"id":"a63cg06njeer","state":"CA","longitude_deal":-117.170644},"type":"Feature","geometry":{"type":"Point","coordinates":[-117.148423,32.747533]}},{"properties":{"address1":"3137 IBIS LANE","city":"SAN DIEGO","zip":"92103","latitude_deal":32.769349,"parent_category_deal":"Beauty and Spas","longitude_cc":-117.173398,"category_deal":"Laser Hair Removal","deal_id":134,"distance between":2.210737355,"latitude_cc":32.737435,"id":"a63cg0cdfjf5","state":"CA","longitude_deal":-117.170644},"type":"Feature","geometry":{"type":"Point","coordinates":[-117.173398,32.737435]}},{"properties":{"address1":"8581 Pinecrest Ave","city":"San Diego","zip":"92123","latitude_deal":32.769349,"parent_category_deal":"Beauty and Spas","longitude_cc":-117.144436,"category_deal":"Laser Hair Removal","deal_id":134,"distance between":2.500722467,"latitude_cc":32.798065,"id":"a63cg0631otu","state":"CA","longitude_deal":-117.170644},"type":"Feature","geometry":{"type":"Point","coordinates":[-117.144436,32.798065]}},{"properties":{"address1":"2701 2nd Avenue #306","city":"San Diego","zip":"92103","latitude_deal":32.769349,"parent_category_deal":"Beauty and Spas","longitude_cc":-117.162957,"category_deal":"Laser Hair Removal","deal_id":134,"distance between":2.514380865,"latitude_cc":32.733535,"id":"a63cg00h0y6a","state":"CA","longitude_deal":-117.170644},"type":"Feature","geometry":{"type":"Point","coordinates":[-117.162957,32.733535]}},{"properties":{"address1":"2703 columbia st","city":"san diego","zip":"92103","latitude_deal":32.769349,"parent_category_deal":"Beauty and Spas","longitude_cc":-117.171031,"category_deal":"Laser Hair Removal","deal_id":134,"distance between":2.531902913,"latitude_cc":32.732704,"id":"a63cg05euoks","state":"CA","longitude_deal":-117.170644},"type":"Feature","geometry":{"type":"Point","coordinates":[-117.171031,32.732704]}},{"properties":{"address1":"2789 Bellezza Drive","city":"San Diego","zip":"92108","latitude_deal":32.769349,"parent_category_deal":"Beauty and Spas","longitude_cc":-117.129326,"category_deal":"Laser Hair Removal","deal_id":134,"distance between":2.685445753,"latitude_cc":32.786784,"id":"a63cg0dvg8mn","state":"CA","longitude_deal":-117.170644},"type":"Feature","geometry":{"type":"Point","coordinates":[-117.129326,32.786784]}},{"properties":{"address1":"3531 Antiem Street","city":"San Diego","zip":"92111","latitude_deal":32.769349,"parent_category_deal":"Beauty and Spas","longitude_cc":-117.159115,"category_deal":"Laser Hair Removal","deal_id":134,"distance between":2.781230722,"latitude_cc":32.80842,"id":"a63cg0cllrw9","state":"CA","longitude_deal":-117.170644},"type":"Feature","geometry":{"type":"Point","coordinates":[-117.159115,32.80842]}},{"properties":{"address1":"2318 3rd Ave","city":"San Diego","zip":"92101","latitude_deal":32.769349,"parent_category_deal":"Beauty and Spas","longitude_cc":-117.162204,"category_deal":"Laser Hair Removal","deal_id":134,"distance between":2.793990387,"latitude_cc":32.729537,"id":"a63cfzzof1tw","state":"CA","longitude_deal":-117.170644},"type":"Feature","geometry":{"type":"Point","coordinates":[-117.162204,32.729537]}},{"properties":{"address1":"3754 32nd street Apt #1","city":"San Diego","zip":"92104","latitude_deal":32.769349,"parent_category_deal":"Beauty and Spas","longitude_cc":-117.125134,"category_deal":"Laser Hair Removal","deal_id":134,"distance between":3.077389986,"latitude_cc":32.746563,"id":"a63cg0f5x4ap","state":"CA","longitude_deal":-117.170644},"type":"Feature","geometry":{"type":"Point","coordinates":[-117.125134,32.746563]}},{"properties":{"address1":"5550 Genesee Ct. E. Apt.# 204","city":"San Diego","zip":"92111","latitude_deal":32.769349,"parent_category_deal":"Beauty and Spas","longitude_cc":-117.178994,"category_deal":"Laser Hair Removal","deal_id":134,"distance between":3.132926503,"latitude_cc":32.814148,"id":"a63cg04yg2yo","state":"CA","longitude_deal":-117.170644},"type":"Feature","geometry":{"type":"Point","coordinates":[-117.178994,32.814148]}},{"properties":{"address1":"3584 Sandrock Rd","city":"San Diego","zip":"92123","latitude_deal":32.769349,"parent_category_deal":"Beauty and Spas","longitude_cc":-117.140289,"category_deal":"Laser Hair Removal","deal_id":134,"distance between":3.166903167,"latitude_cc":32.807426,"id":"a63cg0btn761","state":"CA","longitude_deal":-117.170644},"type":"Feature","geometry":{"type":"Point","coordinates":[-117.140289,32.807426]}},{"properties":{"address1":"1670 Kettner Blvd apt 508","city":"San Diego","zip":"92101","latitude_deal":32.769349,"parent_category_deal":"Beauty and Spas","longitude_cc":-117.169324,"category_deal":"Laser Hair Removal","deal_id":134,"distance between":3.228381633,"latitude_cc":32.722635,"id":"a63cg04gi7so","state":"CA","longitude_deal":-117.170644},"type":"Feature","geometry":{"type":"Point","coordinates":[-117.169324,32.722635]}},{"properties":{"address1":"3010 Quince st","city":"San Diego","zip":"92104","latitude_deal":32.769349,"parent_category_deal":"Beauty and Spas","longitude_cc":-117.129112,"category_deal":"Laser Hair Removal","deal_id":134,"distance between":3.305073308,"latitude_cc":32.736663,"id":"a63cg095dpnc","state":"CA","longitude_deal":-117.170644},"type":"Feature","geometry":{"type":"Point","coordinates":[-117.129112,32.736663]}},{"properties":{"address1":"1580 Union st #307","city":"San Diego","zip":"92101","latitude_deal":32.769349,"parent_category_deal":"Beauty and Spas","longitude_cc":-117.165774,"category_deal":"Laser Hair Removal","deal_id":134,"distance between":3.305518598,"latitude_cc":32.721681,"id":"a63cg0e0rx83","state":"CA","longitude_deal":-117.170644},"type":"Feature","geometry":{"type":"Point","coordinates":[-117.165774,32.721681]}},{"properties":{"address1":"3653 Nile Street","city":"San Diego","zip":"92104","latitude_deal":32.769349,"parent_category_deal":"Beauty and Spas","longitude_cc":-117.12047,"category_deal":"Laser Hair Removal","deal_id":134,"distance between":3.377235599,"latitude_cc":32.744671,"id":"a63cg04ukj1j","state":"CA","longitude_deal":-117.170644},"type":"Feature","geometry":{"type":"Point","coordinates":[-117.12047,32.744671]}},{"properties":{"address1":"1435 India St #504","city":"San Diego","zip":"92101","latitude_deal":32.769349,"parent_category_deal":"Beauty and Spas","longitude_cc":-117.168153,"category_deal":"Laser Hair Removal","deal_id":134,"distance between":3.395336972,"latitude_cc":32.72025,"id":"a63cg05x1q39","state":"CA","longitude_deal":-117.170644},"type":"Feature","geometry":{"type":"Point","coordinates":[-117.168153,32.72025]}},{"properties":{"address1":"3122 quince st #a","city":"san diego","zip":"92104","latitude_deal":32.769349,"parent_category_deal":"Beauty and Spas","longitude_cc":-117.126999,"category_deal":"Laser Hair Removal","deal_id":134,"distance between":3.396905634,"latitude_cc":32.736638,"id":"a63cg0d3oef8","state":"CA","longitude_deal":-117.170644},"type":"Feature","geometry":{"type":"Point","coordinates":[-117.126999,32.736638]}},{"properties":{"address1":"3244 Dumas Street","city":"San Diego","zip":"92106","latitude_deal":32.769349,"parent_category_deal":"Beauty and Spas","longitude_cc":-117.21892,"category_deal":"Laser Hair Removal","deal_id":134,"distance between":3.419828899,"latitude_cc":32.741034,"id":"a63cg04z1csv","state":"CA","longitude_deal":-117.170644},"type":"Feature","geometry":{"type":"Point","coordinates":[-117.21892,32.741034]}},{"properties":{"address1":"3456 Castle Glen Dr","city":"San diego","zip":"92123","latitude_deal":32.769349,"parent_category_deal":"Beauty and Spas","longitude_cc":-117.130713,"category_deal":"Laser Hair Removal","deal_id":134,"distance between":3.420115203,"latitude_cc":32.80573,"id":"a63cfzzh9i4f","state":"CA","longitude_deal":-117.170644},"type":"Feature","geometry":{"type":"Point","coordinates":[-117.130713,32.80573]}},{"properties":{"address1":"3338 Felton Street","city":"San Diego","zip":"92104","latitude_deal":32.769349,"parent_category_deal":"Beauty and Spas","longitude_cc":-117.122261,"category_deal":"Laser Hair Removal","deal_id":134,"distance between":3.46660858,"latitude_cc":32.739991,"id":"a63cg03mrff6","state":"CA","longitude_deal":-117.170644},"type":"Feature","geometry":{"type":"Point","coordinates":[-117.122261,32.739991]}},{"properties":{"address1":"3098 rue dorleans 333","city":"san deigo","zip":"92110","latitude_deal":32.769349,"parent_category_deal":"Beauty and Spas","longitude_cc":-117.228201,"category_deal":"Laser Hair Removal","deal_id":134,"distance between":3.533731903,"latitude_cc":32.752818,"id":"a63cg046bjyb","state":"CA","longitude_deal":-117.170644},"type":"Feature","geometry":{"type":"Point","coordinates":[-117.228201,32.752818]}},{"properties":{"address1":"3139 Olive St.","city":"San Diego","zip":"92104","latitude_deal":32.769349,"parent_category_deal":"Beauty and Spas","longitude_cc":-117.126054,"category_deal":"Laser Hair Removal","deal_id":134,"distance between":3.534615936,"latitude_cc":32.73455,"id":"a63cg0b4v1nr","state":"CA","longitude_deal":-117.170644},"type":"Feature","geometry":{"type":"Point","coordinates":[-117.126054,32.73455]}},{"properties":{"address1":"1240 India St #1107","city":"San Diego","zip":"92101","latitude_deal":32.769349,"parent_category_deal":"Beauty and Spas","longitude_cc":-117.168465,"category_deal":"Laser Hair Removal","deal_id":134,"distance between":3.53532372,"latitude_cc":32.718212,"id":"a63cg0eay02w","state":"CA","longitude_deal":-117.170644},"type":"Feature","geometry":{"type":"Point","coordinates":[-117.168465,32.718212]}},{"properties":{"address1":"1240 india st unit 2101","city":"san diego","zip":"92101","latitude_deal":32.769349,"parent_category_deal":"Beauty and Spas","longitude_cc":-117.168465,"category_deal":"Laser Hair Removal","deal_id":134,"distance between":3.53532372,"latitude_cc":32.718212,"id":"a63cg0d6w7b2","state":"CA","longitude_deal":-117.170644},"type":"Feature","geometry":{"type":"Point","coordinates":[-117.168465,32.718212]}},{"properties":{"address1":"4754 Mt. Durban Drive","city":"San Diego","zip":"92117","latitude_deal":32.769349,"parent_category_deal":"Beauty and Spas","longitude_cc":-117.191416,"category_deal":"Laser Hair Removal","deal_id":134,"distance between":3.538356787,"latitude_cc":32.817494,"id":"a63cg03nmkgt","state":"CA","longitude_deal":-117.170644},"type":"Feature","geometry":{"type":"Point","coordinates":[-117.191416,32.817494]}},{"properties":{"address1":"1199 Pacific Hwy Unit 1903","city":"San Diego","zip":"92101","latitude_deal":32.769349,"parent_category_deal":"Beauty and Spas","longitude_cc":-117.170965,"category_deal":"Laser Hair Removal","deal_id":134,"distance between":3.569376323,"latitude_cc":32.717687,"id":"a63cg09ppbvp","state":"CA","longitude_deal":-117.170644},"type":"Feature","geometry":{"type":"Point","coordinates":[-117.170965,32.717687]}},{"properties":{"address1":"6052 Rancho Mission Rd #408","city":"San Diego","zip":"92108","latitude_deal":32.769349,"parent_category_deal":"Beauty and Spas","longitude_cc":-117.110554,"category_deal":"Laser Hair Removal","deal_id":134,"distance between":3.645466823,"latitude_cc":32.784564,"id":"a63cg0ec6azp","state":"CA","longitude_deal":-117.170644},"type":"Feature","geometry":{"type":"Point","coordinates":[-117.110554,32.784564]}},{"properties":{"address1":"2106 Dale Street","city":"San Diego","zip":"92104","latitude_deal":32.769349,"parent_category_deal":"Beauty and Spas","longitude_cc":-117.13121,"category_deal":"Laser Hair Removal","deal_id":134,"distance between":3.677139074,"latitude_cc":32.727724,"id":"a63cg05cxcye","state":"CA","longitude_deal":-117.170644},"type":"Feature","geometry":{"type":"Point","coordinates":[-117.13121,32.727724]}},{"properties":{"address1":"p.o.box 6715","city":"san diego","zip":"92166","latitude_deal":32.769349,"parent_category_deal":"Beauty and Spas","longitude_cc":-117.16172,"category_deal":"Laser Hair Removal","deal_id":134,"distance between":3.74414887,"latitude_cc":32.715679,"id":"a63cg0c0m98d","state":"CA","longitude_deal":-117.170644},"type":"Feature","geometry":{"type":"Point","coordinates":[-117.16172,32.715679]}},{"properties":{"address1":"p.o.box 6715","city":"san diego","zip":"92166","latitude_deal":32.769349,"parent_category_deal":"Beauty and Spas","longitude_cc":-117.16172,"category_deal":"Laser Hair Removal","deal_id":134,"distance between":3.74414887,"latitude_cc":32.715679,"id":"a63cg06ntr6k","state":"CA","longitude_deal":-117.170644},"type":"Feature","geometry":{"type":"Point","coordinates":[-117.16172,32.715679]}},{"properties":{"address1":"1734 Fern Street","city":"San Diego","zip":"92102","latitude_deal":32.769349,"parent_category_deal":"Beauty and Spas","longitude_cc":-117.129394,"category_deal":"Laser Hair Removal","deal_id":134,"distance between":3.956291595,"latitude_cc":32.723793,"id":"a63cg05cdai8","state":"CA","longitude_deal":-117.170644},"type":"Feature","geometry":{"type":"Point","coordinates":[-117.129394,32.723793]}},{"properties":{"address1":"2045 1/2 Oliver Ave","city":"San Diego","zip":"92109","latitude_deal":32.769349,"parent_category_deal":"Beauty and Spas","longitude_cc":-117.231146,"category_deal":"Laser Hair Removal","deal_id":134,"distance between":3.989132023,"latitude_cc":32.796669,"id":"a63cg05id5yr","state":"CA","longitude_deal":-117.170644},"type":"Feature","geometry":{"type":"Point","coordinates":[-117.231146,32.796669]}},{"properties":{"address1":"2048 Oliver Ave apt B","city":"San Diego","zip":"92109","latitude_deal":32.769349,"parent_category_deal":"Beauty and Spas","longitude_cc":-117.23117,"category_deal":"Laser Hair Removal","deal_id":134,"distance between":3.999311974,"latitude_cc":32.796942,"id":"a63cg0ah9xqn","state":"CA","longitude_deal":-117.170644},"type":"Feature","geometry":{"type":"Point","coordinates":[-117.23117,32.796942]}},{"properties":{"address1":"500 W. Harbor Dr #809","city":"San Diego","zip":"92101","latitude_deal":32.769349,"parent_category_deal":"Beauty and Spas","longitude_cc":-117.168471,"category_deal":"Laser Hair Removal","deal_id":134,"distance between":4.007482883,"latitude_cc":32.711374,"id":"a63cg0c59xgw","state":"CA","longitude_deal":-117.170644},"type":"Feature","geometry":{"type":"Point","coordinates":[-117.168471,32.711374]}},{"properties":{"address1":"707 10th Ave. #720","city":"San Diego","zip":"92101","latitude_deal":32.769349,"parent_category_deal":"Beauty and Spas","longitude_cc":-117.155428,"category_deal":"Laser Hair Removal","deal_id":134,"distance between":4.008885256,"latitude_cc":32.712754,"id":"a63cg08uax2m","state":"CA","longitude_deal":-117.170644},"type":"Feature","geometry":{"type":"Point","coordinates":[-117.155428,32.712754]}},{"properties":{"address1":"606 3rd Ave #353","city":"San Diego","zip":"92101","latitude_deal":32.769349,"parent_category_deal":"Beauty and Spas","longitude_cc":-117.162094,"category_deal":"Laser Hair Removal","deal_id":134,"distance between":4.017406896,"latitude_cc":32.711648,"id":"a63cg07wdgvx","state":"CA","longitude_deal":-117.170644},"type":"Feature","geometry":{"type":"Point","coordinates":[-117.162094,32.711648]}},{"properties":{"address1":"2560 Pico Pl.","city":"San Diego","zip":"92109","latitude_deal":32.769349,"parent_category_deal":"Beauty and Spas","longitude_cc":-117.223607,"category_deal":"Laser Hair Removal","deal_id":134,"distance between":4.026767586,"latitude_cc":32.806958,"id":"a63cg0ctig2x","state":"CA","longitude_deal":-117.170644},"type":"Feature","geometry":{"type":"Point","coordinates":[-117.223607,32.806958]}},{"properties":{"address1":"101 market st #113","city":"San Diego","zip":"92101","latitude_deal":32.769349,"parent_category_deal":"Beauty and Spas","longitude_cc":-117.163689,"category_deal":"Laser Hair Removal","deal_id":134,"distance between":4.029270413,"latitude_cc":32.711324,"id":"a63cg039ekad","state":"CA","longitude_deal":-117.170644},"type":"Feature","geometry":{"type":"Point","coordinates":[-117.163689,32.711324]}},{"properties":{"address1":"1436 29th Street","city":"San Diego","zip":"92102","latitude_deal":32.769349,"parent_category_deal":"Beauty and Spas","longitude_cc":-117.132221,"category_deal":"Laser Hair Removal","deal_id":134,"distance between":4.035875912,"latitude_cc":32.720688,"id":"a63cfzyt9nrf","state":"CA","longitude_deal":-117.170644},"type":"Feature","geometry":{"type":"Point","coordinates":[-117.132221,32.720688]}},{"properties":{"address1":"3737 ingraham street","city":"San Diego","zip":"92109","latitude_deal":32.769349,"parent_category_deal":"Beauty and Spas","longitude_cc":-117.236936,"category_deal":"Laser Hair Removal","deal_id":134,"distance between":4.049492145,"latitude_cc":32.787482,"id":"a63cg01pf1kq","state":"CA","longitude_deal":-117.170644},"type":"Feature","geometry":{"type":"Point","coordinates":[-117.236936,32.787482]}},{"properties":{"address1":"2707 Somers Ln","city":"San Diego","zip":"92106","latitude_deal":32.769349,"parent_category_deal":"Beauty and Spas","longitude_cc":-117.220748,"category_deal":"Laser Hair Removal","deal_id":134,"distance between":4.0733953,"latitude_cc":32.728115,"id":"a63cg0b7ouys","state":"CA","longitude_deal":-117.170644},"type":"Feature","geometry":{"type":"Point","coordinates":[-117.220748,32.728115]}},{"properties":{"address1":"840 21st street","city":"san diego","zip":"92102","latitude_deal":32.769349,"parent_category_deal":"Beauty and Spas","longitude_cc":-117.145009,"category_deal":"Laser Hair Removal","deal_id":134,"distance between":4.085839683,"latitude_cc":32.714282,"id":"a63cg0707yrv","state":"CA","longitude_deal":-117.170644},"type":"Feature","geometry":{"type":"Point","coordinates":[-117.145009,32.714282]}},{"properties":{"address1":"4541 1/2 E Talmadge Dr","city":"San Diego","zip":"92116","latitude_deal":32.769349,"parent_category_deal":"Beauty and Spas","longitude_cc":-117.100233,"category_deal":"Laser Hair Removal","deal_id":134,"distance between":4.129080972,"latitude_cc":32.761219,"id":"a63cg0781e3o","state":"CA","longitude_deal":-117.170644},"type":"Feature","geometry":{"type":"Point","coordinates":[-117.100233,32.761219]}},{"properties":{"address1":"550 Park Blvd #2412","city":"San Diego","zip":"92101","latitude_deal":32.769349,"parent_category_deal":"Beauty and Spas","longitude_cc":-117.153899,"category_deal":"Laser Hair Removal","deal_id":134,"distance between":4.147320313,"latitude_cc":32.710997,"id":"a63cg06gs6bw","state":"CA","longitude_deal":-117.170644},"type":"Feature","geometry":{"type":"Point","coordinates":[-117.153899,32.710997]}},{"properties":{"address1":"4080 Kendall Street Apt.7","city":"San Diego","zip":"92109","latitude_deal":32.769349,"parent_category_deal":"Beauty and Spas","longitude_cc":-117.235519,"category_deal":"Laser Hair Removal","deal_id":134,"distance between":4.148066143,"latitude_cc":32.794443,"id":"a63cg0aic0e6","state":"CA","longitude_deal":-117.170644},"type":"Feature","geometry":{"type":"Point","coordinates":[-117.235519,32.794443]}},{"properties":{"address1":"2124 garnet ave #1","city":"san diego","zip":"92109","latitude_deal":32.769349,"parent_category_deal":"Beauty and Spas","longitude_cc":-117.23118,"category_deal":"Laser Hair Removal","deal_id":134,"distance between":4.179846941,"latitude_cc":32.80206,"id":"a63cg07cck8l","state":"CA","longitude_deal":-117.170644},"type":"Feature","geometry":{"type":"Point","coordinates":[-117.23118,32.80206]}},{"properties":{"address1":"4060 Huerfano Ave","city":"San Diego","zip":"92117","latitude_deal":32.769349,"parent_category_deal":"Beauty and Spas","longitude_cc":-117.217298,"category_deal":"Laser Hair Removal","deal_id":134,"distance between":4.192511189,"latitude_cc":32.815654,"id":"a63cg0cdrljt","state":"CA","longitude_deal":-117.170644},"type":"Feature","geometry":{"type":"Point","coordinates":[-117.217298,32.815654]}},{"properties":{"address1":"437 j street suite 311","city":"san diego","zip":"92101","latitude_deal":32.769349,"parent_category_deal":"Beauty and Spas","longitude_cc":-117.16066,"category_deal":"Laser Hair Removal","deal_id":134,"distance between":4.194018997,"latitude_cc":32.709229,"id":"a63cg04z9e6e","state":"CA","longitude_deal":-117.170644},"type":"Feature","geometry":{"type":"Point","coordinates":[-117.16066,32.709229]}},{"properties":{"address1":"550 15th street","city":"San Diego","zip":"92101","latitude_deal":32.769349,"parent_category_deal":"Beauty and Spas","longitude_cc":-117.150524,"category_deal":"Laser Hair Removal","deal_id":134,"distance between":4.19747367,"latitude_cc":32.711,"id":"a63cg0cxzvwy","state":"CA","longitude_deal":-117.170644},"type":"Feature","geometry":{"type":"Point","coordinates":[-117.150524,32.711]}},{"properties":{"address1":"4099 huerfano Ave. Apt 211","city":"San Diego","zip":"92117","latitude_deal":32.769349,"parent_category_deal":"Beauty and Spas","longitude_cc":-117.216792,"category_deal":"Laser Hair Removal","deal_id":134,"distance between":4.204633812,"latitude_cc":32.816239,"id":"a63cg0eb62et","state":"CA","longitude_deal":-117.170644},"type":"Feature","geometry":{"type":"Point","coordinates":[-117.216792,32.816239]}},{"properties":{"address1":"2356 1/2 Vancouver Ave.","city":"San Diego","zip":"92104","latitude_deal":32.769349,"parent_category_deal":"Beauty and Spas","longitude_cc":-117.114246,"category_deal":"Laser Hair Removal","deal_id":134,"distance between":4.214478025,"latitude_cc":32.730994,"id":"a63cg02bb9wl","state":"CA","longitude_deal":-117.170644},"type":"Feature","geometry":{"type":"Point","coordinates":[-117.114246,32.730994]}},{"properties":{"address1":"2356 1/2 Vancouver Ave.","city":"San Diego","zip":"92104","latitude_deal":32.769349,"parent_category_deal":"Beauty and Spas","longitude_cc":-117.114246,"category_deal":"Laser Hair Removal","deal_id":134,"distance between":4.214478025,"latitude_cc":32.730994,"id":"a63cg06s0yv2","state":"CA","longitude_deal":-117.170644},"type":"Feature","geometry":{"type":"Point","coordinates":[-117.114246,32.730994]}},{"properties":{"address1":"1150 J STREET UNIT 116","city":"SAN DIEGO","zip":"92121","latitude_deal":32.769349,"parent_category_deal":"Beauty and Spas","longitude_cc":-117.154177,"category_deal":"Laser Hair Removal","deal_id":134,"distance between":4.239548283,"latitude_cc":32.70957,"id":"a63cg09ymp4i","state":"CA","longitude_deal":-117.170644},"type":"Feature","geometry":{"type":"Point","coordinates":[-117.154177,32.70957]}},{"properties":{"address1":"321 10th Ave #1806","city":"San Diego","zip":"92101","latitude_deal":32.769349,"parent_category_deal":"Beauty and Spas","longitude_cc":-117.155434,"category_deal":"Laser Hair Removal","deal_id":134,"distance between":4.285092008,"latitude_cc":32.708661,"id":"a63cg053qi2s","state":"CA","longitude_deal":-117.170644},"type":"Feature","geometry":{"type":"Point","coordinates":[-117.155434,32.708661]}},{"properties":{"address1":"8853 Spectrum Center Blvd #4308","city":"San Diego","zip":"92123","latitude_deal":32.769349,"parent_category_deal":"Beauty and Spas","longitude_cc":-117.138028,"category_deal":"Laser Hair Removal","deal_id":134,"distance between":4.365269644,"latitude_cc":32.826273,"id":"a63cg08lndi9","state":"CA","longitude_deal":-117.170644},"type":"Feature","geometry":{"type":"Point","coordinates":[-117.138028,32.826273]}},{"properties":{"address1":"4730 Noyes Street, Apt 201","city":"San Diego","zip":"92109","latitude_deal":32.769349,"parent_category_deal":"Beauty and Spas","longitude_cc":-117.232861,"category_deal":"Laser Hair Removal","deal_id":134,"distance between":4.37806758,"latitude_cc":32.805121,"id":"a63cg068w2bt","state":"CA","longitude_deal":-117.170644},"type":"Feature","geometry":{"type":"Point","coordinates":[-117.232861,32.805121]}},{"properties":{"address1":"4330 Barrows","city":"San Diego","zip":"92117","latitude_deal":32.769349,"parent_category_deal":"Beauty and Spas","longitude_cc":-117.219492,"category_deal":"Laser Hair Removal","deal_id":134,"distance between":4.543247575,"latitude_cc":32.820711,"id":"a63cg07d6r3z","state":"CA","longitude_deal":-117.170644},"type":"Feature","geometry":{"type":"Point","coordinates":[-117.219492,32.820711]}},{"properties":{"address1":"1333 Thomas Ave Apt 15","city":"San Diego","zip":"92109","latitude_deal":32.769349,"parent_category_deal":"Beauty and Spas","longitude_cc":-117.244754,"category_deal":"Laser Hair Removal","deal_id":134,"distance between":4.673438735,"latitude_cc":32.795682,"id":"a63cfzzbnb9d","state":"CA","longitude_deal":-117.170644},"type":"Feature","geometry":{"type":"Point","coordinates":[-117.244754,32.795682]}},{"properties":{"address1":"1333 Thomas Ave, Apt 12","city":"San Diego","zip":"92109","latitude_deal":32.769349,"parent_category_deal":"Beauty and Spas","longitude_cc":-117.244754,"category_deal":"Laser Hair Removal","deal_id":134,"distance between":4.673438735,"latitude_cc":32.795682,"id":"a63cg005ay7b","state":"CA","longitude_deal":-117.170644},"type":"Feature","geometry":{"type":"Point","coordinates":[-117.244754,32.795682]}},{"properties":{"address1":"4445 Fanuel Street, Apt. 12","city":"San Diego","zip":"92109","latitude_deal":32.769349,"parent_category_deal":"Beauty and Spas","longitude_cc":-117.245868,"category_deal":"Laser Hair Removal","deal_id":134,"distance between":4.78225019,"latitude_cc":32.797482,"id":"a63cg0b00y2t","state":"CA","longitude_deal":-117.170644},"type":"Feature","geometry":{"type":"Point","coordinates":[-117.245868,32.797482]}},{"properties":{"address1":"318`","city":"San Diego","zip":"92102","latitude_deal":32.769349,"parent_category_deal":"Beauty and Spas","longitude_cc":-117.119929,"category_deal":"Laser Hair Removal","deal_id":134,"distance between":4.803114293,"latitude_cc":32.714455,"id":"a63cg0bfwa6u","state":"CA","longitude_deal":-117.170644},"type":"Feature","geometry":{"type":"Point","coordinates":[-117.119929,32.714455]}},{"properties":{"address1":"1635 Beryl","city":"San Diego","zip":"92109","latitude_deal":32.769349,"parent_category_deal":"Beauty and Spas","longitude_cc":-117.24215,"category_deal":"Laser Hair Removal","deal_id":134,"distance between":4.876417801,"latitude_cc":32.806335,"id":"a63cfzz4a3cl","state":"CA","longitude_deal":-117.170644},"type":"Feature","geometry":{"type":"Point","coordinates":[-117.24215,32.806335]}},{"properties":{"address1":"265 D ave","city":"Coronado","zip":"92118","latitude_deal":32.769349,"parent_category_deal":"Beauty and Spas","longitude_cc":-117.174703,"category_deal":"Laser Hair Removal","deal_id":134,"distance between":5.013196628,"latitude_cc":32.696869,"id":"a63cg07c0agj","state":"CA","longitude_deal":-117.170644},"type":"Feature","geometry":{"type":"Point","coordinates":[-117.174703,32.696869]}},{"properties":{"address1":"432 E Ave","city":"Coronado","zip":"92118","latitude_deal":32.769349,"parent_category_deal":"Beauty and Spas","longitude_cc":-117.177561,"category_deal":"Laser Hair Removal","deal_id":134,"distance between":5.154683371,"latitude_cc":32.694968,"id":"a63cfzzsdk8e","state":"CA","longitude_deal":-117.170644},"type":"Feature","geometry":{"type":"Point","coordinates":[-117.177561,32.694968]}},{"properties":{"address1":"2732 Ariane Drive #59","city":"San Diego","zip":"92117","latitude_deal":32.769349,"parent_category_deal":"Beauty and Spas","longitude_cc":-117.227027,"category_deal":"Laser Hair Removal","deal_id":134,"distance between":5.190582526,"latitude_cc":32.827641,"id":"a63cg09jqd8h","state":"CA","longitude_deal":-117.170644},"type":"Feature","geometry":{"type":"Point","coordinates":[-117.227027,32.827641]}},{"properties":{"address1":"3636 Argonne St.","city":"San Diego","zip":"92117","latitude_deal":32.769349,"parent_category_deal":"Beauty and Spas","longitude_cc":-117.208885,"category_deal":"Laser Hair Removal","deal_id":134,"distance between":5.214101599,"latitude_cc":32.83763,"id":"a63cg071enui","state":"CA","longitude_deal":-117.170644},"type":"Feature","geometry":{"type":"Point","coordinates":[-117.208885,32.83763]}},{"properties":{"address1":"4869 orchard avenue","city":"san diego","zip":"92107","latitude_deal":32.769349,"parent_category_deal":"Beauty and Spas","longitude_cc":-117.253901,"category_deal":"Laser Hair Removal","deal_id":134,"distance between":5.261146043,"latitude_cc":32.739415,"id":"a63cg09i3pth","state":"CA","longitude_deal":-117.170644},"type":"Feature","geometry":{"type":"Point","coordinates":[-117.253901,32.739415]}},{"properties":{"address1":"3753 Southernwood Way","city":"San Diego","zip":"92106","latitude_deal":32.769349,"parent_category_deal":"Beauty and Spas","longitude_cc":-117.245029,"category_deal":"Laser Hair Removal","deal_id":134,"distance between":5.470528466,"latitude_cc":32.720819,"id":"a63cg02nblnx","state":"CA","longitude_deal":-117.170644},"type":"Feature","geometry":{"type":"Point","coordinates":[-117.245029,32.720819]}},{"properties":{"address1":"1067 Sapphire Street","city":"san diego","zip":"92109","latitude_deal":32.769349,"parent_category_deal":"Beauty and Spas","longitude_cc":-117.254054,"category_deal":"Laser Hair Removal","deal_id":134,"distance between":5.555384938,"latitude_cc":32.808701,"id":"a63cg0dj2jjj","state":"CA","longitude_deal":-117.170644},"type":"Feature","geometry":{"type":"Point","coordinates":[-117.254054,32.808701]}},{"properties":{"address1":"5248 fino dr","city":"san diego","zip":"92124","latitude_deal":32.769349,"parent_category_deal":"Beauty and Spas","longitude_cc":-117.102859,"category_deal":"Laser Hair Removal","deal_id":134,"distance between":5.595466645,"latitude_cc":32.826903,"id":"a63cg0d0gd2u","state":"CA","longitude_deal":-117.170644},"type":"Feature","geometry":{"type":"Point","coordinates":[-117.102859,32.826903]}},{"properties":{"address1":"1016 C Ave","city":"Coronado","zip":"92118","latitude_deal":32.769349,"parent_category_deal":"Beauty and Spas","longitude_cc":-117.178912,"category_deal":"Laser Hair Removal","deal_id":134,"distance between":5.830444932,"latitude_cc":32.685247,"id":"a63cg0enaqn3","state":"CA","longitude_deal":-117.170644},"type":"Feature","geometry":{"type":"Point","coordinates":[-117.178912,32.685247]}},{"properties":{"address1":"5890 university ave #11","city":"San Diego","zip":"92115","latitude_deal":32.769349,"parent_category_deal":"Beauty and Spas","longitude_cc":-117.070283,"category_deal":"Laser Hair Removal","deal_id":134,"distance between":5.969156173,"latitude_cc":32.750872,"id":"a63cg0c7zj28","state":"CA","longitude_deal":-117.170644},"type":"Feature","geometry":{"type":"Point","coordinates":[-117.070283,32.750872]}},{"properties":{"address1":"5604 honors dr","city":"san diego","zip":"92122","latitude_deal":32.769349,"parent_category_deal":"Beauty and Spas","longitude_cc":-117.223836,"category_deal":"Laser Hair Removal","deal_id":134,"distance between":6.019501929,"latitude_cc":32.844129,"id":"a63cg040aop9","state":"CA","longitude_deal":-117.170644},"type":"Feature","geometry":{"type":"Point","coordinates":[-117.223836,32.844129]}},{"properties":{"address1":"6214 Agee St. #36","city":"San Diego","zip":"92122","latitude_deal":32.769349,"parent_category_deal":"Beauty and Spas","longitude_cc":-117.200676,"category_deal":"Laser Hair Removal","deal_id":134,"distance between":6.053418687,"latitude_cc":32.853251,"id":"a63cfzys4j7l","state":"CA","longitude_deal":-117.170644},"type":"Feature","geometry":{"type":"Point","coordinates":[-117.200676,32.853251]}},{"properties":{"address1":"4911 63rd Street","city":"San Diego","zip":"92115","latitude_deal":32.769349,"parent_category_deal":"Beauty and Spas","longitude_cc":-117.063224,"category_deal":"Laser Hair Removal","deal_id":134,"distance between":6.242333475,"latitude_cc":32.767228,"id":"a63cfzzs6gz6","state":"CA","longitude_deal":-117.170644},"type":"Feature","geometry":{"type":"Point","coordinates":[-117.063224,32.767228]}},{"properties":{"address1":"5389 LA JOLLA MESA DR","city":"LA JOLLA","zip":"92037","latitude_deal":32.769349,"parent_category_deal":"Beauty and Spas","longitude_cc":-117.266241,"category_deal":"Laser Hair Removal","deal_id":134,"distance between":6.252302224,"latitude_cc":32.810953,"id":"a63cg0b39pzm","state":"CA","longitude_deal":-117.170644},"type":"Feature","geometry":{"type":"Point","coordinates":[-117.266241,32.810953]}},{"properties":{"address1":"HMM-163 F/E MAG-16","city":"San Diego","zip":"92145","latitude_deal":32.769349,"parent_category_deal":"Beauty and Spas","longitude_cc":-117.123529,"category_deal":"Laser Hair Removal","deal_id":134,"distance between":6.358653604,"latitude_cc":32.852429,"id":"a63cfzyqz7gd","state":"CA","longitude_deal":-117.170644},"type":"Feature","geometry":{"type":"Point","coordinates":[-117.123529,32.852429]}},{"properties":{"address1":"7150 Rock Valley Ct.","city":"San Diego","zip":"92122","latitude_deal":32.769349,"parent_category_deal":"Beauty and Spas","longitude_cc":-117.192755,"category_deal":"Laser Hair Removal","deal_id":134,"distance between":6.389187136,"latitude_cc":32.859939,"id":"a63cg00t530g","state":"CA","longitude_deal":-117.170644},"type":"Feature","geometry":{"type":"Point","coordinates":[-117.192755,32.859939]}},{"properties":{"address1":"3404 Tony Drive","city":"San Diego","zip":"92122","latitude_deal":32.769349,"parent_category_deal":"Beauty and Spas","longitude_cc":-117.212073,"category_deal":"Laser Hair Removal","deal_id":134,"distance between":6.579666548,"latitude_cc":32.857989,"id":"a63cg09fevnr","state":"CA","longitude_deal":-117.170644},"type":"Feature","geometry":{"type":"Point","coordinates":[-117.212073,32.857989]}},{"properties":{"address1":"4178 Vista Grande Dr","city":"San Diego","zip":"92115","latitude_deal":32.769349,"parent_category_deal":"Beauty and Spas","longitude_cc":-117.057522,"category_deal":"Laser Hair Removal","deal_id":134,"distance between":6.662962536,"latitude_cc":32.753501,"id":"a63cg09dazq8","state":"CA","longitude_deal":-117.170644},"type":"Feature","geometry":{"type":"Point","coordinates":[-117.057522,32.753501]}},{"properties":{"address1":"6333 College Grove Way #7104","city":"San Diego","zip":"92115","latitude_deal":32.769349,"parent_category_deal":"Beauty and Spas","longitude_cc":-117.057952,"category_deal":"Laser Hair Removal","deal_id":134,"distance between":6.901198724,"latitude_cc":32.737802,"id":"a63cg0dpu9pt","state":"CA","longitude_deal":-117.170644},"type":"Feature","geometry":{"type":"Point","coordinates":[-117.057952,32.737802]}},{"properties":{"address1":"6333 College Grove Way Unit 10102","city":"San DIego","zip":"92117","latitude_deal":32.769349,"parent_category_deal":"Beauty and Spas","longitude_cc":-117.057952,"category_deal":"Laser Hair Removal","deal_id":134,"distance between":6.901198724,"latitude_cc":32.737802,"id":"a63cg0760txs","state":"CA","longitude_deal":-117.170644},"type":"Feature","geometry":{"type":"Point","coordinates":[-117.057952,32.737802]}},{"properties":{"address1":"6333 College Grove Way Unit 10102","city":"San DIego","zip":"92117","latitude_deal":32.769349,"parent_category_deal":"Beauty and Spas","longitude_cc":-117.057952,"category_deal":"Laser Hair Removal","deal_id":134,"distance between":6.901198724,"latitude_cc":32.737802,"id":"a63cg04vhluv","state":"CA","longitude_deal":-117.170644},"type":"Feature","geometry":{"type":"Point","coordinates":[-117.057952,32.737802]}},{"properties":{"address1":"5350 Toscana way, Apt 115 E","city":"San Diego","zip":"92122","latitude_deal":32.769349,"parent_category_deal":"Beauty and Spas","longitude_cc":-117.201941,"category_deal":"Laser Hair Removal","deal_id":134,"distance between":7.157205617,"latitude_cc":32.869547,"id":"a63cg05or36b","state":"CA","longitude_deal":-117.170644},"type":"Feature","geometry":{"type":"Point","coordinates":[-117.201941,32.869547]}},{"properties":{"address1":"6152 wunderlin ave","city":"SAN DIEGO","zip":"92114","latitude_deal":32.769349,"parent_category_deal":"Beauty and Spas","longitude_cc":-117.065216,"category_deal":"Laser Hair Removal","deal_id":134,"distance between":7.199043976,"latitude_cc":32.714635,"id":"a63cg06h38ly","state":"CA","longitude_deal":-117.170644},"type":"Feature","geometry":{"type":"Point","coordinates":[-117.065216,32.714635]}},{"properties":{"address1":"7090 AMHERST ST","city":"SAN DIEGO","zip":"92115","latitude_deal":32.769349,"parent_category_deal":"Beauty and Spas","longitude_cc":-117.045067,"category_deal":"Laser Hair Removal","deal_id":134,"distance between":7.296233817,"latitude_cc":32.767781,"id":"a63cg0b1wwpw","state":"CA","longitude_deal":-117.170644},"type":"Feature","geometry":{"type":"Point","coordinates":[-117.045067,32.767781]}},{"properties":{"address1":"7693 Palmilla Dr. #2212","city":"San Diego","zip":"92122","latitude_deal":32.769349,"parent_category_deal":"Beauty and Spas","longitude_cc":-117.225049,"category_deal":"Laser Hair Removal","deal_id":134,"distance between":7.302854105,"latitude_cc":32.864649,"id":"a63cg0cia20h","state":"CA","longitude_deal":-117.170644},"type":"Feature","geometry":{"type":"Point","coordinates":[-117.225049,32.864649]}},{"properties":{"address1":"9175 Judicial Drive Apt 6515","city":"San Diego","zip":"92122","latitude_deal":32.769349,"parent_category_deal":"Beauty and Spas","longitude_cc":-117.204686,"category_deal":"Laser Hair Removal","deal_id":134,"distance between":7.426736644,"latitude_cc":32.872966,"id":"a63cg03dl1gw","state":"CA","longitude_deal":-117.170644},"type":"Feature","geometry":{"type":"Point","coordinates":[-117.204686,32.872966]}},{"properties":{"address1":"9175 Judicial Drive Apt 6515","city":"San Diego","zip":"92122","latitude_deal":32.769349,"parent_category_deal":"Beauty and Spas","longitude_cc":-117.204686,"category_deal":"Laser Hair Removal","deal_id":134,"distance between":7.426736644,"latitude_cc":32.872966,"id":"a63cg00yjjhj","state":"CA","longitude_deal":-117.170644},"type":"Feature","geometry":{"type":"Point","coordinates":[-117.204686,32.872966]}},{"properties":{"address1":"4028 mahaila avenue unit a","city":"san Diego","zip":"92122","latitude_deal":32.769349,"parent_category_deal":"Beauty and Spas","longitude_cc":-117.219379,"category_deal":"Laser Hair Removal","deal_id":134,"distance between":7.493567266,"latitude_cc":32.86978,"id":"a63cg0cu6y8u","state":"CA","longitude_deal":-117.170644},"type":"Feature","geometry":{"type":"Point","coordinates":[-117.219379,32.86978]}},{"properties":{"address1":"527 A Westbourne","city":"La Jolla","zip":"92037","latitude_deal":32.769349,"parent_category_deal":"Beauty and Spas","longitude_cc":-117.276399,"category_deal":"Laser Hair Removal","deal_id":134,"distance between":7.549182326,"latitude_cc":32.832887,"id":"a63cfzzw3lck","state":"CA","longitude_deal":-117.170644},"type":"Feature","geometry":{"type":"Point","coordinates":[-117.276399,32.832887]}},{"properties":{"address1":"226 Playa Del Norte","city":"La Jolla","zip":"92037","latitude_deal":32.769349,"parent_category_deal":"Beauty and Spas","longitude_cc":-117.279838,"category_deal":"Laser Hair Removal","deal_id":134,"distance between":7.585709317,"latitude_cc":32.829601,"id":"a63cg08ci3ez","state":"CA","longitude_deal":-117.170644},"type":"Feature","geometry":{"type":"Point","coordinates":[-117.279838,32.829601]}},{"properties":{"address1":"235 S. Belmont Ave","city":"National City","zip":"91950","latitude_deal":32.769349,"parent_category_deal":"Beauty and Spas","longitude_cc":-117.078742,"category_deal":"Laser Hair Removal","deal_id":134,"distance between":7.686647112,"latitude_cc":32.689344,"id":"a63cg00821sw","state":"CA","longitude_deal":-117.170644},"type":"Feature","geometry":{"type":"Point","coordinates":[-117.078742,32.689344]}},{"properties":{"address1":"5522 Lesa Rd","city":"La Mesa","zip":"91942","latitude_deal":32.769349,"parent_category_deal":"Beauty and Spas","longitude_cc":-117.036739,"category_deal":"Laser Hair Removal","deal_id":134,"distance between":7.80689138,"latitude_cc":32.778933,"id":"a63cg02jt3dh","state":"CA","longitude_deal":-117.170644},"type":"Feature","geometry":{"type":"Point","coordinates":[-117.036739,32.778933]}},{"properties":{"address1":"7333 Adonis court","city":"San Diego","zip":"92119","latitude_deal":32.769349,"parent_category_deal":"Beauty and Spas","longitude_cc":-117.038639,"category_deal":"Laser Hair Removal","deal_id":134,"distance between":8.063569555,"latitude_cc":32.805489,"id":"a63cg0e14d2d","state":"CA","longitude_deal":-117.170644},"type":"Feature","geometry":{"type":"Point","coordinates":[-117.038639,32.805489]}},{"properties":{"address1":"7824 NORMAL AVENUE","city":"LA MESA","zip":"91941","latitude_deal":32.769349,"parent_category_deal":"Beauty and Spas","longitude_cc":-117.028615,"category_deal":"Laser Hair Removal","deal_id":134,"distance between":8.287771121,"latitude_cc":32.758163,"id":"a63cg0c9zokh","state":"CA","longitude_deal":-117.170644},"type":"Feature","geometry":{"type":"Point","coordinates":[-117.028615,32.758163]}},{"properties":{"address1":"1604 Morning Breeze Lane","city":"National City","zip":"91950","latitude_deal":32.769349,"parent_category_deal":"Beauty and Spas","longitude_cc":-117.077942,"category_deal":"Laser Hair Removal","deal_id":134,"distance between":8.421299521,"latitude_cc":32.675677,"id":"a63cg08j0p3o","state":"CA","longitude_deal":-117.170644},"type":"Feature","geometry":{"type":"Point","coordinates":[-117.077942,32.675677]}},{"properties":{"address1":"10284 Wateridge Circle #244","city":"San Diego","zip":"92121","latitude_deal":32.769349,"parent_category_deal":"Beauty and Spas","longitude_cc":-117.205354,"category_deal":"Laser Hair Removal","deal_id":134,"distance between":9.186077425,"latitude_cc":32.899069,"id":"a63cg04u0s95","state":"CA","longitude_deal":-117.170644},"type":"Feature","geometry":{"type":"Point","coordinates":[-117.205354,32.899069]}},{"properties":{"address1":"8435 Blossom Hill Dr","city":"Lemon Grove","zip":"91945","latitude_deal":32.769349,"parent_category_deal":"Beauty and Spas","longitude_cc":-117.018876,"category_deal":"Laser Hair Removal","deal_id":134,"distance between":9.276416882,"latitude_cc":32.727707,"id":"a63cg04k2ib2","state":"CA","longitude_deal":-117.170644},"type":"Feature","geometry":{"type":"Point","coordinates":[-117.018876,32.727707]}},{"properties":{"address1":"9808 waples st","city":"san diego","zip":"92121","latitude_deal":32.769349,"parent_category_deal":"Beauty and Spas","longitude_cc":-117.178956,"category_deal":"Laser Hair Removal","deal_id":134,"distance between":9.345901351,"latitude_cc":32.90444,"id":"a63cg0bbfsvx","state":"CA","longitude_deal":-117.170644},"type":"Feature","geometry":{"type":"Point","coordinates":[-117.178956,32.90444]}},{"properties":{"address1":"78 via sovana","city":"santee","zip":"92071","latitude_deal":32.769349,"parent_category_deal":"Beauty and Spas","longitude_cc":-117.024266,"category_deal":"Laser Hair Removal","deal_id":134,"distance between":9.737987392,"latitude_cc":32.838111,"id":"a63cg06ff16h","state":"CA","longitude_deal":-117.170644},"type":"Feature","geometry":{"type":"Point","coordinates":[-117.024266,32.838111]}},{"properties":{"address1":"10848 Red Rock Drive","city":"San Diego","zip":"92131","latitude_deal":32.769349,"parent_category_deal":"Beauty and Spas","longitude_cc":-117.097896,"category_deal":"Laser Hair Removal","deal_id":134,"distance between":10.22204292,"latitude_cc":32.904085,"id":"a63cg02gwgnq","state":"CA","longitude_deal":-117.170644},"type":"Feature","geometry":{"type":"Point","coordinates":[-117.097896,32.904085]}},{"properties":{"address1":"9360 hillery drive, apt 3303","city":"San Diego","zip":"92126","latitude_deal":32.769349,"parent_category_deal":"Beauty and Spas","longitude_cc":-117.11898,"category_deal":"Laser Hair Removal","deal_id":134,"distance between":10.37063059,"latitude_cc":32.913039,"id":"a63cg01wbu4j","state":"CA","longitude_deal":-117.170644},"type":"Feature","geometry":{"type":"Point","coordinates":[-117.11898,32.913039]}},{"properties":{"address1":"10915 corte mejillones","city":"san diego","zip":"92130","latitude_deal":32.769349,"parent_category_deal":"Beauty and Spas","longitude_cc":-117.221044,"category_deal":"Laser Hair Removal","deal_id":134,"distance between":10.48683653,"latitude_cc":32.915108,"id":"a63cfzyxrzl8","state":"CA","longitude_deal":-117.170644},"type":"Feature","geometry":{"type":"Point","coordinates":[-117.221044,32.915108]}},{"properties":{"address1":"3495 BOYNE ST","city":"SPRING VALLEY","zip":"91977","latitude_deal":32.769349,"parent_category_deal":"Beauty and Spas","longitude_cc":-116.990835,"category_deal":"Laser Hair Removal","deal_id":134,"distance between":10.60956874,"latitude_cc":32.742613,"id":"a63cg0b5hr82","state":"CA","longitude_deal":-117.170644},"type":"Feature","geometry":{"type":"Point","coordinates":[-116.990835,32.742613]}},{"properties":{"address1":"10840 Scripps Ranch Blvd 201","city":"San Diego","zip":"92131","latitude_deal":32.769349,"parent_category_deal":"Beauty and Spas","longitude_cc":-117.110589,"category_deal":"Laser Hair Removal","deal_id":134,"distance between":10.66514242,"latitude_cc":32.915236,"id":"a63cg0b5kazh","state":"CA","longitude_deal":-117.170644},"type":"Feature","geometry":{"type":"Point","coordinates":[-117.110589,32.915236]}},{"properties":{"address1":"1869 Wedgemere Road","city":"El Cajon","zip":"92020","latitude_deal":32.769349,"parent_category_deal":"Beauty and Spas","longitude_cc":-116.988658,"category_deal":"Laser Hair Removal","deal_id":134,"distance between":10.73001804,"latitude_cc":32.796,"id":"a63cg0as8cx4","state":"CA","longitude_deal":-117.170644},"type":"Feature","geometry":{"type":"Point","coordinates":[-116.988658,32.796]}},{"properties":{"address1":"11342 Markab Dr.","city":"San Diego","zip":"92126","latitude_deal":32.769349,"parent_category_deal":"Beauty and Spas","longitude_cc":-117.140665,"category_deal":"Laser Hair Removal","deal_id":134,"distance between":11.35071796,"latitude_cc":32.931696,"id":"a63cg06nng9j","state":"CA","longitude_deal":-117.170644},"type":"Feature","geometry":{"type":"Point","coordinates":[-117.140665,32.931696]}},{"properties":{"address1":"11437 raedene way","city":"san diego","zip":"92131","latitude_deal":32.769349,"parent_category_deal":"Beauty and Spas","longitude_cc":-117.106348,"category_deal":"Laser Hair Removal","deal_id":134,"distance between":11.38504621,"latitude_cc":32.92503,"id":"a63cg01l7cy9","state":"CA","longitude_deal":-117.170644},"type":"Feature","geometry":{"type":"Point","coordinates":[-117.106348,32.92503]}},{"properties":{"address1":"11809 Innis Pt.","city":"San Dieo","zip":"92126","latitude_deal":32.769349,"parent_category_deal":"Beauty and Spas","longitude_cc":-117.142673,"category_deal":"Laser Hair Removal","deal_id":134,"distance between":11.39039707,"latitude_cc":32.932529,"id":"a63cg011c1u1","state":"CA","longitude_deal":-117.170644},"type":"Feature","geometry":{"type":"Point","coordinates":[-117.142673,32.932529]}},{"properties":{"address1":"11809 Innis Pt.","city":"San Diego","zip":"92126","latitude_deal":32.769349,"parent_category_deal":"Beauty and Spas","longitude_cc":-117.142673,"category_deal":"Laser Hair Removal","deal_id":134,"distance between":11.39039707,"latitude_cc":32.932529,"id":"a63cfzzoqzow","state":"CA","longitude_deal":-117.170644},"type":"Feature","geometry":{"type":"Point","coordinates":[-117.142673,32.932529]}},{"properties":{"address1":"10444 Russell Rd","city":"La","zip":"91941","latitude_deal":32.769349,"parent_category_deal":"Beauty and Spas","longitude_cc":-116.971724,"category_deal":"Laser Hair Removal","deal_id":134,"distance between":11.55650869,"latitude_cc":32.770723,"id":"a63cg0abs89n","state":"CA","longitude_deal":-117.170644},"type":"Feature","geometry":{"type":"Point","coordinates":[-116.971724,32.770723]}},{"properties":{"address1":"4250 Tim Street","city":"Bonita","zip":"91902","latitude_deal":32.769349,"parent_category_deal":"Beauty and Spas","longitude_cc":-117.014433,"category_deal":"Laser Hair Removal","deal_id":134,"distance between":11.85854287,"latitude_cc":32.658961,"id":"a63cfzyryx96","state":"CA","longitude_deal":-117.170644},"type":"Feature","geometry":{"type":"Point","coordinates":[-117.014433,32.658961]}},{"properties":{"address1":"6155 Del Mar Mesa Road","city":"San Diego","zip":"92130","latitude_deal":32.769349,"parent_category_deal":"Beauty and Spas","longitude_cc":-117.191246,"category_deal":"Laser Hair Removal","deal_id":134,"distance between":11.99744821,"latitude_cc":32.942134,"id":"a63cg019iday","state":"CA","longitude_deal":-117.170644},"type":"Feature","geometry":{"type":"Point","coordinates":[-117.191246,32.942134]}},{"properties":{"address1":"12341 Brassica st","city":"San Diego","zip":"92129","latitude_deal":32.769349,"parent_category_deal":"Beauty and Spas","longitude_cc":-117.143089,"category_deal":"Laser Hair Removal","deal_id":134,"distance between":12.12345684,"latitude_cc":32.943289,"id":"a63cg01ott6s","state":"CA","longitude_deal":-117.170644},"type":"Feature","geometry":{"type":"Point","coordinates":[-117.143089,32.943289]}},{"properties":{"address1":"1711 Circo Del Cielo","city":"El Cajon","zip":"92020","latitude_deal":32.769349,"parent_category_deal":"Beauty and Spas","longitude_cc":-116.960149,"category_deal":"Laser Hair Removal","deal_id":134,"distance between":12.22886902,"latitude_cc":32.770588,"id":"a63cg0etwj8b","state":"CA","longitude_deal":-117.170644},"type":"Feature","geometry":{"type":"Point","coordinates":[-116.960149,32.770588]}},{"properties":{"address1":"12660 Via Las Lenas","city":"San Diego","zip":"92129","latitude_deal":32.769349,"parent_category_deal":"Beauty and Spas","longitude_cc":-117.147553,"category_deal":"Laser Hair Removal","deal_id":134,"distance between":12.66640364,"latitude_cc":32.951652,"id":"a63cfzz8wham","state":"CA","longitude_deal":-117.170644},"type":"Feature","geometry":{"type":"Point","coordinates":[-117.147553,32.951652]}},{"properties":{"address1":"12765 Seabreeze Farms Drive #19","city":"San Diego","zip":"92130","latitude_deal":32.769349,"parent_category_deal":"Beauty and Spas","longitude_cc":-117.203597,"category_deal":"Laser Hair Removal","deal_id":134,"distance between":12.68086786,"latitude_cc":32.950791,"id":"a63cg00w5cij","state":"CA","longitude_deal":-117.170644},"type":"Feature","geometry":{"type":"Point","coordinates":[-117.203597,32.950791]}},{"properties":{"address1":"1063 Pacific Hill St","city":"Chula Vista","zip":"91911","latitude_deal":32.769349,"parent_category_deal":"Beauty and Spas","longitude_cc":-117.032293,"category_deal":"Laser Hair Removal","deal_id":134,"distance between":12.81532287,"latitude_cc":32.624953,"id":"a63cg042lhem","state":"CA","longitude_deal":-117.170644},"type":"Feature","geometry":{"type":"Point","coordinates":[-117.032293,32.624953]}},{"properties":{"address1":"11419 Lorena Ln.","city":"El Cajon","zip":"92020","latitude_deal":32.769349,"parent_category_deal":"Beauty and Spas","longitude_cc":-116.949539,"category_deal":"Laser Hair Removal","deal_id":134,"distance between":12.8511662,"latitude_cc":32.763797,"id":"a63cg0cb542r","state":"CA","longitude_deal":-117.170644},"type":"Feature","geometry":{"type":"Point","coordinates":[-116.949539,32.763797]}},{"properties":{"address1":"10960 Creekbridge Place","city":"San Diego","zip":"92128","latitude_deal":32.769349,"parent_category_deal":"Beauty and Spas","longitude_cc":-117.095159,"category_deal":"Laser Hair Removal","deal_id":134,"distance between":12.95147004,"latitude_cc":32.945757,"id":"a63cg0d5h6hk","state":"CA","longitude_deal":-117.170644},"type":"Feature","geometry":{"type":"Point","coordinates":[-117.095159,32.945757]}},{"properties":{"address1":"12827 cijon st","city":"San Diego","zip":"92129","latitude_deal":32.769349,"parent_category_deal":"Beauty and Spas","longitude_cc":-117.110861,"category_deal":"Laser Hair Removal","deal_id":134,"distance between":12.9804686,"latitude_cc":32.950391,"id":"a63cg043rmbb","state":"CA","longitude_deal":-117.170644},"type":"Feature","geometry":{"type":"Point","coordinates":[-117.110861,32.950391]}},{"properties":{"address1":"13380 shadetree ct","city":"san diego","zip":"92131","latitude_deal":32.769349,"parent_category_deal":"Beauty and Spas","longitude_cc":-117.042484,"category_deal":"Laser Hair Removal","deal_id":134,"distance between":12.98735296,"latitude_cc":32.923435,"id":"a63cg08s85i0","state":"CA","longitude_deal":-117.170644},"type":"Feature","geometry":{"type":"Point","coordinates":[-117.042484,32.923435]}},{"properties":{"address1":"9827 Saskatchewan Ave","city":"San Diego","zip":"92129","latitude_deal":32.769349,"parent_category_deal":"Beauty and Spas","longitude_cc":-117.117082,"category_deal":"Laser Hair Removal","deal_id":134,"distance between":13.15715145,"latitude_cc":32.954393,"id":"a63cg0c332ph","state":"CA","longitude_deal":-117.170644},"type":"Feature","geometry":{"type":"Point","coordinates":[-117.117082,32.954393]}},{"properties":{"address1":"9827 Saskatchewan Ave","city":"San Diego","zip":"92129","latitude_deal":32.769349,"parent_category_deal":"Beauty and Spas","longitude_cc":-117.117082,"category_deal":"Laser Hair Removal","deal_id":134,"distance between":13.15715145,"latitude_cc":32.954393,"id":"a63cg01hvas2","state":"CA","longitude_deal":-117.170644},"type":"Feature","geometry":{"type":"Point","coordinates":[-117.117082,32.954393]}},{"properties":{"address1":"2658 Del Mar Heights Road #452","city":"Del Mar","zip":"92014","latitude_deal":32.769349,"parent_category_deal":"Beauty and Spas","longitude_cc":-117.246233,"category_deal":"Laser Hair Removal","deal_id":134,"distance between":13.1720136,"latitude_cc":32.949115,"id":"a63cg052i6zh","state":"CA","longitude_deal":-117.170644},"type":"Feature","geometry":{"type":"Point","coordinates":[-117.246233,32.949115]}},{"properties":{"address1":"13069 Evening Creek Dr S #60","city":"san diego","zip":"92128","latitude_deal":32.769349,"parent_category_deal":"Beauty and Spas","longitude_cc":-117.097557,"category_deal":"Laser Hair Removal","deal_id":134,"distance between":13.38629505,"latitude_cc":32.953117,"id":"a63cg039dryl","state":"CA","longitude_deal":-117.170644},"type":"Feature","geometry":{"type":"Point","coordinates":[-117.097557,32.953117]}},{"properties":{"address1":"832 Florence street","city":"imperial beach","zip":"91932","latitude_deal":32.769349,"parent_category_deal":"Beauty and Spas","longitude_cc":-117.107065,"category_deal":"Laser Hair Removal","deal_id":134,"distance between":13.48268381,"latitude_cc":32.581684,"id":"a63cg0d5mxe8","state":"CA","longitude_deal":-117.170644},"type":"Feature","geometry":{"type":"Point","coordinates":[-117.107065,32.581684]}},{"properties":{"address1":"1130 De Leon Drive","city":"Chula Vista","zip":"91910","latitude_deal":32.769349,"parent_category_deal":"Beauty and Spas","longitude_cc":-117.005647,"category_deal":"Laser Hair Removal","deal_id":134,"distance between":13.50995537,"latitude_cc":32.63166,"id":"a63cfzzkymn3","state":"CA","longitude_deal":-117.170644},"type":"Feature","geometry":{"type":"Point","coordinates":[-117.005647,32.63166]}},{"properties":{"address1":"1245 Steiner Dr","city":"Chula Vista","zip":"91911","latitude_deal":32.769349,"parent_category_deal":"Beauty and Spas","longitude_cc":-117.018812,"category_deal":"Laser Hair Removal","deal_id":134,"distance between":13.53339611,"latitude_cc":32.620881,"id":"a63cg047dy47","state":"CA","longitude_deal":-117.170644},"type":"Feature","geometry":{"type":"Point","coordinates":[-117.018812,32.620881]}},{"properties":{"address1":"1825 carolyn drive","city":"chula vista","zip":"91913","latitude_deal":32.769349,"parent_category_deal":"Beauty and Spas","longitude_cc":-116.986996,"category_deal":"Laser Hair Removal","deal_id":134,"distance between":13.61667178,"latitude_cc":32.647021,"id":"a63cg0boqe7p","state":"CA","longitude_deal":-117.170644},"type":"Feature","geometry":{"type":"Point","coordinates":[-116.986996,32.647021]}},{"properties":{"address1":"1704 gotham street","city":"chula vista","zip":"91913","latitude_deal":32.769349,"parent_category_deal":"Beauty and Spas","longitude_cc":-116.989541,"category_deal":"Laser Hair Removal","deal_id":134,"distance between":13.6517928,"latitude_cc":32.643567,"id":"a63cg09s95hh","state":"CA","longitude_deal":-117.170644},"type":"Feature","geometry":{"type":"Point","coordinates":[-116.989541,32.643567]}},{"properties":{"address1":"950 Grossmont Ct, Apt B","city":"Chula Vista","zip":"91913","latitude_deal":32.769349,"parent_category_deal":"Beauty and Spas","longitude_cc":-116.989477,"category_deal":"Laser Hair Removal","deal_id":134,"distance between":13.77153945,"latitude_cc":32.640928,"id":"a63cg07ijtrm","state":"CA","longitude_deal":-117.170644},"type":"Feature","geometry":{"type":"Point","coordinates":[-116.989477,32.640928]}},{"properties":{"address1":"13717 Torrey Glenn Rd","city":"san diego","zip":"92129","latitude_deal":32.769349,"parent_category_deal":"Beauty and Spas","longitude_cc":-117.144512,"category_deal":"Laser Hair Removal","deal_id":134,"distance between":13.80955392,"latitude_cc":32.968018,"id":"a63cg0165vge","state":"CA","longitude_deal":-117.170644},"type":"Feature","geometry":{"type":"Point","coordinates":[-117.144512,32.968018]}},{"properties":{"address1":"3963 torrey hill lane","city":"san diego","zip":"92130","latitude_deal":32.769349,"parent_category_deal":"Beauty and Spas","longitude_cc":-117.231343,"category_deal":"Laser Hair Removal","deal_id":134,"distance between":13.89045733,"latitude_cc":32.963826,"id":"a63cg0ahc528","state":"CA","longitude_deal":-117.170644},"type":"Feature","geometry":{"type":"Point","coordinates":[-117.231343,32.963826]}},{"properties":{"address1":"11244 big cone drive","city":"lakeside","zip":"92040","latitude_deal":32.769349,"parent_category_deal":"Beauty and Spas","longitude_cc":-116.951645,"category_deal":"Laser Hair Removal","deal_id":134,"distance between":14.21070488,"latitude_cc":32.861169,"id":"a63cg07pagv5","state":"CA","longitude_deal":-117.170644},"type":"Feature","geometry":{"type":"Point","coordinates":[-116.951645,32.861169]}},{"properties":{"address1":"1520 westmorland st.","city":"chula vista","zip":"91913","latitude_deal":32.769349,"parent_category_deal":"Beauty and Spas","longitude_cc":-116.991683,"category_deal":"Laser Hair Removal","deal_id":134,"distance between":14.38516153,"latitude_cc":32.625578,"id":"a63cg025y651","state":"CA","longitude_deal":-117.170644},"type":"Feature","geometry":{"type":"Point","coordinates":[-116.991683,32.625578]}},{"properties":{"address1":"13037 Conley St.","city":"Poway","zip":"92064","latitude_deal":32.769349,"parent_category_deal":"Beauty and Spas","longitude_cc":-117.051882,"category_deal":"Laser Hair Removal","deal_id":134,"distance between":14.42086447,"latitude_cc":32.952692,"id":"a63cg0a6plbe","state":"CA","longitude_deal":-117.170644},"type":"Feature","geometry":{"type":"Point","coordinates":[-117.051882,32.952692]}},{"properties":{"address1":"1137 Gorsline Dr.","city":"El Cajon","zip":"92021","latitude_deal":32.769349,"parent_category_deal":"Beauty and Spas","longitude_cc":-116.925551,"category_deal":"Laser Hair Removal","deal_id":134,"distance between":14.52334023,"latitude_cc":32.811008,"id":"a63cg01kzd4l","state":"CA","longitude_deal":-117.170644},"type":"Feature","geometry":{"type":"Point","coordinates":[-116.925551,32.811008]}},{"properties":{"address1":"1420 heatherwood ave","city":"CHULA VISTA","zip":"91913","latitude_deal":32.769349,"parent_category_deal":"Beauty and Spas","longitude_cc":-116.983025,"category_deal":"Laser Hair Removal","deal_id":134,"distance between":14.7535551,"latitude_cc":32.625574,"id":"a63cfzz2gr8i","state":"CA","longitude_deal":-117.170644},"type":"Feature","geometry":{"type":"Point","coordinates":[-116.983025,32.625574]}},{"properties":{"address1":"2004 hidden mesa road","city":"El Cajon","zip":"92019","latitude_deal":32.769349,"parent_category_deal":"Beauty and Spas","longitude_cc":-116.913375,"category_deal":"Laser Hair Removal","deal_id":134,"distance between":14.94735681,"latitude_cc":32.772563,"id":"a63cg08a6ysr","state":"CA","longitude_deal":-117.170644},"type":"Feature","geometry":{"type":"Point","coordinates":[-116.913375,32.772563]}},{"properties":{"address1":"1092 Waterville Lk Rd","city":"San Diego","zip":"91915","latitude_deal":32.769349,"parent_category_deal":"Beauty and Spas","longitude_cc":-116.960689,"category_deal":"Laser Hair Removal","deal_id":134,"distance between":15.01629336,"latitude_cc":32.642751,"id":"a63cg0eg7wls","state":"CA","longitude_deal":-117.170644},"type":"Feature","geometry":{"type":"Point","coordinates":[-116.960689,32.642751]}},{"properties":{"address1":"11832 LAKESIDE AVENUE","city":"LAKESIDE","zip":"92040","latitude_deal":32.769349,"parent_category_deal":"Beauty and Spas","longitude_cc":-116.937851,"category_deal":"Laser Hair Removal","deal_id":134,"distance between":15.11271287,"latitude_cc":32.86719,"id":"a63cg03flarx","state":"CA","longitude_deal":-117.170644},"type":"Feature","geometry":{"type":"Point","coordinates":[-116.937851,32.86719]}},{"properties":{"address1":"3180 Fair Acres Ln","city":"Spring Valley","zip":"91978","latitude_deal":32.769349,"parent_category_deal":"Beauty and Spas","longitude_cc":-116.91383,"category_deal":"Laser Hair Removal","deal_id":134,"distance between":15.19753553,"latitude_cc":32.72773,"id":"a63cg06qr1uc","state":"CA","longitude_deal":-117.170644},"type":"Feature","geometry":{"type":"Point","coordinates":[-116.91383,32.72773]}},{"properties":{"address1":"1163 Calle Tesoro","city":"Chula Vista","zip":"91915","latitude_deal":32.769349,"parent_category_deal":"Beauty and Spas","longitude_cc":-116.955609,"category_deal":"Laser Hair Removal","deal_id":134,"distance between":15.19963537,"latitude_cc":32.644211,"id":"a63cfzzgynun","state":"CA","longitude_deal":-117.170644},"type":"Feature","geometry":{"type":"Point","coordinates":[-116.955609,32.644211]}},{"properties":{"address1":"16025 via dicha","city":"rancho santa fe","zip":"92091","latitude_deal":32.769349,"parent_category_deal":"Beauty and Spas","longitude_cc":-117.212618,"category_deal":"Laser Hair Removal","deal_id":134,"distance between":15.32328171,"latitude_cc":32.988317,"id":"a63cfzzdkb38","state":"CA","longitude_deal":-117.170644},"type":"Feature","geometry":{"type":"Point","coordinates":[-117.212618,32.988317]}},{"properties":{"address1":"15811 Caminito Cantaras","city":"Del Mar","zip":"92014","latitude_deal":32.769349,"parent_category_deal":"Beauty and Spas","longitude_cc":-117.247229,"category_deal":"Laser Hair Removal","deal_id":134,"distance between":15.47965983,"latitude_cc":32.983969,"id":"a63cg03ebqw8","state":"CA","longitude_deal":-117.170644},"type":"Feature","geometry":{"type":"Point","coordinates":[-117.247229,32.983969]}},{"properties":{"address1":"6029 vista santa catarina","city":"san diego","zip":"92154","latitude_deal":32.769349,"parent_category_deal":"Beauty and Spas","longitude_cc":-117.006038,"category_deal":"Laser Hair Removal","deal_id":134,"distance between":16.19393858,"latitude_cc":32.580298,"id":"a63cfzz8kl4h","state":"CA","longitude_deal":-117.170644},"type":"Feature","geometry":{"type":"Point","coordinates":[-117.006038,32.580298]}},{"properties":{"address1":"10757 Corte Crisalida","city":"san diego","zip":"92127","latitude_deal":32.769349,"parent_category_deal":"Beauty and Spas","longitude_cc":-117.0979,"category_deal":"Laser Hair Removal","deal_id":134,"distance between":16.49365968,"latitude_cc":33.000128,"id":"a63cg0a86l56","state":"CA","longitude_deal":-117.170644},"type":"Feature","geometry":{"type":"Point","coordinates":[-117.0979,33.000128]}},{"properties":{"address1":"241 N Granados","city":"Solana Beach","zip":"92075","latitude_deal":32.769349,"parent_category_deal":"Beauty and Spas","longitude_cc":-117.268627,"category_deal":"Laser Hair Removal","deal_id":134,"distance between":16.60942363,"latitude_cc":32.995231,"id":"a63cg0c2yhz3","state":"CA","longitude_deal":-117.170644},"type":"Feature","geometry":{"type":"Point","coordinates":[-117.268627,32.995231]}},{"properties":{"address1":"241 N. Granados Ave.","city":"Solana Beach","zip":"92075","latitude_deal":32.769349,"parent_category_deal":"Beauty and Spas","longitude_cc":-117.268627,"category_deal":"Laser Hair Removal","deal_id":134,"distance between":16.60942363,"latitude_cc":32.995231,"id":"a63cg09r96x5","state":"AL","longitude_deal":-117.170644},"type":"Feature","geometry":{"type":"Point","coordinates":[-117.268627,32.995231]}},{"properties":{"address1":"11909 Calle Parral","city":"San Diego","zip":"92128","latitude_deal":32.769349,"parent_category_deal":"Beauty and Spas","longitude_cc":-117.078424,"category_deal":"Laser Hair Removal","deal_id":134,"distance between":16.61289057,"latitude_cc":32.996989,"id":"a63cg09ku4fe","state":"CA","longitude_deal":-117.170644},"type":"Feature","geometry":{"type":"Point","coordinates":[-117.078424,32.996989]}},{"properties":{"address1":"9342 audubon rd","city":"lakeside","zip":"92040","latitude_deal":32.769349,"parent_category_deal":"Beauty and Spas","longitude_cc":-116.897188,"category_deal":"Laser Hair Removal","deal_id":134,"distance between":16.78738465,"latitude_cc":32.84818,"id":"a63cfzzegrs0","state":"CA","longitude_deal":-117.170644},"type":"Feature","geometry":{"type":"Point","coordinates":[-116.897188,32.84818]}},{"properties":{"address1":"15959 Avenida Venusto #1418","city":"San Diego","zip":"92128","latitude_deal":32.769349,"parent_category_deal":"Beauty and Spas","longitude_cc":-117.075497,"category_deal":"Laser Hair Removal","deal_id":134,"distance between":17.063921,"latitude_cc":33.003049,"id":"a63cg02dtyv2","state":"CA","longitude_deal":-117.170644},"type":"Feature","geometry":{"type":"Point","coordinates":[-117.075497,33.003049]}},{"properties":{"address1":"PO Box 1091","city":"Rancho Santa Fw","zip":"92067","latitude_deal":32.769349,"parent_category_deal":"Beauty and Spas","longitude_cc":-117.1935,"category_deal":"Laser Hair Removal","deal_id":134,"distance between":17.18906188,"latitude_cc":33.0174,"id":"a63cfzztljog","state":"CA","longitude_deal":-117.170644},"type":"Feature","geometry":{"type":"Point","coordinates":[-117.1935,33.0174]}},{"properties":{"address1":"P.O. Box 1381","city":"San Diego","zip":"92067","latitude_deal":32.769349,"parent_category_deal":"Beauty and Spas","longitude_cc":-117.193353,"category_deal":"Laser Hair Removal","deal_id":134,"distance between":17.19212599,"latitude_cc":33.017454,"id":"a63cg0ds7l7m","state":"CA","longitude_deal":-117.170644},"type":"Feature","geometry":{"type":"Point","coordinates":[-117.193353,33.017454]}},{"properties":{"address1":"16857 abundante st","city":"San Diego","zip":"92127","latitude_deal":32.769349,"parent_category_deal":"Beauty and Spas","longitude_cc":-117.109292,"category_deal":"Laser Hair Removal","deal_id":134,"distance between":17.27828726,"latitude_cc":33.014069,"id":"a63cg09ihldn","state":"CA","longitude_deal":-117.170644},"type":"Feature","geometry":{"type":"Point","coordinates":[-117.109292,33.014069]}},{"properties":{"address1":"2485 Caminito Ocean Cove","city":"Cardiff","zip":"92007","latitude_deal":32.769349,"parent_category_deal":"Beauty and Spas","longitude_cc":-117.267686,"category_deal":"Laser Hair Removal","deal_id":134,"distance between":17.67356524,"latitude_cc":33.011828,"id":"a63cg08vzgi8","state":"CA","longitude_deal":-117.170644},"type":"Feature","geometry":{"type":"Point","coordinates":[-117.267686,33.011828]}},{"properties":{"address1":"17065 Bernardo Ctr Drive","city":"San Diego","zip":"92128","latitude_deal":32.769349,"parent_category_deal":"Beauty and Spas","longitude_cc":-117.074179,"category_deal":"Laser Hair Removal","deal_id":134,"distance between":18.47817037,"latitude_cc":33.02424,"id":"a63cfzztd2in","state":"CA","longitude_deal":-117.170644},"type":"Feature","geometry":{"type":"Point","coordinates":[-117.074179,33.02424]}},{"properties":{"address1":"17584 caminito canasto","city":"san diego","zip":"92127","latitude_deal":32.769349,"parent_category_deal":"Beauty and Spas","longitude_cc":-117.080886,"category_deal":"Laser Hair Removal","deal_id":134,"distance between":18.86322873,"latitude_cc":33.031766,"id":"a63cg03uh3id","state":"CA","longitude_deal":-117.170644},"type":"Feature","geometry":{"type":"Point","coordinates":[-117.080886,33.031766]}},{"properties":{"address1":"17593 Fairlie Road","city":"San Diego","zip":"92128","latitude_deal":32.769349,"parent_category_deal":"Beauty and Spas","longitude_cc":-117.075637,"category_deal":"Laser Hair Removal","deal_id":134,"distance between":18.92613976,"latitude_cc":33.031412,"id":"a63cfzzhk5e1","state":"CA","longitude_deal":-117.170644},"type":"Feature","geometry":{"type":"Point","coordinates":[-117.075637,33.031412]}},{"properties":{"address1":"2331 Summerhill Drive","city":"Encinitas","zip":"92024","latitude_deal":32.769349,"parent_category_deal":"Beauty and Spas","longitude_cc":-117.244651,"category_deal":"Laser Hair Removal","deal_id":134,"distance between":20.528626,"latitude_cc":33.05991,"id":"a63cg0eyuon2","state":"CA","longitude_deal":-117.170644},"type":"Feature","geometry":{"type":"Point","coordinates":[-117.244651,33.05991]}},{"properties":{"address1":"16671 Hamlin Ct","city":"Ramona","zip":"92065","latitude_deal":32.769349,"parent_category_deal":"Beauty and Spas","longitude_cc":-116.968618,"category_deal":"Laser Hair Removal","deal_id":134,"distance between":20.76416081,"latitude_cc":33.017434,"id":"a63cg06xg8do","state":"CA","longitude_deal":-117.170644},"type":"Feature","geometry":{"type":"Point","coordinates":[-116.968618,33.017434]}},{"properties":{"address1":"225 Melrose Ave. Apt #8","city":"Encinitas","zip":"92024","latitude_deal":32.769349,"parent_category_deal":"Beauty and Spas","longitude_cc":-117.296673,"category_deal":"Laser Hair Removal","deal_id":134,"distance between":20.91793118,"latitude_cc":33.053024,"id":"a63cg047my6i","state":"CA","longitude_deal":-117.170644},"type":"Feature","geometry":{"type":"Point","coordinates":[-117.296673,33.053024]}},{"properties":{"address1":"1021 N. Vulcan Ave.#5","city":"Encinitas","zip":"92024","latitude_deal":32.769349,"parent_category_deal":"Beauty and Spas","longitude_cc":-117.302349,"category_deal":"Laser Hair Removal","deal_id":134,"distance between":21.92786274,"latitude_cc":33.066851,"id":"a63cg0dnifgf","state":"CA","longitude_deal":-117.170644},"type":"Feature","geometry":{"type":"Point","coordinates":[-117.302349,33.066851]}},{"properties":{"address1":"1405 Coop St","city":"Encinitas","zip":"92024","latitude_deal":32.769349,"parent_category_deal":"Beauty and Spas","longitude_cc":-117.305803,"category_deal":"Laser Hair Removal","deal_id":134,"distance between":22.33111825,"latitude_cc":33.072,"id":"a63cg0dx9ayu","state":"CA","longitude_deal":-117.170644},"type":"Feature","geometry":{"type":"Point","coordinates":[-117.305803,33.072]}},{"properties":{"address1":"2123 Eucalyptus Ave","city":"escondido","zip":"92029","latitude_deal":32.769349,"parent_category_deal":"Beauty and Spas","longitude_cc":-117.096826,"category_deal":"Laser Hair Removal","deal_id":134,"distance between":22.98540557,"latitude_cc":33.096217,"id":"a63cg09liclt","state":"CA","longitude_deal":-117.170644},"type":"Feature","geometry":{"type":"Point","coordinates":[-117.096826,33.096217]}},{"properties":{"address1":"2245 AVENIDA DEL DIABLO","city":"ESCONDIDO","zip":"92029","latitude_deal":32.769349,"parent_category_deal":"Beauty and Spas","longitude_cc":-117.11212,"category_deal":"Laser Hair Removal","deal_id":134,"distance between":23.29567873,"latitude_cc":33.102931,"id":"a63cg03fepxv","state":"CA","longitude_deal":-117.170644},"type":"Feature","geometry":{"type":"Point","coordinates":[-117.11212,33.102931]}},{"properties":{"address1":"Alpine Blvd. #36","city":"Alpine","zip":"91901","latitude_deal":32.769349,"parent_category_deal":"Beauty and Spas","longitude_cc":-116.766199,"category_deal":"Laser Hair Removal","deal_id":134,"distance between":23.92739989,"latitude_cc":32.83546,"id":"a63cg02k1g1d","state":"CA","longitude_deal":-117.170644},"type":"Feature","geometry":{"type":"Point","coordinates":[-116.766199,32.83546]}},{"properties":{"address1":"503 S Upas St","city":"Escondido","zip":"92025","latitude_deal":32.769349,"parent_category_deal":"Beauty and Spas","longitude_cc":-117.091236,"category_deal":"Laser Hair Removal","deal_id":134,"distance between":24.03617237,"latitude_cc":33.110803,"id":"a63cg01buk6b","state":"CA","longitude_deal":-117.170644},"type":"Feature","geometry":{"type":"Point","coordinates":[-117.091236,33.110803]}},{"properties":{"address1":"874 Custer Ave","city":"San Marcos","zip":"92078","latitude_deal":32.769349,"parent_category_deal":"Beauty and Spas","longitude_cc":-117.160907,"category_deal":"Laser Hair Removal","deal_id":134,"distance between":24.28879502,"latitude_cc":33.120807,"id":"a63cg0asa5q7","state":"CA","longitude_deal":-117.170644},"type":"Feature","geometry":{"type":"Point","coordinates":[-117.160907,33.120807]}},{"properties":{"address1":"7511 HAZARD CENTER DRIVE","city":"San Diego","zip":"92108","latitude_deal":32.769349,"parent_category_deal":"Beauty and Spas","longitude_cc":-117.158473,"category_deal":"Laser Hair Removal","deal_id":134,"distance between":0.709077151,"latitude_cc":32.770121,"id":"a63cfzzrz255","state":"CA","longitude_deal":-117.170644},"type":"Feature","geometry":{"type":"Point","coordinates":[-117.158473,32.770121]}},{"properties":{"address1":"988 Shore Crest Road","city":"Carlsbad","zip":"92011","latitude_deal":32.769349,"parent_category_deal":"Beauty and Spas","longitude_cc":-117.313113,"category_deal":"Laser Hair Removal","deal_id":134,"distance between":25.4809661,"latitude_cc":33.11824,"id":"a63cg0478rf0","state":"CA","longitude_deal":-117.170644},"type":"Feature","geometry":{"type":"Point","coordinates":[-117.313113,33.11824]}},{"properties":{"address1":"1331 borden rd","city":"escondido","zip":"92026","latitude_deal":32.769349,"parent_category_deal":"Beauty and Spas","longitude_cc":-117.100642,"category_deal":"Laser Hair Removal","deal_id":134,"distance between":25.70917746,"latitude_cc":33.136795,"id":"a63cg04dpkot","state":"CA","longitude_deal":-117.170644},"type":"Feature","geometry":{"type":"Point","coordinates":[-117.100642,33.136795]}},{"properties":{"address1":"1228 Avenida Amistad","city":"San Marcos","zip":"92069","latitude_deal":32.769349,"parent_category_deal":"Beauty and Spas","longitude_cc":-117.180486,"category_deal":"Laser Hair Removal","deal_id":134,"distance between":27.24815991,"latitude_cc":33.163649,"id":"a63cg0abrr1h","state":"CA","longitude_deal":-117.170644},"type":"Feature","geometry":{"type":"Point","coordinates":[-117.180486,33.163649]}},{"properties":{"address1":"605 Marazon Ln.","city":"Vista","zip":"92081","latitude_deal":32.769349,"parent_category_deal":"Beauty and Spas","longitude_cc":-117.271007,"category_deal":"Laser Hair Removal","deal_id":134,"distance between":29.37880469,"latitude_cc":33.186156,"id":"a63cg08z965o","state":"CA","longitude_deal":-117.170644},"type":"Feature","geometry":{"type":"Point","coordinates":[-117.271007,33.186156]}},{"properties":{"address1":"4248 Conquistador","city":"Oceanside","zip":"92056","latitude_deal":32.769349,"parent_category_deal":"Beauty and Spas","longitude_cc":-117.29027,"category_deal":"Laser Hair Removal","deal_id":134,"distance between":31.85040364,"latitude_cc":33.219297,"id":"a63cg03rhyhy","state":"CA","longitude_deal":-117.170644},"type":"Feature","geometry":{"type":"Point","coordinates":[-117.29027,33.219297]}},{"properties":{"address1":"10194 Oak Grove Dr.","city":"Descanso","zip":"91916","latitude_deal":32.769349,"parent_category_deal":"Beauty and Spas","longitude_cc":-116.632086,"category_deal":"Laser Hair Removal","deal_id":134,"distance between":31.97126636,"latitude_cc":32.86571,"id":"a63cg0c1rcyf","state":"CA","longitude_deal":-117.170644},"type":"Feature","geometry":{"type":"Point","coordinates":[-116.632086,32.86571]}},{"properties":{"address1":"5127 Mandarin Drive","city":"Oceanside","zip":"92056","latitude_deal":32.769349,"parent_category_deal":"Beauty and Spas","longitude_cc":-117.27712,"category_deal":"Laser Hair Removal","deal_id":134,"distance between":32.61406732,"latitude_cc":33.232878,"id":"a63cg09g7foe","state":"CA","longitude_deal":-117.170644},"type":"Feature","geometry":{"type":"Point","coordinates":[-117.27712,33.232878]}},{"properties":{"address1":"2557 Majella Rd","city":"Vsita","zip":"92084","latitude_deal":32.769349,"parent_category_deal":"Beauty and Spas","longitude_cc":-117.255652,"category_deal":"Laser Hair Removal","deal_id":134,"distance between":33.07180635,"latitude_cc":33.242688,"id":"a63cg0epatge","state":"CA","longitude_deal":-117.170644},"type":"Feature","geometry":{"type":"Point","coordinates":[-117.255652,33.242688]}},{"properties":{"address1":"805 Henderson Court","city":"Oceanside","zip":"92058","latitude_deal":32.769349,"parent_category_deal":"Beauty and Spas","longitude_cc":-117.346274,"category_deal":"Laser Hair Removal","deal_id":134,"distance between":33.11025918,"latitude_cc":33.225384,"id":"a63cfzzx2p1o","state":"CA","longitude_deal":-117.170644},"type":"Feature","geometry":{"type":"Point","coordinates":[-117.346274,33.225384]}},{"properties":{"address1":"4456 Brisbane Way","city":"Oceanside","zip":"92058","latitude_deal":32.769349,"parent_category_deal":"Beauty and Spas","longitude_cc":-117.324055,"category_deal":"Laser Hair Removal","deal_id":134,"distance between":33.8068247,"latitude_cc":33.241449,"id":"a63cg0aclvsw","state":"CA","longitude_deal":-117.170644},"type":"Feature","geometry":{"type":"Point","coordinates":[-117.324055,33.241449]}},{"properties":{"address1":"39727 rustic glen dr","city":"temecula","zip":"92591","latitude_deal":32.769349,"parent_category_deal":"Beauty and Spas","longitude_cc":-117.148598,"category_deal":"Laser Hair Removal","deal_id":134,"distance between":53.49728431,"latitude_cc":33.543442,"id":"a63cg0elbebx","state":"CA","longitude_deal":-117.170644},"type":"Feature","geometry":{"type":"Point","coordinates":[-117.148598,33.543442]}},{"properties":{"address1":"39727 rustic glen dr","city":"temecula","zip":"92591","latitude_deal":32.769349,"parent_category_deal":"Beauty and Spas","longitude_cc":-117.148598,"category_deal":"Laser Hair Removal","deal_id":134,"distance between":53.49728431,"latitude_cc":33.543442,"id":"a63cg07jqv5a","state":"CA","longitude_deal":-117.170644},"type":"Feature","geometry":{"type":"Point","coordinates":[-117.148598,33.543442]}},{"properties":{"address1":"171 So El Cerrito Dr","city":"Brawley","zip":"92227","latitude_deal":32.769349,"parent_category_deal":"Beauty and Spas","longitude_cc":-115.545907,"category_deal":"Laser Hair Removal","deal_id":134,"distance between":95.33132964,"latitude_cc":32.97379,"id":"a63cg0awcusf","state":"CA","longitude_deal":-117.170644},"type":"Feature","geometry":{"type":"Point","coordinates":[-115.545907,32.97379]}},{"properties":{"address1":"4033 broadway","city":"huntington park","zip":"90255","latitude_deal":32.769349,"parent_category_deal":"Beauty and Spas","longitude_cc":-118.197965,"category_deal":"Laser Hair Removal","deal_id":134,"distance between":101.6136737,"latitude_cc":33.963926,"id":"a63cg0f20a0o","state":"CA","longitude_deal":-117.170644},"type":"Feature","geometry":{"type":"Point","coordinates":[-118.197965,33.963926]}},{"properties":{"address1":"1018 Doyle Place Apt#1","city":"Los Angeles","zip":"90012","latitude_deal":32.769349,"parent_category_deal":"Beauty and Spas","longitude_cc":-118.240493,"category_deal":"Laser Hair Removal","deal_id":134,"distance between":108.8377558,"latitude_cc":34.067142,"id":"a63cg03aedr9","state":"CA","longitude_deal":-117.170644},"type":"Feature","geometry":{"type":"Point","coordinates":[-118.240493,34.067142]}},{"properties":{"address1":"5760 Le Sage Ave.","city":"Woodland Hills","zip":"91367","latitude_deal":32.769349,"parent_category_deal":"Beauty and Spas","longitude_cc":-118.641654,"category_deal":"Laser Hair Removal","deal_id":134,"distance between":128.9108355,"latitude_cc":34.175019,"id":"a63cg0dzodwy","state":"CA","longitude_deal":-117.170644},"type":"Feature","geometry":{"type":"Point","coordinates":[-118.641654,34.175019]}},{"properties":{"address1":"522 W. Myrtle Drive","city":"Chandler","zip":"85248","latitude_deal":32.769349,"parent_category_deal":"Beauty and Spas","longitude_cc":-111.849155,"category_deal":"Laser Hair Removal","deal_id":134,"distance between":310.0632998,"latitude_cc":33.250281,"id":"a63cg01jmtwd","state":"AZ","longitude_deal":-117.170644},"type":"Feature","geometry":{"type":"Point","coordinates":[-111.849155,33.250281]}},{"properties":{"address1":"1123 Country Ridge Dr","city":"Richland","zip":"99352","latitude_deal":32.769349,"parent_category_deal":"Beauty and Spas","longitude_cc":-119.312333,"category_deal":"Laser Hair Removal","deal_id":134,"distance between":938.1824425,"latitude_cc":46.249006,"id":"a63cfzz14k9g","state":"WA","longitude_deal":-117.170644},"type":"Feature","geometry":{"type":"Point","coordinates":[-119.312333,46.249006]}},{"properties":{"address1":"PO Box 3565","city":"Harlingen","zip":"78551","latitude_deal":32.769349,"parent_category_deal":"Beauty and Spas","longitude_cc":-97.695549,"category_deal":"Laser Hair Removal","deal_id":134,"distance between":1253.980567,"latitude_cc":26.189859,"id":"a63cg0dc3zks","state":"TX","longitude_deal":-117.170644},"type":"Feature","geometry":{"type":"Point","coordinates":[-97.695549,26.189859]}},{"properties":{"address1":"394 Hwy 200 NE","city":"McClusky","zip":"58463","latitude_deal":32.769349,"parent_category_deal":"Beauty and Spas","longitude_cc":-100.386057,"category_deal":"Laser Hair Removal","deal_id":134,"distance between":1343.207931,"latitude_cc":47.486931,"id":"a63cg06pwr16","state":"ND","longitude_deal":-117.170644},"type":"Feature","geometry":{"type":"Point","coordinates":[-100.386057,47.486931]}},{"properties":{"address1":"10511 Cricklewood Dr.","city":"Newburgh","zip":"47630","latitude_deal":32.769349,"parent_category_deal":"Beauty and Spas","longitude_cc":-87.441953,"category_deal":"Laser Hair Removal","deal_id":134,"distance between":1705.218715,"latitude_cc":37.949979,"id":"a63cg02xrm6v","state":"IN","longitude_deal":-117.170644},"type":"Feature","geometry":{"type":"Point","coordinates":[-87.441953,37.949979]}},{"properties":{"address1":"3407 N Elaine pl, apt 1","city":"Chicago","zip":"60657","latitude_deal":32.769349,"parent_category_deal":"Beauty and Spas","longitude_cc":-87.647225,"category_deal":"Laser Hair Removal","deal_id":134,"distance between":1730.149887,"latitude_cc":41.943933,"id":"a63cg0a8dmp9","state":"IL","longitude_deal":-117.170644},"type":"Feature","geometry":{"type":"Point","coordinates":[-87.647225,41.943933]}},{"properties":{"address1":"29 Clarion Drive","city":"Fredericksburg","zip":"22405","latitude_deal":32.769349,"parent_category_deal":"Beauty and Spas","longitude_cc":-77.423046,"category_deal":"Laser Hair Removal","deal_id":134,"distance between":2249.619141,"latitude_cc":38.292484,"id":"a63cg08df1mp","state":"VA","longitude_deal":-117.170644},"type":"Feature","geometry":{"type":"Point","coordinates":[-77.423046,38.292484]}},{"properties":{"address1":"119 Hillandale Rd","city":"Westport","zip":"6880","latitude_deal":32.769349,"parent_category_deal":"Beauty and Spas","longitude_cc":-77.078529,"category_deal":"Laser Hair Removal","deal_id":134,"distance between":2266.563774,"latitude_cc":38.9151,"id":"a63cg04jkmam","state":"CT","longitude_deal":-117.170644},"type":"Feature","geometry":{"type":"Point","coordinates":[-77.078529,38.9151]}},{"properties":{"address1":"460 S. Mashta Dr.","city":"Key Biscayne","zip":"33149","latitude_deal":32.769349,"parent_category_deal":"Beauty and Spas","longitude_cc":-80.171658,"category_deal":"Laser Hair Removal","deal_id":134,"distance between":2271.916651,"latitude_cc":25.682504,"id":"a63cg08f84om","state":"FL","longitude_deal":-117.170644},"type":"Feature","geometry":{"type":"Point","coordinates":[-80.171658,25.682504]}},{"properties":{"address1":"33 Howard St","city":"Milltown","zip":"8850","latitude_deal":32.769349,"parent_category_deal":"Beauty and Spas","longitude_cc":-74.429439,"category_deal":"Laser Hair Removal","deal_id":134,"distance between":2404.68878,"latitude_cc":40.45693,"id":"a63cg0eanntr","state":"NJ","longitude_deal":-117.170644},"type":"Feature","geometry":{"type":"Point","coordinates":[-74.429439,40.45693]}},{"properties":{"address1":"3730 Lurline Drive","city":"Honolulu","zip":"96816","latitude_deal":32.769349,"parent_category_deal":"Beauty and Spas","longitude_cc":-157.788527,"category_deal":"Laser Hair Removal","deal_id":134,"distance between":2604.487809,"latitude_cc":21.294629,"id":"a63cg02atbz5","state":"HI","longitude_deal":-117.170644},"type":"Feature","geometry":{"type":"Point","coordinates":[-157.788527,21.294629]}},{"properties":{"address1":"6546 Friars Road","city":"San Diego","zip":"92108","latitude_deal":32.769349,"parent_category_deal":"Beauty and Spas","longitude_cc":-117.176934,"category_deal":"Laser Hair Removal","deal_id":134,"distance between":0.398092044,"latitude_cc":32.767063,"id":"a63cg00o19jl","state":"CA","longitude_deal":-117.170644},"type":"Feature","geometry":{"type":"Point","coordinates":[-117.176934,32.767063]}}],"is_temporal":false,"author":{"url":"","metadata":"","contact_name":"","contact_address":"","source":"","contact_phone":""},"source":"","pagination":{"sort":null,"start":0,"total":213,"limit":1000000},"state":"complete","tags":"","published":"2014-08-10T13:10:24-04:00","id":72284}