{"type":"FeatureCollection","data_type":"Dataset","url_type":null,"permissions":[{"permissions":{"download":true,"view":true},"group_id":"everyone"}],"classification":null,"title":"buys113","count":53,"stream_id":72286,"contributor":{"url":"http://geocommons.com/users/17425","name":"maptastic"},"data_attributes":null,"calculation_params":null,"icon_link":null,"link":"http://geocommons.com/overlays/72286.json","extent":[-122.927,46.9604,-122.012,47.9134],"geometry_types":["point"],"unique_name":null,"name":"buys113","feature_count":53,"description":"","next_feature":null,"is_raster":false,"short_classification":"Y","stats":{"latitude_deal":{"max":47.661527,"mean":47.661527,"variance":4.63293369278034e-28,"stdev":2.15242507251248e-14,"min":47.661527,"median":47.661527},"longitude_cc":{"max":-122.012236,"mean":-122.310826192308,"variance":0.01515817080757,"stdev":0.123118523413701,"min":-122.927295,"median":-122.323091},"deal_id":{"max":113,"mean":113.0,"variance":0.0,"stdev":0.0,"min":113,"median":113},"distance between":{"max":55.85711742,"mean":6.5768767185,"variance":69.9367508496862,"stdev":8.3628195514244,"min":0.431924808,"median":3.256324087},"latitude_cc":{"max":47.913389,"mean":47.6378791346154,"variance":0.0161643063123932,"stdev":0.127138925244762,"min":46.960413,"median":47.665644},"longitude_deal":{"max":-122.333535,"mean":-122.333535,"variance":2.05908164123571e-28,"stdev":1.43495004834165e-14,"min":-122.333535,"median":-122.333535}},"features":[{"properties":{"address1":null,"city":null,"zip":null,"latitude_deal":null,"parent_category_deal":null,"longitude_cc":null,"category_deal":null,"deal_id":null,"distance between":null,"latitude_cc":null,"id":"a633sj5vd3rm","state":null,"longitude_deal":null},"type":"Feature","geometry":null},{"properties":{"address1":"210 Wall Strett #724","city":"Seattle","zip":"98121","latitude_deal":47.661527,"parent_category_deal":"Beauty and Spas","longitude_cc":-122.346687,"category_deal":"Laser Hair Removal","deal_id":113,"distance between":3.256324087,"latitude_cc":47.615236,"id":"a633sj94ojbl","state":"WA","longitude_deal":-122.333535},"type":"Feature","geometry":{"type":"Point","coordinates":[-122.346687,47.615236]}},{"properties":{"address1":"5027 9th ave ne","city":"Seattle","zip":"98105","latitude_deal":47.661527,"parent_category_deal":"Beauty and Spas","longitude_cc":-122.318616,"category_deal":"Laser Hair Removal","deal_id":113,"distance between":0.75020942,"latitude_cc":47.665644,"id":"a633sjermvr4","state":"WA","longitude_deal":-122.333535},"type":"Feature","geometry":{"type":"Point","coordinates":[-122.318616,47.665644]}},{"properties":{"address1":"400 NE 65th St #208","city":"Seattle","zip":"98115","latitude_deal":47.661527,"parent_category_deal":"Beauty and Spas","longitude_cc":-122.324278,"category_deal":"Laser Hair Removal","deal_id":113,"distance between":1.085451283,"latitude_cc":47.675948,"id":"a633sj9zwpi8","state":"WA","longitude_deal":-122.333535},"type":"Feature","geometry":{"type":"Point","coordinates":[-122.324278,47.675948]}},{"properties":{"address1":"5638 3rd Ave NW","city":"Seattle","zip":"98107","latitude_deal":47.661527,"parent_category_deal":"Beauty and Spas","longitude_cc":-122.360593,"category_deal":"Laser Hair Removal","deal_id":113,"distance between":1.383945887,"latitude_cc":47.669845,"id":"a633sjbremtu","state":"WA","longitude_deal":-122.333535},"type":"Feature","geometry":{"type":"Point","coordinates":[-122.360593,47.669845]}},{"properties":{"address1":"7102 12th Avenue NE","city":"Seattle","zip":"98115","latitude_deal":47.661527,"parent_category_deal":"Beauty and Spas","longitude_cc":-122.315471,"category_deal":"Laser Hair Removal","deal_id":113,"distance between":1.55653444,"latitude_cc":47.68049,"id":"a633sjik7qlx","state":"WA","longitude_deal":-122.333535},"type":"Feature","geometry":{"type":"Point","coordinates":[-122.315471,47.68049]}},{"properties":{"address1":"760 North 74th Street","city":"Seattle","zip":"98103","latitude_deal":47.661527,"parent_category_deal":"Beauty and Spas","longitude_cc":-122.347834,"category_deal":"Laser Hair Removal","deal_id":113,"distance between":1.608257642,"latitude_cc":47.68272,"id":"a633sjas5b1s","state":"WA","longitude_deal":-122.333535},"type":"Feature","geometry":{"type":"Point","coordinates":[-122.347834,47.68272]}},{"properties":{"address1":"7334 15th Ave NE","city":"Seattle","zip":"98115","latitude_deal":47.661527,"parent_category_deal":"Beauty and Spas","longitude_cc":-122.31147,"category_deal":"Laser Hair Removal","deal_id":113,"distance between":1.728882036,"latitude_cc":47.681662,"id":"a633sjghqvyu","state":"WA","longitude_deal":-122.333535},"type":"Feature","geometry":{"type":"Point","coordinates":[-122.31147,47.681662]}},{"properties":{"address1":"3438 11th Ave W,","city":"Seattle","zip":"98119","latitude_deal":47.661527,"parent_category_deal":"Beauty and Spas","longitude_cc":-122.371364,"category_deal":"Laser Hair Removal","deal_id":113,"distance between":1.885746945,"latitude_cc":47.651744,"id":"a633sj3apvoy","state":"WA","longitude_deal":-122.333535},"type":"Feature","geometry":{"type":"Point","coordinates":[-122.371364,47.651744]}},{"properties":{"address1":"827 W Barrett St","city":"Seattle","zip":"98119","latitude_deal":47.661527,"parent_category_deal":"Beauty and Spas","longitude_cc":-122.368438,"category_deal":"Laser Hair Removal","deal_id":113,"distance between":1.919370535,"latitude_cc":47.646728,"id":"a633sj5knz32","state":"WA","longitude_deal":-122.333535},"type":"Feature","geometry":{"type":"Point","coordinates":[-122.368438,47.646728]}},{"properties":{"address1":"8261 5th Ave NE Apt #3","city":"Seattle","zip":"98115","latitude_deal":47.661527,"parent_category_deal":"Beauty and Spas","longitude_cc":-122.323091,"category_deal":"Laser Hair Removal","deal_id":113,"distance between":1.945722104,"latitude_cc":47.688797,"id":"a633sj4spmwe","state":"WV","longitude_deal":-122.333535},"type":"Feature","geometry":{"type":"Point","coordinates":[-122.323091,47.688797]}},{"properties":{"address1":"7700 21st Ave NE","city":"Seattle","zip":"98115","latitude_deal":47.661527,"parent_category_deal":"Beauty and Spas","longitude_cc":-122.305204,"category_deal":"Laser Hair Removal","deal_id":113,"distance between":2.089476221,"latitude_cc":47.684994,"id":"a633sjh9nmkg","state":"WA","longitude_deal":-122.333535},"type":"Feature","geometry":{"type":"Point","coordinates":[-122.305204,47.684994]}},{"properties":{"address1":"6739 Alonzo Ave NW","city":"Seattle","zip":"98117","latitude_deal":47.661527,"parent_category_deal":"Beauty and Spas","longitude_cc":-122.375264,"category_deal":"Laser Hair Removal","deal_id":113,"distance between":2.269513136,"latitude_cc":47.678539,"id":"a633sj9caarh","state":"WA","longitude_deal":-122.333535},"type":"Feature","geometry":{"type":"Point","coordinates":[-122.375264,47.678539]}},{"properties":{"address1":"9219 Interlake Ave N Unit B","city":"Seattle","zip":"98103","latitude_deal":47.661527,"parent_category_deal":"Beauty and Spas","longitude_cc":-122.340991,"category_deal":"Laser Hair Removal","deal_id":113,"distance between":2.456574882,"latitude_cc":47.696727,"id":"a633sj5kg88n","state":"WA","longitude_deal":-122.333535},"type":"Feature","geometry":{"type":"Point","coordinates":[-122.340991,47.696727]}},{"properties":{"address1":"3045 20th ave W #209","city":"Seattle","zip":"98199","latitude_deal":47.661527,"parent_category_deal":"Beauty and Spas","longitude_cc":-122.382244,"category_deal":"Laser Hair Removal","deal_id":113,"distance between":2.463954198,"latitude_cc":47.647551,"id":"a633sj42u61v","state":"WA","longitude_deal":-122.333535},"type":"Feature","geometry":{"type":"Point","coordinates":[-122.382244,47.647551]}},{"properties":{"address1":"921 1st Ave W #109","city":"Seattle","zip":"98119","latitude_deal":47.661527,"parent_category_deal":"Beauty and Spas","longitude_cc":-122.358096,"category_deal":"Laser Hair Removal","deal_id":113,"distance between":2.62685625,"latitude_cc":47.627296,"id":"a633sjc11b98","state":"WA","longitude_deal":-122.333535},"type":"Feature","geometry":{"type":"Point","coordinates":[-122.358096,47.627296]}},{"properties":{"address1":"2453 NW 61st St","city":"Seattle","zip":"98107","latitude_deal":47.661527,"parent_category_deal":"Beauty and Spas","longitude_cc":-122.388927,"category_deal":"Laser Hair Removal","deal_id":113,"distance between":2.696118234,"latitude_cc":47.672986,"id":"a633sjdk2r5v","state":"WA","longitude_deal":-122.333535},"type":"Feature","geometry":{"type":"Point","coordinates":[-122.388927,47.672986]}},{"properties":{"address1":"2453 NW 61st","city":"Seattle","zip":"98107","latitude_deal":47.661527,"parent_category_deal":"Beauty and Spas","longitude_cc":-122.388927,"category_deal":"Laser Hair Removal","deal_id":113,"distance between":2.696118234,"latitude_cc":47.672986,"id":"a633sj89wvmd","state":"WA","longitude_deal":-122.333535},"type":"Feature","geometry":{"type":"Point","coordinates":[-122.388927,47.672986]}},{"properties":{"address1":"2222 NE 92nd St. #112","city":"Seattle","zip":"98115","latitude_deal":47.661527,"parent_category_deal":"Beauty and Spas","longitude_cc":-122.305035,"category_deal":"Laser Hair Removal","deal_id":113,"distance between":2.722233615,"latitude_cc":47.69594,"id":"a633sjj87ns5","state":"WA","longitude_deal":-122.333535},"type":"Feature","geometry":{"type":"Point","coordinates":[-122.305035,47.69594]}},{"properties":{"address1":"406 Summit Ave E Apt. I","city":"Seattle","zip":"98102","latitude_deal":47.661527,"parent_category_deal":"Beauty and Spas","longitude_cc":-122.325091,"category_deal":"Laser Hair Removal","deal_id":113,"distance between":2.747985446,"latitude_cc":47.622162,"id":"a633sj4wmh6c","state":"WA","longitude_deal":-122.333535},"type":"Feature","geometry":{"type":"Point","coordinates":[-122.325091,47.622162]}},{"properties":{"address1":"2517 NW 67th Street","city":"Seattle","zip":"98117","latitude_deal":47.661527,"parent_category_deal":"Beauty and Spas","longitude_cc":-122.388899,"category_deal":"Laser Hair Removal","deal_id":113,"distance between":2.803736636,"latitude_cc":47.677553,"id":"a633sjh4loch","state":"WA","longitude_deal":-122.333535},"type":"Feature","geometry":{"type":"Point","coordinates":[-122.388899,47.677553]}},{"properties":{"address1":"301 Summit Ave E Apt 102","city":"Seattle","zip":"98102","latitude_deal":47.661527,"parent_category_deal":"Beauty and Spas","longitude_cc":-122.325427,"category_deal":"Laser Hair Removal","deal_id":113,"distance between":2.828484147,"latitude_cc":47.620954,"id":"a633sj5o7uuw","state":"WA","longitude_deal":-122.333535},"type":"Feature","geometry":{"type":"Point","coordinates":[-122.325427,47.620954]}},{"properties":{"address1":"116 Warren Ave N Apt. 402","city":"Seattle","zip":"98109","latitude_deal":47.661527,"parent_category_deal":"Beauty and Spas","longitude_cc":-122.353952,"category_deal":"Laser Hair Removal","deal_id":113,"distance between":3.096638957,"latitude_cc":47.61887,"id":"a633sj90pfjz","state":"WA","longitude_deal":-122.333535},"type":"Feature","geometry":{"type":"Point","coordinates":[-122.353952,47.61887]}},{"properties":{"address1":"3417c 33rd Avenue W","city":"Seattle","zip":"98199","latitude_deal":47.661527,"parent_category_deal":"Beauty and Spas","longitude_cc":-122.399762,"category_deal":"Laser Hair Removal","deal_id":113,"distance between":3.168718786,"latitude_cc":47.650873,"id":"a633sjd9n4l3","state":"WA","longitude_deal":-122.333535},"type":"Feature","geometry":{"type":"Point","coordinates":[-122.399762,47.650873]}},{"properties":{"address1":"2424 E. Madison, #208","city":"Seattle","zip":"98112","latitude_deal":47.661527,"parent_category_deal":"Beauty and Spas","longitude_cc":-122.30088,"category_deal":"Laser Hair Removal","deal_id":113,"distance between":3.216499845,"latitude_cc":47.620499,"id":"a633sjbnc46x","state":"WA","longitude_deal":-122.333535},"type":"Feature","geometry":{"type":"Point","coordinates":[-122.30088,47.620499]}},{"properties":{"address1":"1536 ne 106th st.","city":"Seattle","zip":"98125","latitude_deal":47.661527,"parent_category_deal":"Beauty and Spas","longitude_cc":-122.31129,"category_deal":"Laser Hair Removal","deal_id":113,"distance between":3.251928785,"latitude_cc":47.706149,"id":"a633sj8v3yng","state":"WA","longitude_deal":-122.333535},"type":"Feature","geometry":{"type":"Point","coordinates":[-122.31129,47.706149]}},{"properties":{"address1":"201 NE 40th St #105,","city":"Seattle","zip":"98105","latitude_deal":47.661527,"parent_category_deal":"Beauty and Spas","longitude_cc":-122.326755,"category_deal":"Laser Hair Removal","deal_id":113,"distance between":0.522987603,"latitude_cc":47.65549,"id":"a633sj5fhtp7","state":"WA","longitude_deal":-122.333535},"type":"Feature","geometry":{"type":"Point","coordinates":[-122.326755,47.65549]}},{"properties":{"address1":"121 Vine Street #303","city":"Seattle","zip":"98121","latitude_deal":47.661527,"parent_category_deal":"Beauty and Spas","longitude_cc":-122.349328,"category_deal":"Laser Hair Removal","deal_id":113,"distance between":3.274863199,"latitude_cc":47.615337,"id":"a633sjayubne","state":"WA","longitude_deal":-122.333535},"type":"Feature","geometry":{"type":"Point","coordinates":[-122.349328,47.615337]}},{"properties":{"address1":"10020 31st Ave NE","city":"Seattle","zip":"98125","latitude_deal":47.661527,"parent_category_deal":"Beauty and Spas","longitude_cc":-122.295121,"category_deal":"Laser Hair Removal","deal_id":113,"distance between":3.284378055,"latitude_cc":47.701414,"id":"a633sje7flky","state":"WA","longitude_deal":-122.333535},"type":"Feature","geometry":{"type":"Point","coordinates":[-122.295121,47.701414]}},{"properties":{"address1":"2684 Bishop Place W","city":"Seattle","zip":"98199","latitude_deal":47.661527,"parent_category_deal":"Beauty and Spas","longitude_cc":-122.404888,"category_deal":"Laser Hair Removal","deal_id":113,"distance between":3.498632583,"latitude_cc":47.645586,"id":"a633sjb2auv8","state":"WA","longitude_deal":-122.333535},"type":"Feature","geometry":{"type":"Point","coordinates":[-122.404888,47.645586]}},{"properties":{"address1":"9039 NE Juanita Drive","city":"Kirkland","zip":"98034","latitude_deal":47.661527,"parent_category_deal":"Beauty and Spas","longitude_cc":-122.219986,"category_deal":"Laser Hair Removal","deal_id":113,"distance between":6.06632812,"latitude_cc":47.70472,"id":"a633sj36qahi","state":"WA","longitude_deal":-122.333535},"type":"Feature","geometry":{"type":"Point","coordinates":[-122.219986,47.70472]}},{"properties":{"address1":"3603 S. McClellan St.","city":"Seattle","zip":"98144","latitude_deal":47.661527,"parent_category_deal":"Beauty and Spas","longitude_cc":-122.288861,"category_deal":"Laser Hair Removal","deal_id":113,"distance between":6.114751898,"latitude_cc":47.578303,"id":"a633sj3pg5u9","state":"WA","longitude_deal":-122.333535},"type":"Feature","geometry":{"type":"Point","coordinates":[-122.288861,47.578303]}},{"properties":{"address1":"18911 23rd ave ne","city":"lake forest park","zip":"98155","latitude_deal":47.661527,"parent_category_deal":"Beauty and Spas","longitude_cc":-122.305423,"category_deal":"Laser Hair Removal","deal_id":113,"distance between":7.253277077,"latitude_cc":47.764792,"id":"a633sj6j6b1t","state":"GA","longitude_deal":-122.333535},"type":"Feature","geometry":{"type":"Point","coordinates":[-122.305423,47.764792]}},{"properties":{"address1":"5026C Delridge Way SW","city":"Seattle","zip":"98106","latitude_deal":47.661527,"parent_category_deal":"Beauty and Spas","longitude_cc":-122.362752,"category_deal":"Laser Hair Removal","deal_id":113,"distance between":7.364700538,"latitude_cc":47.556767,"id":"a633sj93galc","state":"WA","longitude_deal":-122.333535},"type":"Feature","geometry":{"type":"Point","coordinates":[-122.362752,47.556767]}},{"properties":{"address1":"18417 61st Pl NE","city":"Kenmore","zip":"98028","latitude_deal":47.661527,"parent_category_deal":"Beauty and Spas","longitude_cc":-122.262396,"category_deal":"Laser Hair Removal","deal_id":113,"distance between":7.708353249,"latitude_cc":47.762307,"id":"a633sjhkazyu","state":"WA","longitude_deal":-122.333535},"type":"Feature","geometry":{"type":"Point","coordinates":[-122.262396,47.762307]}},{"properties":{"address1":"9204 132nd Ave NE","city":"Redmond","zip":"98052","latitude_deal":47.661527,"parent_category_deal":"Beauty and Spas","longitude_cc":-122.163998,"category_deal":"Laser Hair Removal","deal_id":113,"distance between":8.044276172,"latitude_cc":47.684417,"id":"a633sjipk1ru","state":"WA","longitude_deal":-122.333535},"type":"Feature","geometry":{"type":"Point","coordinates":[-122.163998,47.684417]}},{"properties":{"address1":"9204 132nd Ave NE","city":"Redmond","zip":"98052","latitude_deal":47.661527,"parent_category_deal":"Beauty and Spas","longitude_cc":-122.163998,"category_deal":"Laser Hair Removal","deal_id":113,"distance between":8.044276172,"latitude_cc":47.684417,"id":"a633sj7b1wh8","state":"WA","longitude_deal":-122.333535},"type":"Feature","geometry":{"type":"Point","coordinates":[-122.163998,47.684417]}},{"properties":{"address1":"6541 41st Ave SW","city":"Seattle","zip":"98136","latitude_deal":47.661527,"parent_category_deal":"Beauty and Spas","longitude_cc":-122.384636,"category_deal":"Laser Hair Removal","deal_id":113,"distance between":8.437968285,"latitude_cc":47.544358,"id":"a633sj6fmojm","state":"WA","longitude_deal":-122.333535},"type":"Feature","geometry":{"type":"Point","coordinates":[-122.384636,47.544358]}},{"properties":{"address1":"6906 142nd Ct NE","city":"Redmond","zip":"98052","latitude_deal":47.661527,"parent_category_deal":"Beauty and Spas","longitude_cc":-122.149543,"category_deal":"Laser Hair Removal","deal_id":113,"distance between":8.56971413,"latitude_cc":47.667056,"id":"a633sjcf5w2a","state":"WA","longitude_deal":-122.333535},"type":"Feature","geometry":{"type":"Point","coordinates":[-122.149543,47.667056]}},{"properties":{"address1":"8136 16th ave SW","city":"Seattle","zip":"98106","latitude_deal":47.661527,"parent_category_deal":"Beauty and Spas","longitude_cc":-122.354828,"category_deal":"Laser Hair Removal","deal_id":113,"distance between":9.184464535,"latitude_cc":47.52937,"id":"a633sj449ddu","state":"WA","longitude_deal":-122.333535},"type":"Feature","geometry":{"type":"Point","coordinates":[-122.354828,47.52937]}},{"properties":{"address1":"620 13th Way SW","city":"Edmonds","zip":"98020","latitude_deal":47.661527,"parent_category_deal":"Beauty and Spas","longitude_cc":-122.373652,"category_deal":"Laser Hair Removal","deal_id":113,"distance between":9.484755884,"latitude_cc":47.79613,"id":"a633sj4dfq5o","state":"WA","longitude_deal":-122.333535},"type":"Feature","geometry":{"type":"Point","coordinates":[-122.373652,47.79613]}},{"properties":{"address1":"PO Box 2434","city":"Redmond","zip":"98073","latitude_deal":47.661527,"parent_category_deal":"Beauty and Spas","longitude_cc":-122.130989,"category_deal":"Laser Hair Removal","deal_id":113,"distance between":9.496658522,"latitude_cc":47.678558,"id":"a633sj4bb125","state":"WA","longitude_deal":-122.333535},"type":"Feature","geometry":{"type":"Point","coordinates":[-122.130989,47.678558]}},{"properties":{"address1":"12819 SE 38th St #61","city":"Bellevue","zip":"98006","latitude_deal":47.661527,"parent_category_deal":"Beauty and Spas","longitude_cc":-122.169047,"category_deal":"Laser Hair Removal","deal_id":113,"distance between":9.677004809,"latitude_cc":47.575943,"id":"a633sjfve4kh","state":"WA","longitude_deal":-122.333535},"type":"Feature","geometry":{"type":"Point","coordinates":[-122.169047,47.575943]}},{"properties":{"address1":"8649 Island Drive South","city":"Seattle","zip":"98118","latitude_deal":47.661527,"parent_category_deal":"Beauty and Spas","longitude_cc":-122.261239,"category_deal":"Laser Hair Removal","deal_id":113,"distance between":9.986865462,"latitude_cc":47.525449,"id":"a633sji68jbe","state":"WA","longitude_deal":-122.333535},"type":"Feature","geometry":{"type":"Point","coordinates":[-122.261239,47.525449]}},{"properties":{"address1":"7132 114th ave se","city":"newcastle","zip":"98056","latitude_deal":47.661527,"parent_category_deal":"Beauty and Spas","longitude_cc":-122.188027,"category_deal":"Laser Hair Removal","deal_id":113,"distance between":10.81965509,"latitude_cc":47.539471,"id":"a633sj811acv","state":"WA","longitude_deal":-122.333535},"type":"Feature","geometry":{"type":"Point","coordinates":[-122.188027,47.539471]}},{"properties":{"address1":"10216 63rd Ave. S.","city":"Seattle","zip":"98178","latitude_deal":47.661527,"parent_category_deal":"Beauty and Spas","longitude_cc":-122.254523,"category_deal":"Laser Hair Removal","deal_id":113,"distance between":11.13216366,"latitude_cc":47.50947,"id":"a633sjf2ke4p","state":"WA","longitude_deal":-122.333535},"type":"Feature","geometry":{"type":"Point","coordinates":[-122.254523,47.50947]}},{"properties":{"address1":"17918 22nd Pl W","city":"Lynnwood","zip":"98037","latitude_deal":47.661527,"parent_category_deal":"Beauty and Spas","longitude_cc":-122.263697,"category_deal":"Laser Hair Removal","deal_id":113,"distance between":12.50784589,"latitude_cc":47.836368,"id":"a633sj9a9lco","state":"WA","longitude_deal":-122.333535},"type":"Feature","geometry":{"type":"Point","coordinates":[-122.263697,47.836368]}},{"properties":{"address1":"4515 NE 5th Pl","city":"Renton","zip":"98059","latitude_deal":47.661527,"parent_category_deal":"Beauty and Spas","longitude_cc":-122.158308,"category_deal":"Laser Hair Removal","deal_id":113,"distance between":14.33226631,"latitude_cc":47.491059,"id":"a633sjiu2d95","state":"WA","longitude_deal":-122.333535},"type":"Feature","geometry":{"type":"Point","coordinates":[-122.158308,47.491059]}},{"properties":{"address1":"24540 NE 11th St","city":"Redmond","zip":"98074","latitude_deal":47.661527,"parent_category_deal":"Beauty and Spas","longitude_cc":-122.012236,"category_deal":"Laser Hair Removal","deal_id":113,"distance between":15.24174334,"latitude_cc":47.619083,"id":"a633sj9zn0oq","state":"WA","longitude_deal":-122.333535},"type":"Feature","geometry":{"type":"Point","coordinates":[-122.012236,47.619083]}},{"properties":{"address1":"20602 15th Ave S","city":"Seatac","zip":"98198","latitude_deal":47.661527,"parent_category_deal":"Beauty and Spas","longitude_cc":-122.314282,"category_deal":"Laser Hair Removal","deal_id":113,"distance between":16.83729069,"latitude_cc":47.418173,"id":"a633sja7ym03","state":"WA","longitude_deal":-122.333535},"type":"Feature","geometry":{"type":"Point","coordinates":[-122.314282,47.418173]}},{"properties":{"address1":"222 Ave. C","city":"Snohomish","zip":"98290","latitude_deal":47.661527,"parent_category_deal":"Beauty and Spas","longitude_cc":-122.09731,"category_deal":"Laser Hair Removal","deal_id":113,"distance between":20.56804411,"latitude_cc":47.913389,"id":"a633sjhny6xe","state":"WA","longitude_deal":-122.333535},"type":"Feature","geometry":{"type":"Point","coordinates":[-122.09731,47.913389]}},{"properties":{"address1":"2015 87th CT SW","city":"Olympia","zip":"98512","latitude_deal":47.661527,"parent_category_deal":"Beauty and Spas","longitude_cc":-122.927295,"category_deal":"Laser Hair Removal","deal_id":113,"distance between":55.85711742,"latitude_cc":46.960413,"id":"a633sjagsh2x","state":"WA","longitude_deal":-122.333535},"type":"Feature","geometry":{"type":"Point","coordinates":[-122.927295,46.960413]}},{"properties":{"address1":"1307 N 43rd St #104","city":"Seattle","zip":"98103","latitude_deal":47.661527,"parent_category_deal":"Beauty and Spas","longitude_cc":-122.342013,"category_deal":"Laser Hair Removal","deal_id":113,"distance between":0.431924808,"latitude_cc":47.658982,"id":"a633sj99iumn","state":"WA","longitude_deal":-122.333535},"type":"Feature","geometry":{"type":"Point","coordinates":[-122.342013,47.658982]}}],"is_temporal":false,"author":{"url":"","metadata":"","contact_name":"","contact_address":"","source":"","contact_phone":""},"source":"","pagination":{"sort":null,"start":0,"total":53,"limit":1000000},"state":"complete","tags":"","published":"2014-08-10T13:10:27-04:00","id":72286}