{"type":"FeatureCollection","data_type":"Dataset","url_type":null,"permissions":[{"permissions":{"download":true,"view":true},"group_id":"everyone"}],"classification":null,"title":"Prelimary Structure Loss from TEA Fires, City of Santa Barbara, 11.16.2008","count":180,"stream_id":7256,"contributor":{"url":"http://geocommons.com/users/139","name":"Burkey"},"data_attributes":null,"calculation_params":null,"icon_link":null,"link":"http://geocommons.com/overlays/7256.json","extent":[-119.692,34.4353,-119.666,34.4569],"geometry_types":["point"],"unique_name":null,"name":"Prelimary Structure Loss from TEA Fires, City of Santa Barbara, 11.16.2008","feature_count":180,"description":"This dataset locates properties that were damaged by the TEA Fires in Southern California as of 11/16/2008 at 1700 hours. The city of Santa Barbara California has put together this list and has provided it on their website. The lat/lon were obtained by taking the street addresses and running them through a geocoder at gpsvisualizer.com. ","next_feature":null,"is_raster":false,"short_classification":"Y","stats":{"lon":{"max":-119.665662,"mean":-119.677886094444,"variance":4.44379002982944e-05,"stdev":0.00666617583763693,"min":-119.691888,"median":-119.678635},"lat":{"max":34.45688,"mean":34.4460406666667,"variance":2.51249962122889e-05,"stdev":0.00501248403611313,"min":34.435272,"median":34.445473}},"features":[{"properties":{"city":"Santa Barbara","lon":-119.685997,"id":"a62u3wtfarbq","address":"1 Orizaba Ln","lat":34.444556,"state":"CA"},"type":"Feature","geometry":{"type":"Point","coordinates":[-119.685997,34.444556]}},{"properties":{"city":"Santa Barbara","lon":-119.677584,"id":"a62u3wtftg3p","address":"10 Ealand Pl","lat":34.4443,"state":"CA"},"type":"Feature","geometry":{"type":"Point","coordinates":[-119.677584,34.4443]}},{"properties":{"city":"Santa Barbara","lon":-119.685927,"id":"a62u3wn2q18u","address":"1000 W Mountain","lat":34.452824,"state":"CA"},"type":"Feature","geometry":{"type":"Point","coordinates":[-119.685927,34.452824]}},{"properties":{"city":"Santa Barbara","lon":-119.671259,"id":"a62u3wqv7ko2","address":"1001 Coyote","lat":34.452618,"state":"CA"},"type":"Feature","geometry":{"type":"Point","coordinates":[-119.671259,34.452618]}},{"properties":{"city":"Santa Barbara","lon":-119.665662,"id":"a62u3wk9p0xm","address":"1014 Westmont Rd","lat":34.449766,"state":"CA"},"type":"Feature","geometry":{"type":"Point","coordinates":[-119.665662,34.449766]}},{"properties":{"city":"Santa Barbara","lon":-119.666105,"id":"a62u3wrlongw","address":"1031 Westmont Rd","lat":34.449618,"state":"CA"},"type":"Feature","geometry":{"type":"Point","coordinates":[-119.666105,34.449618]}},{"properties":{"city":"Santa Barbara","lon":-119.666318,"id":"a62u3wua1iko","address":"1049 Westmont Rd","lat":34.449672,"state":"CA"},"type":"Feature","geometry":{"type":"Point","coordinates":[-119.666318,34.449672]}},{"properties":{"city":"Santa Barbara","lon":-119.669711,"id":"a62u3wppke5y","address":"1050 Coyote","lat":34.452986,"state":"CA"},"type":"Feature","geometry":{"type":"Point","coordinates":[-119.669711,34.452986]}},{"properties":{"city":"Santa Barbara","lon":-119.682548,"id":"a62u3wpd3nso","address":"1050 Las Alturas","lat":34.440266,"state":"CA"},"type":"Feature","geometry":{"type":"Point","coordinates":[-119.682548,34.440266]}},{"properties":{"city":"Santa Barbara","lon":-119.682515,"id":"a62u3whz6stn","address":"1052 Las Alturas","lat":34.440548,"state":"CA"},"type":"Feature","geometry":{"type":"Point","coordinates":[-119.682515,34.440548]}},{"properties":{"city":"Santa Barbara","lon":-119.677257,"id":"a62u3wr3n0a7","address":"11 Ealand Pl","lat":34.444322,"state":"CA"},"type":"Feature","geometry":{"type":"Point","coordinates":[-119.677257,34.444322]}},{"properties":{"city":"Santa Barbara","lon":-119.666834,"id":"a62u3wgpxecm","address":"1103 Westmont Rd","lat":34.449024,"state":"CA"},"type":"Feature","geometry":{"type":"Point","coordinates":[-119.666834,34.449024]}},{"properties":{"city":"Santa Barbara","lon":-119.683204,"id":"a62u3wnxxiu6","address":"1105 Las Alturas","lat":34.440897,"state":"CA"},"type":"Feature","geometry":{"type":"Point","coordinates":[-119.683204,34.440897]}},{"properties":{"city":"Santa Barbara","lon":-119.667139,"id":"a62u3wrh5xg6","address":"1108 Westmont Rd","lat":34.44903,"state":"CA"},"type":"Feature","geometry":{"type":"Point","coordinates":[-119.667139,34.44903]}},{"properties":{"city":"Santa Barbara","lon":-119.667263,"id":"a62u3woebxz4","address":"1116 Westmont Rd","lat":34.448928,"state":"CA"},"type":"Feature","geometry":{"type":"Point","coordinates":[-119.667263,34.448928]}},{"properties":{"city":"Santa Barbara","lon":-119.683368,"id":"a62u3wqiuz6t","address":"1117 Las Alturas","lat":34.440937,"state":"CA"},"type":"Feature","geometry":{"type":"Point","coordinates":[-119.683368,34.440937]}},{"properties":{"city":"Santa Barbara","lon":-119.683438,"id":"a62u3wp9wobo","address":"1121 Las Alturas","lat":34.440955,"state":"CA"},"type":"Feature","geometry":{"type":"Point","coordinates":[-119.683438,34.440955]}},{"properties":{"city":"Santa Barbara","lon":-119.667387,"id":"a62u3wqod619","address":"1124 Westmont Rd","lat":34.448827,"state":"CA"},"type":"Feature","geometry":{"type":"Point","coordinates":[-119.667387,34.448827]}},{"properties":{"city":"Santa Barbara","lon":-119.667157,"id":"a62u3whiq91u","address":"1125 Westmont Rd","lat":34.448636,"state":"CA"},"type":"Feature","geometry":{"type":"Point","coordinates":[-119.667157,34.448636]}},{"properties":{"city":"Santa Barbara","lon":-119.683581,"id":"a62u3wslh1nj","address":"1131 Las Alturas","lat":34.440999,"state":"CA"},"type":"Feature","geometry":{"type":"Point","coordinates":[-119.683581,34.440999]}},{"properties":{"city":"Santa Barbara","lon":-119.667511,"id":"a62u3ww10zpl","address":"1132 Westmont Rd","lat":34.448725,"state":"CA"},"type":"Feature","geometry":{"type":"Point","coordinates":[-119.667511,34.448725]}},{"properties":{"city":"Santa Barbara","lon":-119.683666,"id":"a62u3wkzyfw0","address":"1137 Las Alturas","lat":34.441026,"state":"CA"},"type":"Feature","geometry":{"type":"Point","coordinates":[-119.683666,34.441026]}},{"properties":{"city":"Santa Barbara","lon":-119.681868,"id":"a62u3wkuopz5","address":"114 Conejo Rd","lat":34.444261,"state":"CA"},"type":"Feature","geometry":{"type":"Point","coordinates":[-119.681868,34.444261]}},{"properties":{"city":"Santa Barbara","lon":-119.667642,"id":"a62u3wnviktu","address":"1140 Westmont Rd","lat":34.448534,"state":"CA"},"type":"Feature","geometry":{"type":"Point","coordinates":[-119.667642,34.448534]}},{"properties":{"city":"Santa Barbara","lon":-119.681311,"id":"a62u3wge1i9w","address":"120 Camino Alto","lat":34.441767,"state":"CA"},"type":"Feature","geometry":{"type":"Point","coordinates":[-119.681311,34.441767]}},{"properties":{"city":"Santa Barbara","lon":-119.67143,"id":"a62u3wnqjv4d","address":"121 W Mountain","lat":34.45486,"state":"CA"},"type":"Feature","geometry":{"type":"Point","coordinates":[-119.67143,34.45486]}},{"properties":{"city":"Santa Barbara","lon":-119.682203,"id":"a62u3wo8cgyo","address":"123 Conejo Rd","lat":34.444127,"state":"CA"},"type":"Feature","geometry":{"type":"Point","coordinates":[-119.682203,34.444127]}},{"properties":{"city":"Santa Barbara","lon":-119.681346,"id":"a62u3wrmdyot","address":"130 Camino Alto","lat":34.44191,"state":"CA"},"type":"Feature","geometry":{"type":"Point","coordinates":[-119.681346,34.44191]}},{"properties":{"city":"Santa Barbara","lon":-119.682066,"id":"a62u3wkqw7sz","address":"1301 W Mountain","lat":34.455697,"state":"CA"},"type":"Feature","geometry":{"type":"Point","coordinates":[-119.682066,34.455697]}},{"properties":{"city":"Santa Barbara","lon":-119.682085,"id":"a62u3wmcs04n","address":"1325 W Mountain","lat":34.456324,"state":"CA"},"type":"Feature","geometry":{"type":"Point","coordinates":[-119.682085,34.456324]}},{"properties":{"city":"Santa Barbara","lon":-119.682064,"id":"a62u3wldm3ev","address":"14 Camino Verde","lat":34.438337,"state":"CA"},"type":"Feature","geometry":{"type":"Point","coordinates":[-119.682064,34.438337]}},{"properties":{"city":"Santa Barbara","lon":-119.682968,"id":"a62u3wu4lno5","address":"150 Conejo Rd","lat":34.443987,"state":"CA"},"type":"Feature","geometry":{"type":"Point","coordinates":[-119.682968,34.443987]}},{"properties":{"city":"Santa Barbara","lon":-119.678609,"id":"a62u3wqxuk7i","address":"1510 W Mountain","lat":34.456125,"state":"CA"},"type":"Feature","geometry":{"type":"Point","coordinates":[-119.678609,34.456125]}},{"properties":{"city":"Santa Barbara","lon":-119.681726,"id":"a62u3wg7fftd","address":"155 Camino Alto","lat":34.442296,"state":"CA"},"type":"Feature","geometry":{"type":"Point","coordinates":[-119.681726,34.442296]}},{"properties":{"city":"Santa Barbara","lon":-119.677576,"id":"a62u3whib29i","address":"16 Ealand Pl","lat":34.444249,"state":"CA"},"type":"Feature","geometry":{"type":"Point","coordinates":[-119.677576,34.444249]}},{"properties":{"city":"Santa Barbara","lon":-119.676015,"id":"a62u3wqsdwo6","address":"1600 W Mountain","lat":34.455612,"state":"CA"},"type":"Feature","geometry":{"type":"Point","coordinates":[-119.676015,34.455612]}},{"properties":{"city":"Santa Barbara","lon":-119.681943,"id":"a62u3wja6f3z","address":"17 Camino Verde","lat":34.438589,"state":"CA"},"type":"Feature","geometry":{"type":"Point","coordinates":[-119.681943,34.438589]}},{"properties":{"city":"Santa Barbara","lon":-119.684649,"id":"a62u3wv9xy4f","address":"17 Conejo Rd","lat":34.442242,"state":"CA"},"type":"Feature","geometry":{"type":"Point","coordinates":[-119.684649,34.442242]}},{"properties":{"city":"Santa Barbara","lon":-119.677249,"id":"a62u3wkrx9uo","address":"17 Ealand Pl","lat":34.444255,"state":"CA"},"type":"Feature","geometry":{"type":"Point","coordinates":[-119.677249,34.444255]}},{"properties":{"city":"Santa Barbara","lon":-119.676918,"id":"a62u3wifsahi","address":"1865 Stanwood Dr","lat":34.446043,"state":"CA"},"type":"Feature","geometry":{"type":"Point","coordinates":[-119.676918,34.446043]}},{"properties":{"city":"Santa Barbara","lon":-119.679727,"id":"a62u3wnfwos3","address":"19 Alisal","lat":34.436712,"state":"CA"},"type":"Feature","geometry":{"type":"Point","coordinates":[-119.679727,34.436712]}},{"properties":{"city":"Santa Barbara","lon":-119.681925,"id":"a62u3wk6lkqt","address":"19 Camino Verde","lat":34.438585,"state":"CA"},"type":"Feature","geometry":{"type":"Point","coordinates":[-119.681925,34.438585]}},{"properties":{"city":"Santa Barbara","lon":-119.677413,"id":"a62u3whxbtwn","address":"1900 Stanwood Dr","lat":34.44669,"state":"CA"},"type":"Feature","geometry":{"type":"Point","coordinates":[-119.677413,34.44669]}},{"properties":{"city":"Santa Barbara","lon":-119.678135,"id":"a62u3wktgjw9","address":"1915 Stanwood Dr","lat":34.446687,"state":"CA"},"type":"Feature","geometry":{"type":"Point","coordinates":[-119.678135,34.446687]}},{"properties":{"city":"Santa Barbara","lon":-119.690402,"id":"a62u3wovr6im","address":"1944 Gibraltar Rd","lat":34.450212,"state":"CA"},"type":"Feature","geometry":{"type":"Point","coordinates":[-119.690402,34.450212]}},{"properties":{"city":"Santa Barbara","lon":-119.679629,"id":"a62u3wj5ou3p","address":"1967 Stanwood Dr","lat":34.446717,"state":"CA"},"type":"Feature","geometry":{"type":"Point","coordinates":[-119.679629,34.446717]}},{"properties":{"city":"Santa Barbara","lon":-119.680156,"id":"a62u3wu9a17p","address":"1985 Stanwood Dr","lat":34.446712,"state":"CA"},"type":"Feature","geometry":{"type":"Point","coordinates":[-119.680156,34.446712]}},{"properties":{"city":"Santa Barbara","lon":-119.679556,"id":"a62u3wstge39","address":"20 Alisal","lat":34.436483,"state":"CA"},"type":"Feature","geometry":{"type":"Point","coordinates":[-119.679556,34.436483]}},{"properties":{"city":"Santa Barbara","lon":-119.68201,"id":"a62u3wtog1y7","address":"20 Camino Verde","lat":34.438325,"state":"CA"},"type":"Feature","geometry":{"type":"Point","coordinates":[-119.68201,34.438325]}},{"properties":{"city":"Santa Barbara","lon":-119.684456,"id":"a62u3whv37qx","address":"20 Conejo Rd","lat":34.442016,"state":"CA"},"type":"Feature","geometry":{"type":"Point","coordinates":[-119.684456,34.442016]}},{"properties":{"city":"Santa Barbara","lon":-119.680721,"id":"a62u3wke92fn","address":"2001 Stanwood Dr","lat":34.446832,"state":"CA"},"type":"Feature","geometry":{"type":"Point","coordinates":[-119.680721,34.446832]}},{"properties":{"city":"Santa Barbara","lon":-119.677244,"id":"a62u3wkv1nhm","address":"21 Ealand Pl","lat":34.444209,"state":"CA"},"type":"Feature","geometry":{"type":"Point","coordinates":[-119.677244,34.444209]}},{"properties":{"city":"Santa Barbara","lon":-119.682874,"id":"a62u3wm8symf","address":"2101 Stanwood Dr","lat":34.446992,"state":"CA"},"type":"Feature","geometry":{"type":"Point","coordinates":[-119.682874,34.446992]}},{"properties":{"city":"Santa Barbara","lon":-119.688809,"id":"a62u3wh4pe3h","address":"2108 Gibraltar Rd","lat":34.45425,"state":"CA"},"type":"Feature","geometry":{"type":"Point","coordinates":[-119.688809,34.45425]}},{"properties":{"city":"Santa Barbara","lon":-119.682768,"id":"a62u3wqato07","address":"2109 Stanwood Dr","lat":34.446753,"state":"CA"},"type":"Feature","geometry":{"type":"Point","coordinates":[-119.682768,34.446753]}},{"properties":{"city":"Santa Barbara","lon":-119.682757,"id":"a62u3whxovef","address":"2111 Stanwood Dr","lat":34.446701,"state":"CA"},"type":"Feature","geometry":{"type":"Point","coordinates":[-119.682757,34.446701]}},{"properties":{"city":"Santa Barbara","lon":-119.691888,"id":"a62u3wwg28ks","address":"2114 Mt Calvary","lat":34.452529,"state":"CA"},"type":"Feature","geometry":{"type":"Point","coordinates":[-119.691888,34.452529]}},{"properties":{"city":"Santa Barbara","lon":-119.682708,"id":"a62u3wqzniny","address":"2121 Stanwood Dr","lat":34.446409,"state":"CA"},"type":"Feature","geometry":{"type":"Point","coordinates":[-119.682708,34.446409]}},{"properties":{"city":"Santa Barbara","lon":-119.691762,"id":"a62u3wgtwz76","address":"2140 Mt Calvary","lat":34.452599,"state":"CA"},"type":"Feature","geometry":{"type":"Point","coordinates":[-119.691762,34.452599]}},{"properties":{"city":"Santa Barbara","lon":-119.682121,"id":"a62u3wuhazar","address":"217 Conejo Rd","lat":34.44495,"state":"CA"},"type":"Feature","geometry":{"type":"Point","coordinates":[-119.682121,34.44495]}},{"properties":{"city":"Santa Barbara","lon":-119.682071,"id":"a62u3wtvdq8o","address":"219 Conejo Rd","lat":34.444976,"state":"CA"},"type":"Feature","geometry":{"type":"Point","coordinates":[-119.682071,34.444976]}},{"properties":{"city":"Santa Barbara","lon":-119.691494,"id":"a62u3wkmgj44","address":"2190 Mt Calvary","lat":34.452787,"state":"CA"},"type":"Feature","geometry":{"type":"Point","coordinates":[-119.691494,34.452787]}},{"properties":{"city":"Santa Barbara","lon":-119.684374,"id":"a62u3wh347zk","address":"2201 Stanwood Dr","lat":34.444895,"state":"CA"},"type":"Feature","geometry":{"type":"Point","coordinates":[-119.684374,34.444895]}},{"properties":{"city":"Santa Barbara","lon":-119.688477,"id":"a62u3wvrj7xs","address":"2220 Gibraltar Rd","lat":34.455939,"state":"CA"},"type":"Feature","geometry":{"type":"Point","coordinates":[-119.688477,34.455939]}},{"properties":{"city":"Santa Barbara","lon":-119.691395,"id":"a62u3wm6mieb","address":"2220 Mt Calvary","lat":34.452906,"state":"CA"},"type":"Feature","geometry":{"type":"Point","coordinates":[-119.691395,34.452906]}},{"properties":{"city":"Santa Barbara","lon":-119.688435,"id":"a62u3wqytdyw","address":"2222 Gibraltar Rd","lat":34.455946,"state":"CA"},"type":"Feature","geometry":{"type":"Point","coordinates":[-119.688435,34.455946]}},{"properties":{"city":"Santa Barbara","lon":-119.688394,"id":"a62u3wg91v59","address":"2224 Gibraltar Rd","lat":34.455953,"state":"CA"},"type":"Feature","geometry":{"type":"Point","coordinates":[-119.688394,34.455953]}},{"properties":{"city":"Santa Barbara","lon":-119.682518,"id":"a62u3wsfeftx","address":"223 Conejo Rd","lat":34.445161,"state":"CA"},"type":"Feature","geometry":{"type":"Point","coordinates":[-119.682518,34.445161]}},{"properties":{"city":"Santa Barbara","lon":-119.681921,"id":"a62u3wt30hj1","address":"225 Conejo Rd","lat":34.445055,"state":"CA"},"type":"Feature","geometry":{"type":"Point","coordinates":[-119.681921,34.445055]}},{"properties":{"city":"Santa Barbara","lon":-119.690737,"id":"a62u3wnvd3yj","address":"2400 Mt Calvary","lat":34.453319,"state":"CA"},"type":"Feature","geometry":{"type":"Point","coordinates":[-119.690737,34.453319]}},{"properties":{"city":"Santa Barbara","lon":-119.68149,"id":"a62u3wszzaal","address":"241 Conejo Rd","lat":34.445243,"state":"CA"},"type":"Feature","geometry":{"type":"Point","coordinates":[-119.68149,34.445243]}},{"properties":{"city":"Santa Barbara","lon":-119.68082,"id":"a62u3wqbra5d","address":"265 Conejo Rd","lat":34.445508,"state":"CA"},"type":"Feature","geometry":{"type":"Point","coordinates":[-119.68082,34.445508]}},{"properties":{"city":"Santa Barbara","lon":-119.688653,"id":"a62u3wwbmnwb","address":"272 El Cielito Rd","lat":34.449961,"state":"CA"},"type":"Feature","geometry":{"type":"Point","coordinates":[-119.688653,34.449961]}},{"properties":{"city":"Santa Barbara","lon":-119.684237,"id":"a62u3wh3vueb","address":"28 Conejo Rd","lat":34.442074,"state":"CA"},"type":"Feature","geometry":{"type":"Point","coordinates":[-119.684237,34.442074]}},{"properties":{"city":"Santa Barbara","lon":-119.688712,"id":"a62u3wmal32a","address":"289 El Cielito Rd","lat":34.450314,"state":"CA"},"type":"Feature","geometry":{"type":"Point","coordinates":[-119.688712,34.450314]}},{"properties":{"city":"Santa Barbara","lon":-119.681582,"id":"a62u3wkh8mdh","address":"30 Camino Alto","lat":34.440306,"state":"CA"},"type":"Feature","geometry":{"type":"Point","coordinates":[-119.681582,34.440306]}},{"properties":{"city":"Santa Barbara","lon":-119.684034,"id":"a62u3wjjrrzt","address":"30 Las Alturas Circle","lat":34.441621,"state":"CA"},"type":"Feature","geometry":{"type":"Point","coordinates":[-119.684034,34.441621]}},{"properties":{"city":"Santa Barbara","lon":-119.675126,"id":"a62u3wuwk6gb","address":"300 W Mountain","lat":34.455447,"state":"CA"},"type":"Feature","geometry":{"type":"Point","coordinates":[-119.675126,34.455447]}},{"properties":{"city":"Santa Barbara","lon":-119.679011,"id":"a62u3wkyveyq","address":"305 Sherman Rd","lat":34.44577,"state":"CA"},"type":"Feature","geometry":{"type":"Point","coordinates":[-119.679011,34.44577]}},{"properties":{"city":"Santa Barbara","lon":-119.678826,"id":"a62u3wlkngh2","address":"306 Sherman Rd","lat":34.445986,"state":"CA"},"type":"Feature","geometry":{"type":"Point","coordinates":[-119.678826,34.445986]}},{"properties":{"city":"Santa Barbara","lon":-119.681137,"id":"a62u3wr5w0xm","address":"31 Rincon Vista","lat":34.437283,"state":"CA"},"type":"Feature","geometry":{"type":"Point","coordinates":[-119.681137,34.437283]}},{"properties":{"city":"Santa Barbara","lon":-119.678881,"id":"a62u3wu57daa","address":"311 Sherman Rd","lat":34.445725,"state":"CA"},"type":"Feature","geometry":{"type":"Point","coordinates":[-119.678881,34.445725]}},{"properties":{"city":"Santa Barbara","lon":-119.678835,"id":"a62u3wpco02u","address":"312 Sherman Rd","lat":34.445992,"state":"CA"},"type":"Feature","geometry":{"type":"Point","coordinates":[-119.678835,34.445992]}},{"properties":{"city":"Santa Barbara","lon":-119.679231,"id":"a62u3ws5vo50","address":"317 Conejo Rd","lat":34.445458,"state":"CA"},"type":"Feature","geometry":{"type":"Point","coordinates":[-119.679231,34.445458]}},{"properties":{"city":"Santa Barbara","lon":-119.678768,"id":"a62u3wgqx1kj","address":"318 Sherman Rd","lat":34.445988,"state":"CA"},"type":"Feature","geometry":{"type":"Point","coordinates":[-119.678768,34.445988]}},{"properties":{"city":"Santa Barbara","lon":-119.678702,"id":"a62u3wwf18hn","address":"324 Sherman Rd","lat":34.445984,"state":"CA"},"type":"Feature","geometry":{"type":"Point","coordinates":[-119.678702,34.445984]}},{"properties":{"city":"Santa Barbara","lon":-119.678965,"id":"a62u3wijqe8u","address":"327 Conejo Rd","lat":34.445473,"state":"CA"},"type":"Feature","geometry":{"type":"Point","coordinates":[-119.678965,34.445473]}},{"properties":{"city":"Santa Barbara","lon":-119.676124,"id":"a62u3wwhymbp","address":"328 W Mountain","lat":34.456862,"state":"CA"},"type":"Feature","geometry":{"type":"Point","coordinates":[-119.676124,34.456862]}},{"properties":{"city":"Santa Barbara","lon":-119.678635,"id":"a62u3wqrixhc","address":"330 Sherman Rd","lat":34.44598,"state":"CA"},"type":"Feature","geometry":{"type":"Point","coordinates":[-119.678635,34.44598]}},{"properties":{"city":"Santa Barbara","lon":-119.675914,"id":"a62u3wjdx746","address":"330 W Mountain","lat":34.45688,"state":"CA"},"type":"Feature","geometry":{"type":"Point","coordinates":[-119.675914,34.45688]}},{"properties":{"city":"Santa Barbara","lon":-119.678847,"id":"a62u3whntyip","address":"331 Conejo Rd","lat":34.445473,"state":"CA"},"type":"Feature","geometry":{"type":"Point","coordinates":[-119.678847,34.445473]}},{"properties":{"city":"Santa Barbara","lon":-119.678658,"id":"a62u3wpcoa8z","address":"331 Sherman Rd","lat":34.445711,"state":"CA"},"type":"Feature","geometry":{"type":"Point","coordinates":[-119.678658,34.445711]}},{"properties":{"city":"Santa Barbara","lon":-119.678787,"id":"a62u3wsk96aa","address":"333 Conejo Rd","lat":34.445473,"state":"CA"},"type":"Feature","geometry":{"type":"Point","coordinates":[-119.678787,34.445473]}},{"properties":{"city":"Santa Barbara","lon":-119.678392,"id":"a62u3wmhwa68","address":"345 Conejo Rd","lat":34.445199,"state":"CA"},"type":"Feature","geometry":{"type":"Point","coordinates":[-119.678392,34.445199]}},{"properties":{"city":"Santa Barbara","lon":-119.678576,"id":"a62u3wugi6ks","address":"350 Conejo Rd","lat":34.444915,"state":"CA"},"type":"Feature","geometry":{"type":"Point","coordinates":[-119.678576,34.444915]}},{"properties":{"city":"Santa Barbara","lon":-119.67853,"id":"a62u3wrkae07","address":"352 Conejo Rd","lat":34.444885,"state":"CA"},"type":"Feature","geometry":{"type":"Point","coordinates":[-119.67853,34.444885]}},{"properties":{"city":"Santa Barbara","lon":-119.688529,"id":"a62u3wpd1ibw","address":"352 El Cielito Rd","lat":34.451447,"state":"CA"},"type":"Feature","geometry":{"type":"Point","coordinates":[-119.688529,34.451447]}},{"properties":{"city":"Santa Barbara","lon":-119.688572,"id":"a62u3wwcieen","address":"356 El Cielito Rd","lat":34.45151,"state":"CA"},"type":"Feature","geometry":{"type":"Point","coordinates":[-119.688572,34.45151]}},{"properties":{"city":"Santa Barbara","lon":-119.678203,"id":"a62u3wo458xh","address":"357 Conejo Rd","lat":34.445004,"state":"CA"},"type":"Feature","geometry":{"type":"Point","coordinates":[-119.678203,34.445004]}},{"properties":{"city":"Santa Barbara","lon":-119.679995,"id":"a62u3wuhr9d3","address":"370 Las Alturas","lat":34.435272,"state":"CA"},"type":"Feature","geometry":{"type":"Point","coordinates":[-119.679995,34.435272]}},{"properties":{"city":"Santa Barbara","lon":-119.679939,"id":"a62u3wuhhiu3","address":"376 Las Alturas","lat":34.435329,"state":"CA"},"type":"Feature","geometry":{"type":"Point","coordinates":[-119.679939,34.435329]}},{"properties":{"city":"Santa Barbara","lon":-119.677435,"id":"a62u3wv1k79f","address":"403 Conejo Rd","lat":34.44546,"state":"CA"},"type":"Feature","geometry":{"type":"Point","coordinates":[-119.677435,34.44546]}},{"properties":{"city":"Santa Barbara","lon":-119.677375,"id":"a62u3wpcawtg","address":"405 Conejo Rd","lat":34.445438,"state":"CA"},"type":"Feature","geometry":{"type":"Point","coordinates":[-119.677375,34.445438]}},{"properties":{"city":"Santa Barbara","lon":-119.677315,"id":"a62u3wndub2c","address":"407 Conejo Rd","lat":34.445416,"state":"CA"},"type":"Feature","geometry":{"type":"Point","coordinates":[-119.677315,34.445416]}},{"properties":{"city":"Santa Barbara","lon":-119.677006,"id":"a62u3wn5ujib","address":"428 Conejo Rd","lat":34.444834,"state":"CA"},"type":"Feature","geometry":{"type":"Point","coordinates":[-119.677006,34.444834]}},{"properties":{"city":"Santa Barbara","lon":-119.676971,"id":"a62u3wgfygbh","address":"430 Conejo Rd","lat":34.444789,"state":"CA"},"type":"Feature","geometry":{"type":"Point","coordinates":[-119.676971,34.444789]}},{"properties":{"city":"Santa Barbara","lon":-119.676875,"id":"a62u3wtwxp1y","address":"434 Conejo Rd","lat":34.444688,"state":"CA"},"type":"Feature","geometry":{"type":"Point","coordinates":[-119.676875,34.444688]}},{"properties":{"city":"Santa Barbara","lon":-119.676789,"id":"a62u3wil0vfq","address":"438 Conejo Rd","lat":34.444607,"state":"CA"},"type":"Feature","geometry":{"type":"Point","coordinates":[-119.676789,34.444607]}},{"properties":{"city":"Santa Barbara","lon":-119.681428,"id":"a62u3wum9j0o","address":"44 Camino Alto","lat":34.440536,"state":"CA"},"type":"Feature","geometry":{"type":"Point","coordinates":[-119.681428,34.440536]}},{"properties":{"city":"Santa Barbara","lon":-119.683886,"id":"a62u3ws3y2h7","address":"44 Las Alturas Circle","lat":34.441578,"state":"CA"},"type":"Feature","geometry":{"type":"Point","coordinates":[-119.683886,34.441578]}},{"properties":{"city":"Santa Barbara","lon":-119.676702,"id":"a62u3wi0mj0r","address":"444 Conejo Rd","lat":34.444491,"state":"CA"},"type":"Feature","geometry":{"type":"Point","coordinates":[-119.676702,34.444491]}},{"properties":{"city":"Santa Barbara","lon":-119.679928,"id":"a62u3wjnolkb","address":"444 Las Alturas","lat":34.436258,"state":"CA"},"type":"Feature","geometry":{"type":"Point","coordinates":[-119.679928,34.436258]}},{"properties":{"city":"Santa Barbara","lon":-119.680243,"id":"a62u3wqe47lo","address":"446 Las Alturas","lat":34.436597,"state":"CA"},"type":"Feature","geometry":{"type":"Point","coordinates":[-119.680243,34.436597]}},{"properties":{"city":"Santa Barbara","lon":-119.676388,"id":"a62u3wkz73pr","address":"447 Conejo Rd","lat":34.444583,"state":"CA"},"type":"Feature","geometry":{"type":"Point","coordinates":[-119.676388,34.444583]}},{"properties":{"city":"Santa Barbara","lon":-119.676621,"id":"a62u3wvin9v4","address":"450 Conejo Rd","lat":34.444369,"state":"CA"},"type":"Feature","geometry":{"type":"Point","coordinates":[-119.676621,34.444369]}},{"properties":{"city":"Santa Barbara","lon":-119.67655,"id":"a62u3wi1jizk","address":"456 Conejo Rd","lat":34.444219,"state":"CA"},"type":"Feature","geometry":{"type":"Point","coordinates":[-119.67655,34.444219]}},{"properties":{"city":"Santa Barbara","lon":-119.676489,"id":"a62u3wil3edq","address":"462 Conejo Rd","lat":34.444091,"state":"CA"},"type":"Feature","geometry":{"type":"Point","coordinates":[-119.676489,34.444091]}},{"properties":{"city":"Santa Barbara","lon":-119.676452,"id":"a62u3wrszzwd","address":"468 Conejo Rd","lat":34.443933,"state":"CA"},"type":"Feature","geometry":{"type":"Point","coordinates":[-119.676452,34.443933]}},{"properties":{"city":"Santa Barbara","lon":-119.681014,"id":"a62u3wl2cgc0","address":"47 Rincon Vista","lat":34.437206,"state":"CA"},"type":"Feature","geometry":{"type":"Point","coordinates":[-119.681014,34.437206]}},{"properties":{"city":"Santa Barbara","lon":-119.676408,"id":"a62u3wiadu15","address":"474 Conejo Rd","lat":34.443767,"state":"CA"},"type":"Feature","geometry":{"type":"Point","coordinates":[-119.676408,34.443767]}},{"properties":{"city":"Santa Barbara","lon":-119.676376,"id":"a62u3ws35i0l","address":"478 Conejo Rd","lat":34.443662,"state":"CA"},"type":"Feature","geometry":{"type":"Point","coordinates":[-119.676376,34.443662]}},{"properties":{"city":"Santa Barbara","lon":-119.6763,"id":"a62u3wsr6zkm","address":"486 Conejo Rd","lat":34.443446,"state":"CA"},"type":"Feature","geometry":{"type":"Point","coordinates":[-119.6763,34.443446]}},{"properties":{"city":"Santa Barbara","lon":-119.683535,"id":"a62u3wt5k07w","address":"50 Conejo Rd","lat":34.442366,"state":"CA"},"type":"Feature","geometry":{"type":"Point","coordinates":[-119.683535,34.442366]}},{"properties":{"city":"Santa Barbara","lon":-119.681107,"id":"a62u3wl9lga4","address":"50 Rincon Vista","lat":34.436947,"state":"CA"},"type":"Feature","geometry":{"type":"Point","coordinates":[-119.681107,34.436947]}},{"properties":{"city":"Santa Barbara","lon":-119.675702,"id":"a62u3widfe0f","address":"501 Conejo Rd","lat":34.443632,"state":"CA"},"type":"Feature","geometry":{"type":"Point","coordinates":[-119.675702,34.443632]}},{"properties":{"city":"Santa Barbara","lon":-119.675731,"id":"a62u3wgroq4m","address":"507 Conejo Rd","lat":34.443693,"state":"CA"},"type":"Feature","geometry":{"type":"Point","coordinates":[-119.675731,34.443693]}},{"properties":{"city":"Santa Barbara","lon":-119.67572,"id":"a62u3wjlqphg","address":"515 Conejo Rd","lat":34.443753,"state":"CA"},"type":"Feature","geometry":{"type":"Point","coordinates":[-119.67572,34.443753]}},{"properties":{"city":"Santa Barbara","lon":-119.675713,"id":"a62u3wiy70cs","address":"523 Conejo Rd","lat":34.443828,"state":"CA"},"type":"Feature","geometry":{"type":"Point","coordinates":[-119.675713,34.443828]}},{"properties":{"city":"Santa Barbara","lon":-119.675711,"id":"a62u3wwl0fu9","address":"525 Conejo Rd","lat":34.443846,"state":"CA"},"type":"Feature","geometry":{"type":"Point","coordinates":[-119.675711,34.443846]}},{"properties":{"city":"Santa Barbara","lon":-119.675708,"id":"a62u3wg96q7z","address":"529 Conejo Rd","lat":34.443884,"state":"CA"},"type":"Feature","geometry":{"type":"Point","coordinates":[-119.675708,34.443884]}},{"properties":{"city":"Santa Barbara","lon":-119.675704,"id":"a62u3wko9y9o","address":"533 Conejo Rd","lat":34.443921,"state":"CA"},"type":"Feature","geometry":{"type":"Point","coordinates":[-119.675704,34.443921]}},{"properties":{"city":"Santa Barbara","lon":-119.675703,"id":"a62u3ww0wuz7","address":"535 Conejo Rd","lat":34.44394,"state":"CA"},"type":"Feature","geometry":{"type":"Point","coordinates":[-119.675703,34.44394]}},{"properties":{"city":"Santa Barbara","lon":-119.675694,"id":"a62u3wnkilnb","address":"545 Conejo Rd","lat":34.444033,"state":"CA"},"type":"Feature","geometry":{"type":"Point","coordinates":[-119.675694,34.444033]}},{"properties":{"city":"Santa Barbara","lon":-119.673237,"id":"a62u3wn52245","address":"595 Sycamore Vista","lat":34.443583,"state":"CA"},"type":"Feature","geometry":{"type":"Point","coordinates":[-119.673237,34.443583]}},{"properties":{"city":"Santa Barbara","lon":-119.672893,"id":"a62u3wk93khl","address":"598 Sycamore Vista","lat":34.443614,"state":"CA"},"type":"Feature","geometry":{"type":"Point","coordinates":[-119.672893,34.443614]}},{"properties":{"city":"Santa Barbara","lon":-119.680687,"id":"a62u3wlyizo0","address":"638 Las Alturas","lat":34.437932,"state":"CA"},"type":"Feature","geometry":{"type":"Point","coordinates":[-119.680687,34.437932]}},{"properties":{"city":"Santa Barbara","lon":-119.6808,"id":"a62u3wijfs37","address":"642 Las Alturas","lat":34.437972,"state":"CA"},"type":"Feature","geometry":{"type":"Point","coordinates":[-119.6808,34.437972]}},{"properties":{"city":"Santa Barbara","lon":-119.680871,"id":"a62u3wk4jota","address":"646 Las Alturas","lat":34.438016,"state":"CA"},"type":"Feature","geometry":{"type":"Point","coordinates":[-119.680871,34.438016]}},{"properties":{"city":"Santa Barbara","lon":-119.681122,"id":"a62u3wwb48u3","address":"656 Las Alturas","lat":34.438163,"state":"CA"},"type":"Feature","geometry":{"type":"Point","coordinates":[-119.681122,34.438163]}},{"properties":{"city":"Santa Barbara","lon":-119.681222,"id":"a62u3wsesco2","address":"660 Las Alturas","lat":34.438222,"state":"CA"},"type":"Feature","geometry":{"type":"Point","coordinates":[-119.681222,34.438222]}},{"properties":{"city":"Santa Barbara","lon":-119.671444,"id":"a62u3wpvzvpb","address":"669 Coyote","lat":34.444728,"state":"CA"},"type":"Feature","geometry":{"type":"Point","coordinates":[-119.671444,34.444728]}},{"properties":{"city":"Santa Barbara","lon":-119.668142,"id":"a62u3wq1a6y2","address":"684 Circle Dr","lat":34.445239,"state":"CA"},"type":"Feature","geometry":{"type":"Point","coordinates":[-119.668142,34.445239]}},{"properties":{"city":"Santa Barbara","lon":-119.671674,"id":"a62u3wi89qxl","address":"695 Coyote","lat":34.445257,"state":"CA"},"type":"Feature","geometry":{"type":"Point","coordinates":[-119.671674,34.445257]}},{"properties":{"city":"Santa Barbara","lon":-119.667912,"id":"a62u3wh91ejn","address":"706 Circle Dr","lat":34.445496,"state":"CA"},"type":"Feature","geometry":{"type":"Point","coordinates":[-119.667912,34.445496]}},{"properties":{"city":"Santa Barbara","lon":-119.667886,"id":"a62u3wmveryl","address":"710 Circle Dr","lat":34.445543,"state":"CA"},"type":"Feature","geometry":{"type":"Point","coordinates":[-119.667886,34.445543]}},{"properties":{"city":"Santa Barbara","lon":-119.668158,"id":"a62u3whpe9fu","address":"715 Circle Dr","lat":34.445701,"state":"CA"},"type":"Feature","geometry":{"type":"Point","coordinates":[-119.668158,34.445701]}},{"properties":{"city":"Santa Barbara","lon":-119.667822,"id":"a62u3wiwm67o","address":"720 Circle Dr","lat":34.445661,"state":"CA"},"type":"Feature","geometry":{"type":"Point","coordinates":[-119.667822,34.445661]}},{"properties":{"city":"Santa Barbara","lon":-119.667159,"id":"a62u3wspqlcz","address":"725 Westmont Rd","lat":34.44571,"state":"CA"},"type":"Feature","geometry":{"type":"Point","coordinates":[-119.667159,34.44571]}},{"properties":{"city":"Santa Barbara","lon":-119.667064,"id":"a62u3wkjqkaw","address":"733 Westmont Rd","lat":34.445859,"state":"CA"},"type":"Feature","geometry":{"type":"Point","coordinates":[-119.667064,34.445859]}},{"properties":{"city":"Santa Barbara","lon":-119.666436,"id":"a62u3wl8f9vk","address":"746 Westmont Rd","lat":34.446313,"state":"CA"},"type":"Feature","geometry":{"type":"Point","coordinates":[-119.666436,34.446313]}},{"properties":{"city":"Santa Barbara","lon":-119.68259,"id":"a62u3ws3bfly","address":"752 Las Alturas","lat":34.438346,"state":"CA"},"type":"Feature","geometry":{"type":"Point","coordinates":[-119.68259,34.438346]}},{"properties":{"city":"Santa Barbara","lon":-119.666325,"id":"a62u3wo9n6d7","address":"756 Westmont Rd","lat":34.446467,"state":"CA"},"type":"Feature","geometry":{"type":"Point","coordinates":[-119.666325,34.446467]}},{"properties":{"city":"Santa Barbara","lon":-119.680491,"id":"a62u3wjd3pcw","address":"8 Pueblo Vista","lat":34.43595,"state":"CA"},"type":"Feature","geometry":{"type":"Point","coordinates":[-119.680491,34.43595]}},{"properties":{"city":"Santa Barbara","lon":-119.666056,"id":"a62u3wr207ut","address":"802 Westmont Rd","lat":34.447318,"state":"CA"},"type":"Feature","geometry":{"type":"Point","coordinates":[-119.666056,34.447318]}},{"properties":{"city":"Santa Barbara","lon":-119.666004,"id":"a62u3wt4w2az","address":"824 Westmont Rd","lat":34.447842,"state":"CA"},"type":"Feature","geometry":{"type":"Point","coordinates":[-119.666004,34.447842]}},{"properties":{"city":"Santa Barbara","lon":-119.66632,"id":"a62u3wtollks","address":"825 Westmont Rd","lat":34.447918,"state":"CA"},"type":"Feature","geometry":{"type":"Point","coordinates":[-119.66632,34.447918]}},{"properties":{"city":"Santa Barbara","lon":-119.665985,"id":"a62u3woabjje","address":"840 Westmont Rd","lat":34.44794,"state":"CA"},"type":"Feature","geometry":{"type":"Point","coordinates":[-119.665985,34.44794]}},{"properties":{"city":"Santa Barbara","lon":-119.666292,"id":"a62u3wjqgaxq","address":"849 Westmont Rd","lat":34.448061,"state":"CA"},"type":"Feature","geometry":{"type":"Point","coordinates":[-119.666292,34.448061]}},{"properties":{"city":"Santa Barbara","lon":-119.687905,"id":"a62u3wp6k1du","address":"850 W Mountain","lat":34.45151,"state":"CA"},"type":"Feature","geometry":{"type":"Point","coordinates":[-119.687905,34.45151]}},{"properties":{"city":"Santa Barbara","lon":-119.665973,"id":"a62u3ws7y2ko","address":"850 Westmont Rd","lat":34.448002,"state":"CA"},"type":"Feature","geometry":{"type":"Point","coordinates":[-119.665973,34.448002]}},{"properties":{"city":"Santa Barbara","lon":-119.688014,"id":"a62u3wlsi4rs","address":"860 W Mountain","lat":34.451906,"state":"CA"},"type":"Feature","geometry":{"type":"Point","coordinates":[-119.688014,34.451906]}},{"properties":{"city":"Santa Barbara","lon":-119.688104,"id":"a62u3wrhue8b","address":"874 W Mountain","lat":34.452591,"state":"CA"},"type":"Feature","geometry":{"type":"Point","coordinates":[-119.688104,34.452591]}},{"properties":{"city":"Santa Barbara","lon":-119.687815,"id":"a62u3wlwrgai","address":"885 W Mountain","lat":34.453004,"state":"CA"},"type":"Feature","geometry":{"type":"Point","coordinates":[-119.687815,34.453004]}},{"properties":{"city":"Santa Barbara","lon":-119.681613,"id":"a62u3wk5eorb","address":"900 Las Alturas","lat":34.439134,"state":"CA"},"type":"Feature","geometry":{"type":"Point","coordinates":[-119.681613,34.439134]}},{"properties":{"city":"Santa Barbara","lon":-119.670764,"id":"a62u3wkysy6k","address":"925 Coyote","lat":34.450912,"state":"CA"},"type":"Feature","geometry":{"type":"Point","coordinates":[-119.670764,34.450912]}},{"properties":{"city":"Santa Barbara","lon":-119.670815,"id":"a62u3whzagep","address":"927 Coyote","lat":34.45093,"state":"CA"},"type":"Feature","geometry":{"type":"Point","coordinates":[-119.670815,34.45093]}},{"properties":{"city":"Santa Barbara","lon":-119.665851,"id":"a62u3wgtkot2","address":"928 Westmont Rd","lat":34.448463,"state":"CA"},"type":"Feature","geometry":{"type":"Point","coordinates":[-119.665851,34.448463]}},{"properties":{"city":"Santa Barbara","lon":-119.670918,"id":"a62u3wsj4xso","address":"931 Coyote","lat":34.450966,"state":"CA"},"type":"Feature","geometry":{"type":"Point","coordinates":[-119.670918,34.450966]}},{"properties":{"city":"Santa Barbara","lon":-119.686367,"id":"a62u3wk18nr4","address":"933 W Mountain","lat":34.453162,"state":"CA"},"type":"Feature","geometry":{"type":"Point","coordinates":[-119.686367,34.453162]}},{"properties":{"city":"Santa Barbara","lon":-119.670839,"id":"a62u3whj40xb","address":"934 Coyote","lat":34.451228,"state":"CA"},"type":"Feature","geometry":{"type":"Point","coordinates":[-119.670839,34.451228]}},{"properties":{"city":"Santa Barbara","lon":-119.671067,"id":"a62u3wl4nxq6","address":"935 Coyote","lat":34.451035,"state":"CA"},"type":"Feature","geometry":{"type":"Point","coordinates":[-119.671067,34.451035]}},{"properties":{"city":"Santa Barbara","lon":-119.67096,"id":"a62u3wkfigaf","address":"940 Coyote","lat":34.451324,"state":"CA"},"type":"Feature","geometry":{"type":"Point","coordinates":[-119.67096,34.451324]}},{"properties":{"city":"Santa Barbara","lon":-119.671275,"id":"a62u3wh9gu80","address":"945 Coyote","lat":34.45124,"state":"CA"},"type":"Feature","geometry":{"type":"Point","coordinates":[-119.671275,34.45124]}},{"properties":{"city":"Santa Barbara","lon":-119.671047,"id":"a62u3wp5nda8","address":"950 Coyote","lat":34.451439,"state":"CA"},"type":"Feature","geometry":{"type":"Point","coordinates":[-119.671047,34.451439]}},{"properties":{"city":"Santa Barbara","lon":-119.665833,"id":"a62u3wukorpu","address":"952 Westmont Rd","lat":34.448554,"state":"CA"},"type":"Feature","geometry":{"type":"Point","coordinates":[-119.665833,34.448554]}},{"properties":{"city":"Santa Barbara","lon":-119.671382,"id":"a62u3wmi5sl7","address":"955 Coyote","lat":34.451507,"state":"CA"},"type":"Feature","geometry":{"type":"Point","coordinates":[-119.671382,34.451507]}},{"properties":{"city":"Santa Barbara","lon":-119.671402,"id":"a62u3wjmnk0n","address":"963 Coyote","lat":34.451709,"state":"CA"},"type":"Feature","geometry":{"type":"Point","coordinates":[-119.671402,34.451709]}},{"properties":{"city":"Santa Barbara","lon":-119.671376,"id":"a62u3wtc5xgh","address":"981 Coyote","lat":34.452124,"state":"CA"},"type":"Feature","geometry":{"type":"Point","coordinates":[-119.671376,34.452124]}},{"properties":{"city":"Santa Barbara","lon":-119.671038,"id":"a62u3wgci0bt","address":"988 Coyote","lat":34.452294,"state":"CA"},"type":"Feature","geometry":{"type":"Point","coordinates":[-119.671038,34.452294]}},{"properties":{"city":"Santa Barbara","lon":-119.671281,"id":"a62u3wlldic0","address":"999 Coyote","lat":34.452576,"state":"CA"},"type":"Feature","geometry":{"type":"Point","coordinates":[-119.671281,34.452576]}}],"is_temporal":false,"author":{"url":"http://www.santabarbaraca.gov/Resident/Home/Forms/Building_and_Safety.htm","metadata":"http://www.santabarbaraca.gov/Documents/PIO/Press_Releases/01_List_and_Map_of_Properties_Lost/2008-11-17_City_of_Santa_Barbara_Structures_Lost.pdf","contact_name":"","contact_address":"","source":"City of Santa Barbara, CA","contact_phone":""},"source":"http://www.santabarbaraca.gov/Resident/Home/Forms/Building_and_Safety.htm","pagination":{"sort":null,"start":0,"total":180,"limit":1000000},"state":"complete","tags":"california,fire,wildfire","published":"2008-11-16T12:00:00Z","id":7256}