{"type":"FeatureCollection","data_type":"Dataset","url_type":null,"permissions":[{"permissions":{"download":true,"view":true},"group_id":"everyone"}],"classification":null,"title":"2010-wc-leads-by-zip","count":68,"stream_id":73045,"contributor":{"url":"http://geocommons.com/users/17811","name":"carlosglz"},"data_attributes":null,"calculation_params":null,"icon_link":null,"link":"http://geocommons.com/overlays/73045.json","extent":[-120.129,32.552,-114.574,36.0031],"geometry_types":["point"],"unique_name":null,"name":"2010-wc-leads-by-zip","feature_count":68,"description":"","next_feature":null,"is_raster":false,"short_classification":"Y","stats":{"leads":{"max":4,"mean":1.42647058823529,"variance":0.516900790166813,"stdev":0.718958128243094,"min":1,"median":1},"geo_score":{"max":0.714,"mean":0.713999999999999,"variance":6.12986132508491e-31,"stdev":7.82934309191066e-16,"min":0.714,"median":0.714}},"features":[{"properties":{"zip":"90001","leads":2,"geo_score":0.714,"id":"a6775kywz4m2","geo_precision":"zip"},"type":"Feature","geometry":{"type":"Point","coordinates":[-118.243128,33.965571]}},{"properties":{"zip":"90002","leads":1,"geo_score":0.714,"id":"a6775knl8s9z","geo_precision":"zip"},"type":"Feature","geometry":{"type":"Point","coordinates":[-118.237305,33.960214]}},{"properties":{"zip":"90005","leads":1,"geo_score":0.714,"id":"a6775kohcfi4","geo_precision":"zip"},"type":"Feature","geometry":{"type":"Point","coordinates":[-118.298662,33.786594]}},{"properties":{"zip":"90007","leads":1,"geo_score":0.714,"id":"a6775kylkhrm","geo_precision":"zip"},"type":"Feature","geometry":{"type":"Point","coordinates":[-118.298662,33.786594]}},{"properties":{"zip":"90011","leads":3,"geo_score":0.714,"id":"a6775kqd6uzi","geo_precision":"zip"},"type":"Feature","geometry":{"type":"Point","coordinates":[-118.250056,33.989264]}},{"properties":{"zip":"90017","leads":1,"geo_score":0.714,"id":"a6775knximff","geo_precision":"zip"},"type":"Feature","geometry":{"type":"Point","coordinates":[-118.298662,33.786594]}},{"properties":{"zip":"90033","leads":1,"geo_score":0.714,"id":"a6775konql3q","geo_precision":"zip"},"type":"Feature","geometry":{"type":"Point","coordinates":[-118.20535,34.033901]}},{"properties":{"zip":"90037","leads":1,"geo_score":0.714,"id":"a6775kpmccxx","geo_precision":"zip"},"type":"Feature","geometry":{"type":"Point","coordinates":[-118.298662,33.786594]}},{"properties":{"zip":"90038","leads":1,"geo_score":0.714,"id":"a6775kvrow2u","geo_precision":"zip"},"type":"Feature","geometry":{"type":"Point","coordinates":[-118.298662,33.786594]}},{"properties":{"zip":"90059","leads":2,"geo_score":0.714,"id":"a6775kqjn8fc","geo_precision":"zip"},"type":"Feature","geometry":{"type":"Point","coordinates":[-118.244955,33.921065]}},{"properties":{"zip":"90061","leads":2,"geo_score":0.714,"id":"a6775kmkx7s5","geo_precision":"zip"},"type":"Feature","geometry":{"type":"Point","coordinates":[-118.275356,33.920965]}},{"properties":{"zip":"90201","leads":1,"geo_score":0.714,"id":"a6775kuxqibn","geo_precision":"zip"},"type":"Feature","geometry":{"type":"Point","coordinates":[-118.172849,33.980292]}},{"properties":{"zip":"90220","leads":1,"geo_score":0.714,"id":"a6775ktapkys","geo_precision":"zip"},"type":"Feature","geometry":{"type":"Point","coordinates":[-118.240208,33.874815]}},{"properties":{"zip":"90221","leads":1,"geo_score":0.714,"id":"a6775kufop0k","geo_precision":"zip"},"type":"Feature","geometry":{"type":"Point","coordinates":[-118.195348,33.898071]}},{"properties":{"zip":"90250","leads":2,"geo_score":0.714,"id":"a6775ktu5pl9","geo_precision":"zip"},"type":"Feature","geometry":{"type":"Point","coordinates":[-118.298662,33.786594]}},{"properties":{"zip":"90255","leads":3,"geo_score":0.714,"id":"a6775kwwbckn","geo_precision":"zip"},"type":"Feature","geometry":{"type":"Point","coordinates":[-118.225072,33.96807]}},{"properties":{"zip":"90262","leads":2,"geo_score":0.714,"id":"a6775kss29b0","geo_precision":"zip"},"type":"Feature","geometry":{"type":"Point","coordinates":[-118.192015,33.910293]}},{"properties":{"zip":"90280","leads":3,"geo_score":0.714,"id":"a6775kwgqnlf","geo_precision":"zip"},"type":"Feature","geometry":{"type":"Point","coordinates":[-118.168125,33.929737]}},{"properties":{"zip":"90304","leads":1,"geo_score":0.714,"id":"a6775kurlyfd","geo_precision":"zip"},"type":"Feature","geometry":{"type":"Point","coordinates":[-118.352575,33.93807]}},{"properties":{"zip":"90501","leads":2,"geo_score":0.714,"id":"a6775kkmjf82","geo_precision":"zip"},"type":"Feature","geometry":{"type":"Point","coordinates":[-118.303805,33.835665]}},{"properties":{"zip":"90605","leads":1,"geo_score":0.714,"id":"a6775klcg0m9","geo_precision":"zip"},"type":"Feature","geometry":{"type":"Point","coordinates":[-118.041733,33.960846]}},{"properties":{"zip":"90620","leads":1,"geo_score":0.714,"id":"a6775kuocvih","geo_precision":"zip"},"type":"Feature","geometry":{"type":"Point","coordinates":[-117.769442,33.640302]}},{"properties":{"zip":"90650","leads":1,"geo_score":0.714,"id":"a6775kn3srpe","geo_precision":"zip"},"type":"Feature","geometry":{"type":"Point","coordinates":[-118.096178,33.919737]}},{"properties":{"zip":"90660","leads":1,"geo_score":0.714,"id":"a6775kj0i2wy","geo_precision":"zip"},"type":"Feature","geometry":{"type":"Point","coordinates":[-118.612032,34.377498]}},{"properties":{"zip":"90805","leads":1,"geo_score":0.714,"id":"a6775kko9sab","geo_precision":"zip"},"type":"Feature","geometry":{"type":"Point","coordinates":[-118.185625,33.860016]}},{"properties":{"zip":"91331","leads":1,"geo_score":0.714,"id":"a6775kssyc08","geo_precision":"zip"},"type":"Feature","geometry":{"type":"Point","coordinates":[-118.298662,33.786594]}},{"properties":{"zip":"91335","leads":1,"geo_score":0.714,"id":"a6775kmm8rtl","geo_precision":"zip"},"type":"Feature","geometry":{"type":"Point","coordinates":[-118.298662,33.786594]}},{"properties":{"zip":"91340","leads":2,"geo_score":0.714,"id":"a6775kwmbr6v","geo_precision":"zip"},"type":"Feature","geometry":{"type":"Point","coordinates":[-118.298662,33.786594]}},{"properties":{"zip":"91342","leads":1,"geo_score":0.714,"id":"a6775kt9d9tn","geo_precision":"zip"},"type":"Feature","geometry":{"type":"Point","coordinates":[-118.298662,33.786594]}},{"properties":{"zip":"91343","leads":1,"geo_score":0.714,"id":"a6775kwqf9c6","geo_precision":"zip"},"type":"Feature","geometry":{"type":"Point","coordinates":[-118.484722,34.236389]}},{"properties":{"zip":"91402","leads":1,"geo_score":0.714,"id":"a6775kysegx3","geo_precision":"zip"},"type":"Feature","geometry":{"type":"Point","coordinates":[-118.298662,33.786594]}},{"properties":{"zip":"91504","leads":1,"geo_score":0.714,"id":"a6775kqknxfa","geo_precision":"zip"},"type":"Feature","geometry":{"type":"Point","coordinates":[-118.298662,33.786594]}},{"properties":{"zip":"91605","leads":1,"geo_score":0.714,"id":"a6775ktiuscw","geo_precision":"zip"},"type":"Feature","geometry":{"type":"Point","coordinates":[-118.298662,33.786594]}},{"properties":{"zip":"91706","leads":2,"geo_score":0.714,"id":"a6775km1hbur","geo_precision":"zip"},"type":"Feature","geometry":{"type":"Point","coordinates":[-117.935341,34.106953]}},{"properties":{"zip":"91730","leads":1,"geo_score":0.714,"id":"a6775kutxxz8","geo_precision":"zip"},"type":"Feature","geometry":{"type":"Point","coordinates":[-115.967051,34.839964]}},{"properties":{"zip":"91744","leads":3,"geo_score":0.714,"id":"a6775kohxwuw","geo_precision":"zip"},"type":"Feature","geometry":{"type":"Point","coordinates":[-117.968398,34.051677]}},{"properties":{"zip":"91762","leads":1,"geo_score":0.714,"id":"a6775ktdlptq","geo_precision":"zip"},"type":"Feature","geometry":{"type":"Point","coordinates":[-115.967051,34.839964]}},{"properties":{"zip":"91764","leads":2,"geo_score":0.714,"id":"a6775ky6b4sf","geo_precision":"zip"},"type":"Feature","geometry":{"type":"Point","coordinates":[-115.967051,34.839964]}},{"properties":{"zip":"92073","leads":1,"geo_score":0.714,"id":"a6775kxtq05p","geo_precision":"zip"},"type":"Feature","geometry":{"type":"Point","coordinates":[-117.043081,32.552001]}},{"properties":{"zip":"92225","leads":1,"geo_score":0.714,"id":"a6775kwyt161","geo_precision":"zip"},"type":"Feature","geometry":{"type":"Point","coordinates":[-114.573845,33.61058]}},{"properties":{"zip":"92234","leads":1,"geo_score":0.714,"id":"a6775kkvfdgx","geo_precision":"zip"},"type":"Feature","geometry":{"type":"Point","coordinates":[-116.277152,33.647301]}},{"properties":{"zip":"92236","leads":4,"geo_score":0.714,"id":"a6775kk0bwgs","geo_precision":"zip"},"type":"Feature","geometry":{"type":"Point","coordinates":[-116.143588,33.646405]}},{"properties":{"zip":"92254","leads":1,"geo_score":0.714,"id":"a6775kttmm6i","geo_precision":"zip"},"type":"Feature","geometry":{"type":"Point","coordinates":[-115.92722,33.512804]}},{"properties":{"zip":"92262","leads":1,"geo_score":0.714,"id":"a6775kjsxdc8","geo_precision":"zip"},"type":"Feature","geometry":{"type":"Point","coordinates":[-116.527996,33.842567]}},{"properties":{"zip":"92311","leads":1,"geo_score":0.714,"id":"a6775koowvrh","geo_precision":"zip"},"type":"Feature","geometry":{"type":"Point","coordinates":[-117.103931,34.87665]}},{"properties":{"zip":"92316","leads":1,"geo_score":0.714,"id":"a6775km5tprd","geo_precision":"zip"},"type":"Feature","geometry":{"type":"Point","coordinates":[-117.396157,34.044458]}},{"properties":{"zip":"92335","leads":3,"geo_score":0.714,"id":"a6775kw0ksv5","geo_precision":"zip"},"type":"Feature","geometry":{"type":"Point","coordinates":[-117.488939,34.06279]}},{"properties":{"zip":"92376","leads":1,"geo_score":0.714,"id":"a6775kj3jxxi","geo_precision":"zip"},"type":"Feature","geometry":{"type":"Point","coordinates":[-115.567483,34.202339]}},{"properties":{"zip":"92392","leads":1,"geo_score":0.714,"id":"a6775kqat7o5","geo_precision":"zip"},"type":"Feature","geometry":{"type":"Point","coordinates":[-114.754916,34.491985]}},{"properties":{"zip":"92410","leads":2,"geo_score":0.714,"id":"a6775kk3lc69","geo_precision":"zip"},"type":"Feature","geometry":{"type":"Point","coordinates":[-116.479963,34.095956]}},{"properties":{"zip":"92536","leads":1,"geo_score":0.714,"id":"a6775kyslkvx","geo_precision":"zip"},"type":"Feature","geometry":{"type":"Point","coordinates":[-116.737521,33.350869]}},{"properties":{"zip":"92553","leads":1,"geo_score":0.714,"id":"a6775ktn344x","geo_precision":"zip"},"type":"Feature","geometry":{"type":"Point","coordinates":[-116.505017,32.679501]}},{"properties":{"zip":"92582","leads":1,"geo_score":0.714,"id":"a6775kovbgp4","geo_precision":"zip"},"type":"Feature","geometry":{"type":"Point","coordinates":[-116.055617,33.752886]}},{"properties":{"zip":"92683","leads":1,"geo_score":0.714,"id":"a6775kybqqns","geo_precision":"zip"},"type":"Feature","geometry":{"type":"Point","coordinates":[-118.024228,33.758905]}},{"properties":{"zip":"92703","leads":2,"geo_score":0.714,"id":"a6775kqaq7ke","geo_precision":"zip"},"type":"Feature","geometry":{"type":"Point","coordinates":[-117.769442,33.640302]}},{"properties":{"zip":"92704","leads":2,"geo_score":0.714,"id":"a6775kmhn0bk","geo_precision":"zip"},"type":"Feature","geometry":{"type":"Point","coordinates":[-117.769442,33.640302]}},{"properties":{"zip":"92707","leads":1,"geo_score":0.714,"id":"a6775kqftnyk","geo_precision":"zip"},"type":"Feature","geometry":{"type":"Point","coordinates":[-117.895613,33.65252]}},{"properties":{"zip":"92780","leads":1,"geo_score":0.714,"id":"a6775kp8hcpo","geo_precision":"zip"},"type":"Feature","geometry":{"type":"Point","coordinates":[-117.731534,33.579122]}},{"properties":{"zip":"92805","leads":2,"geo_score":0.714,"id":"a6775kpvns4b","geo_precision":"zip"},"type":"Feature","geometry":{"type":"Point","coordinates":[-117.769442,33.640302]}},{"properties":{"zip":"92821","leads":1,"geo_score":0.714,"id":"a6775kq6c7lv","geo_precision":"zip"},"type":"Feature","geometry":{"type":"Point","coordinates":[-117.769442,33.640302]}},{"properties":{"zip":"92841","leads":1,"geo_score":0.714,"id":"a6775ksujcs1","geo_precision":"zip"},"type":"Feature","geometry":{"type":"Point","coordinates":[-117.769442,33.640302]}},{"properties":{"zip":"92865","leads":1,"geo_score":0.714,"id":"a6775knzqpnj","geo_precision":"zip"},"type":"Feature","geometry":{"type":"Point","coordinates":[-117.769442,33.640302]}},{"properties":{"zip":"92867","leads":1,"geo_score":0.714,"id":"a6775kj73ku0","geo_precision":"zip"},"type":"Feature","geometry":{"type":"Point","coordinates":[-117.769442,33.640302]}},{"properties":{"zip":"93010","leads":1,"geo_score":0.714,"id":"a6775kqhdan3","geo_precision":"zip"},"type":"Feature","geometry":{"type":"Point","coordinates":[-119.095938,34.22056]}},{"properties":{"zip":"93036","leads":1,"geo_score":0.714,"id":"a6775kjoutwt","geo_precision":"zip"},"type":"Feature","geometry":{"type":"Point","coordinates":[-119.21216,34.199838]}},{"properties":{"zip":"93204","leads":1,"geo_score":0.714,"id":"a6775kkv8g7q","geo_precision":"zip"},"type":"Feature","geometry":{"type":"Point","coordinates":[-120.128716,36.003134]}},{"properties":{"zip":"93535","leads":3,"geo_score":0.714,"id":"a6775kxcoe9n","geo_precision":"zip"},"type":"Feature","geometry":{"type":"Point","coordinates":[-117.777285,34.734986]}},{"properties":{"zip":"93550","leads":2,"geo_score":0.714,"id":"a6775kosf1ju","geo_precision":"zip"},"type":"Feature","geometry":{"type":"Point","coordinates":[-118.116462,34.500549]}}],"is_temporal":false,"author":{"url":"","metadata":"","contact_name":"","contact_address":"","source":"","contact_phone":""},"source":"","pagination":{"sort":null,"start":0,"total":68,"limit":1000000},"state":"complete","tags":"2010,af,by,leads,wc,zip","published":"2014-08-10T14:07:27-04:00","id":73045}