{"type":"FeatureCollection","data_type":"Dataset","url_type":null,"permissions":[{"permissions":{"download":true,"view":true},"group_id":"everyone"}],"classification":null,"title":"millerguestlist2","count":272,"stream_id":75089,"contributor":{"url":"http://geocommons.com/users/18520","name":"potterhu"},"data_attributes":null,"calculation_params":null,"icon_link":null,"link":"http://geocommons.com/overlays/75089.json","extent":[-87.6873,41.8119,-73.7582,45.076],"geometry_types":["point"],"unique_name":null,"name":"millerguestlist2","feature_count":272,"description":"","next_feature":null,"is_raster":false,"short_classification":"Y","stats":{"geo_score":{"max":0.857,"mean":0.813764705882353,"variance":0.00564054221836333,"stdev":0.0751035433143026,"min":0.0,"median":0.857}},"features":[{"properties":{"city":"Lansing","zip":"48911","adress":"1000 Hein Ave","geo_score":0.857,"id":"a6hcyolhtqhw","geo_precision":"zip"},"type":"Feature","geometry":{"type":"Point","coordinates":[-84.543494,42.680335]}},{"properties":{"city":"East Lansing","zip":"48823","adress":"1020 Gelnhaven","geo_score":0.857,"id":"a6hcyoda66ig","geo_precision":"zip"},"type":"Feature","geometry":{"type":"Point","coordinates":[-84.503527,42.737334]}},{"properties":{"city":"Brighton","zip":"48114","adress":"10337 Greenbrier","geo_score":0.857,"id":"a6hcyon4zk2e","geo_precision":"zip"},"type":"Feature","geometry":{"type":"Point","coordinates":[-83.877776,42.546402]}},{"properties":{"city":"Holly","zip":"48442","adress":"10475 Whistler","geo_score":0.714,"id":"a6hcyoqljrgz","geo_precision":"zip"},"type":"Feature","geometry":{"type":"Point","coordinates":[-83.625227,42.860028]}},{"properties":{"city":"East Lansing","zip":"48823","adress":"1070 Lilac","geo_score":0.857,"id":"a6hcyocf5tzs","geo_precision":"zip"},"type":"Feature","geometry":{"type":"Point","coordinates":[-84.503527,42.737334]}},{"properties":{"city":"East Lansing","zip":"48823","adress":"1070 Lilac","geo_score":0.857,"id":"a6hcyog9k9qz","geo_precision":"zip"},"type":"Feature","geometry":{"type":"Point","coordinates":[-84.503527,42.737334]}},{"properties":{"city":"Grand Ledge","zip":"48837","adress":"11040 Stoneybrook","geo_score":0.729,"id":"a6hcyocno6cu","geo_precision":"zip"},"type":"Feature","geometry":{"type":"Point","coordinates":[-84.70082,42.827812]}},{"properties":{"city":"Grand Ledge","zip":"48837","adress":"11040 Stoneybrook","geo_score":0.729,"id":"a6hcyooe73ik","geo_precision":"zip"},"type":"Feature","geometry":{"type":"Point","coordinates":[-84.70082,42.827812]}},{"properties":{"city":"Grand Ledge","zip":"48837","adress":"11223 Brickland","geo_score":0.729,"id":"a6hcyogwffkf","geo_precision":"zip"},"type":"Feature","geometry":{"type":"Point","coordinates":[-84.70082,42.827812]}},{"properties":{"city":"Decatur","zip":"49045","adress":"115 S. Phelps","geo_score":0.714,"id":"a6hcyof2s96y","geo_precision":"zip"},"type":"Feature","geometry":{"type":"Point","coordinates":[-85.95473,42.011712]}},{"properties":{"city":"Williamsburg","zip":"49690","adress":"11518 Clearview Dr","geo_score":0.726,"id":"a6hcyofcwekd","geo_precision":"zip"},"type":"Feature","geometry":{"type":"Point","coordinates":[-85.459238,44.823335]}},{"properties":{"city":"East Lansing","zip":"48823","adress":"1162 Arbor Dr","geo_score":0.857,"id":"a6hcyomqzs1i","geo_precision":"zip"},"type":"Feature","geometry":{"type":"Point","coordinates":[-84.503527,42.737334]}},{"properties":{"city":"Grand Ledge","zip":"48837","adress":"11774 Millstone Dr","geo_score":0.729,"id":"a6hcyorbj8g6","geo_precision":"zip"},"type":"Feature","geometry":{"type":"Point","coordinates":[-84.70082,42.827812]}},{"properties":{"city":"Grand Ledge","zip":"48837","adress":"11774 Millstone Dr","geo_score":0.729,"id":"a6hcyocw3um5","geo_precision":"zip"},"type":"Feature","geometry":{"type":"Point","coordinates":[-84.70082,42.827812]}},{"properties":{"city":"Kalamazoo","zip":"49048","adress":"1184 Spruceback","geo_score":0.857,"id":"a6hcyoc8e8it","geo_precision":"zip"},"type":"Feature","geometry":{"type":"Point","coordinates":[-85.588195,42.274887]}},{"properties":{"city":"Plainwell","zip":"49080","adress":"119 S. Lake Doster Dr","geo_score":0.766,"id":"a6hcyordgoo3","geo_precision":"zip"},"type":"Feature","geometry":{"type":"Point","coordinates":[-85.519181,42.552813]}},{"properties":{"city":"East Lansing","zip":"48825","adress":"123 East Shaw Hall","geo_score":0.857,"id":"a6hcyooykcjk","geo_precision":"zip"},"type":"Feature","geometry":{"type":"Point","coordinates":[-84.464775,42.723784]}},{"properties":{"city":"Dewitt","zip":"48820","adress":"1233 South Geneva","geo_score":0.729,"id":"a6hcyopsriq1","geo_precision":"zip"},"type":"Feature","geometry":{"type":"Point","coordinates":[-84.661375,42.860034]}},{"properties":{"city":"South Lyon","zip":"48178","adress":"12358 Sunview Ct","geo_score":0.778,"id":"a6hcyoem8vo2","geo_precision":"zip"},"type":"Feature","geometry":{"type":"Point","coordinates":[-83.696052,42.451979]}},{"properties":{"city":"Perry","zip":"48872","adress":"12572 Doc Pass Lane","geo_score":0.714,"id":"a6hcyonwks6g","geo_precision":"zip"},"type":"Feature","geometry":{"type":"Point","coordinates":[-84.123853,42.776977]}},{"properties":{"city":"Perry","zip":"48872","adress":"12572 Doe Pass","geo_score":0.714,"id":"a6hcyoc42jdl","geo_precision":"zip"},"type":"Feature","geometry":{"type":"Point","coordinates":[-84.123853,42.776977]}},{"properties":{"city":"East Lansing","zip":"48823","adress":"1273 Oakridge Ave   #2","geo_score":0.857,"id":"a6hcyon7wms0","geo_precision":"zip"},"type":"Feature","geometry":{"type":"Point","coordinates":[-84.503527,42.737334]}},{"properties":{"city":"Mt. Morris","zip":"48458","adress":"1298 E. Mt. Morris","geo_score":0.818,"id":"a6hcyocpfp42","geo_precision":"zip"},"type":"Feature","geometry":{"type":"Point","coordinates":[-83.692978,43.120587]}},{"properties":{"city":"South Lyon","zip":"48178","adress":"13066 Michalek Ln","geo_score":0.778,"id":"a6hcyomzcy41","geo_precision":"zip"},"type":"Feature","geometry":{"type":"Point","coordinates":[-83.696052,42.451979]}},{"properties":{"city":"South Lyon","zip":"48178","adress":"13066 Michalek Ln","geo_score":0.778,"id":"a6hcyoloz5s2","geo_precision":"zip"},"type":"Feature","geometry":{"type":"Point","coordinates":[-83.696052,42.451979]}},{"properties":{"city":"South Lyon","zip":"48178","adress":"13066 Michalek Ln","geo_score":0.778,"id":"a6hcyoc69aop","geo_precision":"zip"},"type":"Feature","geometry":{"type":"Point","coordinates":[-83.696052,42.451979]}},{"properties":{"city":"South Lyon","zip":"48178","adress":"13066 Michalek Ln","geo_score":0.778,"id":"a6hcyoqrbbdo","geo_precision":"zip"},"type":"Feature","geometry":{"type":"Point","coordinates":[-83.696052,42.451979]}},{"properties":{"city":"Dewitt","zip":"48820","adress":"13187 S. Lowell Rd","geo_score":0.729,"id":"a6hcyoennprl","geo_precision":"zip"},"type":"Feature","geometry":{"type":"Point","coordinates":[-84.661375,42.860034]}},{"properties":{"city":"Dewitt","zip":"48820","adress":"13335 Speckledwood","geo_score":0.729,"id":"a6hcyojup9vi","geo_precision":"zip"},"type":"Feature","geometry":{"type":"Point","coordinates":[-84.661375,42.860034]}},{"properties":{"city":"Gregory","zip":"48137","adress":"13702 Aberdeen Rd","geo_score":0.714,"id":"a6hcyoe2elja","geo_precision":"zip"},"type":"Feature","geometry":{"type":"Point","coordinates":[-84.09662,42.438924]}},{"properties":{"city":"Bath","zip":"48808","adress":"14055 Abbey Lane","geo_score":0.857,"id":"a6hcyoq9jai8","geo_precision":"zip"},"type":"Feature","geometry":{"type":"Point","coordinates":[-84.483853,42.819509]}},{"properties":{"city":"Kalamazoo","zip":"49048","adress":"1417 Merrybrook","geo_score":0.857,"id":"a6hcyolod1l8","geo_precision":"zip"},"type":"Feature","geometry":{"type":"Point","coordinates":[-85.588195,42.274887]}},{"properties":{"city":"Lansing","zip":"48915","adress":"1417 W. Ottawa St","geo_score":0.857,"id":"a6hcyocx75mq","geo_precision":"zip"},"type":"Feature","geometry":{"type":"Point","coordinates":[-84.571179,42.738764]}},{"properties":{"city":"Pewamo","zip":"48873","adress":"14504 W. Jason","geo_score":0.857,"id":"a6hcyokehltn","geo_precision":"zip"},"type":"Feature","geometry":{"type":"Point","coordinates":[-84.916118,42.970044]}},{"properties":{"city":"Pewamo","zip":"48873","adress":"14504 W. Jason","geo_score":0.857,"id":"a6hcyohe0giz","geo_precision":"zip"},"type":"Feature","geometry":{"type":"Point","coordinates":[-84.916118,42.970044]}},{"properties":{"city":"Bath","zip":"48808","adress":"14655 Abbey Lane #B10","geo_score":0.857,"id":"a6hcyoci5aer","geo_precision":"zip"},"type":"Feature","geometry":{"type":"Point","coordinates":[-84.483853,42.819509]}},{"properties":{"city":"Okemos","zip":"48864","adress":"1486 Ivywood","geo_score":0.857,"id":"a6hcyomtivwv","geo_precision":"zip"},"type":"Feature","geometry":{"type":"Point","coordinates":[-84.425136,42.719534]}},{"properties":{"city":"Okemos","zip":"48864","adress":"1486 Ivywood","geo_score":0.857,"id":"a6hcyomd7jpl","geo_precision":"zip"},"type":"Feature","geometry":{"type":"Point","coordinates":[-84.425136,42.719534]}},{"properties":{"city":"Lansing","zip":"48906","adress":"1514 Indiana","geo_score":0.743,"id":"a6hcyohwqbfp","geo_precision":"zip"},"type":"Feature","geometry":{"type":"Point","coordinates":[-84.647483,42.765035]}},{"properties":{"city":"Lansing","zip":"48917","adress":"1528 Lotipac Place","geo_score":0.735,"id":"a6hcyolqeczb","geo_precision":"zip"},"type":"Feature","geometry":{"type":"Point","coordinates":[-84.620815,42.739202]}},{"properties":{"city":"East Lansing","zip":"48823","adress":"1536 North Harrison","geo_score":0.857,"id":"a6hcyos5c0r2","geo_precision":"zip"},"type":"Feature","geometry":{"type":"Point","coordinates":[-84.503527,42.737334]}},{"properties":{"city":"East Lansing","zip":"48823","adress":"1536 North Harrison","geo_score":0.857,"id":"a6hcyopbqfid","geo_precision":"zip"},"type":"Feature","geometry":{"type":"Point","coordinates":[-84.503527,42.737334]}},{"properties":{"city":"East Lansing","zip":"48823","adress":"1559 Mt. Vernon Ave","geo_score":0.857,"id":"a6hcyokunifu","geo_precision":"zip"},"type":"Feature","geometry":{"type":"Point","coordinates":[-84.503527,42.737334]}},{"properties":{"city":"East Lansing","zip":"48823","adress":"1559 Mt. Vernon Ave","geo_score":0.857,"id":"a6hcyoprxkz3","geo_precision":"zip"},"type":"Feature","geometry":{"type":"Point","coordinates":[-84.503527,42.737334]}},{"properties":{"city":"Okemos","zip":"48864","adress":"1570 W. Pond Dr","geo_score":0.857,"id":"a6hcyoedzsxo","geo_precision":"zip"},"type":"Feature","geometry":{"type":"Point","coordinates":[-84.425136,42.719534]}},{"properties":{"city":"Portland","zip":"48875","adress":"15740 Cutler Rd","geo_score":0.729,"id":"a6hcyoq7aach","geo_precision":"zip"},"type":"Feature","geometry":{"type":"Point","coordinates":[-85.05389,42.843089]}},{"properties":{"city":"Lansing","zip":"48917","adress":"1607 Opaline Dr","geo_score":0.735,"id":"a6hcyop9zwp2","geo_precision":"zip"},"type":"Feature","geometry":{"type":"Point","coordinates":[-84.620815,42.739202]}},{"properties":{"city":"Lansing","zip":"48917","adress":"1607 Opaline Dr","geo_score":0.735,"id":"a6hcyoihcmmb","geo_precision":"zip"},"type":"Feature","geometry":{"type":"Point","coordinates":[-84.620815,42.739202]}},{"properties":{"city":"Adrian","zip":"49221","adress":"162 Sand Creek Hwy","geo_score":0.729,"id":"a6hcyoo805u8","geo_precision":"zip"},"type":"Feature","geometry":{"type":"Point","coordinates":[-84.187722,41.943657]}},{"properties":{"city":"East Lansing","zip":"48823","adress":"1623 Colorado","geo_score":0.857,"id":"a6hcyoeoawkv","geo_precision":"zip"},"type":"Feature","geometry":{"type":"Point","coordinates":[-84.503527,42.737334]}},{"properties":{"city":"East Lansing","zip":"48823","adress":"1626 Wintercrest","geo_score":0.857,"id":"a6hcyoombpff","geo_precision":"zip"},"type":"Feature","geometry":{"type":"Point","coordinates":[-84.503527,42.737334]}},{"properties":{"city":"East Lansing","zip":"48823","adress":"163 Kedzie","geo_score":0.857,"id":"a6hcyofho5a5","geo_precision":"zip"},"type":"Feature","geometry":{"type":"Point","coordinates":[-84.503527,42.737334]}},{"properties":{"city":"East Lansing","zip":"48823","adress":"16789 Chandler Rd","geo_score":0.857,"id":"a6hcyoj7blcm","geo_precision":"zip"},"type":"Feature","geometry":{"type":"Point","coordinates":[-84.503527,42.737334]}},{"properties":{"city":"Lansing","zip":"48910","adress":"1730 Wellington Rd","geo_score":0.857,"id":"a6hcyog3d1t0","geo_precision":"zip"},"type":"Feature","geometry":{"type":"Point","coordinates":[-84.518543,42.703435]}},{"properties":{"city":"Commerce TWP","zip":"48390","adress":"1763 Pine Forest Dr","geo_score":0.758,"id":"a6hcyofld9e2","geo_precision":"zip"},"type":"Feature","geometry":{"type":"Point","coordinates":[-83.473826,42.5567]}},{"properties":{"city":"East Lansing","zip":"48823","adress":"1792 Walnut Hieghts Dr","geo_score":0.857,"id":"a6hcyoph60h2","geo_precision":"zip"},"type":"Feature","geometry":{"type":"Point","coordinates":[-84.503527,42.737334]}},{"properties":{"city":"East Lansing","zip":"48823","adress":"1792 Walnut Hieghts Dr","geo_score":0.857,"id":"a6hcyojouk0b","geo_precision":"zip"},"type":"Feature","geometry":{"type":"Point","coordinates":[-84.503527,42.737334]}},{"properties":{"city":"Rochester Hills","zip":"48309","adress":"1798 Rapids War","geo_score":0.806,"id":"a6hcyomko9jd","geo_precision":"zip"},"type":"Feature","geometry":{"type":"Point","coordinates":[-83.183666,42.662644]}},{"properties":{"city":"East Lansing","zip":"48823","adress":"180 Kedzie","geo_score":0.857,"id":"a6hcyoo5z6ir","geo_precision":"zip"},"type":"Feature","geometry":{"type":"Point","coordinates":[-84.503527,42.737334]}},{"properties":{"city":"Haslett","zip":"48820","adress":"1801 West Herbison Rd","geo_score":0.743,"id":"a6hcyoixgbp7","geo_precision":"zip"},"type":"Feature","geometry":{"type":"Point","coordinates":[-84.661375,42.860034]}},{"properties":{"city":"East Lansing","zip":"48823","adress":"181 Kedzie","geo_score":0.857,"id":"a6hcyoe26vum","geo_precision":"zip"},"type":"Feature","geometry":{"type":"Point","coordinates":[-84.503527,42.737334]}},{"properties":{"city":"Northville","zip":"48168","adress":"18222 Cascade Dr","geo_score":0.0,"id":"a6hcyoqbzwgl","geo_precision":"unmatched"},"type":"Feature","geometry":null},{"properties":{"city":"Okemos","zip":"48864","adress":"1826 Hamilton Rd.    #A9","geo_score":0.857,"id":"a6hcyopnzwpl","geo_precision":"zip"},"type":"Feature","geometry":{"type":"Point","coordinates":[-84.425136,42.719534]}},{"properties":{"city":"Lansing","zip":"48917","adress":"1833 Willow Creek","geo_score":0.735,"id":"a6hcyooboahn","geo_precision":"zip"},"type":"Feature","geometry":{"type":"Point","coordinates":[-84.620815,42.739202]}},{"properties":{"city":"Spring Lake","zip":"49456","adress":"18337 Woodland Ridge","geo_score":0.857,"id":"a6hcyokbaksi","geo_precision":"zip"},"type":"Feature","geometry":{"type":"Point","coordinates":[-86.19538,43.076609]}},{"properties":{"city":"Spring Lake","zip":"49456","adress":"18337 Woodland Ridge","geo_score":0.857,"id":"a6hcyoe317vs","geo_precision":"zip"},"type":"Feature","geometry":{"type":"Point","coordinates":[-86.19538,43.076609]}},{"properties":{"city":"Howell","zip":"48843","adress":"184 Wikki Ct","geo_score":0.735,"id":"a6hcyoo3aefk","geo_precision":"zip"},"type":"Feature","geometry":{"type":"Point","coordinates":[-83.861613,42.526978]}},{"properties":{"city":"Riverview","zip":"48912","adress":"18400 Ryanwood","geo_score":0.73,"id":"a6hcyop0ycq5","geo_precision":"zip"},"type":"Feature","geometry":{"type":"Point","coordinates":[-84.524939,42.740054]}},{"properties":{"city":"East Lansing","zip":"48823","adress":"1844 Snyder","geo_score":0.857,"id":"a6hcyohsogaa","geo_precision":"zip"},"type":"Feature","geometry":{"type":"Point","coordinates":[-84.503527,42.737334]}},{"properties":{"city":"Lansing","zip":"48917","adress":"1846 Briarwood","geo_score":0.735,"id":"a6hcyoifu160","geo_precision":"zip"},"type":"Feature","geometry":{"type":"Point","coordinates":[-84.620815,42.739202]}},{"properties":{"city":"East Lansing","zip":"48823","adress":"1850 Wyngarden","geo_score":0.857,"id":"a6hcyoef24cu","geo_precision":"zip"},"type":"Feature","geometry":{"type":"Point","coordinates":[-84.503527,42.737334]}},{"properties":{"city":"Bloomfield","zip":"48301","adress":"1865 Cedar Hill Dr","geo_score":0.794,"id":"a6hcyorfb6nl","geo_precision":"zip"},"type":"Feature","geometry":{"type":"Point","coordinates":[-83.273418,42.575599]}},{"properties":{"city":"East Lansing","zip":"48823","adress":"190 Arbor Glen Dr   #303","geo_score":0.857,"id":"a6hcyopiht84","geo_precision":"zip"},"type":"Feature","geometry":{"type":"Point","coordinates":[-84.503527,42.737334]}},{"properties":{"city":"Lansing","zip":"48910","adress":"2015 Pleasant View","geo_score":0.857,"id":"a6hcyohhzwad","geo_precision":"zip"},"type":"Feature","geometry":{"type":"Point","coordinates":[-84.518543,42.703435]}},{"properties":{"city":"Haslett","zip":"48840","adress":"2048 Lac Du Mont","geo_score":0.857,"id":"a6hcyogg1105","geo_precision":"zip"},"type":"Feature","geometry":{"type":"Point","coordinates":[-84.378655,42.750324]}},{"properties":{"city":"Haslett","zip":"48840","adress":"2086 Lac Du Mont","geo_score":0.857,"id":"a6hcyoj4xleu","geo_precision":"zip"},"type":"Feature","geometry":{"type":"Point","coordinates":[-84.378655,42.750324]}},{"properties":{"city":"Okemos","zip":"48864","adress":"2094 Riverwood Dr","geo_score":0.857,"id":"a6hcyombbkzo","geo_precision":"zip"},"type":"Feature","geometry":{"type":"Point","coordinates":[-84.425136,42.719534]}},{"properties":{"city":"Okemos","zip":"48864","adress":"2094 Riverwood Dr","geo_score":0.857,"id":"a6hcyojg0jn8","geo_precision":"zip"},"type":"Feature","geometry":{"type":"Point","coordinates":[-84.425136,42.719534]}},{"properties":{"city":"East Lansing","zip":"48823","adress":"210 River St.","geo_score":0.857,"id":"a6hcyomqrejg","geo_precision":"zip"},"type":"Feature","geometry":{"type":"Point","coordinates":[-84.503527,42.737334]}},{"properties":{"city":"Lansing","zip":"48912","adress":"2114 Kingswood Dr","geo_score":0.857,"id":"a6hcyoliblh0","geo_precision":"zip"},"type":"Feature","geometry":{"type":"Point","coordinates":[-84.524939,42.740054]}},{"properties":{"city":"East Lansing","zip":"48823","adress":"215 Cedar","geo_score":0.857,"id":"a6hcyojirps0","geo_precision":"zip"},"type":"Feature","geometry":{"type":"Point","coordinates":[-84.503527,42.737334]}},{"properties":{"city":"Washington","zip":"48094","adress":"2165 Whispering Hills","geo_score":0.743,"id":"a6hcyoht0igz","geo_precision":"zip"},"type":"Feature","geometry":{"type":"Point","coordinates":[-82.960206,42.730865]}},{"properties":{"city":"Flushing","zip":"48433","adress":"218 Terrace St","geo_score":0.714,"id":"a6hcyoj5q5al","geo_precision":"zip"},"type":"Feature","geometry":{"type":"Point","coordinates":[-83.886631,43.117805]}},{"properties":{"city":"East Lansing","zip":"48823","adress":"220 Centerlawn","geo_score":0.857,"id":"a6hcyojhlnf1","geo_precision":"zip"},"type":"Feature","geometry":{"type":"Point","coordinates":[-84.503527,42.737334]}},{"properties":{"city":"East Lansing","zip":"48823","adress":"222 Beal","geo_score":0.857,"id":"a6hcyof30iik","geo_precision":"zip"},"type":"Feature","geometry":{"type":"Point","coordinates":[-84.503527,42.737334]}},{"properties":{"city":"Lansing","zip":"48912","adress":"227 N. Francis","geo_score":0.857,"id":"a6hcyopas5am","geo_precision":"zip"},"type":"Feature","geometry":{"type":"Point","coordinates":[-84.524939,42.740054]}},{"properties":{"city":"Charlotte","zip":"48813","adress":"2286 E. Vermontville Hwy","geo_score":0.714,"id":"a6hcyok4733l","geo_precision":"zip"},"type":"Feature","geometry":{"type":"Point","coordinates":[-84.697206,42.647258]}},{"properties":{"city":"Lansing","zip":"48910","adress":"2313 E. Jolly Rd","geo_score":0.857,"id":"a6hcyon61cph","geo_precision":"zip"},"type":"Feature","geometry":{"type":"Point","coordinates":[-84.518543,42.703435]}},{"properties":{"city":"Midland","zip":"48642","adress":"2404 Woodland Estates Dr","geo_score":0.755,"id":"a6hcyor1uiti","geo_precision":"zip"},"type":"Feature","geometry":{"type":"Point","coordinates":[-84.409165,43.589195]}},{"properties":{"city":"Lansing","zip":"48910","adress":"2412 Sterling Ave","geo_score":0.857,"id":"a6hcyode0zlm","geo_precision":"zip"},"type":"Feature","geometry":{"type":"Point","coordinates":[-84.518543,42.703435]}},{"properties":{"city":"Lansing","zip":"48912","adress":"2415 Lyman","geo_score":0.857,"id":"a6hcyogbxah3","geo_precision":"zip"},"type":"Feature","geometry":{"type":"Point","coordinates":[-84.524939,42.740054]}},{"properties":{"city":"Lansing","zip":"48912","adress":"2415 Lyman","geo_score":0.857,"id":"a6hcyoe9ib6b","geo_precision":"zip"},"type":"Feature","geometry":{"type":"Point","coordinates":[-84.524939,42.740054]}},{"properties":{"city":"Pinckney","zip":"48169","adress":"2434 Baseview","geo_score":0.727,"id":"a6hcyofrau1b","geo_precision":"zip"},"type":"Feature","geometry":{"type":"Point","coordinates":[-83.869389,42.475312]}},{"properties":{"city":"East Lansing","zip":"48823","adress":"2453 S. Wild Blossom Ct","geo_score":0.857,"id":"a6hcyold6og5","geo_precision":"zip"},"type":"Feature","geometry":{"type":"Point","coordinates":[-84.503527,42.737334]}},{"properties":{"city":"East Lansing","zip":"48823","adress":"2453 S. Wild Blossom Ct","geo_score":0.857,"id":"a6hcyoomczy8","geo_precision":"zip"},"type":"Feature","geometry":{"type":"Point","coordinates":[-84.503527,42.737334]}},{"properties":{"city":"Lansing","zip":"48911","adress":"2496 Halyard Ct","geo_score":0.857,"id":"a6hcyolzs6hz","geo_precision":"zip"},"type":"Feature","geometry":{"type":"Point","coordinates":[-84.543494,42.680335]}},{"properties":{"city":"Highland","zip":"48356","adress":"2560 Vero Dr","geo_score":0.857,"id":"a6hcyokcsl1q","geo_precision":"zip"},"type":"Feature","geometry":{"type":"Point","coordinates":[-83.422549,42.701111]}},{"properties":{"city":"East Lansing","zip":"49242","adress":"2573 Abbott Rd","geo_score":0.766,"id":"a6hcyopfpkza","geo_precision":"zip"},"type":"Feature","geometry":{"type":"Point","coordinates":[-84.612453,41.875881]}},{"properties":{"city":"East Lansing","zip":"48823","adress":"2579 Kodiak Dr","geo_score":0.857,"id":"a6hcyojjqjom","geo_precision":"zip"},"type":"Feature","geometry":{"type":"Point","coordinates":[-84.503527,42.737334]}},{"properties":{"city":"Lansing","zip":"48911","adress":"2593 Ayrshire Dr","geo_score":0.857,"id":"a6hcyoi6ya52","geo_precision":"zip"},"type":"Feature","geometry":{"type":"Point","coordinates":[-84.543494,42.680335]}},{"properties":{"city":"East Lansing","zip":"48823","adress":"260 Milford","geo_score":0.857,"id":"a6hcyoq9ywkx","geo_precision":"zip"},"type":"Feature","geometry":{"type":"Point","coordinates":[-84.503527,42.737334]}},{"properties":{"city":"Lansing","zip":"48912","adress":"2620 Lasalle Gardens","geo_score":0.857,"id":"a6hcyoqjgk6w","geo_precision":"zip"},"type":"Feature","geometry":{"type":"Point","coordinates":[-84.524939,42.740054]}},{"properties":{"city":"Farmington Hills","zip":"48831","adress":"26327 Old Homestead Dr","geo_score":0.743,"id":"a6hcyoopc9ii","geo_precision":"zip"},"type":"Feature","geometry":{"type":"Point","coordinates":[-84.304699,43.058082]}},{"properties":{"city":"Farmington Hills","zip":"48831","adress":"26327 Old Homestead Dr","geo_score":0.743,"id":"a6hcyojb44jb","geo_precision":"zip"},"type":"Feature","geometry":{"type":"Point","coordinates":[-84.304699,43.058082]}},{"properties":{"city":"East Lansing","zip":"48825","adress":"266 North Case Hall","geo_score":0.857,"id":"a6hcyor8h98e","geo_precision":"zip"},"type":"Feature","geometry":{"type":"Point","coordinates":[-84.464775,42.723784]}},{"properties":{"city":"Franklin","zip":"48025","adress":"26805 Wellington","geo_score":0.726,"id":"a6hcyof710fw","geo_precision":"zip"},"type":"Feature","geometry":{"type":"Point","coordinates":[-83.273264,42.515868]}},{"properties":{"city":"Lansing","zip":"48910","adress":"2709 Trappers Cove Trail #2a","geo_score":0.857,"id":"a6hcyofpj8uy","geo_precision":"zip"},"type":"Feature","geometry":{"type":"Point","coordinates":[-84.518543,42.703435]}},{"properties":{"city":"South Lyon","zip":"48178","adress":"27400 Henry Rd","geo_score":0.778,"id":"a6hcyokix410","geo_precision":"zip"},"type":"Feature","geometry":{"type":"Point","coordinates":[-83.696052,42.451979]}},{"properties":{"city":"South Lyon","zip":"48178","adress":"27400 Henry Rd","geo_score":0.778,"id":"a6hcyoqwpane","geo_precision":"zip"},"type":"Feature","geometry":{"type":"Point","coordinates":[-83.696052,42.451979]}},{"properties":{"city":"Muskegon","zip":"49441","adress":"2743 Henry St","geo_score":0.736,"id":"a6hcyon0royt","geo_precision":"zip"},"type":"Feature","geometry":{"type":"Point","coordinates":[-86.27367,43.197515]}},{"properties":{"city":"Lansing","zip":"48910","adress":"2801 Chatham","geo_score":0.857,"id":"a6hcyohl70g0","geo_precision":"zip"},"type":"Feature","geometry":{"type":"Point","coordinates":[-84.518543,42.703435]}},{"properties":{"city":"Lansing","zip":"48910","adress":"2931 Pleasant Grove","geo_score":0.857,"id":"a6hcyooamzbk","geo_precision":"zip"},"type":"Feature","geometry":{"type":"Point","coordinates":[-84.518543,42.703435]}},{"properties":{"city":"Lansing","zip":"48910","adress":"2931 Pleasant Grove","geo_score":0.857,"id":"a6hcyoj36ixa","geo_precision":"zip"},"type":"Feature","geometry":{"type":"Point","coordinates":[-84.518543,42.703435]}},{"properties":{"city":"Lansing","zip":"48910","adress":"2931 Pleasant Grove","geo_score":0.857,"id":"a6hcyoitorcb","geo_precision":"zip"},"type":"Feature","geometry":{"type":"Point","coordinates":[-84.518543,42.703435]}},{"properties":{"city":"Lansing","zip":"48910","adress":"2931 Pleasant Grove","geo_score":0.857,"id":"a6hcyoslo24a","geo_precision":"zip"},"type":"Feature","geometry":{"type":"Point","coordinates":[-84.518543,42.703435]}},{"properties":{"city":"New Hudson","zip":"48165","adress":"29650 Martindale Rd","geo_score":0.857,"id":"a6hcyofu7hgc","geo_precision":"zip"},"type":"Feature","geometry":{"type":"Point","coordinates":[-83.608727,42.498145]}},{"properties":{"city":"White Lake","zip":"48383","adress":"3011 Ormond","geo_score":0.857,"id":"a6hcyopvn194","geo_precision":"zip"},"type":"Feature","geometry":{"type":"Point","coordinates":[-83.534444,42.657698]}},{"properties":{"city":"Cadillac","zip":"49601","adress":"302 Kristy-Jo","geo_score":0.743,"id":"a6hcyogqtntl","geo_precision":"zip"},"type":"Feature","geometry":{"type":"Point","coordinates":[-85.539782,44.353061]}},{"properties":{"city":"Williamston","zip":"48895","adress":"306 N. Circle Dr","geo_score":0.857,"id":"a6hcyoe0rpvc","geo_precision":"zip"},"type":"Feature","geometry":{"type":"Point","coordinates":[-84.271215,42.680434]}},{"properties":{"city":"Williamston","zip":"48895","adress":"306 N. Circle Dr","geo_score":0.857,"id":"a6hcyojkhzng","geo_precision":"zip"},"type":"Feature","geometry":{"type":"Point","coordinates":[-84.271215,42.680434]}},{"properties":{"city":"Petoskey","zip":"49730","adress":"3060 Parkview","geo_score":0.732,"id":"a6hcyodg3gsc","geo_precision":"zip"},"type":"Feature","geometry":{"type":"Point","coordinates":[-84.755439,45.02396]}},{"properties":{"city":"Shelby Twp","zip":"48316","adress":"3061 Hartford","geo_score":0.714,"id":"a6hcyoq4kunn","geo_precision":"zip"},"type":"Feature","geometry":{"type":"Point","coordinates":[-83.05483,42.688531]}},{"properties":{"city":"East Lansing","zip":"48823","adress":"308 Michigan Ave  #210","geo_score":0.857,"id":"a6hcyogu9wzw","geo_precision":"zip"},"type":"Feature","geometry":{"type":"Point","coordinates":[-84.503527,42.737334]}},{"properties":{"city":"East Lansing","zip":"48824","adress":"310 Plant-Bio Building","geo_score":0.857,"id":"a6hcyor7w99r","geo_precision":"zip"},"type":"Feature","geometry":{"type":"Point","coordinates":[-84.488226,42.728334]}},{"properties":{"city":"Flushing","zip":"48433","adress":"311 E. River Rd","geo_score":0.714,"id":"a6hcyoc6q5g5","geo_precision":"zip"},"type":"Feature","geometry":{"type":"Point","coordinates":[-83.886631,43.117805]}},{"properties":{"city":"Royal Oak","zip":"48073","adress":"3114 Ferris","geo_score":0.857,"id":"a6hcyoo4o9fy","geo_precision":"zip"},"type":"Feature","geometry":{"type":"Point","coordinates":[-83.163477,42.5216]}},{"properties":{"city":"East Lansing","zip":"48823","adress":"313 Droste","geo_score":0.857,"id":"a6hcyophrfk0","geo_precision":"zip"},"type":"Feature","geometry":{"type":"Point","coordinates":[-84.503527,42.737334]}},{"properties":{"city":"East Lansing","zip":"48823","adress":"313 Droste","geo_score":0.857,"id":"a6hcyonmetwi","geo_precision":"zip"},"type":"Feature","geometry":{"type":"Point","coordinates":[-84.503527,42.737334]}},{"properties":{"city":"East Lansing","zip":"48823","adress":"313 Droste","geo_score":0.857,"id":"a6hcyoc99t3f","geo_precision":"zip"},"type":"Feature","geometry":{"type":"Point","coordinates":[-84.503527,42.737334]}},{"properties":{"city":"Mason","zip":"48854","adress":"317 E. Cherry","geo_score":0.857,"id":"a6hcyog77lxc","geo_precision":"zip"},"type":"Feature","geometry":{"type":"Point","coordinates":[-84.460273,42.574335]}},{"properties":{"city":"Plainwell","zip":"49080","adress":"32 Eagle Greens","geo_score":0.766,"id":"a6hcyocbbsxi","geo_precision":"zip"},"type":"Feature","geometry":{"type":"Point","coordinates":[-85.519181,42.552813]}},{"properties":{"city":"East Lansing","zip":"48823","adress":"321 Bogue St.","geo_score":0.857,"id":"a6hcyog2cfmw","geo_precision":"zip"},"type":"Feature","geometry":{"type":"Point","coordinates":[-84.503527,42.737334]}},{"properties":{"city":"Rockford","zip":"49341","adress":"3214 Gateshead","geo_score":0.714,"id":"a6hcyofcs5m3","geo_precision":"zip"},"type":"Feature","geometry":{"type":"Point","coordinates":[-85.565867,43.16086]}},{"properties":{"city":"East Lansing","zip":"48823","adress":"324 Lexington","geo_score":0.857,"id":"a6hcyokgxvfd","geo_precision":"zip"},"type":"Feature","geometry":{"type":"Point","coordinates":[-84.503527,42.737334]}},{"properties":{"city":"East Lansing","zip":"48823","adress":"326 Stoddard","geo_score":0.857,"id":"a6hcyomgxvid","geo_precision":"zip"},"type":"Feature","geometry":{"type":"Point","coordinates":[-84.503527,42.737334]}},{"properties":{"city":"Grosse Pointe","zip":"48236","adress":"33 Roslin Rd","geo_score":0.857,"id":"a6hcyon10ad2","geo_precision":"zip"},"type":"Feature","geometry":{"type":"Point","coordinates":[-83.150823,42.239933]}},{"properties":{"city":"Ann Arbor","zip":"48104","adress":"337 Mulholland","geo_score":0.857,"id":"a6hcyofp88ne","geo_precision":"zip"},"type":"Feature","geometry":{"type":"Point","coordinates":[-83.727826,42.270903]}},{"properties":{"city":"Ann Arbor","zip":"48103","adress":"337 Mulholland","geo_score":0.857,"id":"a6hcyoe393h6","geo_precision":"zip"},"type":"Feature","geometry":{"type":"Point","coordinates":[-83.849042,42.266638]}},{"properties":{"city":"Portland","zip":"48875","adress":"348 Grant","geo_score":0.729,"id":"a6hcyocgc7ka","geo_precision":"zip"},"type":"Feature","geometry":{"type":"Point","coordinates":[-85.05389,42.843089]}},{"properties":{"city":"Saratoga Springs","zip":"12866","adress":"35 Lefferts","geo_score":0.733,"id":"a6hcyode9ujk","geo_precision":"zip"},"type":"Feature","geometry":{"type":"Point","coordinates":[-73.758175,43.067575]}},{"properties":{"city":"Diamondale","zip":"48821","adress":"362 Barr Oak Dr","geo_score":0.843,"id":"a6hcyojenzhh","geo_precision":"zip"},"type":"Feature","geometry":{"type":"Point","coordinates":[-84.654181,42.654335]}},{"properties":{"city":"East Lansing","zip":"48823","adress":"3626 Kiskadee Dr","geo_score":0.857,"id":"a6hcyognomxy","geo_precision":"zip"},"type":"Feature","geometry":{"type":"Point","coordinates":[-84.503527,42.737334]}},{"properties":{"city":"Holland","zip":"49424","adress":"364 Hamilton Ave","geo_score":0.857,"id":"a6hcyoj9gu1t","geo_precision":"zip"},"type":"Feature","geometry":{"type":"Point","coordinates":[-86.121901,42.924578]}},{"properties":{"city":"Rochester Hills","zip":"48309","adress":"368 Sussex Fair","geo_score":0.806,"id":"a6hcyodx2t4w","geo_precision":"zip"},"type":"Feature","geometry":{"type":"Point","coordinates":[-83.183666,42.662644]}},{"properties":{"city":"Mason","zip":"48854","adress":"3779 Toles Rd","geo_score":0.857,"id":"a6hcyogjsj0d","geo_precision":"zip"},"type":"Feature","geometry":{"type":"Point","coordinates":[-84.460273,42.574335]}},{"properties":{"city":"Farmington","zip":"48331","adress":"38022 Turnberry","geo_score":0.81,"id":"a6hcyojta9u5","geo_precision":"zip"},"type":"Feature","geometry":{"type":"Point","coordinates":[-83.377155,42.485313]}},{"properties":{"city":"East Lansing","zip":"48823","adress":"3850 Coleman Rd","geo_score":0.857,"id":"a6hcyoqevi6i","geo_precision":"zip"},"type":"Feature","geometry":{"type":"Point","coordinates":[-84.503527,42.737334]}},{"properties":{"city":"Plainwell","zip":"49080","adress":"401 Midlakes Dr","geo_score":0.766,"id":"a6hcyor4y4j2","geo_precision":"zip"},"type":"Feature","geometry":{"type":"Point","coordinates":[-85.519181,42.552813]}},{"properties":{"city":"Fremont","zip":"48412","adress":"4154 S. Sunset","geo_score":0.735,"id":"a6hcyorvim4o","geo_precision":"zip"},"type":"Feature","geometry":{"type":"Point","coordinates":[-83.151052,43.099471]}},{"properties":{"city":"Fremont","zip":"49412","adress":"4154 S. Sunset","geo_score":0.714,"id":"a6hcyomakehb","geo_precision":"zip"},"type":"Feature","geometry":{"type":"Point","coordinates":[-85.873945,43.510574]}},{"properties":{"city":"Lansing","zip":"48912","adress":"420 Mongolia","geo_score":0.857,"id":"a6hcyog90dku","geo_precision":"zip"},"type":"Feature","geometry":{"type":"Point","coordinates":[-84.524939,42.740054]}},{"properties":{"city":"Battle Creek","zip":"49015","adress":"430 N. 21 Street","geo_score":0.724,"id":"a6hcyolc4bv6","geo_precision":"zip"},"type":"Feature","geometry":{"type":"Point","coordinates":[-85.173602,42.298653]}},{"properties":{"city":"Leslie","zip":"49251","adress":"4320 Ridley Rd","geo_score":0.743,"id":"a6hcyoc5kbyb","geo_precision":"zip"},"type":"Feature","geometry":{"type":"Point","coordinates":[-84.317467,42.475592]}},{"properties":{"city":"Okemos","zip":"48864","adress":"4322 Greenwood Dr","geo_score":0.857,"id":"a6hcyon2hce6","geo_precision":"zip"},"type":"Feature","geometry":{"type":"Point","coordinates":[-84.425136,42.719534]}},{"properties":{"city":"Okemos","zip":"48864","adress":"4322 Greenwood Dr","geo_score":0.857,"id":"a6hcyojsqk7c","geo_precision":"zip"},"type":"Feature","geometry":{"type":"Point","coordinates":[-84.425136,42.719534]}},{"properties":{"city":"Okemos","zip":"48864","adress":"4322 Greenwood Dr","geo_score":0.857,"id":"a6hcyohq754i","geo_precision":"zip"},"type":"Feature","geometry":{"type":"Point","coordinates":[-84.425136,42.719534]}},{"properties":{"city":"Lake Orion","zip":"48362","adress":"4337 Crystal Creek Dr","geo_score":0.857,"id":"a6hcyon0yunm","geo_precision":"zip"},"type":"Feature","geometry":{"type":"Point","coordinates":[-83.274778,42.776329]}},{"properties":{"city":"Clarkston","zip":"48348","adress":"4457 Newcastle Dr","geo_score":0.857,"id":"a6hcyofz0529","geo_precision":"zip"},"type":"Feature","geometry":{"type":"Point","coordinates":[-83.403984,42.760507]}},{"properties":{"city":"East Lansing","zip":"48826","adress":"446 McDonel Hall","geo_score":0.857,"id":"a6hcyoi3tixi","geo_precision":"zip"},"type":"Feature","geometry":{"type":"Point","coordinates":[-84.371973,42.599184]}},{"properties":{"city":"Okemos","zip":"48864","adress":"4465 Kenneth Dr.","geo_score":0.857,"id":"a6hcyorrftmz","geo_precision":"zip"},"type":"Feature","geometry":{"type":"Point","coordinates":[-84.425136,42.719534]}},{"properties":{"city":"Okemos","zip":"48864","adress":"4485 Janice Lee Dr","geo_score":0.857,"id":"a6hcyos1w9gq","geo_precision":"zip"},"type":"Feature","geometry":{"type":"Point","coordinates":[-84.425136,42.719534]}},{"properties":{"city":"Holt","zip":"48842","adress":"4572 Holt Rd","geo_score":0.857,"id":"a6hcyopmtmv4","geo_precision":"zip"},"type":"Feature","geometry":{"type":"Point","coordinates":[-84.506522,42.639785]}},{"properties":{"city":"Central Lake","zip":"49622","adress":"4620 N. M-88","geo_score":0.857,"id":"a6hcyok7ttxf","geo_precision":"zip"},"type":"Feature","geometry":{"type":"Point","coordinates":[-85.25591,45.075986]}},{"properties":{"city":"East Lansing","zip":"48823","adress":"4634 S. Hagadorn Rd","geo_score":0.857,"id":"a6hcyofpkn6s","geo_precision":"zip"},"type":"Feature","geometry":{"type":"Point","coordinates":[-84.503527,42.737334]}},{"properties":{"city":"Perry","zip":"48872","adress":"4700 Bath Rd","geo_score":0.714,"id":"a6hcyof9y8v6","geo_precision":"zip"},"type":"Feature","geometry":{"type":"Point","coordinates":[-84.123853,42.776977]}},{"properties":{"city":"Lansing","zip":"48917","adress":"4727 Gull Rd","geo_score":0.735,"id":"a6hcyoc86tkj","geo_precision":"zip"},"type":"Feature","geometry":{"type":"Point","coordinates":[-84.620815,42.739202]}},{"properties":{"city":"Okemos","zip":"48864","adress":"4767 Cornell Rd","geo_score":0.857,"id":"a6hcyolvn8tf","geo_precision":"zip"},"type":"Feature","geometry":{"type":"Point","coordinates":[-84.425136,42.719534]}},{"properties":{"city":"Okemos","zip":"48864","adress":"4767 Cornell Rd","geo_score":0.857,"id":"a6hcyoloy5kn","geo_precision":"zip"},"type":"Feature","geometry":{"type":"Point","coordinates":[-84.425136,42.719534]}},{"properties":{"city":"Okemos","zip":"48864","adress":"4767 Cornell Rd","geo_score":0.857,"id":"a6hcyojhjyq3","geo_precision":"zip"},"type":"Feature","geometry":{"type":"Point","coordinates":[-84.425136,42.719534]}},{"properties":{"city":"Fowlerville","zip":"48836","adress":"4803 Millet Rd","geo_score":0.745,"id":"a6hcyok1gfcm","geo_precision":"zip"},"type":"Feature","geometry":{"type":"Point","coordinates":[-84.113292,42.56809]}},{"properties":{"city":"Lansing","zip":"48917","adress":"4831 Gull Rd","geo_score":0.735,"id":"a6hcyoocxqj5","geo_precision":"zip"},"type":"Feature","geometry":{"type":"Point","coordinates":[-84.620815,42.739202]}},{"properties":{"city":"East Lansing","zip":"48825","adress":"486 E. Mcdonel","geo_score":0.857,"id":"a6hcyonttoxo","geo_precision":"zip"},"type":"Feature","geometry":{"type":"Point","coordinates":[-84.464775,42.723784]}},{"properties":{"city":"Wixom","zip":"48393","adress":"48813 West Rd","geo_score":0.857,"id":"a6hcyojky7mo","geo_precision":"zip"},"type":"Feature","geometry":{"type":"Point","coordinates":[-83.549145,42.520533]}},{"properties":{"city":"Wixom","zip":"48393","adress":"48813 West Rd","geo_score":0.857,"id":"a6hcyofuzmyo","geo_precision":"zip"},"type":"Feature","geometry":{"type":"Point","coordinates":[-83.549145,42.520533]}},{"properties":{"city":"Wixom","zip":"48393","adress":"48813 West Rd","geo_score":0.857,"id":"a6hcyolgxj8l","geo_precision":"zip"},"type":"Feature","geometry":{"type":"Point","coordinates":[-83.549145,42.520533]}},{"properties":{"city":"Lansing","zip":"48917","adress":"4909 Palisade Dr","geo_score":0.735,"id":"a6hcyopwn4ot","geo_precision":"zip"},"type":"Feature","geometry":{"type":"Point","coordinates":[-84.620815,42.739202]}},{"properties":{"city":"Lansing","zip":"48910","adress":"4924 Belle Chase #101","geo_score":0.857,"id":"a6hcyoh7i73n","geo_precision":"zip"},"type":"Feature","geometry":{"type":"Point","coordinates":[-84.518543,42.703435]}},{"properties":{"city":"Galesburg","zip":"49053","adress":"4924 Catskill","geo_score":0.786,"id":"a6hcyollqtmg","geo_precision":"zip"},"type":"Feature","geometry":{"type":"Point","coordinates":[-85.403613,42.335041]}},{"properties":{"city":"Battle Creek","zip":"49015","adress":"5 Terrace Ave","geo_score":0.724,"id":"a6hcyop31mvc","geo_precision":"zip"},"type":"Feature","geometry":{"type":"Point","coordinates":[-85.173602,42.298653]}},{"properties":{"city":"East Lansing","zip":"48823","adress":"510 Butterfield","geo_score":0.857,"id":"a6hcyoq8ryiy","geo_precision":"zip"},"type":"Feature","geometry":{"type":"Point","coordinates":[-84.503527,42.737334]}},{"properties":{"city":"East Lansing","zip":"48823","adress":"5129 Wardcliff","geo_score":0.857,"id":"a6hcyoqnz62g","geo_precision":"zip"},"type":"Feature","geometry":{"type":"Point","coordinates":[-84.503527,42.737334]}},{"properties":{"city":"Whitmore Lake","zip":"48189","adress":"5132 Lisch","geo_score":0.857,"id":"a6hcyofxqhnb","geo_precision":"zip"},"type":"Feature","geometry":{"type":"Point","coordinates":[-83.783736,42.386914]}},{"properties":{"city":"East Lansing","zip":"48824","adress":"519 East Akers","geo_score":0.857,"id":"a6hcyohkv3tt","geo_precision":"zip"},"type":"Feature","geometry":{"type":"Point","coordinates":[-84.488226,42.728334]}},{"properties":{"city":"Western Spring","zip":"60558","adress":"5208 Eliington Ave","geo_score":0.847,"id":"a6hcyonp214a","geo_precision":"zip"},"type":"Feature","geometry":{"type":"Point","coordinates":[-87.68732,41.811929]}},{"properties":{"city":"Flushing","zip":"48433","adress":"522 Autumn Dr","geo_score":0.714,"id":"a6hcyoldvand","geo_precision":"zip"},"type":"Feature","geometry":{"type":"Point","coordinates":[-83.886631,43.117805]}},{"properties":{"city":"East Lansing","zip":"48824","adress":"525 East Akers","geo_score":0.857,"id":"a6hcyorkufqd","geo_precision":"zip"},"type":"Feature","geometry":{"type":"Point","coordinates":[-84.488226,42.728334]}},{"properties":{"city":"Lansing","zip":"48911","adress":"530 W. Allegan","geo_score":0.857,"id":"a6hcyor53w36","geo_precision":"zip"},"type":"Feature","geometry":{"type":"Point","coordinates":[-84.543494,42.680335]}},{"properties":{"city":"Haslett","zip":"48840","adress":"5304 Chantilly Lane","geo_score":0.857,"id":"a6hcyodphnna","geo_precision":"zip"},"type":"Feature","geometry":{"type":"Point","coordinates":[-84.378655,42.750324]}},{"properties":{"city":"East Lansing","zip":"48823","adress":"532 Park Ln.","geo_score":0.857,"id":"a6hcyofyxwtc","geo_precision":"zip"},"type":"Feature","geometry":{"type":"Point","coordinates":[-84.503527,42.737334]}},{"properties":{"city":"Vassar","zip":"48768","adress":"5359 Hardy Rd","geo_score":0.738,"id":"a6hcyoqmwbeb","geo_precision":"zip"},"type":"Feature","geometry":{"type":"Point","coordinates":[-83.523013,43.452244]}},{"properties":{"city":"Vassar","zip":"48768","adress":"5359 Hardy Rd","geo_score":0.738,"id":"a6hcyoetvvjd","geo_precision":"zip"},"type":"Feature","geometry":{"type":"Point","coordinates":[-83.523013,43.452244]}},{"properties":{"city":"Haslett","zip":"48840","adress":"5516 Marsh Rd","geo_score":0.857,"id":"a6hcyomx6cow","geo_precision":"zip"},"type":"Feature","geometry":{"type":"Point","coordinates":[-84.378655,42.750324]}},{"properties":{"city":"East Lansing","zip":"48823","adress":"556 Buteo Dr","geo_score":0.857,"id":"a6hcyodszhdh","geo_precision":"zip"},"type":"Feature","geometry":{"type":"Point","coordinates":[-84.503527,42.737334]}},{"properties":{"city":"Haslett","zip":"48840","adress":"5576 Coral Way","geo_score":0.857,"id":"a6hcyopzwjiw","geo_precision":"zip"},"type":"Feature","geometry":{"type":"Point","coordinates":[-84.378655,42.750324]}},{"properties":{"city":"Mason","zip":"48854","adress":"558 Rolfe Dr","geo_score":0.857,"id":"a6hcyocbql4m","geo_precision":"zip"},"type":"Feature","geometry":{"type":"Point","coordinates":[-84.460273,42.574335]}},{"properties":{"city":"Howell","zip":"48843","adress":"563 N. Hughes Rd","geo_score":0.735,"id":"a6hcyoo3oh8i","geo_precision":"zip"},"type":"Feature","geometry":{"type":"Point","coordinates":[-83.861613,42.526978]}},{"properties":{"city":"Bloomfield","zip":"48301","adress":"5634 Pebbleshire","geo_score":0.794,"id":"a6hcyoju86u7","geo_precision":"zip"},"type":"Feature","geometry":{"type":"Point","coordinates":[-83.273418,42.575599]}},{"properties":{"city":"East Lansing","zip":"48823","adress":"567 Cornell Ave","geo_score":0.857,"id":"a6hcyodlyyof","geo_precision":"zip"},"type":"Feature","geometry":{"type":"Point","coordinates":[-84.503527,42.737334]}},{"properties":{"city":"East Lansing","zip":"48823","adress":"569 Cornell","geo_score":0.857,"id":"a6hcyojfpy5t","geo_precision":"zip"},"type":"Feature","geometry":{"type":"Point","coordinates":[-84.503527,42.737334]}},{"properties":{"city":"East Lansing","zip":"48823","adress":"569 Cornell","geo_score":0.857,"id":"a6hcyoorl9bz","geo_precision":"zip"},"type":"Feature","geometry":{"type":"Point","coordinates":[-84.503527,42.737334]}},{"properties":{"city":"East Lansing","zip":"48823","adress":"569 Cornell","geo_score":0.857,"id":"a6hcyopv3blq","geo_precision":"zip"},"type":"Feature","geometry":{"type":"Point","coordinates":[-84.503527,42.737334]}},{"properties":{"city":"Haslett","zip":"48840","adress":"5818 Wood Valley Dr","geo_score":0.857,"id":"a6hcyoh8ooqt","geo_precision":"zip"},"type":"Feature","geometry":{"type":"Point","coordinates":[-84.378655,42.750324]}},{"properties":{"city":"Haslett","zip":"48840","adress":"5915 Shoeeman","geo_score":0.857,"id":"a6hcyojanvnr","geo_precision":"zip"},"type":"Feature","geometry":{"type":"Point","coordinates":[-84.378655,42.750324]}},{"properties":{"city":"Haslett","zip":"48840","adress":"5915 Shoeman","geo_score":0.857,"id":"a6hcyoirin38","geo_precision":"zip"},"type":"Feature","geometry":{"type":"Point","coordinates":[-84.378655,42.750324]}},{"properties":{"city":"Haslett","zip":"48840","adress":"5915 Shoeman","geo_score":0.857,"id":"a6hcyok3g6dn","geo_precision":"zip"},"type":"Feature","geometry":{"type":"Point","coordinates":[-84.378655,42.750324]}},{"properties":{"city":"Haslett","zip":"48840","adress":"5984 Bois Ile Dr","geo_score":0.857,"id":"a6hcyogyzdny","geo_precision":"zip"},"type":"Feature","geometry":{"type":"Point","coordinates":[-84.378655,42.750324]}},{"properties":{"city":"Lansing","zip":"48917","adress":"6040 Stoney Pt","geo_score":0.735,"id":"a6hcyofnhvv1","geo_precision":"zip"},"type":"Feature","geometry":{"type":"Point","coordinates":[-84.620815,42.739202]}},{"properties":{"city":"Midland","zip":"48640","adress":"609 Shorefront Circle","geo_score":0.73,"id":"a6hcyog352mt","geo_precision":"zip"},"type":"Feature","geometry":{"type":"Point","coordinates":[-84.470002,43.58364]}},{"properties":{"city":"Lansing","zip":"48917","adress":"6162 Worthmore Ave","geo_score":0.735,"id":"a6hcyoh0ujie","geo_precision":"zip"},"type":"Feature","geometry":{"type":"Point","coordinates":[-84.620815,42.739202]}},{"properties":{"city":"East Lansing","zip":"48823","adress":"6173 Porter Ave","geo_score":0.857,"id":"a6hcyocf69oo","geo_precision":"zip"},"type":"Feature","geometry":{"type":"Point","coordinates":[-84.503527,42.737334]}},{"properties":{"city":"Midland","zip":"48642","adress":"6209 Millbrook Dr","geo_score":0.755,"id":"a6hcyogbnbpl","geo_precision":"zip"},"type":"Feature","geometry":{"type":"Point","coordinates":[-84.409165,43.589195]}},{"properties":{"city":"Lansing","zip":"48911","adress":"6269 Balfour Dr","geo_score":0.857,"id":"a6hcyonscawy","geo_precision":"zip"},"type":"Feature","geometry":{"type":"Point","coordinates":[-84.543494,42.680335]}},{"properties":{"city":"Fowlerville","zip":"48836","adress":"6300 Raddatz","geo_score":0.745,"id":"a6hcyogg3q4q","geo_precision":"zip"},"type":"Feature","geometry":{"type":"Point","coordinates":[-84.113292,42.56809]}},{"properties":{"city":"Haslett","zip":"48840","adress":"6308 Green Rd","geo_score":0.857,"id":"a6hcyoe6vcri","geo_precision":"zip"},"type":"Feature","geometry":{"type":"Point","coordinates":[-84.378655,42.750324]}},{"properties":{"city":"Haslett","zip":"48840","adress":"6308 Green Rd","geo_score":0.857,"id":"a6hcyofm1aqk","geo_precision":"zip"},"type":"Feature","geometry":{"type":"Point","coordinates":[-84.378655,42.750324]}},{"properties":{"city":"Haslett","zip":"48840","adress":"6308 Green Rd","geo_score":0.857,"id":"a6hcyonzhxtj","geo_precision":"zip"},"type":"Feature","geometry":{"type":"Point","coordinates":[-84.378655,42.750324]}},{"properties":{"city":"Haslett","zip":"48840","adress":"6323 Royal Oak Rd","geo_score":0.857,"id":"a6hcyokv0rn9","geo_precision":"zip"},"type":"Feature","geometry":{"type":"Point","coordinates":[-84.378655,42.750324]}},{"properties":{"city":"Haslett","zip":"48840","adress":"6377 Shoeman Rd","geo_score":0.857,"id":"a6hcyol1fvcr","geo_precision":"zip"},"type":"Feature","geometry":{"type":"Point","coordinates":[-84.378655,42.750324]}},{"properties":{"city":"Haslett","zip":"48840","adress":"6377 Shoeman Rd","geo_score":0.857,"id":"a6hcyor0p1xt","geo_precision":"zip"},"type":"Feature","geometry":{"type":"Point","coordinates":[-84.378655,42.750324]}},{"properties":{"city":"Williamston","zip":"48895","adress":"6430 Lounsbury","geo_score":0.857,"id":"a6hcyoigu760","geo_precision":"zip"},"type":"Feature","geometry":{"type":"Point","coordinates":[-84.271215,42.680434]}},{"properties":{"city":"East Lansing","zip":"48825","adress":"644 Shaw Hall West","geo_score":0.857,"id":"a6hcyoklzdl6","geo_precision":"zip"},"type":"Feature","geometry":{"type":"Point","coordinates":[-84.464775,42.723784]}},{"properties":{"city":"East Lansing","zip":"48825","adress":"644 W. Shaw Hall","geo_score":0.857,"id":"a6hcyogy076x","geo_precision":"zip"},"type":"Feature","geometry":{"type":"Point","coordinates":[-84.464775,42.723784]}},{"properties":{"city":"East Lansing","zip":"48823","adress":"6452 Ocha Dr","geo_score":0.857,"id":"a6hcyojtq31j","geo_precision":"zip"},"type":"Feature","geometry":{"type":"Point","coordinates":[-84.503527,42.737334]}},{"properties":{"city":"Grayling","zip":"49738","adress":"6538 Old Lake Rd.","geo_score":0.762,"id":"a6hcyos4azcl","geo_precision":"zip"},"type":"Feature","geometry":{"type":"Point","coordinates":[-84.808367,44.665014]}},{"properties":{"city":"East Lansing","zip":"48823","adress":"666 Butterfield","geo_score":0.857,"id":"a6hcyop3503f","geo_precision":"zip"},"type":"Feature","geometry":{"type":"Point","coordinates":[-84.503527,42.737334]}},{"properties":{"city":"East Lansing","zip":"48823","adress":"666 Butterfield","geo_score":0.857,"id":"a6hcyoeaf50h","geo_precision":"zip"},"type":"Feature","geometry":{"type":"Point","coordinates":[-84.503527,42.737334]}},{"properties":{"city":"East Lansing","zip":"48825","adress":"668 Snyder","geo_score":0.857,"id":"a6hcyosm3aq9","geo_precision":"zip"},"type":"Feature","geometry":{"type":"Point","coordinates":[-84.464775,42.723784]}},{"properties":{"city":"East Lansing","zip":"48823","adress":"674 Wayland Ave","geo_score":0.857,"id":"a6hcyogho2wx","geo_precision":"zip"},"type":"Feature","geometry":{"type":"Point","coordinates":[-84.503527,42.737334]}},{"properties":{"city":"Springport","zip":"49284","adress":"681 N. Shore Dr.","geo_score":0.857,"id":"a6hcyodhpkm9","geo_precision":"zip"},"type":"Feature","geometry":{"type":"Point","coordinates":[-84.630106,42.37823]}},{"properties":{"city":"Saginaw","zip":"48603","adress":"6978 Trowbridge","geo_score":0.735,"id":"a6hcyoh3jvuu","geo_precision":"zip"},"type":"Feature","geometry":{"type":"Point","coordinates":[-84.056366,43.415304]}},{"properties":{"city":"Ludington","zip":"49431","adress":"7039 Abrahamson Rd","geo_score":0.726,"id":"a6hcyodfq3qw","geo_precision":"zip"},"type":"Feature","geometry":{"type":"Point","coordinates":[-86.466751,43.97806]}},{"properties":{"city":"East Lansing","zip":"48823","adress":"704 Beech St.","geo_score":0.857,"id":"a6hcyon04uu9","geo_precision":"zip"},"type":"Feature","geometry":{"type":"Point","coordinates":[-84.503527,42.737334]}},{"properties":{"city":"Fenton","zip":"48430","adress":"7080 Driftwood","geo_score":0.714,"id":"a6hcyok4xw27","geo_precision":"zip"},"type":"Feature","geometry":{"type":"Point","coordinates":[-83.782171,42.691975]}},{"properties":{"city":"Mt. Pleasant","zip":"48854","adress":"713 S. Main St","geo_score":0.771,"id":"a6hcyos04ext","geo_precision":"zip"},"type":"Feature","geometry":{"type":"Point","coordinates":[-84.460273,42.574335]}},{"properties":{"city":"Howell","zip":"48843","adress":"738 West Grand River","geo_score":0.735,"id":"a6hcyoph7f3j","geo_precision":"zip"},"type":"Feature","geometry":{"type":"Point","coordinates":[-83.861613,42.526978]}},{"properties":{"city":"Lansing","zip":"48917","adress":"7427 Chellmar Dr","geo_score":0.735,"id":"a6hcyomtf2s0","geo_precision":"zip"},"type":"Feature","geometry":{"type":"Point","coordinates":[-84.620815,42.739202]}},{"properties":{"city":"Portland","zip":"48875","adress":"7528 Grand River Trail","geo_score":0.729,"id":"a6hcyoh9dilv","geo_precision":"zip"},"type":"Feature","geometry":{"type":"Point","coordinates":[-85.05389,42.843089]}},{"properties":{"city":"Lansing","zip":"48917","adress":"7736 Heritage Dr","geo_score":0.735,"id":"a6hcyoomno3m","geo_precision":"zip"},"type":"Feature","geometry":{"type":"Point","coordinates":[-84.620815,42.739202]}},{"properties":{"city":"Portland","zip":"48875","adress":"7793 Friend Rd","geo_score":0.729,"id":"a6hcyolazrp2","geo_precision":"zip"},"type":"Feature","geometry":{"type":"Point","coordinates":[-85.05389,42.843089]}},{"properties":{"city":"Haslett","zip":"48840","adress":"7804 Ashbrook","geo_score":0.857,"id":"a6hcyoi0t3ko","geo_precision":"zip"},"type":"Feature","geometry":{"type":"Point","coordinates":[-84.378655,42.750324]}},{"properties":{"city":"Haslett","zip":"48840","adress":"7804 Ashbrook","geo_score":0.857,"id":"a6hcyomgu640","geo_precision":"zip"},"type":"Feature","geometry":{"type":"Point","coordinates":[-84.378655,42.750324]}},{"properties":{"city":"Haslett","zip":"48840","adress":"7804 Ashbrook","geo_score":0.857,"id":"a6hcyojd2n63","geo_precision":"zip"},"type":"Feature","geometry":{"type":"Point","coordinates":[-84.378655,42.750324]}},{"properties":{"city":"Haslett","zip":"48840","adress":"7804 Ashbrook","geo_score":0.857,"id":"a6hcyooracyy","geo_precision":"zip"},"type":"Feature","geometry":{"type":"Point","coordinates":[-84.378655,42.750324]}},{"properties":{"city":"Clarkston","zip":"48348","adress":"8183 Sashabaw Ridge","geo_score":0.857,"id":"a6hcyos1ru6w","geo_precision":"zip"},"type":"Feature","geometry":{"type":"Point","coordinates":[-83.403984,42.760507]}},{"properties":{"city":"Richland","zip":"49083","adress":"8228 Gull Rd","geo_score":0.73,"id":"a6hcyoqvzhcm","geo_precision":"zip"},"type":"Feature","geometry":{"type":"Point","coordinates":[-85.40167,42.375317]}},{"properties":{"city":"Richland","zip":"49083","adress":"8351 Yale","geo_score":0.73,"id":"a6hcyor7tn25","geo_precision":"zip"},"type":"Feature","geometry":{"type":"Point","coordinates":[-85.40167,42.375317]}},{"properties":{"city":"Bloomfield Hills","zip":"48302","adress":"842 Harvest Lane","geo_score":0.857,"id":"a6hcyod8tu60","geo_precision":"zip"},"type":"Feature","geometry":{"type":"Point","coordinates":[-83.282116,42.584789]}},{"properties":{"city":"Haslett","zip":"48840","adress":"8501 Old M-78","geo_score":0.857,"id":"a6hcyoqjogrl","geo_precision":"zip"},"type":"Feature","geometry":{"type":"Point","coordinates":[-84.378655,42.750324]}},{"properties":{"city":"Haslett","zip":"48840","adress":"8501 Old M-78","geo_score":0.857,"id":"a6hcyocka5h9","geo_precision":"zip"},"type":"Feature","geometry":{"type":"Point","coordinates":[-84.378655,42.750324]}},{"properties":{"city":"Fenwick","zip":"48834","adress":"8800 Vickeryville Rd","geo_score":0.857,"id":"a6hcyop4zefg","geo_precision":"zip"},"type":"Feature","geometry":{"type":"Point","coordinates":[-85.045217,43.292973]}},{"properties":{"city":"Cadillac","zip":"49601","adress":"8932 Lamplighter Lane","geo_score":0.743,"id":"a6hcyoo49157","geo_precision":"zip"},"type":"Feature","geometry":{"type":"Point","coordinates":[-85.539782,44.353061]}},{"properties":{"city":"Laingsburg","zip":"48848","adress":"8961 Scenic Lake Dr.","geo_score":0.857,"id":"a6hcyop15yb8","geo_precision":"zip"},"type":"Feature","geometry":{"type":"Point","coordinates":[-84.313294,42.879874]}},{"properties":{"city":"East Lansing","zip":"48823","adress":"911 Blanchette","geo_score":0.857,"id":"a6hcyokupe8z","geo_precision":"zip"},"type":"Feature","geometry":{"type":"Point","coordinates":[-84.503527,42.737334]}},{"properties":{"city":"East Lansing","zip":"48823","adress":"917 Southlawn","geo_score":0.857,"id":"a6hcyogtgks4","geo_precision":"zip"},"type":"Feature","geometry":{"type":"Point","coordinates":[-84.503527,42.737334]}},{"properties":{"city":"East Lansing","zip":"48823","adress":"917 Southlawn","geo_score":0.857,"id":"a6hcyomsqr6m","geo_precision":"zip"},"type":"Feature","geometry":{"type":"Point","coordinates":[-84.503527,42.737334]}},{"properties":{"city":"East Lansing","zip":"48823","adress":"917 Southlawn","geo_score":0.857,"id":"a6hcyoc3m0jj","geo_precision":"zip"},"type":"Feature","geometry":{"type":"Point","coordinates":[-84.503527,42.737334]}},{"properties":{"city":"Livonia","zip":"48150","adress":"9175 Houghton St","geo_score":0.857,"id":"a6hcyop5t25i","geo_precision":"zip"},"type":"Feature","geometry":{"type":"Point","coordinates":[-83.371753,42.369351]}},{"properties":{"city":"Lansing","zip":"48917","adress":"918 Clark Rd","geo_score":0.735,"id":"a6hcyodwdlne","geo_precision":"zip"},"type":"Feature","geometry":{"type":"Point","coordinates":[-84.620815,42.739202]}},{"properties":{"city":"Laingsburg","zip":"48848","adress":"9336 Lookout Point Dr","geo_score":0.857,"id":"a6hcyomad405","geo_precision":"zip"},"type":"Feature","geometry":{"type":"Point","coordinates":[-84.313294,42.879874]}},{"properties":{"city":"East Lansing","zip":"48823","adress":"936 Southlawn","geo_score":0.857,"id":"a6hcyok7sgqi","geo_precision":"zip"},"type":"Feature","geometry":{"type":"Point","coordinates":[-84.503527,42.737334]}},{"properties":{"city":"East Lansing","zip":"48823","adress":"939 Burcham","geo_score":0.857,"id":"a6hcyokgcm9j","geo_precision":"zip"},"type":"Feature","geometry":{"type":"Point","coordinates":[-84.503527,42.737334]}},{"properties":{"city":"Litchfield","zip":"49252","adress":"9411 W. Litchfield Rd","geo_score":0.857,"id":"a6hcyocd904r","geo_precision":"zip"},"type":"Feature","geometry":{"type":"Point","coordinates":[-84.619228,42.029101]}},{"properties":{"city":"Birmingham","zip":"48009","adress":"950 Oxford","geo_score":0.857,"id":"a6hcyoiuhctr","geo_precision":"zip"},"type":"Feature","geometry":{"type":"Point","coordinates":[-83.22416,42.534834]}},{"properties":{"city":"East Lansing","zip":"48823","adress":"951 Westlawn","geo_score":0.857,"id":"a6hcyogzmsas","geo_precision":"zip"},"type":"Feature","geometry":{"type":"Point","coordinates":[-84.503527,42.737334]}},{"properties":{"city":"East Lansing","zip":"48823","adress":"979 Longfellow Dr","geo_score":0.857,"id":"a6hcyog7j3zs","geo_precision":"zip"},"type":"Feature","geometry":{"type":"Point","coordinates":[-84.503527,42.737334]}},{"properties":{"city":"Bancroft","zip":"48414","adress":"PO Box 158","geo_score":0.857,"id":"a6hcyolbz600","geo_precision":"zip"},"type":"Feature","geometry":{"type":"Point","coordinates":[-84.083097,42.865732]}},{"properties":{"city":"Grayling","zip":"49738","adress":"PO Box 158","geo_score":0.762,"id":"a6hcyonnlx95","geo_precision":"zip"},"type":"Feature","geometry":{"type":"Point","coordinates":[-84.808367,44.665014]}},{"properties":{"city":"Lansing","zip":"48909","adress":"PO Box 23146","geo_score":0.857,"id":"a6hcyosa0drm","geo_precision":"zip"},"type":"Feature","geometry":{"type":"Point","coordinates":[-84.371973,42.599184]}},{"properties":{"city":"Lansing","zip":"48909","adress":"PO Box 26134","geo_score":0.857,"id":"a6hcyomsspla","geo_precision":"zip"},"type":"Feature","geometry":{"type":"Point","coordinates":[-84.371973,42.599184]}},{"properties":{"city":"East Lansing","zip":"48826","adress":"PO Box 4098","geo_score":0.857,"id":"a6hcyomxux84","geo_precision":"zip"},"type":"Feature","geometry":{"type":"Point","coordinates":[-84.371973,42.599184]}},{"properties":{"city":"Grayling","zip":"49738","adress":"PO Box 472","geo_score":0.762,"id":"a6hcyojsqcnr","geo_precision":"zip"},"type":"Feature","geometry":{"type":"Point","coordinates":[-84.808367,44.665014]}},{"properties":{"city":"East Lansing","zip":"48825","adress":"Y211 Yakely-Gilcrest","geo_score":0.857,"id":"a6hcyofj58li","geo_precision":"zip"},"type":"Feature","geometry":{"type":"Point","coordinates":[-84.464775,42.723784]}}],"is_temporal":false,"author":{"url":"","metadata":"","contact_name":"","contact_address":"","source":"","contact_phone":""},"source":"","pagination":{"sort":null,"start":0,"total":272,"limit":1000000},"state":"complete","tags":"","published":"2014-08-10T17:51:29-04:00","id":75089}