{"type":"FeatureCollection","data_type":"Dataset","url_type":null,"permissions":[{"permissions":{"download":true,"view":true},"group_id":"everyone"}],"classification":null,"title":"Residence Inn by Marriott Hotels, USA, 11.2008 ","count":565,"stream_id":7509,"contributor":{"url":"http://geocommons.com/users/139","name":"Burkey"},"data_attributes":null,"calculation_params":null,"icon_link":null,"link":"http://geocommons.com/overlays/7509.json","extent":[-149.863,25.7304,-67.5772,61.1895],"geometry_types":["point"],"unique_name":null,"name":"Residence Inn by Marriott Hotels, USA, 11.2008 ","feature_count":565,"description":"This dataset locates all Residence Inn by Marriott Hotels in the USA as of 11.2008. Residence Inn by Marriott Hotels is a franchise under Marriott International, Inc.. \nMarriott International describes the franchise as: \n•\tDesigned as &quot;home away from home&quot; for travelers staying 5 or more nights\n•\tResidential atmosphere with spacious accommodations\n•\t547 Residence Inn by Marriott locations worldwide; 529 US, 18 international\n•\tFeatures include:\n  -  Complimentary hot breakfast\n  -  Evening hospitality hour\n  -  Swimming pool\n  -  Sport Court\n  -  Personalized grocery shopping\n  -  Daily housekeeping\n  -  Guest suites with separate living and sleeping areas\n  -  Fully equipped kitchen\n  -  Work space with data ports and voicemail\nMarriott International Inc. franchise hotels include: Marriott Hotels &amp; Resorts, JW Marriott Hotels &amp; Resorts, Renaissance Hotels &amp; Resorts, Courtyard by Marriott, Residence Inn by Marriott, Fairfield Inn by Marriott, Marriott Conference Centers, TownePlace Suites by Marriott, SpringHill Suites by Marriott, Marriott Vacation Club International, and The Ritz-Carlton Hotel Company, LLC. These are only hotels and do not include long term lodging franchises.\nThe data includes: Hotel Name, Address, City, State, Zip, Phone, and lat/lon position. The lat/lon position was obtained by geocoding the street address of the hotel at gpsvisualizer.com/geocoder. Some of these hotels are just opening or about to open and some of the data is incomplete. Please refer to the provided websites for more information about these hotels.\nAlso individual datasets are available for all other Marriott International Franchise Hotels and a dataset that contains all of the Franchise Hotels together on Finder! These datasets provide locations as this dataset does.\n","next_feature":null,"is_raster":false,"short_classification":"Y","stats":{"lon":{"max":-67.577217,"mean":-91.4630969734513,"variance":247.261980065003,"stdev":15.7245661328064,"min":-149.86274,"median":-86.270251},"zip":{"max":99508,"mean":50776.8283185841,"variance":886430995.812671,"stdev":29772.9910457897,"min":1089,"median":46323},"lat":{"max":61.189489,"mean":37.1229955256638,"variance":25.4918562832737,"stdev":5.04894605668091,"min":25.730433,"median":38.076631}},"features":[{"properties":{"city":"Aberdeen","lon":-76.186225,"zip":21001,"hotel":"Residence Inn Aberdeen at Ripken Stadium","phone":"1 410-272-0444","id":"a63gg2j70l06","address":"830 Long Drive","lat":39.531923,"state":"MD"},"type":"Feature","geometry":{"type":"Point","coordinates":[-76.186225,39.531923]}},{"properties":{"city":"Abilene","lon":-99.691757,"zip":79601,"hotel":"Residence Inn Abilene","phone":"1 325-677-8700","id":"a63gg2mfpqyo","address":"1641 Musgrave Blvd","lat":32.473653,"state":"TX"},"type":"Feature","geometry":{"type":"Point","coordinates":[-99.691757,32.473653]}},{"properties":{"city":"Akron","lon":-81.65361,"zip":44321,"hotel":"Residence Inn Akron","phone":"1 330-666-4811","id":"a63gg2iu4iqo","address":"120 Montrose West Avenue","lat":41.131458,"state":"OH"},"type":"Feature","geometry":{"type":"Point","coordinates":[-81.65361,41.131458]}},{"properties":{"city":"Latham","lon":-73.810738,"zip":12110,"hotel":"Residence Inn Albany Airport","phone":"1 518-783-0600","id":"a63gg2mtiax8","address":"1 Residence Inn Drive","lat":42.765366,"state":"NY"},"type":"Feature","geometry":{"type":"Point","coordinates":[-73.810738,42.765366]}},{"properties":{"city":"East Greenbush","lon":-73.698815,"zip":12061,"hotel":"Residence Inn Albany East Greenbush/Tech Valley","phone":"1 518-720-3600","id":"a63gg2oreg8b","address":"3 Tech Valley Drive","lat":42.630213,"state":"NY"},"type":"Feature","geometry":{"type":"Point","coordinates":[-73.698815,42.630213]}},{"properties":{"city":"Albuquerque","lon":-106.606757,"zip":87107,"hotel":"Residence Inn Albuquerque","phone":"1 505-881-2661","id":"a63gg2me9k4q","address":"3300 Prospect Avenue NE","lat":35.107312,"state":"NM"},"type":"Feature","geometry":{"type":"Point","coordinates":[-106.606757,35.107312]}},{"properties":{"city":"Albuquerque","lon":-106.621488,"zip":87106,"hotel":"Residence Inn Albuquerque Airport","phone":"1 505-242-2844","id":"a63gg2vijgwj","address":"2301 International Ave SE","lat":35.061604,"state":"NM"},"type":"Feature","geometry":{"type":"Point","coordinates":[-106.621488,35.061604]}},{"properties":{"city":"Albuquerque","lon":-106.594322,"zip":87109,"hotel":"Residence Inn Albuquerque North","phone":"1 505-761-0200","id":"a63gg2ks8n9p","address":"4331 The Lane @25 NE","lat":35.146889,"state":"NM"},"type":"Feature","geometry":{"type":"Point","coordinates":[-106.594322,35.146889]}},{"properties":{"city":"Alexandria","lon":-77.057439,"zip":22314,"hotel":"Residence Inn Alexandria Old Town","phone":"1 703-548-5474","id":"a63gg2io7bn1","address":"1456 Duke Street","lat":38.803927,"state":"VA"},"type":"Feature","geometry":{"type":"Point","coordinates":[-77.057439,38.803927]}},{"properties":{"city":"Alexandria","lon":-77.067269,"zip":22314,"hotel":"Residence Inn Alexandria at Carlyle","phone":"1 703-549-1155","id":"a63gg2tmz984","address":"2345 Mill Road","lat":38.802175,"state":"VA"},"type":"Feature","geometry":{"type":"Point","coordinates":[-77.067269,38.802175]}},{"properties":{"city":"Bethlehem","lon":-75.426033,"zip":18018,"hotel":"Residence Inn Allentown Bethlehem/Route 22","phone":"1 610-317-2662","id":"a63gg2rzg4me","address":"2180 Motel Drive","lat":40.644664,"state":"PA"},"type":"Feature","geometry":{"type":"Point","coordinates":[-75.426033,40.644664]}},{"properties":{"city":"Amarillo","lon":-101.912188,"zip":79106,"hotel":"Residence Inn Amarillo","phone":"1 806-354-2978","id":"a63gg2nxkh9r","address":"6700 Interstate 40 West","lat":35.188433,"state":"TX"},"type":"Feature","geometry":{"type":"Point","coordinates":[-101.912188,35.188433]}},{"properties":{"city":"Anaheim Hills","lon":-117.752296,"zip":92808,"hotel":"Residence Inn Anaheim Hills Yorba Linda","phone":"1 714-974-8880","id":"a63gg2t0gouu","address":"125 South Festival Drive","lat":33.867416,"state":"CA"},"type":"Feature","geometry":{"type":"Point","coordinates":[-117.752296,33.867416]}},{"properties":{"city":"Anaheim","lon":-117.909951,"zip":92802,"hotel":"Residence Inn Anaheim Maingate","phone":"1 714-533-3555","id":"a63gg2xoajui","address":"1700 South Clementine Street","lat":33.806849,"state":"CA"},"type":"Feature","geometry":{"type":"Point","coordinates":[-117.909951,33.806849]}},{"properties":{"city":"Placentia","lon":-117.880532,"zip":92870,"hotel":"Residence Inn Anaheim Placentia/Fullerton","phone":"1 714-996-0555","id":"a63gg2q4vkl9","address":"700 W Kimberly Avenue","lat":33.86285,"state":"CA"},"type":"Feature","geometry":{"type":"Point","coordinates":[-117.880532,33.86285]}},{"properties":{"city":"Garden Grove","lon":-117.915096,"zip":92840,"hotel":"Residence Inn Anaheim Resort Area/Garden Grove","phone":"1 714-591-4000","id":"a63gg2r3mlv6","address":"11931 Harbor Boulevard","lat":33.789174,"state":"CA"},"type":"Feature","geometry":{"type":"Point","coordinates":[-117.915096,33.789174]}},{"properties":{"city":"Anchorage","lon":-149.86274,"zip":99508,"hotel":"Residence Inn Anchorage Midtown","phone":"1 907-563-9844","id":"a63gg2nu8u4a","address":"1025 35th Avenue","lat":61.189489,"state":"AK"},"type":"Feature","geometry":{"type":"Point","coordinates":[-149.86274,61.189489]}},{"properties":{"city":"Ann Arbor","lon":-83.736831,"zip":48108,"hotel":"Residence Inn Ann Arbor","phone":"1 734-996-5666","id":"a63gg2oxpfla","address":"800 Victors Way","lat":42.239662,"state":"MI"},"type":"Feature","geometry":{"type":"Point","coordinates":[-83.736831,42.239662]}},{"properties":{"city":"Annapolis","lon":-76.55039,"zip":21401,"hotel":"Residence Inn Annapolis","phone":"1 410-573-0300","id":"a63gg2wlk62f","address":"170 Admiral Cochrane Drive","lat":38.973373,"state":"MD"},"type":"Feature","geometry":{"type":"Point","coordinates":[-76.55039,38.973373]}},{"properties":{"city":"Appleton","lon":-88.471643,"zip":54913,"hotel":"Residence Inn Appleton","phone":"1 920-954-0570","id":"a63gg2k6bdr5","address":"310 Metro Drive","lat":44.265222,"state":"WI"},"type":"Feature","geometry":{"type":"Point","coordinates":[-88.471643,44.265222]}},{"properties":{"city":"Arlington","lon":-97.066211,"zip":76006,"hotel":"Residence Inn Arlington","phone":"1 817-649-7300","id":"a63gg2yojt0y","address":"1050 Brookhollow Plaza Drive","lat":32.762576,"state":"TX"},"type":"Feature","geometry":{"type":"Point","coordinates":[-97.066211,32.762576]}},{"properties":{"city":"Arlington","lon":-77.055509,"zip":22202,"hotel":"Residence Inn Arlington Pentagon City","phone":"1 703-413-6630","id":"a63gg2koagbj","address":"550 Army Navy Drive","lat":38.864869,"state":"VA"},"type":"Feature","geometry":{"type":"Point","coordinates":[-77.055509,38.864869]}},{"properties":{"city":"Arlington","lon":-77.07343,"zip":22209,"hotel":"Residence Inn Arlington Rosslyn","phone":"1 703-812-8400","id":"a63gg2iwtrh9","address":"1651 North Oak Street","lat":38.893415,"state":"VA"},"type":"Feature","geometry":{"type":"Point","coordinates":[-77.07343,38.893415]}},{"properties":{"city":"Hanover","lon":-76.721054,"zip":21076,"hotel":"Residence Inn Arundel Mills BWI Airport","phone":"1 410-799-7332","id":"a63gg2rfge4y","address":"7035 Arundel Mills Circle","lat":39.157645,"state":"MD"},"type":"Feature","geometry":{"type":"Point","coordinates":[-76.721054,39.157645]}},{"properties":{"city":"Asheville","lon":-82.545592,"zip":28803,"hotel":"Residence Inn Asheville Biltmore","phone":"1 828-281-3361","id":"a63gg2psk768","address":"701 Biltmore Avenue","lat":35.572591,"state":"NC"},"type":"Feature","geometry":{"type":"Point","coordinates":[-82.545592,35.572591]}},{"properties":{"city":"Hapeville","lon":-84.422926,"zip":30354,"hotel":"Residence Inn Atlanta Airport North/Virginia Avenue","phone":"1 404-761-0511","id":"a63gg2vcjibq","address":"3401 International Boulevard","lat":33.661252,"state":"GA"},"type":"Feature","geometry":{"type":"Point","coordinates":[-84.422926,33.661252]}},{"properties":{"city":"Alpharetta","lon":-84.288483,"zip":30022,"hotel":"Residence Inn Atlanta Alpharetta/North Point Mall","phone":"1 770-587-1151","id":"a63gg2rlgvek","address":"1325 North Point Drive","lat":34.051322,"state":"GA"},"type":"Feature","geometry":{"type":"Point","coordinates":[-84.288483,34.051322]}},{"properties":{"city":"Alpharetta","lon":-84.242714,"zip":30004,"hotel":"Residence Inn Atlanta Alpharetta/Windward","phone":"1 770-664-0664","id":"a63gg2owezoi","address":"5465 Windward Pkwy West","lat":34.092422,"state":"GA"},"type":"Feature","geometry":{"type":"Point","coordinates":[-84.242714,34.092422]}},{"properties":{"city":"Atlanta","lon":-84.368157,"zip":30305,"hotel":"Residence Inn Atlanta Buckhead","phone":"1 404-239-0677","id":"a63gg2qkddk9","address":"2960 Piedmont Road NE","lat":33.835421,"state":"GA"},"type":"Feature","geometry":{"type":"Point","coordinates":[-84.368157,33.835421]}},{"properties":{"city":"Atlanta","lon":-84.347384,"zip":30319,"hotel":"Residence Inn Atlanta Buckhead/Lenox Park","phone":"1 404-467-1660","id":"a63gg2j1uu4i","address":"2220 Lake Boulevard","lat":33.848536,"state":"GA"},"type":"Feature","geometry":{"type":"Point","coordinates":[-84.347384,33.848536]}},{"properties":{"city":"Smyrna","lon":-84.476363,"zip":30080,"hotel":"Residence Inn Atlanta Cumberland","phone":"1 770-433-8877","id":"a63gg2s6a8x4","address":"2771 Cumberland Boulevard","lat":33.886122,"state":"GA"},"type":"Feature","geometry":{"type":"Point","coordinates":[-84.476363,33.886122]}},{"properties":{"city":"Atlanta","lon":-84.388115,"zip":30303,"hotel":"Residence Inn Atlanta Downtown","phone":"1 404-522-0950","id":"a63gg2ncl0o0","address":"134 Peachtree Street NW","lat":33.757049,"state":"GA"},"type":"Feature","geometry":{"type":"Point","coordinates":[-84.388115,33.757049]}},{"properties":{"city":"Duluth","lon":-84.131863,"zip":30096,"hotel":"Residence Inn Atlanta Gwinnett Place","phone":"1 770-921-2202","id":"a63gg2kgs5p0","address":"1760 Pineland Road","lat":33.946103,"state":"GA"},"type":"Feature","geometry":{"type":"Point","coordinates":[-84.131863,33.946103]}},{"properties":{"city":"Kennesaw","lon":-84.568951,"zip":30144,"hotel":"Residence Inn Atlanta Kennesaw/Town Center","phone":"1 770-218-1018","id":"a63gg2txj7tr","address":"3443 George Busbee Drive, NW","lat":34.033785,"state":"GA"},"type":"Feature","geometry":{"type":"Point","coordinates":[-84.568951,34.033785]}},{"properties":{"city":"Atlanta","lon":-84.385777,"zip":30309,"hotel":"Residence Inn Atlanta Midtown/17th Street","phone":"1 404-745-1000","id":"a63gg2m19oqt","address":"1365 Peachtree Street","lat":33.791916,"state":"GA"},"type":"Feature","geometry":{"type":"Point","coordinates":[-84.385777,33.791916]}},{"properties":{"city":"Atlanta","lon":-84.387694,"zip":30309,"hotel":"Residence Inn Atlanta Midtown/Historic","phone":"1 404-872-8885","id":"a63gg2n2wsg3","address":"1041 W Peachtree Street","lat":33.782953,"state":"GA"},"type":"Feature","geometry":{"type":"Point","coordinates":[-84.387694,33.782953]}},{"properties":{"city":"Norcross","lon":-84.220556,"zip":30092,"hotel":"Residence Inn Atlanta Norcross/Peachtree Corners","phone":"1 770-447-1714","id":"a63gg2yxy6yb","address":"5500 Triangle Drive","lat":33.972664,"state":"GA"},"type":"Feature","geometry":{"type":"Point","coordinates":[-84.220556,33.972664]}},{"properties":{"city":"Atlanta","lon":-84.360061,"zip":30328,"hotel":"Residence Inn Atlanta Perimeter Center","phone":"1 404-252-5066","id":"a63gg2s24uh1","address":"6096 Barfield Road","lat":33.92199,"state":"GA"},"type":"Feature","geometry":{"type":"Point","coordinates":[-84.360061,33.92199]}},{"properties":{"city":"Chamblee","lon":-84.310138,"zip":30341,"hotel":"Residence Inn Atlanta Perimeter/Dunwoody","phone":"1 770-455-4446","id":"a63gg2k6j0pv","address":"1901 Savoy Drive","lat":33.919728,"state":"GA"},"type":"Feature","geometry":{"type":"Point","coordinates":[-84.310138,33.919728]}},{"properties":{"city":"Egg Harbor Township","lon":-74.645279,"zip":8234,"hotel":"Residence Inn Atlantic City Airport Egg Harbor Township","phone":"1 609-813-2344","id":"a63gg2z2nhps","address":"3022 Fire Road","lat":39.530781,"state":"NJ"},"type":"Feature","geometry":{"type":"Point","coordinates":[-74.645279,39.530781]}},{"properties":{"city":"Somers Point","lon":-74.609085,"zip":8244,"hotel":"Residence Inn Atlantic City Somers Point","phone":"1 609-927-6400","id":"a63gg2w84spa","address":"900 Mays Landing Road","lat":39.311039,"state":"NJ"},"type":"Feature","geometry":{"type":"Point","coordinates":[-74.609085,39.311039]}},{"properties":{"city":"Austin","lon":-97.740948,"zip":78701,"hotel":"Residence Inn Austin Downtown/Convention Center","phone":"1 512-472-5553","id":"a63gg2z1d98t","address":"300 East 4th Street","lat":30.265558,"state":"TX"},"type":"Feature","geometry":{"type":"Point","coordinates":[-97.740948,30.265558]}},{"properties":{"city":"Austin","lon":-97.678393,"zip":78753,"hotel":"Residence Inn Austin North/Parmer Lane","phone":"1 512-977-0544","id":"a63gg2qnsovp","address":"12401 North Lamar Boulevard","lat":30.405982,"state":"TX"},"type":"Feature","geometry":{"type":"Point","coordinates":[-97.678393,30.405982]}},{"properties":{"city":"Austin","lon":-97.738607,"zip":78759,"hotel":"Residence Inn Austin Northwest/Arboretum","phone":"1 512-502-8200","id":"a63gg2nwgjc5","address":"3713 Tudor Boulevard","lat":30.384447,"state":"TX"},"type":"Feature","geometry":{"type":"Point","coordinates":[-97.738607,30.384447]}},{"properties":{"city":"Round Rock","lon":-97.674677,"zip":78664,"hotel":"Residence Inn Austin Round Rock","phone":"1 512-733-2400","id":"a63gg2oxr1ya","address":"2505 S I H-35","lat":30.484903,"state":"TX"},"type":"Feature","geometry":{"type":"Point","coordinates":[-97.674677,30.484903]}},{"properties":{"city":"Austin","lon":-97.75552,"zip":78744,"hotel":"Residence Inn Austin South","phone":"1 512-912-1100","id":"a63gg2qfbdsf","address":"4537 South IH-35","lat":30.208418,"state":"TX"},"type":"Feature","geometry":{"type":"Point","coordinates":[-97.75552,30.208418]}},{"properties":{"city":"Bakersfield","lon":-119.0479,"zip":93309,"hotel":"Residence Inn Bakersfield","phone":"1 661-321-9800","id":"a63gg2obafk3","address":"4241 Chester Lane","lat":35.368603,"state":"CA"},"type":"Feature","geometry":{"type":"Point","coordinates":[-119.0479,35.368603]}},{"properties":{"city":"Linthicum","lon":-76.679156,"zip":21090,"hotel":"Residence Inn Baltimore BWI Airport","phone":"1 410-691-0255","id":"a63gg2trb3hx","address":"1160 Winterson Road","lat":39.203028,"state":"MD"},"type":"Feature","geometry":{"type":"Point","coordinates":[-76.679156,39.203028]}},{"properties":{"city":"Baltimore","lon":-76.613612,"zip":21202,"hotel":"Residence Inn Baltimore Downtown/ Inner Harbor","phone":"1 410-962-1220","id":"a63gg2qvxm31","address":"17 Light Street","lat":39.288725,"state":"MD"},"type":"Feature","geometry":{"type":"Point","coordinates":[-76.613612,39.288725]}},{"properties":{"city":"Baltimore","lon":-76.45559,"zip":21236,"hotel":"Residence Inn Baltimore White Marsh","phone":"1 410-933-9554","id":"a63gg2j5e9w7","address":"4980 Mercantile Rd","lat":39.377091,"state":"MD"},"type":"Feature","geometry":{"type":"Point","coordinates":[-76.45559,39.377091]}},{"properties":{"city":"Baton Rouge","lon":-91.066427,"zip":70809,"hotel":"Residence Inn Baton Rouge Siegen Lane","phone":"1 225-293-8700","id":"a63gg2m8v2pi","address":"10333 North Mall Dr.","lat":30.379443,"state":"LA"},"type":"Feature","geometry":{"type":"Point","coordinates":[-91.066427,30.379443]}},{"properties":{"city":"Baton Rouge","lon":-91.10099,"zip":70809,"hotel":"Residence Inn Baton Rouge Towne Center at Cedar Lodge","phone":"1 225-925-9100","id":"a63gg2kmn2xy","address":"7061 Commerce Circle","lat":30.467171,"state":"LA"},"type":"Feature","geometry":{"type":"Point","coordinates":[-91.10099,30.467171]}},{"properties":{"city":"Beaumont","lon":-94.150622,"zip":77705,"hotel":"Residence Inn Beaumont","phone":"1 409-434-0600","id":"a63gg2k5im3n","address":"5380 Clearwater Ct","lat":30.041807,"state":"TX"},"type":"Feature","geometry":{"type":"Point","coordinates":[-94.150622,30.041807]}},{"properties":{"city":"Bethesda","lon":-77.093299,"zip":20814,"hotel":"Residence Inn Bethesda Downtown","phone":"1 301-718-0200","id":"a63gg2s96ccr","address":"7335 Wisconsin Avenue","lat":38.983034,"state":"MD"},"type":"Feature","geometry":{"type":"Point","coordinates":[-77.093299,38.983034]}},{"properties":{"city":"Los Angeles","lon":-118.395944,"zip":90035,"hotel":"Residence Inn Beverly Hills","phone":"1 310-228-4100","id":"a63gg2nkl35t","address":"1177 South Beverly Drive","lat":34.055779,"state":"CA"},"type":"Feature","geometry":{"type":"Point","coordinates":[-118.395944,34.055779]}},{"properties":{"city":"Billings","lon":-108.579764,"zip":59102,"hotel":"Residence Inn Billings","phone":"1 406-656-3900","id":"a63gg2s04vxb","address":"956 South 25th Street West","lat":45.751789,"state":"MT"},"type":"Feature","geometry":{"type":"Point","coordinates":[-108.579764,45.751789]}},{"properties":{"city":"Vestal","lon":-75.95333,"zip":13850,"hotel":"Residence Inn Binghamton","phone":"1 607-770-8500","id":"a63gg2ygkgt2","address":"4610 Vestal Parkway East","lat":42.093365,"state":"NY"},"type":"Feature","geometry":{"type":"Point","coordinates":[-75.95333,42.093365]}},{"properties":{"city":"Birmingham","lon":-86.81964,"zip":35209,"hotel":"Residence Inn Birmingham Homewood","phone":"1 205-943-0044","id":"a63gg2tkvkzu","address":"50 State Farm Parkway","lat":33.453699,"state":"AL"},"type":"Feature","geometry":{"type":"Point","coordinates":[-86.81964,33.453699]}},{"properties":{"city":"Hoover","lon":-86.829616,"zip":35244,"hotel":"Residence Inn Birmingham Hoover","phone":"1 205-733-1655","id":"a63gg2ntgz9f","address":"2725 John Hawkins Parkway","lat":33.361602,"state":"AL"},"type":"Feature","geometry":{"type":"Point","coordinates":[-86.829616,33.361602]}},{"properties":{"city":"Birmingham","lon":-86.699165,"zip":35242,"hotel":"Residence Inn Birmingham Inverness","phone":"1 205-991-8686","id":"a63gg2knt39f","address":"3 Greenhill Pkwy, at US Hwy280","lat":33.42378,"state":"AL"},"type":"Feature","geometry":{"type":"Point","coordinates":[-86.699165,33.42378]}},{"properties":{"city":"Boca Raton","lon":-80.091944,"zip":33487,"hotel":"Residence Inn Boca Raton","phone":"1 561-994-3222","id":"a63gg2nvmtf1","address":"525 NW 77th Street","lat":26.417984,"state":"FL"},"type":"Feature","geometry":{"type":"Point","coordinates":[-80.091944,26.417984]}},{"properties":{"city":"Boise","lon":-116.213874,"zip":83706,"hotel":"Residence Inn Boise Central/Capitol Boulevard","phone":"1 208-344-1200","id":"a63gg2k1rpkw","address":"1401 Lusk Avenue","lat":43.605154,"state":"ID"},"type":"Feature","geometry":{"type":"Point","coordinates":[-116.213874,43.605154]}},{"properties":{"city":"Boise","lon":-116.272361,"zip":83704,"hotel":"Residence Inn Boise West","phone":"1 208-385-9000","id":"a63gg2jn8ii8","address":"7303 West Denton St","lat":43.610064,"state":"ID"},"type":"Feature","geometry":{"type":"Point","coordinates":[-116.272361,43.610064]}},{"properties":{"city":"Andover","lon":-71.136467,"zip":1810,"hotel":"Residence Inn Boston Andover","phone":"1 978-683-0382","id":"a63gg2s5dhva","address":"500 Minuteman Road","lat":42.653568,"state":"MA"},"type":"Feature","geometry":{"type":"Point","coordinates":[-71.136467,42.653568]}},{"properties":{"city":"Brockton","lon":-71.060921,"zip":2301,"hotel":"Residence Inn Boston Brockton","phone":"1 508-583-3600","id":"a63gg2r0o2gn","address":"124 Liberty Street","lat":42.054672,"state":"MA"},"type":"Feature","geometry":{"type":"Point","coordinates":[-71.060921,42.054672]}},{"properties":{"city":"Cambridge","lon":-71.087822,"zip":2142,"hotel":"Residence Inn Boston Cambridge","phone":"1 617-349-0700","id":"a63gg2s1zztx","address":"6 Cambridge Center","lat":42.364033,"state":"MA"},"type":"Feature","geometry":{"type":"Point","coordinates":[-71.087822,42.364033]}},{"properties":{"city":"Dedham","lon":-71.17746,"zip":2026,"hotel":"Residence Inn Boston Dedham","phone":"1 781-407-0999","id":"a63gg2wc9ks7","address":"259 Elm Street","lat":42.22813,"state":"MA"},"type":"Feature","geometry":{"type":"Point","coordinates":[-71.17746,42.22813]}},{"properties":{"city":"Foxborough","lon":-71.23703,"zip":2035,"hotel":"Residence Inn Boston Foxborough","phone":"1 508-698-2800","id":"a63gg2usj51k","address":"250 Foxborough Blvd","lat":42.044106,"state":"MA"},"type":"Feature","geometry":{"type":"Point","coordinates":[-71.23703,42.044106]}},{"properties":{"city":"Framingham","lon":-71.487411,"zip":1702,"hotel":"Residence Inn Boston Framingham","phone":"1 508-370-0001","id":"a63gg2xf1ia6","address":"400 Staples Drive","lat":42.294189,"state":"MA"},"type":"Feature","geometry":{"type":"Point","coordinates":[-71.487411,42.294189]}},{"properties":{"city":"Franklin","lon":-71.43486,"zip":2038,"hotel":"Residence Inn Boston Franklin","phone":"1 508-541-8188","id":"a63gg2lhz1lt","address":"4 Forge Parkway","lat":42.090752,"state":"MA"},"type":"Feature","geometry":{"type":"Point","coordinates":[-71.43486,42.090752]}},{"properties":{"city":"Boston","lon":-71.065315,"zip":2129,"hotel":"Residence Inn Boston Harbor on Tudor Wharf","phone":"1 617-242-9000","id":"a63gg2nds1pj","address":"34-44 Charles River Avenue","lat":42.361374,"state":"MA"},"type":"Feature","geometry":{"type":"Point","coordinates":[-71.065315,42.361374]}},{"properties":{"city":"Marlborough","lon":-71.595192,"zip":1752,"hotel":"Residence Inn Boston Marlborough","phone":"1 508-481-1500","id":"a63gg2ncg81d","address":"112 Donald Lynch Blvd.","lat":42.363651,"state":"MA"},"type":"Feature","geometry":{"type":"Point","coordinates":[-71.595192,42.363651]}},{"properties":{"city":"Danvers","lon":-70.978157,"zip":1923,"hotel":"Residence Inn Boston North Shore/Danvers","phone":"1 978-777-7171","id":"a63gg2pzi7na","address":"51 Newbury Street, Route 1","lat":42.558552,"state":"MA"},"type":"Feature","geometry":{"type":"Point","coordinates":[-70.978157,42.558552]}},{"properties":{"city":"Norwood","lon":-71.199173,"zip":2062,"hotel":"Residence Inn Boston Norwood","phone":"1 781-278-9595","id":"a63gg2lxq2t2","address":"275 Norwood Park South","lat":42.168686,"state":"MA"},"type":"Feature","geometry":{"type":"Point","coordinates":[-71.199173,42.168686]}},{"properties":{"city":"Tewksbury","lon":-71.236946,"zip":1876,"hotel":"Residence Inn Boston Tewksbury/Andover","phone":"1 978-640-1003","id":"a63gg2mko4bt","address":"1775 Andover Street","lat":42.642715,"state":"MA"},"type":"Feature","geometry":{"type":"Point","coordinates":[-71.236946,42.642715]}},{"properties":{"city":"Westborough","lon":-71.613838,"zip":1581,"hotel":"Residence Inn Boston Westborough","phone":"1 508-366-7700","id":"a63gg2uhsg7p","address":"25 Connector Road","lat":42.268791,"state":"MA"},"type":"Feature","geometry":{"type":"Point","coordinates":[-71.613838,42.268791]}},{"properties":{"city":"Westford","lon":-71.431541,"zip":1886,"hotel":"Residence Inn Boston Westford","phone":"1 978-392-1407","id":"a63gg2nt5mk2","address":"7 Lan Drive","lat":42.56126,"state":"MA"},"type":"Feature","geometry":{"type":"Point","coordinates":[-71.431541,42.56126]}},{"properties":{"city":"Woburn","lon":-71.138153,"zip":1801,"hotel":"Residence Inn Boston Woburn","phone":"1 781-376-4000","id":"a63gg2jw9i9d","address":"300 Presidential Way","lat":42.524712,"state":"MA"},"type":"Feature","geometry":{"type":"Point","coordinates":[-71.138153,42.524712]}},{"properties":{"city":"Boulder","lon":-105.246559,"zip":80301,"hotel":"Residence Inn Boulder","phone":"1 303-449-5545","id":"a63gg2vyqmzq","address":"3030 Center Green Drive","lat":40.029924,"state":"CO"},"type":"Feature","geometry":{"type":"Point","coordinates":[-105.246559,40.029924]}},{"properties":{"city":"Longmont","lon":-105.133574,"zip":80503,"hotel":"Residence Inn Boulder Longmont","phone":"1 303-702-9933","id":"a63gg2j97w04","address":"1450 Dry Creek Drive","lat":40.140009,"state":"CO"},"type":"Feature","geometry":{"type":"Point","coordinates":[-105.133574,40.140009]}},{"properties":{"city":"Louisville","lon":-105.158614,"zip":80027,"hotel":"Residence Inn Boulder Louisville","phone":"1 303-665-2661","id":"a63gg2sfnr0v","address":"845 Coal Creek Circle","lat":39.956948,"state":"CO"},"type":"Feature","geometry":{"type":"Point","coordinates":[-105.158614,39.956948]}},{"properties":{"city":"Bozeman","lon":-111.067319,"zip":59718,"hotel":"Residence Inn Bozeman","phone":"1 406-522-1535","id":"a63gg2n4lx2h","address":"6195 E. Valley Center Rd","lat":45.71256,"state":"MT"},"type":"Feature","geometry":{"type":"Point","coordinates":[-111.067319,45.71256]}},{"properties":{"city":"Branson","lon":-93.260992,"zip":65616,"hotel":"Residence Inn Branson","phone":"1 417-336-4077","id":"a63gg2yuzkov","address":"280 Wildwood Drive South","lat":36.631267,"state":"MO"},"type":"Feature","geometry":{"type":"Point","coordinates":[-93.260992,36.631267]}},{"properties":{"city":"Brownsville","lon":-97.510115,"zip":78520,"hotel":"Residence Inn Brownsville","phone":"1 956-350-8100","id":"a63gg2wf3sb7","address":"3975 N. Expressway 83","lat":25.961445,"state":"TX"},"type":"Feature","geometry":{"type":"Point","coordinates":[-97.510115,25.961445]}},{"properties":{"city":"College Station","lon":-96.328425,"zip":77840,"hotel":"Residence Inn Bryan College Station","phone":"1 979-268-2200","id":"a63gg2twvfr6","address":"720 University Drive East","lat":30.633365,"state":"TX"},"type":"Feature","geometry":{"type":"Point","coordinates":[-96.328425,30.633365]}},{"properties":{"city":"Buffalo","lon":-78.7847,"zip":14221,"hotel":"Residence Inn Buffalo Amherst","phone":"1 716-632-6622","id":"a63gg2xoggv9","address":"100 Maple Road","lat":42.991422,"state":"NY"},"type":"Feature","geometry":{"type":"Point","coordinates":[-78.7847,42.991422]}},{"properties":{"city":"Buffalo","lon":-78.771379,"zip":14225,"hotel":"Residence Inn Buffalo Cheektowaga","phone":"1 716-892-5410","id":"a63gg2ltnwg4","address":"107 Anderson Road","lat":42.906744,"state":"NY"},"type":"Feature","geometry":{"type":"Point","coordinates":[-78.771379,42.906744]}},{"properties":{"city":"Burbank","lon":-118.307846,"zip":91502,"hotel":"Residence Inn Burbank Downtown","phone":"1 818-260-8787","id":"a63gg2qjqfqn","address":"321 S. First Street","lat":34.177933,"state":"CA"},"type":"Feature","geometry":{"type":"Point","coordinates":[-118.307846,34.177933]}},{"properties":{"city":"Williston","lon":-73.115295,"zip":5495,"hotel":"Residence Inn Burlington Williston","phone":"1 802-878-2001","id":"a63gg2j7fqrm","address":"35 Hurricane Lane","lat":44.437492,"state":"VT"},"type":"Feature","geometry":{"type":"Point","coordinates":[-73.115295,44.437492]}},{"properties":{"city":"Canton","lon":-81.417201,"zip":44709,"hotel":"Residence Inn Canton","phone":"1 330-493-0004","id":"a63gg2wcmr75","address":"5280 Broadmoor Circle NW","lat":40.856771,"state":"OH"},"type":"Feature","geometry":{"type":"Point","coordinates":[-81.417201,40.856771]}},{"properties":{"city":"Cape Canaveral","lon":-80.615327,"zip":32920,"hotel":"Residence Inn Cape Canaveral Cocoa Beach","phone":"1 321-323-1100","id":"a63gg2kz9et5","address":"8959 Astronaut Blvd.","lat":28.399636,"state":"FL"},"type":"Feature","geometry":{"type":"Point","coordinates":[-80.615327,28.399636]}},{"properties":{"city":"Cedar Rapids","lon":-91.665724,"zip":52402,"hotel":"Residence Inn Cedar Rapids","phone":"1 319-395-0111","id":"a63gg2nzhly4","address":"1900 Dodge Road NE","lat":42.027426,"state":"IA"},"type":"Feature","geometry":{"type":"Point","coordinates":[-91.665724,42.027426]}},{"properties":{"city":"Chantilly","lon":-77.444754,"zip":20151,"hotel":"Residence Inn Chantilly Dulles South","phone":"1 703-263-7900","id":"a63gg2y7a1f5","address":"14440 Chantilly Crossing Lane","lat":38.898097,"state":"VA"},"type":"Feature","geometry":{"type":"Point","coordinates":[-77.444754,38.898097]}},{"properties":{"city":"Chapel Hill","lon":-79.018961,"zip":27514,"hotel":"Residence Inn Chapel Hill","phone":"1 919-933-4848","id":"a63gg2k2zf5y","address":"101 Erwin Road","lat":35.943312,"state":"NC"},"type":"Feature","geometry":{"type":"Point","coordinates":[-79.018961,35.943312]}},{"properties":{"city":"North Charleston","lon":-80.046314,"zip":29406,"hotel":"Residence Inn Charleston","phone":"1 843-572-5757","id":"a63gg2ozlpqs","address":"7645 Northwoods Boulevard","lat":32.938817,"state":"SC"},"type":"Feature","geometry":{"type":"Point","coordinates":[-80.046314,32.938817]}},{"properties":{"city":"Charleston","lon":-81.604634,"zip":25311,"hotel":"Residence Inn Charleston","phone":"1 304-345-4200","id":"a63gg2y9ylf7","address":"200 Hotel Circle","lat":38.353916,"state":"WV"},"type":"Feature","geometry":{"type":"Point","coordinates":[-81.604634,38.353916]}},{"properties":{"city":"North Charleston","lon":-80.014766,"zip":29418,"hotel":"Residence Inn Charleston Airport","phone":"1 843-266-3434","id":"a63gg2ppnghk","address":"5035 International Blvd.","lat":32.8661,"state":"SC"},"type":"Feature","geometry":{"type":"Point","coordinates":[-80.014766,32.8661]}},{"properties":{"city":"Charleston","lon":-79.964838,"zip":29407,"hotel":"Residence Inn Charleston Downtown/Riverview","phone":"1 843-571-7979","id":"a63gg2mixxzz","address":"90 Ripley Point Drive","lat":32.777534,"state":"SC"},"type":"Feature","geometry":{"type":"Point","coordinates":[-79.964838,32.777534]}},{"properties":{"city":"Mt. Pleasant","lon":-79.824827,"zip":29464,"hotel":"Residence Inn Charleston Mt. Pleasant","phone":"1 843-881-1599","id":"a63gg2tcts6h","address":"1116 Isle of Palms Connector","lat":32.832067,"state":"SC"},"type":"Feature","geometry":{"type":"Point","coordinates":[-79.824827,32.832067]}},{"properties":{"city":"Concord","lon":-80.652994,"zip":28027,"hotel":"Residence Inn Charlotte Concord","phone":"-","id":"a63gg2u7gk4i","address":"7601 Scott Padgett Pkwy","lat":35.404234,"state":"NC"},"type":"Feature","geometry":{"type":"Point","coordinates":[-80.652994,35.404234]}},{"properties":{"city":"Huntersville","lon":-80.890085,"zip":28078,"hotel":"Residence Inn Charlotte Lake Norman","phone":"1 704-584-0000","id":"a63gg2togehs","address":"16830 Kenton Drive","lat":35.445242,"state":"NC"},"type":"Feature","geometry":{"type":"Point","coordinates":[-80.890085,35.445242]}},{"properties":{"city":"Charlotte","lon":-80.812357,"zip":28277,"hotel":"Residence Inn Charlotte Piper Glen","phone":"1 704-319-3900","id":"a63gg2ty1z61","address":"5115 Piper Station Drive","lat":35.062011,"state":"NC"},"type":"Feature","geometry":{"type":"Point","coordinates":[-80.812357,35.062011]}},{"properties":{"city":"Charlotte","lon":-80.88951,"zip":28217,"hotel":"Residence Inn Charlotte South at I-77/Tyvola Road","phone":"1 704-527-8110","id":"a63gg2x15is1","address":"5816 Westpark Drive","lat":35.15754,"state":"NC"},"type":"Feature","geometry":{"type":"Point","coordinates":[-80.88951,35.15754]}},{"properties":{"city":"Charlotte","lon":-80.839909,"zip":28210,"hotel":"Residence Inn Charlotte SouthPark","phone":"1 704-554-7001","id":"a63gg2kw8oko","address":"6030 Piedmont Row Drive South","lat":35.15123,"state":"NC"},"type":"Feature","geometry":{"type":"Point","coordinates":[-80.839909,35.15123]}},{"properties":{"city":"Charlotte","lon":-80.751445,"zip":28262,"hotel":"Residence Inn Charlotte University Research Park","phone":"1 704-547-1122","id":"a63gg2q5b3e3","address":"8503 North Tryon Street","lat":35.303629,"state":"NC"},"type":"Feature","geometry":{"type":"Point","coordinates":[-80.751445,35.303629]}},{"properties":{"city":"Charlotte","lon":-80.849197,"zip":28202,"hotel":"Residence Inn Charlotte Uptown","phone":"1 704-340-4000","id":"a63gg2sfc0s8","address":"404 S. Mint Street","lat":35.227144,"state":"NC"},"type":"Feature","geometry":{"type":"Point","coordinates":[-80.849197,35.227144]}},{"properties":{"city":"Charlottesville","lon":-78.503247,"zip":22903,"hotel":"Residence Inn Charlottesville","phone":"1 434-923-0300","id":"a63gg2xnvcy9","address":"1111 Millmont Street","lat":38.052154,"state":"VA"},"type":"Feature","geometry":{"type":"Point","coordinates":[-78.503247,38.052154]}},{"properties":{"city":"Chattanooga","lon":-85.312007,"zip":37402,"hotel":"Residence Inn Chattanooga Downtown","phone":"1 423-266-0600","id":"a63gg2r666u4","address":"215 Chestnut Street","lat":35.05445,"state":"TN"},"type":"Feature","geometry":{"type":"Point","coordinates":[-85.312007,35.05445]}},{"properties":{"city":"Chattanooga","lon":-85.159542,"zip":37421,"hotel":"Residence Inn Chattanooga Near Hamilton Place","phone":"-","id":"a63gg2xwgi0s","address":"2322 Center Street","lat":35.044939,"state":"TN"},"type":"Feature","geometry":{"type":"Point","coordinates":[-85.159542,35.044939]}},{"properties":{"city":"Cherry Hill","lon":-74.979882,"zip":8034,"hotel":"Residence Inn Cherry Hill Philadelphia","phone":"1 856-429-6111","id":"a63gg2ye447l","address":"1821 Old Cuthbert Road","lat":39.909149,"state":"NJ"},"type":"Feature","geometry":{"type":"Point","coordinates":[-74.979882,39.909149]}},{"properties":{"city":"Chesapeake","lon":-76.242896,"zip":23320,"hotel":"Residence Inn Chesapeake Greenbrier","phone":"1 757-502-7300","id":"a63gg2mz4hpq","address":"1500 Crossways Blvd.","lat":36.777992,"state":"VA"},"type":"Feature","geometry":{"type":"Point","coordinates":[-76.242896,36.777992]}},{"properties":{"city":"Bloomingdale","lon":-88.114787,"zip":60108,"hotel":"Residence Inn Chicago Bloomingdale","phone":"1 630-893-9200","id":"a63gg2lsscde","address":"295 Knollwood Dr.","lat":41.940192,"state":"IL"},"type":"Feature","geometry":{"type":"Point","coordinates":[-88.114787,41.940192]}},{"properties":{"city":"Deerfield","lon":-87.841355,"zip":60015,"hotel":"Residence Inn Chicago Deerfield","phone":"1 847-940-4644","id":"a63gg2kxptoj","address":"530 Lake Cook Road","lat":42.155663,"state":"IL"},"type":"Feature","geometry":{"type":"Point","coordinates":[-87.841355,42.155663]}},{"properties":{"city":"Chicago","lon":-87.621681,"zip":60611,"hotel":"Residence Inn Chicago Downtown/Magnificent Mile","phone":"1 312-943-9800","id":"a63gg2oo165n","address":"201 East Walton Place","lat":41.899946,"state":"IL"},"type":"Feature","geometry":{"type":"Point","coordinates":[-87.621681,41.899946]}},{"properties":{"city":"Chicago","lon":-87.629754,"zip":60654,"hotel":"Residence Inn Chicago Downtown/River North","phone":"1 312-494 9301","id":"a63gg2ttruzp","address":"410 North Dearborn Street","lat":41.889587,"state":"IL"},"type":"Feature","geometry":{"type":"Point","coordinates":[-87.629754,41.889587]}},{"properties":{"city":"Mettawa","lon":-87.903809,"zip":60045,"hotel":"Residence Inn Chicago Lake Forest/Mettawa","phone":"1 847-615-2701","id":"a63gg2sx1dkk","address":"26325 N Riverwoods Boulevard","lat":42.24468,"state":"IL"},"type":"Feature","geometry":{"type":"Point","coordinates":[-87.903809,42.24468]}},{"properties":{"city":"Lombard","lon":-88.011398,"zip":60148,"hotel":"Residence Inn Chicago Lombard","phone":"1 630-629-7800","id":"a63gg2jlpbi2","address":"2001 South Highland Avenue","lat":41.847246,"state":"IL"},"type":"Feature","geometry":{"type":"Point","coordinates":[-88.011398,41.847246]}},{"properties":{"city":"Bedford Park","lon":-87.74227,"zip":60638,"hotel":"Residence Inn Chicago Midway Airport","phone":"1 708-458-7790","id":"a63gg2s6oay5","address":"6638 South Cicero Avenue","lat":41.772271,"state":"IL"},"type":"Feature","geometry":{"type":"Point","coordinates":[-87.74227,41.772271]}},{"properties":{"city":"Warrenville","lon":-88.157896,"zip":60555,"hotel":"Residence Inn Chicago Naperville/Warrenville","phone":"1 630-393-3444","id":"a63gg2robr2n","address":"28500 Bella Vista Parkway","lat":41.809868,"state":"IL"},"type":"Feature","geometry":{"type":"Point","coordinates":[-88.157896,41.809868]}},{"properties":{"city":"Rosemont","lon":-87.889255,"zip":60018,"hotel":"Residence Inn Chicago O'Hare","phone":"1 847-375-9000","id":"a63gg2qkuwif","address":"7101 Chestnut Street","lat":42.008663,"state":"IL"},"type":"Feature","geometry":{"type":"Point","coordinates":[-87.889255,42.008663]}},{"properties":{"city":"Oak Brook","lon":-87.939018,"zip":60523,"hotel":"Residence Inn Chicago Oak Brook","phone":"1 630-571-1200","id":"a63gg2io7lpn","address":"790 Jorie Boulevard","lat":41.845022,"state":"IL"},"type":"Feature","geometry":{"type":"Point","coordinates":[-87.939018,41.845022]}},{"properties":{"city":"Schaumburg","lon":-88.040163,"zip":60173,"hotel":"Residence Inn Chicago Schaumburg","phone":"1 847-517-9200","id":"a63gg2w50zk9","address":"1610 McConnor Parkway","lat":42.056426,"state":"IL"},"type":"Feature","geometry":{"type":"Point","coordinates":[-88.040163,42.056426]}},{"properties":{"city":"Hammond","lon":-87.462967,"zip":46323,"hotel":"Residence Inn Chicago Southeast/Hammond, IN","phone":"1 219-844-8440","id":"a63gg2sdx93i","address":"7740 Corinne Drive","lat":41.572437,"state":"IN"},"type":"Feature","geometry":{"type":"Point","coordinates":[-87.462967,41.572437]}},{"properties":{"city":"Waukegan","lon":-87.893677,"zip":60085,"hotel":"Residence Inn Chicago Waukegan/Gurnee","phone":"1 847-689-9240","id":"a63gg2mjvcyk","address":"1440 South White Oak Drive","lat":42.334653,"state":"IL"},"type":"Feature","geometry":{"type":"Point","coordinates":[-87.893677,42.334653]}},{"properties":{"city":"Chico","lon":-121.804985,"zip":95928,"hotel":"Residence Inn Chico","phone":"1 530-894-5500","id":"a63gg2moib1l","address":"2485 Carmichael Drive","lat":39.715708,"state":"CA"},"type":"Feature","geometry":{"type":"Point","coordinates":[-121.804985,39.715708]}},{"properties":{"city":"Erlanger","lon":-84.632412,"zip":41018,"hotel":"Residence Inn Cincinnati Airport","phone":"1 859-282-7400","id":"a63gg2xo0ve1","address":"2811 Circleport Drive","lat":39.051528,"state":"KY"},"type":"Feature","geometry":{"type":"Point","coordinates":[-84.632412,39.051528]}},{"properties":{"city":"Blue Ash","lon":-84.374609,"zip":45241,"hotel":"Residence Inn Cincinnati Blue Ash","phone":"1 513-530-5060","id":"a63gg2v8362l","address":"11401 Reed Hartman Highway","lat":39.275439,"state":"OH"},"type":"Feature","geometry":{"type":"Point","coordinates":[-84.374609,39.275439]}},{"properties":{"city":"Cincinnati","lon":-84.443248,"zip":45246,"hotel":"Residence Inn Cincinnati North/Sharonville","phone":"1 513-771-2525","id":"a63gg2j6m98g","address":"11689 Chester Road","lat":39.287573,"state":"OH"},"type":"Feature","geometry":{"type":"Point","coordinates":[-84.443248,39.287573]}},{"properties":{"city":"West Chester","lon":-84.425799,"zip":45069,"hotel":"Residence Inn Cincinnati North/West Chester","phone":"1 513-874-2407","id":"a63gg2uyuihx","address":"6240 Muhlhauser Road","lat":39.326541,"state":"OH"},"type":"Feature","geometry":{"type":"Point","coordinates":[-84.425799,39.326541]}},{"properties":{"city":"Clearwater","lon":-82.793549,"zip":33756,"hotel":"Residence Inn Clearwater Downtown","phone":"1 727-562-5400","id":"a63gg2l98kai","address":"940 Court Street","lat":27.961875,"state":"FL"},"type":"Feature","geometry":{"type":"Point","coordinates":[-82.793549,27.961875]}},{"properties":{"city":"Middleburg Heights","lon":-81.822717,"zip":44130,"hotel":"Residence Inn Cleveland Airport","phone":"1 440-234-6688","id":"a63gg2x94kuc","address":"17525 Rosbough Drive","lat":41.374525,"state":"OH"},"type":"Feature","geometry":{"type":"Point","coordinates":[-81.822717,41.374525]}},{"properties":{"city":"Cleveland","lon":-81.494218,"zip":44122,"hotel":"Residence Inn Cleveland Beachwood","phone":"1 216-831-3030","id":"a63gg2vuc2y2","address":"3628 Park East Drive","lat":41.461922,"state":"OH"},"type":"Feature","geometry":{"type":"Point","coordinates":[-81.494218,41.461922]}},{"properties":{"city":"Cleveland","lon":-81.688703,"zip":44115,"hotel":"Residence Inn Cleveland Downtown","phone":"1 216-443-9043","id":"a63gg2o4yk1g","address":"527 Prospect Avenue East","lat":41.498649,"state":"OH"},"type":"Feature","geometry":{"type":"Point","coordinates":[-81.688703,41.498649]}},{"properties":{"city":"Independence","lon":-81.654388,"zip":44131,"hotel":"Residence Inn Cleveland Independence","phone":"1 216-520-1450","id":"a63gg2se83uf","address":"5101 West Creek Road","lat":41.402814,"state":"OH"},"type":"Feature","geometry":{"type":"Point","coordinates":[-81.654388,41.402814]}},{"properties":{"city":"Mentor","lon":-81.296151,"zip":44060,"hotel":"Residence Inn Cleveland Mentor","phone":"1 440-392-0800","id":"a63gg2t4m2j0","address":"5660 Emerald Court","lat":41.71683,"state":"OH"},"type":"Feature","geometry":{"type":"Point","coordinates":[-81.296151,41.71683]}},{"properties":{"city":"Cleveland","lon":-81.951692,"zip":44145,"hotel":"Residence Inn Cleveland Westlake","phone":"1 440-892-2254","id":"a63gg2ofcr3l","address":"30100 Clemens Road","lat":41.470673,"state":"OH"},"type":"Feature","geometry":{"type":"Point","coordinates":[-81.951692,41.470673]}},{"properties":{"city":"Colorado Springs","lon":-104.757226,"zip":80917,"hotel":"Residence Inn Colorado Springs Central","phone":"1 719-574-0370","id":"a63gg2nl8p2h","address":"3880 North Academy Boulevard","lat":38.88803,"state":"CO"},"type":"Feature","geometry":{"type":"Point","coordinates":[-104.757226,38.88803]}},{"properties":{"city":"Colorado Springs","lon":-104.802606,"zip":80921,"hotel":"Residence Inn Colorado Springs North at Interquest","phone":"1 719-388-9300","id":"a63gg2ouy0re","address":"9805 Federal Drive","lat":38.986887,"state":"CO"},"type":"Feature","geometry":{"type":"Point","coordinates":[-104.802606,38.986887]}},{"properties":{"city":"Colorado Springs","lon":-104.797887,"zip":80906,"hotel":"Residence Inn Colorado Springs South","phone":"1 719-576-0101","id":"a63gg2ipg7z0","address":"2765 Geyser Drive","lat":38.792456,"state":"CO"},"type":"Feature","geometry":{"type":"Point","coordinates":[-104.797887,38.792456]}},{"properties":{"city":"Columbia","lon":-81.070945,"zip":29210,"hotel":"Residence Inn Columbia","phone":"1 803-779-7000","id":"a63gg2uaw51o","address":"150 Stoneridge Drive","lat":34.014097,"state":"SC"},"type":"Feature","geometry":{"type":"Point","coordinates":[-81.070945,34.014097]}},{"properties":{"city":"Ellicott City","lon":-76.815295,"zip":21043,"hotel":"Residence Inn Columbia","phone":"1 410-997-7200","id":"a63gg2w75t2g","address":"4950 Beaver Run","lat":39.236392,"state":"MD"},"type":"Feature","geometry":{"type":"Point","coordinates":[-76.815295,39.236392]}},{"properties":{"city":"Columbia","lon":-92.284755,"zip":65202,"hotel":"Residence Inn Columbia","phone":"1 573-442-5601","id":"a63gg2irjrh2","address":"1100 Woodland Springs Court","lat":38.962719,"state":"MO"},"type":"Feature","geometry":{"type":"Point","coordinates":[-92.284755,38.962719]}},{"properties":{"city":"Columbia","lon":-80.956458,"zip":29223,"hotel":"Residence Inn Columbia Northeast","phone":"1 803-788-8850","id":"a63gg2xo9xcd","address":"2320 LeGrand Road","lat":34.101862,"state":"SC"},"type":"Feature","geometry":{"type":"Point","coordinates":[-80.956458,34.101862]}},{"properties":{"city":"Columbus","lon":-84.949393,"zip":31909,"hotel":"Residence Inn Columbus","phone":"1 706-494-0050","id":"a63gg2mfc59p","address":"2670 Adams Farm Drive","lat":32.54433,"state":"GA"},"type":"Feature","geometry":{"type":"Point","coordinates":[-84.949393,32.54433]}},{"properties":{"city":"Columbus","lon":-82.999771,"zip":43215,"hotel":"Residence Inn Columbus Downtown","phone":"1 614-222-2610","id":"a63gg2u0f2ov","address":"36 E Gay Street","lat":39.963906,"state":"OH"},"type":"Feature","geometry":{"type":"Point","coordinates":[-82.999771,39.963906]}},{"properties":{"city":"Dublin","lon":-83.126584,"zip":43017,"hotel":"Residence Inn Columbus Dublin","phone":"1 614-791-0403","id":"a63gg2wuwip8","address":"435 Metro Place South","lat":40.093323,"state":"OH"},"type":"Feature","geometry":{"type":"Point","coordinates":[-83.126584,40.093323]}},{"properties":{"city":"Columbus","lon":-82.917827,"zip":43219,"hotel":"Residence Inn Columbus Easton","phone":"1 614-414-1000","id":"a63gg2ksg7he","address":"3999 Easton Loop West","lat":40.050882,"state":"OH"},"type":"Feature","geometry":{"type":"Point","coordinates":[-82.917827,40.050882]}},{"properties":{"city":"Columbus","lon":-83.00586,"zip":43235,"hotel":"Residence Inn Columbus Worthington","phone":"1 614-885-0799","id":"a63gg2lqdsv8","address":"7300 Huntington Park Drive","lat":40.115385,"state":"OH"},"type":"Feature","geometry":{"type":"Point","coordinates":[-83.00586,40.115385]}},{"properties":{"city":"Corpus Christi","lon":-97.378515,"zip":78411,"hotel":"Residence Inn Corpus Christi","phone":"1 361-985-1113","id":"a63gg2jz32kq","address":"5229 Blanche Moore Drive","lat":27.709235,"state":"TX"},"type":"Feature","geometry":{"type":"Point","coordinates":[-97.378515,27.709235]}},{"properties":{"city":"Costa Mesa","lon":-117.893306,"zip":92626,"hotel":"Residence Inn Costa Mesa Newport Beach","phone":"1 714-241-8800","id":"a63gg2q1lncq","address":"881 West Baker Street","lat":33.679951,"state":"CA"},"type":"Feature","geometry":{"type":"Point","coordinates":[-117.893306,33.679951]}},{"properties":{"city":"Cranbury","lon":-74.508018,"zip":8512,"hotel":"Residence Inn Cranbury South Brunswick","phone":"1 609-395-9447","id":"a63gg2uh7brb","address":"2662 Route 130","lat":40.318443,"state":"NJ"},"type":"Feature","geometry":{"type":"Point","coordinates":[-74.508018,40.318443]}},{"properties":{"city":"Los Alamitos","lon":-118.04635,"zip":90720,"hotel":"Residence Inn Cypress Los Alamitos","phone":"1 714-484-5700","id":"a63gg2wlqh91","address":"4931 Katella Avenue","lat":33.803257,"state":"CA"},"type":"Feature","geometry":{"type":"Point","coordinates":[-118.04635,33.803257]}},{"properties":{"city":"Grapevine","lon":-97.043639,"zip":76051,"hotel":"Residence Inn DFW Airport North/Grapevine","phone":"1 972-539-8989","id":"a63gg2uft6xu","address":"2020 State Highway 26","lat":32.959055,"state":"TX"},"type":"Feature","geometry":{"type":"Point","coordinates":[-97.043639,32.959055]}},{"properties":{"city":"Dallas","lon":-96.825537,"zip":75254,"hotel":"Residence Inn Dallas Addison/Quorum Drive","phone":"1 972-866-9933","id":"a63gg2sjw3ej","address":"14975 Quorum Drive","lat":32.951729,"state":"TX"},"type":"Feature","geometry":{"type":"Point","coordinates":[-96.825537,32.951729]}},{"properties":{"city":"Arlington","lon":-97.117259,"zip":76015,"hotel":"Residence Inn Dallas Arlington South","phone":"1 817-465-2244","id":"a63gg2mt4bwz","address":"801 Highlander Boulevard","lat":32.681806,"state":"TX"},"type":"Feature","geometry":{"type":"Point","coordinates":[-97.117259,32.681806]}},{"properties":{"city":"Dallas","lon":-96.770601,"zip":75231,"hotel":"Residence Inn Dallas Central Expressway","phone":"1 214-750-8220","id":"a63gg2ukv3dn","address":"10333 North Central Expressway","lat":32.886683,"state":"TX"},"type":"Feature","geometry":{"type":"Point","coordinates":[-96.770601,32.886683]}},{"properties":{"city":"Irving","lon":-97.008963,"zip":75063,"hotel":"Residence Inn Dallas DFW Airport North/Irving","phone":"1 972-871-1331","id":"a63gg2p9e9mg","address":"8600 Esters Blvd.","lat":32.926413,"state":"TX"},"type":"Feature","geometry":{"type":"Point","coordinates":[-97.008963,32.926413]}},{"properties":{"city":"Irving","lon":-96.962299,"zip":75038,"hotel":"Residence Inn Dallas Las Colinas","phone":"1 972-580-7773","id":"a63gg2xvk8zn","address":"950 Walnut Hill Lane","lat":32.8847,"state":"TX"},"type":"Feature","geometry":{"type":"Point","coordinates":[-96.962299,32.8847]}},{"properties":{"city":"Lewisville","lon":-96.967156,"zip":75067,"hotel":"Residence Inn Dallas Lewisville","phone":"1 972-315-3777","id":"a63gg2ovlb4h","address":"755 C Vista Ridge Mall Drive","lat":32.999747,"state":"TX"},"type":"Feature","geometry":{"type":"Point","coordinates":[-96.967156,32.999747]}},{"properties":{"city":"Dallas","lon":-96.865241,"zip":75247,"hotel":"Residence Inn Dallas Market Center","phone":"1 214-631-2472","id":"a63gg2mii9ds","address":"6950 N Stemmons Freeway","lat":32.814075,"state":"TX"},"type":"Feature","geometry":{"type":"Point","coordinates":[-96.865241,32.814075]}},{"properties":{"city":"Dallas","lon":-96.77573,"zip":75251,"hotel":"Residence Inn Dallas Park Central","phone":"1 972-5031333","id":"a63gg2vlhs3y","address":"7642 LBJ Freeway","lat":32.923525,"state":"TX"},"type":"Feature","geometry":{"type":"Point","coordinates":[-96.77573,32.923525]}},{"properties":{"city":"Plano","lon":-96.796388,"zip":75024,"hotel":"Residence Inn Dallas Plano","phone":"1 972-473-6761","id":"a63gg2mjhkzi","address":"5001 Whitestone Lane","lat":33.058205,"state":"TX"},"type":"Feature","geometry":{"type":"Point","coordinates":[-96.796388,33.058205]}},{"properties":{"city":"Richardson","lon":-96.70768,"zip":75082,"hotel":"Residence Inn Dallas Richardson","phone":"1 972-669-5888","id":"a63gg2tfoqo6","address":"1040 Waterwood Drive","lat":32.981628,"state":"TX"},"type":"Feature","geometry":{"type":"Point","coordinates":[-96.70768,32.981628]}},{"properties":{"city":"Danbury","lon":-73.474716,"zip":6810,"hotel":"Residence Inn Danbury","phone":"1 203-797-1256","id":"a63gg2qpt40j","address":"22 Segar Street","lat":41.383549,"state":"CT"},"type":"Feature","geometry":{"type":"Point","coordinates":[-73.474716,41.383549]}},{"properties":{"city":"Davenport","lon":-90.517199,"zip":52806,"hotel":"Residence Inn Davenport","phone":"1 563-391-8877","id":"a63gg2vesfzf","address":"120 East 55th Street","lat":41.57761,"state":"IA"},"type":"Feature","geometry":{"type":"Point","coordinates":[-90.517199,41.57761]}},{"properties":{"city":"Beavercreek","lon":-84.058575,"zip":45431,"hotel":"Residence Inn Dayton Beavercreek","phone":"1 937-427-3914","id":"a63gg2vk6gm8","address":"2779 Fairfield Commons","lat":39.770314,"state":"OH"},"type":"Feature","geometry":{"type":"Point","coordinates":[-84.058575,39.770314]}},{"properties":{"city":"Troy","lon":-84.237322,"zip":45373,"hotel":"Residence Inn Dayton Troy","phone":"1 937-440-9303","id":"a63gg2v012fz","address":"87 Troy Town Drive","lat":40.052505,"state":"OH"},"type":"Feature","geometry":{"type":"Point","coordinates":[-84.237322,40.052505]}},{"properties":{"city":"Daytona Beach","lon":-81.060264,"zip":32114,"hotel":"Residence Inn Daytona Beach","phone":"1 386-252-3949","id":"a63gg2khc24w","address":"1725 Richard Petty Blvd","lat":29.192574,"state":"FL"},"type":"Feature","geometry":{"type":"Point","coordinates":[-81.060264,29.192574]}},{"properties":{"city":"Delray Beach","lon":-80.060836,"zip":33483,"hotel":"Residence Inn Delray Beach","phone":"1 561-276-7441","id":"a63gg2wto7xh","address":"1111 East Atlantic Avenue","lat":26.461776,"state":"FL"},"type":"Feature","geometry":{"type":"Point","coordinates":[-80.060836,26.461776]}},{"properties":{"city":"Aurora","lon":-104.79583,"zip":80011,"hotel":"Residence Inn Denver Airport","phone":"1 303-459-8000","id":"a63gg2pi6qm4","address":"16490 East 40th Circle","lat":39.771691,"state":"CO"},"type":"Feature","geometry":{"type":"Point","coordinates":[-104.79583,39.771691]}},{"properties":{"city":"Denver","lon":-104.99248,"zip":80202,"hotel":"Residence Inn Denver City Center","phone":"1 303-296-3444","id":"a63gg2opj526","address":"1725 Champa Street","lat":39.747837,"state":"CO"},"type":"Feature","geometry":{"type":"Point","coordinates":[-104.99248,39.747837]}},{"properties":{"city":"Denver","lon":-105.015997,"zip":80211,"hotel":"Residence Inn Denver Downtown","phone":"1 303-458-5318","id":"a63gg2x4se2k","address":"2777 Zuni Street","lat":39.756977,"state":"CO"},"type":"Feature","geometry":{"type":"Point","coordinates":[-105.015997,39.756977]}},{"properties":{"city":"Highlands Ranch","lon":-104.990017,"zip":80126,"hotel":"Residence Inn Denver Highlands Ranch","phone":"1 303-683-5500","id":"a63gg2s3liyg","address":"93 West Centennial Boulevard","lat":39.561692,"state":"CO"},"type":"Feature","geometry":{"type":"Point","coordinates":[-104.990017,39.561692]}},{"properties":{"city":"Westminster","lon":-105.052617,"zip":80031,"hotel":"Residence Inn Denver North/Westminster","phone":"1 303-427-9500","id":"a63gg2oj6eh7","address":"5010 W. 88th Place","lat":39.858426,"state":"CO"},"type":"Feature","geometry":{"type":"Point","coordinates":[-105.052617,39.858426]}},{"properties":{"city":"Englewood","lon":-104.868767,"zip":80112,"hotel":"Residence Inn Denver South/Park Meadows Mall","phone":"1 720-895-0200","id":"a63gg2ips0wb","address":"8322 South Valley Highway","lat":39.562783,"state":"CO"},"type":"Feature","geometry":{"type":"Point","coordinates":[-104.868767,39.562783]}},{"properties":{"city":"Lakewood","lon":-105.07472,"zip":80227,"hotel":"Residence Inn Denver Southwest/Lakewood","phone":"1 303-985-7676","id":"a63gg2qiuick","address":"7050 West Hampden Avenue","lat":39.652481,"state":"CO"},"type":"Feature","geometry":{"type":"Point","coordinates":[-105.07472,39.652481]}},{"properties":{"city":"Englewood","lon":-104.887834,"zip":80111,"hotel":"Residence Inn Denver Tech Center","phone":"1 303-740-7177","id":"a63gg2nfbi48","address":"6565 South Yosemite","lat":39.596821,"state":"CO"},"type":"Feature","geometry":{"type":"Point","coordinates":[-104.887834,39.596821]}},{"properties":{"city":"Golden","lon":-105.163344,"zip":80401,"hotel":"Residence Inn Denver West/Golden","phone":"1 303-271-0909","id":"a63gg2w07t1q","address":"14600 W. 6th Avenue","lat":39.724401,"state":"CO"},"type":"Feature","geometry":{"type":"Point","coordinates":[-105.163344,39.724401]}},{"properties":{"city":"Deptford","lon":-75.088623,"zip":8096,"hotel":"Residence Inn Deptford","phone":"1 856-686-9188","id":"a63gg2w3y8tp","address":"1154 Hurffville Road","lat":39.834255,"state":"NJ"},"type":"Feature","geometry":{"type":"Point","coordinates":[-75.088623,39.834255]}},{"properties":{"city":"West Des Moines","lon":-93.809631,"zip":50266,"hotel":"Residence Inn Des Moines West at Jordan Creek Town Center","phone":"1 515-267-0338","id":"a63gg2skyr6t","address":"160 South Jordan Creek Parkway","lat":41.566044,"state":"IA"},"type":"Feature","geometry":{"type":"Point","coordinates":[-93.809631,41.566044]}},{"properties":{"city":"Detroit","lon":-83.216332,"zip":48228,"hotel":"Residence Inn Detroit Dearborn","phone":"1 313-441-1700","id":"a63gg2jzvoaz","address":"5777 Southfield Service Drive","lat":42.332269,"state":"MI"},"type":"Feature","geometry":{"type":"Point","coordinates":[-83.216332,42.332269]}},{"properties":{"city":"Livonia","lon":-83.428948,"zip":48152,"hotel":"Residence Inn Detroit Livonia","phone":"1 734-462-4201","id":"a63gg2ym7ysy","address":"17250 Fox Drive","lat":42.411422,"state":"MI"},"type":"Feature","geometry":{"type":"Point","coordinates":[-83.428948,42.411422]}},{"properties":{"city":"Novi","lon":-83.487206,"zip":48377,"hotel":"Residence Inn Detroit Novi","phone":"1 248-735-7400","id":"a63gg2pn2lzk","address":"27477 Cabaret Drive","lat":42.493454,"state":"MI"},"type":"Feature","geometry":{"type":"Point","coordinates":[-83.487206,42.493454]}},{"properties":{"city":"Pontiac","lon":-83.252793,"zip":48341,"hotel":"Residence Inn Detroit Pontiac/Auburn Hills","phone":"1 248-858-8664","id":"a63gg2wro38c","address":"3333 Centerpoint Pkwy.","lat":42.606726,"state":"MI"},"type":"Feature","geometry":{"type":"Point","coordinates":[-83.252793,42.606726]}},{"properties":{"city":"Troy","lon":-83.147294,"zip":48083,"hotel":"Residence Inn Detroit Troy/Central","phone":"1 248-689-6856","id":"a63gg2t5c8og","address":"2600 Livernois Road","lat":42.558585,"state":"MI"},"type":"Feature","geometry":{"type":"Point","coordinates":[-83.147294,42.558585]}},{"properties":{"city":"Madison Heights","lon":-83.119664,"zip":48071,"hotel":"Residence Inn Detroit Troy/Madison Heights","phone":"1 248-583-4322","id":"a63gg2mu3icb","address":"32650 Stephenson Highway","lat":42.531625,"state":"MI"},"type":"Feature","geometry":{"type":"Point","coordinates":[-83.119664,42.531625]}},{"properties":{"city":"Warren","lon":-83.026706,"zip":48093,"hotel":"Residence Inn Detroit Warren","phone":"1 586-558-8050","id":"a63gg2x6e844","address":"30120 Civic Center Blvd","lat":42.515407,"state":"MI"},"type":"Feature","geometry":{"type":"Point","coordinates":[-83.026706,42.515407]}},{"properties":{"city":"Dothan","lon":-85.44355,"zip":36303,"hotel":"Residence Inn Dothan","phone":"1 334-793-1030","id":"a63gg2p7kijf","address":"186 Hospitality Lane","lat":31.269956,"state":"AL"},"type":"Feature","geometry":{"type":"Point","coordinates":[-85.44355,31.269956]}},{"properties":{"city":"Dover","lon":-75.52498,"zip":19901,"hotel":"Residence Inn Dover","phone":"1 302-677-0777","id":"a63gg2spdy6k","address":"600 Jefferic Blvd","lat":39.178684,"state":"DE"},"type":"Feature","geometry":{"type":"Point","coordinates":[-75.52498,39.178684]}},{"properties":{"city":"Dulles","lon":-77.436496,"zip":20166,"hotel":"Residence Inn Dulles Airport at Dulles 28 Centre","phone":"1 703-421-2000","id":"a63gg2sm50wh","address":"45250 Monterey Place","lat":39.007895,"state":"VA"},"type":"Feature","geometry":{"type":"Point","coordinates":[-77.436496,39.007895]}},{"properties":{"city":"Durango","lon":-107.889846,"zip":81301,"hotel":"Residence Inn Durango","phone":"1 970-259-6200","id":"a63gg2kzlfko","address":"21691 US Highway 160 West","lat":37.27036,"state":"CO"},"type":"Feature","geometry":{"type":"Point","coordinates":[-107.889846,37.27036]}},{"properties":{"city":"Durham","lon":-78.89765,"zip":27713,"hotel":"Residence Inn Durham Research Triangle Park","phone":"1 919-361-1266","id":"a63gg2r71jim","address":"201 Residence Inn Blvd.","lat":35.903664,"state":"NC"},"type":"Feature","geometry":{"type":"Point","coordinates":[-78.89765,35.903664]}},{"properties":{"city":"East Lansing","lon":-84.46084,"zip":48823,"hotel":"Residence Inn East Lansing","phone":"1 517-332-7711","id":"a63gg2pzp2j5","address":"1600 East Grand River Avenue","lat":42.728861,"state":"MI"},"type":"Feature","geometry":{"type":"Point","coordinates":[-84.46084,42.728861]}},{"properties":{"city":"East Rutherford","lon":-74.08326,"zip":7073,"hotel":"Residence Inn East Rutherford Meadowlands","phone":"1 201-939-0020","id":"a63gg2l46q3w","address":"10 Murray Hill Parkway","lat":40.828773,"state":"NJ"},"type":"Feature","geometry":{"type":"Point","coordinates":[-74.08326,40.828773]}},{"properties":{"city":"El Paso","lon":-106.403245,"zip":79925,"hotel":"Residence Inn El Paso","phone":"1 915-771-0504","id":"a63gg2t3hbcq","address":"6355 Gateway West","lat":31.782619,"state":"TX"},"type":"Feature","geometry":{"type":"Point","coordinates":[-106.403245,31.782619]}},{"properties":{"city":"Erie","lon":-80.079537,"zip":16509,"hotel":"Residence Inn Erie","phone":"1 814-864-2500","id":"a63gg2sqhon8","address":"8061 Peach Street","lat":42.048093,"state":"PA"},"type":"Feature","geometry":{"type":"Point","coordinates":[-80.079537,42.048093]}},{"properties":{"city":"Eugene","lon":-123.084343,"zip":97401,"hotel":"Residence Inn Eugene Springfield","phone":"1 541-342-7171","id":"a63gg2rroa6c","address":"25 Club Road","lat":44.058987,"state":"OR"},"type":"Feature","geometry":{"type":"Point","coordinates":[-123.084343,44.058987]}},{"properties":{"city":"Evansville","lon":-87.454266,"zip":47715,"hotel":"Residence Inn Evansville East","phone":"1 812-471-7191","id":"a63gg2ml4lrd","address":"8283 East Walnut Street","lat":37.97324,"state":"IN"},"type":"Feature","geometry":{"type":"Point","coordinates":[-87.454266,37.97324]}},{"properties":{"city":"Fairfax","lon":-77.383858,"zip":22033,"hotel":"Residence Inn Fair Lakes Fairfax","phone":"1 703-266-4900","id":"a63gg2xxttx6","address":"12815 Fair Lakes Parkway","lat":38.862941,"state":"VA"},"type":"Feature","geometry":{"type":"Point","coordinates":[-77.383858,38.862941]}},{"properties":{"city":"Falls Church","lon":-77.225075,"zip":22042,"hotel":"Residence Inn Fairfax Merrifield","phone":"1 703-573-5200","id":"a63gg2kmvmgb","address":"8125 Gatehouse Road","lat":38.867157,"state":"VA"},"type":"Feature","geometry":{"type":"Point","coordinates":[-77.225075,38.867157]}},{"properties":{"city":"Fayetteville","lon":-78.953989,"zip":28303,"hotel":"Residence Inn Fayetteville Cross Creek","phone":"1 910-868-9005","id":"a63gg2noyawl","address":"1468 Skibo Road","lat":35.082713,"state":"NC"},"type":"Feature","geometry":{"type":"Point","coordinates":[-78.953989,35.082713]}},{"properties":{"city":"Fishkill","lon":-73.891471,"zip":12524,"hotel":"Residence Inn Fishkill","phone":"1 845-896-5210","id":"a63gg2w5jbfb","address":"14 Schuyler BLVD.","lat":41.527435,"state":"NY"},"type":"Feature","geometry":{"type":"Point","coordinates":[-73.891471,41.527435]}},{"properties":{"city":"Flagstaff","lon":-111.577674,"zip":86004,"hotel":"Residence Inn Flagstaff","phone":"1 928-526-5555","id":"a63gg2v61nz1","address":"3440 N Country Club Drive","lat":35.20989,"state":"AZ"},"type":"Feature","geometry":{"type":"Point","coordinates":[-111.577674,35.20989]}},{"properties":{"city":"Flint","lon":-83.71833,"zip":48507,"hotel":"Residence Inn Flint","phone":"1 810-424-7000","id":"a63gg2ssmhw6","address":"2202 West Hill Road","lat":42.944277,"state":"MI"},"type":"Feature","geometry":{"type":"Point","coordinates":[-83.71833,42.944277]}},{"properties":{"city":"Florence","lon":-79.83611,"zip":29501,"hotel":"Residence Inn Florence","phone":"-","id":"a63gg2w3b3de","address":"2660 Hospitality Blvd.","lat":34.186788,"state":"SC"},"type":"Feature","geometry":{"type":"Point","coordinates":[-79.83611,34.186788]}},{"properties":{"city":"Fort Collins","lon":-105.057317,"zip":80525,"hotel":"Residence Inn Fort Collins","phone":"1 970-223-5700","id":"a63gg2ny9clk","address":"1127 Oakridge Drive","lat":40.520994,"state":"CO"},"type":"Feature","geometry":{"type":"Point","coordinates":[-105.057317,40.520994]}},{"properties":{"city":"Plantation","lon":-80.253778,"zip":33324,"hotel":"Residence Inn Fort Lauderdale Plantation","phone":"1 954-723-0300","id":"a63gg2s18x3k","address":"130 N University Drive","lat":26.123306,"state":"FL"},"type":"Feature","geometry":{"type":"Point","coordinates":[-80.253778,26.123306]}},{"properties":{"city":"Miramar","lon":-80.342558,"zip":33027,"hotel":"Residence Inn Fort Lauderdale SW/Miramar","phone":"1 954-450-2717","id":"a63gg2xlatmq","address":"14700 Hotel Rd","lat":25.98213,"state":"FL"},"type":"Feature","geometry":{"type":"Point","coordinates":[-80.342558,25.98213]}},{"properties":{"city":"Weston","lon":-80.371391,"zip":33331,"hotel":"Residence Inn Fort Lauderdale Weston","phone":"1 954-659-8585","id":"a63gg2j3br3x","address":"2605 Weston Road","lat":26.084531,"state":"FL"},"type":"Feature","geometry":{"type":"Point","coordinates":[-80.371391,26.084531]}},{"properties":{"city":"Fort Myers","lon":-81.851565,"zip":33966,"hotel":"Residence Inn Fort Myers","phone":"1 239-936-0110","id":"a63gg2nnnj7l","address":"2960 Colonial Blvd.","lat":26.59712,"state":"FL"},"type":"Feature","geometry":{"type":"Point","coordinates":[-81.851565,26.59712]}},{"properties":{"city":"Fort Smith","lon":-94.350887,"zip":72903,"hotel":"Residence Inn Fort Smith","phone":"1 479-478-8300","id":"a63gg2v36dn1","address":"3005 South 74th Street","lat":35.353808,"state":"AR"},"type":"Feature","geometry":{"type":"Point","coordinates":[-94.350887,35.353808]}},{"properties":{"city":"Fort Wayne","lon":-85.153198,"zip":46808,"hotel":"Residence Inn Fort Wayne","phone":"1 260-484-4700","id":"a63gg2nw1hbs","address":"4919 Lima Road","lat":41.122378,"state":"IN"},"type":"Feature","geometry":{"type":"Point","coordinates":[-85.153198,41.122378]}},{"properties":{"city":"Fort Wayne","lon":-85.242971,"zip":46804,"hotel":"Residence Inn Fort Wayne Southwest","phone":"1 260-432-8000","id":"a63gg2msjd8k","address":"7811 West Jefferson Boulevard","lat":41.039374,"state":"IN"},"type":"Feature","geometry":{"type":"Point","coordinates":[-85.242971,41.039374]}},{"properties":{"city":"Fort Worth","lon":-97.308236,"zip":76177,"hotel":"Residence Inn Fort Worth Alliance Airport","phone":"1 817-750-7000","id":"a63gg2vebwi4","address":"13400 North Freeway","lat":32.972505,"state":"TX"},"type":"Feature","geometry":{"type":"Point","coordinates":[-97.308236,32.972505]}},{"properties":{"city":"Fort Worth","lon":-97.352219,"zip":76107,"hotel":"Residence Inn Fort Worth Cultural District","phone":"1 817-885-8250","id":"a63gg2jj068v","address":"2500 Museum Way","lat":32.74838,"state":"TX"},"type":"Feature","geometry":{"type":"Point","coordinates":[-97.352219,32.74838]}},{"properties":{"city":"Fort Worth","lon":-97.310096,"zip":76137,"hotel":"Residence Inn Fort Worth Fossil Creek","phone":"1 817-439-1300","id":"a63gg2isiw6r","address":"5801 Sandshell Dr.","lat":32.850106,"state":"TX"},"type":"Feature","geometry":{"type":"Point","coordinates":[-97.310096,32.850106]}},{"properties":{"city":"Fort Worth","lon":-97.361157,"zip":76107,"hotel":"Residence Inn Fort Worth University","phone":"1 817-870-1011","id":"a63gg2p8xhb1","address":"1701 South University Drive","lat":32.72602,"state":"TX"},"type":"Feature","geometry":{"type":"Point","coordinates":[-97.361157,32.72602]}},{"properties":{"city":"Frederick","lon":-77.412257,"zip":21703,"hotel":"Residence Inn Frederick","phone":"1 301-360-0010","id":"a63gg2p7o46y","address":"5230 Westview Drive","lat":39.378433,"state":"MD"},"type":"Feature","geometry":{"type":"Point","coordinates":[-77.412257,39.378433]}},{"properties":{"city":"Fredericksburg","lon":-77.557311,"zip":22407,"hotel":"Residence Inn Fredericksburg","phone":"1 540-786-9222","id":"a63gg2nvit1h","address":"60 Towne Centre Blvd","lat":38.270701,"state":"VA"},"type":"Feature","geometry":{"type":"Point","coordinates":[-77.557311,38.270701]}},{"properties":{"city":"Fremont","lon":-122.002099,"zip":94536,"hotel":"Residence Inn Fremont Silicon Valley","phone":"1 510-794-5900","id":"a63gg2j0vtdi","address":"5400 Farwell Place","lat":37.532933,"state":"CA"},"type":"Feature","geometry":{"type":"Point","coordinates":[-122.002099,37.532933]}},{"properties":{"city":"Fresno","lon":-119.786828,"zip":93710,"hotel":"Residence Inn Fresno","phone":"1 559-222-8900","id":"a63gg2lz7tkn","address":"5322 N Diana Avenue","lat":36.814748,"state":"CA"},"type":"Feature","geometry":{"type":"Point","coordinates":[-119.786828,36.814748]}},{"properties":{"city":"Gainesville","lon":-82.340515,"zip":32608,"hotel":"Residence Inn Gainesville","phone":"1 352-371-2101","id":"a63gg2sw6r95","address":"4001 SW 13th Street","lat":29.615073,"state":"FL"},"type":"Feature","geometry":{"type":"Point","coordinates":[-82.340515,29.615073]}},{"properties":{"city":"Gaithersburg","lon":-77.192268,"zip":20878,"hotel":"Residence Inn Gaithersburg Washingtonian Center","phone":"1 301-590-3003","id":"a63gg2wh1xbx","address":"9721 Washingtonian Blvd.","lat":39.112815,"state":"MD"},"type":"Feature","geometry":{"type":"Point","coordinates":[-77.192268,39.112815]}},{"properties":{"city":"Grand Junction","lon":-108.532501,"zip":81506,"hotel":"Residence Inn Grand Junction","phone":"1 970-263-4004","id":"a63gg2tctsi0","address":"767 Horizon Drive","lat":39.116075,"state":"CO"},"type":"Feature","geometry":{"type":"Point","coordinates":[-108.532501,39.116075]}},{"properties":{"city":"Grand Rapids","lon":-85.58374,"zip":49546,"hotel":"Residence Inn Grand Rapids","phone":"1 616-957-8111","id":"a63gg2j1ucks","address":"2701 East Beltline Avenue SE","lat":42.913992,"state":"MI"},"type":"Feature","geometry":{"type":"Point","coordinates":[-85.58374,42.913992]}},{"properties":{"city":"Grandville","lon":-85.751129,"zip":49418,"hotel":"Residence Inn Grand Rapids West","phone":"1 616-538-1100","id":"a63gg2qdu9jg","address":"3451 Rivertown Point Court, SW","lat":42.88379,"state":"MI"},"type":"Feature","geometry":{"type":"Point","coordinates":[-85.751129,42.88379]}},{"properties":{"city":"Green Bay","lon":-88.026204,"zip":54301,"hotel":"Residence Inn Green Bay","phone":"1 920-435-2222","id":"a63gg2nt9xp9","address":"335 W Saint Joseph Street","lat":44.485979,"state":"WI"},"type":"Feature","geometry":{"type":"Point","coordinates":[-88.026204,44.485979]}},{"properties":{"city":"Greenbelt","lon":-76.895998,"zip":20770,"hotel":"Residence Inn Greenbelt","phone":"1 301-982-1600","id":"a63gg2u4j51s","address":"6320 Golden Triangle Drive","lat":38.997659,"state":"MD"},"type":"Feature","geometry":{"type":"Point","coordinates":[-76.895998,38.997659]}},{"properties":{"city":"Greensboro","lon":-79.960832,"zip":27409,"hotel":"Residence Inn Greensboro Airport","phone":"1 336-632-4666","id":"a63gg2vbop1g","address":"7616 Thorndike Rd.","lat":36.076656,"state":"NC"},"type":"Feature","geometry":{"type":"Point","coordinates":[-79.960832,36.076656]}},{"properties":{"city":"Greenville","lon":-82.270868,"zip":29615,"hotel":"Residence Inn Greenville-Spartanburg Airport","phone":"1 864-627-0001","id":"a63gg2wd0psv","address":"120 Milestone Way","lat":34.86161,"state":"SC"},"type":"Feature","geometry":{"type":"Point","coordinates":[-82.270868,34.86161]}},{"properties":{"city":"Gulfport","lon":-89.073978,"zip":39503,"hotel":"Residence Inn Gulfport-Biloxi Airport","phone":"1 228-867-1722","id":"a63gg2rtgl5b","address":"14100 Airport Road","lat":30.415413,"state":"MS"},"type":"Feature","geometry":{"type":"Point","coordinates":[-89.073978,30.415413]}},{"properties":{"city":"Lebanon","lon":-72.264107,"zip":3766,"hotel":"Residence Inn Hanover Lebanon","phone":"1 603-643-4511","id":"a63gg2xeb6pb","address":"32 Centerra Parkway","lat":43.677135,"state":"NH"},"type":"Feature","geometry":{"type":"Point","coordinates":[-72.264107,43.677135]}},{"properties":{"city":"Carlisle","lon":-77.144743,"zip":17013,"hotel":"Residence Inn Harrisburg Carlisle","phone":"1 717-610-9050","id":"a63gg2qztfu8","address":"1164 Harrisburg Pike","lat":40.231137,"state":"PA"},"type":"Feature","geometry":{"type":"Point","coordinates":[-77.144743,40.231137]}},{"properties":{"city":"Harrisburg","lon":-76.804288,"zip":17111,"hotel":"Residence Inn Harrisburg Hershey","phone":"1 717-561-1900","id":"a63gg2jdd2a1","address":"4480 Lewis Road","lat":40.252022,"state":"PA"},"type":"Feature","geometry":{"type":"Point","coordinates":[-76.804288,40.252022]}},{"properties":{"city":"Harrisonburg","lon":-78.850944,"zip":24482,"hotel":"Residence Inn Harrisonburg","phone":"-","id":"a63gg2t8es2p","address":"1935 Deyerle Avenue","lat":38.428335,"state":"VA"},"type":"Feature","geometry":{"type":"Point","coordinates":[-78.850944,38.428335]}},{"properties":{"city":"Avon","lon":-72.830452,"zip":6001,"hotel":"Residence Inn Hartford Avon","phone":"1 860-678-1666","id":"a63gg2nmwbk4","address":"55 Simsbury Road","lat":41.813049,"state":"CT"},"type":"Feature","geometry":{"type":"Point","coordinates":[-72.830452,41.813049]}},{"properties":{"city":"Hartford","lon":-72.672852,"zip":6103,"hotel":"Residence Inn Hartford Downtown","phone":"1 860-524-5550","id":"a63gg2j37lo6","address":"942 Main Street","lat":41.768059,"state":"CT"},"type":"Feature","geometry":{"type":"Point","coordinates":[-72.672852,41.768059]}},{"properties":{"city":"Manchester","lon":-71.476006,"zip":6042,"hotel":"Residence Inn Hartford Manchester","phone":"1 860-432-4242","id":"a63gg2mrtluy","address":"201 Hale Road","lat":42.975853,"state":"CT"},"type":"Feature","geometry":{"type":"Point","coordinates":[-71.476006,42.975853]}},{"properties":{"city":"Rocky Hill","lon":-72.679398,"zip":6067,"hotel":"Residence Inn Hartford Rocky Hill","phone":"1 860-257-7500","id":"a63gg2mg481b","address":"680 Cromwell Avenue","lat":41.651279,"state":"CT"},"type":"Feature","geometry":{"type":"Point","coordinates":[-72.679398,41.651279]}},{"properties":{"city":"Windsor","lon":-72.66394,"zip":6095,"hotel":"Residence Inn Hartford Windsor","phone":"1 860-688-7474","id":"a63gg2qwpdk4","address":"I-91 at Bloomfield Ave 100 Dunfey Lane","lat":41.852188,"state":"CT"},"type":"Feature","geometry":{"type":"Point","coordinates":[-72.66394,41.852188]}},{"properties":{"city":"Hattiesburg","lon":-89.348058,"zip":39401,"hotel":"Residence Inn Hattiesburg","phone":"1 601-264-9202","id":"a63gg2jrx21q","address":"116 Grand Drive","lat":31.326097,"state":"MS"},"type":"Feature","geometry":{"type":"Point","coordinates":[-89.348058,31.326097]}},{"properties":{"city":"Hazleton","lon":-76.024123,"zip":18202,"hotel":"Residence Inn Hazleton","phone":"1 570-455-9555","id":"a63gg2kz1vug","address":"1 Station Circle","lat":40.963224,"state":"PA"},"type":"Feature","geometry":{"type":"Point","coordinates":[-76.024123,40.963224]}},{"properties":{"city":"Herndon","lon":-77.372845,"zip":20170,"hotel":"Residence Inn Herndon Reston","phone":"1 703-435-0044","id":"a63gg2ufg7io","address":"315 Elden Street","lat":38.96709,"state":"VA"},"type":"Feature","geometry":{"type":"Point","coordinates":[-77.372845,38.96709]}},{"properties":{"city":"Holland","lon":-86.109441,"zip":49423,"hotel":"Residence Inn Holland","phone":"1 616-393-6900","id":"a63gg2vfow3o","address":"631 Southpointe Ridge Road","lat":42.766875,"state":"MI"},"type":"Feature","geometry":{"type":"Point","coordinates":[-86.109441,42.766875]}},{"properties":{"city":"Houston","lon":-95.125614,"zip":77058,"hotel":"Residence Inn Houston Clear Lake","phone":"1 281-486-2424","id":"a63gg2l7coeq","address":"525 Bay Area Boulevard","lat":29.551572,"state":"TX"},"type":"Feature","geometry":{"type":"Point","coordinates":[-95.125614,29.551572]}},{"properties":{"city":"Houston","lon":-95.366914,"zip":77002,"hotel":"Residence Inn Houston Downtown/Convention Center","phone":"1 832-366-1000","id":"a63gg2ym5vmz","address":"904 Dallas Street","lat":29.755864,"state":"TX"},"type":"Feature","geometry":{"type":"Point","coordinates":[-95.366914,29.755864]}},{"properties":{"city":"Houston","lon":-95.388792,"zip":77060,"hotel":"Residence Inn Houston Intercontinental Airport at Greenspoint","phone":"1 281-820-4563","id":"a63gg2xlevky","address":"655 North Sam Houston Parkway East","lat":29.939165,"state":"TX"},"type":"Feature","geometry":{"type":"Point","coordinates":[-95.388792,29.939165]}},{"properties":{"city":"Houston","lon":-95.413152,"zip":77030,"hotel":"Residence Inn Houston Medical Center/Reliant Park","phone":"1 713-660-7993","id":"a63gg2w5axbc","address":"7710 South Main Street","lat":29.696044,"state":"TX"},"type":"Feature","geometry":{"type":"Point","coordinates":[-95.413152,29.696044]}},{"properties":{"city":"Houston","lon":-95.535593,"zip":77064,"hotel":"Residence Inn Houston Northwest/Willowbrook","phone":"1 832-237-2002","id":"a63gg2qstdqu","address":"7311 W. Greens Road","lat":29.954533,"state":"TX"},"type":"Feature","geometry":{"type":"Point","coordinates":[-95.535593,29.954533]}},{"properties":{"city":"Stafford","lon":-95.583739,"zip":77477,"hotel":"Residence Inn Houston Sugar Land","phone":"1 281-277-0770","id":"a63gg2ymjvx2","address":"12703 Southwest Freeway","lat":29.636231,"state":"TX"},"type":"Feature","geometry":{"type":"Point","coordinates":[-95.583739,29.636231]}},{"properties":{"city":"The Woodlands","lon":-95.453746,"zip":77380,"hotel":"Residence Inn Houston The Woodlands/Lake Front Circle","phone":"1 281-292-3252","id":"a63gg2n5xxvm","address":"1040 Lake Front Circle","lat":30.170637,"state":"TX"},"type":"Feature","geometry":{"type":"Point","coordinates":[-95.453746,30.170637]}},{"properties":{"city":"The Woodlands","lon":-95.468025,"zip":77380,"hotel":"Residence Inn Houston The Woodlands/Market Street","phone":"1 281-419-1542","id":"a63gg2q0zair","address":"9333 Six Pines Drive","lat":30.141631,"state":"TX"},"type":"Feature","geometry":{"type":"Point","coordinates":[-95.468025,30.141631]}},{"properties":{"city":"Houston","lon":-95.624294,"zip":77077,"hotel":"Residence Inn Houston West/Energy Corridor","phone":"1 281-293-8787","id":"a63gg2pddqht","address":"1150 Eldridge Parkway","lat":29.767517,"state":"TX"},"type":"Feature","geometry":{"type":"Point","coordinates":[-95.624294,29.767517]}},{"properties":{"city":"Houston","lon":-95.547163,"zip":77042,"hotel":"Residence Inn Houston Westchase on Westheimer","phone":"1 713-974-5454","id":"a63gg2vzhi93","address":"9965 Westheimer @ Elmside","lat":29.736915,"state":"TX"},"type":"Feature","geometry":{"type":"Point","coordinates":[-95.547163,29.736915]}},{"properties":{"city":"Houston","lon":-95.464382,"zip":77056,"hotel":"Residence Inn Houston by The Galleria","phone":"1 713-840-9757","id":"a63gg2j4i7ml","address":"2500 McCue Road","lat":29.741978,"state":"TX"},"type":"Feature","geometry":{"type":"Point","coordinates":[-95.464382,29.741978]}},{"properties":{"city":"Houston","lon":-95.424098,"zip":77005,"hotel":"Residence Inn Houston-West University","phone":"1 713-661-4660","id":"a63gg2kn6pof","address":"2939 Westpark Drive","lat":29.728536,"state":"TX"},"type":"Feature","geometry":{"type":"Point","coordinates":[-95.424098,29.728536]}},{"properties":{"city":"Fountain Valley","lon":-117.956409,"zip":92708,"hotel":"Residence Inn Huntington Beach Fountain Valley","phone":"1 714-965-8000","id":"a63gg2jpttlc","address":"9930 Slater Avenue","lat":33.708795,"state":"CA"},"type":"Feature","geometry":{"type":"Point","coordinates":[-117.956409,33.708795]}},{"properties":{"city":"Huntsville","lon":-86.684415,"zip":35806,"hotel":"Residence Inn Huntsville","phone":"1 256-895-0444","id":"a63gg2ltst6g","address":"6305 Residence Inn Road","lat":34.744349,"state":"AL"},"type":"Feature","geometry":{"type":"Point","coordinates":[-86.684415,34.744349]}},{"properties":{"city":"Hyattsville","lon":-76.848084,"zip":20785,"hotel":"Residence Inn Hyattsville Largo","phone":"-","id":"a63gg2jg3431","address":"I-95 &amp; Arena Drive","lat":38.89411,"state":"MD"},"type":"Feature","geometry":{"type":"Point","coordinates":[-76.848084,38.89411]}},{"properties":{"city":"Indianapolis","lon":-86.249163,"zip":46241,"hotel":"Residence Inn Indianapolis Airport","phone":"1 317-244-1500","id":"a63gg2r5a48u","address":"5224 West Southern Avenue","lat":39.728208,"state":"IN"},"type":"Feature","geometry":{"type":"Point","coordinates":[-86.249163,39.728208]}},{"properties":{"city":"Carmel","lon":-86.157469,"zip":46032,"hotel":"Residence Inn Indianapolis Carmel","phone":"1 317-846-2000","id":"a63gg2j0fhan","address":"11895 North Meridian Street","lat":39.962271,"state":"IN"},"type":"Feature","geometry":{"type":"Point","coordinates":[-86.157469,39.962271]}},{"properties":{"city":"Indianapolis","lon":-86.164069,"zip":46202,"hotel":"Residence Inn Indianapolis Downtown on the Canal","phone":"1 317-822-0840","id":"a63gg2p7omzs","address":"350 W New York Street","lat":39.771575,"state":"IN"},"type":"Feature","geometry":{"type":"Point","coordinates":[-86.164069,39.771575]}},{"properties":{"city":"Indianapolis","lon":-86.029129,"zip":46256,"hotel":"Residence Inn Indianapolis Fishers","phone":"1 317-842-1111","id":"a63gg2ydn5lw","address":"9765 Crosspoint Boulevard","lat":39.931348,"state":"IN"},"type":"Feature","geometry":{"type":"Point","coordinates":[-86.029129,39.931348]}},{"properties":{"city":"Indianapolis","lon":-86.221713,"zip":46268,"hotel":"Residence Inn Indianapolis North","phone":"1 317-872-0462","id":"a63gg2n49q2g","address":"3553 Founders Road","lat":39.913276,"state":"IN"},"type":"Feature","geometry":{"type":"Point","coordinates":[-86.221713,39.913276]}},{"properties":{"city":"Indianapolis","lon":-86.270251,"zip":46278,"hotel":"Residence Inn Indianapolis Northwest","phone":"1 317-2756000","id":"a63gg2rjj82n","address":"6220 Digital Way","lat":39.878735,"state":"IN"},"type":"Feature","geometry":{"type":"Point","coordinates":[-86.270251,39.878735]}},{"properties":{"city":"Irvine","lon":-117.838235,"zip":92614,"hotel":"Residence Inn Irvine John Wayne Airport/Orange County","phone":"1 949-261-2020","id":"a63gg2m2qt2p","address":"2855 Main Street","lat":33.680385,"state":"CA"},"type":"Feature","geometry":{"type":"Point","coordinates":[-117.838235,33.680385]}},{"properties":{"city":"Irvine","lon":-117.713974,"zip":92618,"hotel":"Residence Inn Irvine Spectrum","phone":"1 949-380-3000","id":"a63gg2u6qpmy","address":"10 Morgan Street","lat":33.65313,"state":"CA"},"type":"Feature","geometry":{"type":"Point","coordinates":[-117.713974,33.65313]}},{"properties":{"city":"Jackson","lon":-90.161937,"zip":39202,"hotel":"Residence Inn Jackson","phone":"1 601-355-3599","id":"a63gg2jemkxg","address":"881 E River Place","lat":32.308458,"state":"MS"},"type":"Feature","geometry":{"type":"Point","coordinates":[-90.161937,32.308458]}},{"properties":{"city":"Ridgeland","lon":-90.137541,"zip":39157,"hotel":"Residence Inn Jackson Ridgeland","phone":"1 601-206-7755","id":"a63gg2y2v824","address":"855 Centre Street","lat":32.402733,"state":"MS"},"type":"Feature","geometry":{"type":"Point","coordinates":[-90.137541,32.402733]}},{"properties":{"city":"Jacksonville","lon":-81.652807,"zip":32218,"hotel":"Residence Inn Jacksonville Airport","phone":"1 904-741-6550","id":"a63gg2vknrvm","address":"1310 Airport Road","lat":30.482521,"state":"FL"},"type":"Feature","geometry":{"type":"Point","coordinates":[-81.652807,30.482521]}},{"properties":{"city":"Jacksonville","lon":-81.570865,"zip":32256,"hotel":"Residence Inn Jacksonville Baymeadows","phone":"1 904-733-8088","id":"a63gg2vkfl2b","address":"8365 Dix Ellis Trail","lat":30.216833,"state":"FL"},"type":"Feature","geometry":{"type":"Point","coordinates":[-81.570865,30.216833]}},{"properties":{"city":"Jacksonville","lon":-81.541149,"zip":32256,"hotel":"Residence Inn Jacksonville Butler Boulevard","phone":"1 904-996-8900","id":"a63gg2ulgl4f","address":"10551 Deerwood Park Blvd","lat":30.247732,"state":"FL"},"type":"Feature","geometry":{"type":"Point","coordinates":[-81.541149,30.247732]}},{"properties":{"city":"Joplin","lon":-94.475292,"zip":64804,"hotel":"Residence Inn Joplin","phone":"1 417-782-0908","id":"a63gg2ox3mao","address":"3128 East Hammons Blvd.","lat":37.048895,"state":"MO"},"type":"Feature","geometry":{"type":"Point","coordinates":[-94.475292,37.048895]}},{"properties":{"city":"Kalamazoo","lon":-85.563648,"zip":49001,"hotel":"Residence Inn Kalamazoo East","phone":"1 269-349-0855","id":"a63gg2l150vu","address":"1500 East Kilgore Road","lat":42.245367,"state":"MI"},"type":"Feature","geometry":{"type":"Point","coordinates":[-85.563648,42.245367]}},{"properties":{"city":"Kansas City","lon":-94.670755,"zip":64153,"hotel":"Residence Inn Kansas City Airport","phone":"1 816-741-2300","id":"a63gg2qpqngy","address":"10300 North Ambassador Drive","lat":39.280018,"state":"MO"},"type":"Feature","geometry":{"type":"Point","coordinates":[-94.670755,39.280018]}},{"properties":{"city":"Kansas City","lon":-94.591318,"zip":64112,"hotel":"Residence Inn Kansas City Country Club Plaza","phone":"1 816-753-0033","id":"a63gg2nbyu71","address":"4601 Broadway","lat":39.043968,"state":"MO"},"type":"Feature","geometry":{"type":"Point","coordinates":[-94.591318,39.043968]}},{"properties":{"city":"Kansas City","lon":-94.585055,"zip":64108,"hotel":"Residence Inn Kansas City Downtown/Union Hill","phone":"1 816-561-3000","id":"a63gg2oippwz","address":"2975 Main Street","lat":39.073399,"state":"MO"},"type":"Feature","geometry":{"type":"Point","coordinates":[-94.585055,39.073399]}},{"properties":{"city":"Independence","lon":-94.359538,"zip":64057,"hotel":"Residence Inn Kansas City Independence","phone":"1 816-795-6466","id":"a63gg2qiua5u","address":"3700 South Arrowhead Avenue","lat":39.050175,"state":"MO"},"type":"Feature","geometry":{"type":"Point","coordinates":[-94.359538,39.050175]}},{"properties":{"city":"Olathe","lon":-94.776459,"zip":66062,"hotel":"Residence Inn Kansas City Olathe","phone":"1 913-829-6700","id":"a63gg2wnwxb7","address":"12215 South Strangline Road","lat":38.907517,"state":"KS"},"type":"Feature","geometry":{"type":"Point","coordinates":[-94.776459,38.907517]}},{"properties":{"city":"Overland Park","lon":-94.672035,"zip":66213,"hotel":"Residence Inn Kansas City Overland Park","phone":"1 913-491-4444","id":"a63gg2nwoltw","address":"12010 Blue Valley Pkwy.","lat":38.909641,"state":"KS"},"type":"Feature","geometry":{"type":"Point","coordinates":[-94.672035,38.909641]}},{"properties":{"city":"Killeen","lon":-97.739213,"zip":76541,"hotel":"Residence Inn Killeen","phone":"1 254-634-1020","id":"a63gg2m65t3t","address":"400 East Central Texas Expressway","lat":31.097921,"state":"TX"},"type":"Feature","geometry":{"type":"Point","coordinates":[-97.739213,31.097921]}},{"properties":{"city":"Knoxville","lon":-84.102032,"zip":37922,"hotel":"Residence Inn Knoxville Cedar Bluff","phone":"1 865-539-5339","id":"a63gg2kbd263","address":"215 Langley Place","lat":35.913786,"state":"TN"},"type":"Feature","geometry":{"type":"Point","coordinates":[-84.102032,35.913786]}},{"properties":{"city":"La Mirada","lon":-118.02343,"zip":90638,"hotel":"Residence Inn La Mirada Buena Park","phone":"1 714-523-2800","id":"a63gg2oaxzt4","address":"14419 Firestone Boulevard","lat":33.881527,"state":"CA"},"type":"Feature","geometry":{"type":"Point","coordinates":[-118.02343,33.881527]}},{"properties":{"city":"Lafayette","lon":-92.011957,"zip":70508,"hotel":"Residence Inn Lafayette Airport","phone":"1 337-232-3341","id":"a63gg2mkg16b","address":"128 James Comeaux Road","lat":30.187864,"state":"LA"},"type":"Feature","geometry":{"type":"Point","coordinates":[-92.011957,30.187864]}},{"properties":{"city":"Lakeland","lon":-81.975363,"zip":33803,"hotel":"Residence Inn Lakeland","phone":"1 863-680-2323","id":"a63gg2qb56sn","address":"3701 Harden Blvd.","lat":27.999232,"state":"FL"},"type":"Feature","geometry":{"type":"Point","coordinates":[-81.975363,27.999232]}},{"properties":{"city":"Lansing","lon":-84.655829,"zip":48917,"hotel":"Residence Inn Lansing West","phone":"1 517-886-5030","id":"a63gg2u3z39u","address":"922 Delta Commerce Drive","lat":42.743623,"state":"MI"},"type":"Feature","geometry":{"type":"Point","coordinates":[-84.655829,42.743623]}},{"properties":{"city":"Laredo","lon":-99.500858,"zip":78041,"hotel":"Residence Inn Laredo Del Mar","phone":"1 956-753-9700","id":"a63gg2oyakd4","address":"310 Lost Oaks Blvd","lat":27.562704,"state":"TX"},"type":"Feature","geometry":{"type":"Point","coordinates":[-99.500858,27.562704]}},{"properties":{"city":"Las Vegas","lon":-115.154945,"zip":89109,"hotel":"Residence Inn Las Vegas Convention Center","phone":"1 702-796-9300","id":"a63gg2rdizgr","address":"3225 Paradise Road","lat":36.130915,"state":"NV"},"type":"Feature","geometry":{"type":"Point","coordinates":[-115.154945,36.130915]}},{"properties":{"city":"Henderson","lon":-115.081554,"zip":89014,"hotel":"Residence Inn Las Vegas Henderson/Green Valley","phone":"1 702-434-2700","id":"a63gg2w4c0ir","address":"2190 Olympic Avenue","lat":36.072996,"state":"NV"},"type":"Feature","geometry":{"type":"Point","coordinates":[-115.081554,36.072996]}},{"properties":{"city":"Las Vegas","lon":-115.157038,"zip":89169,"hotel":"Residence Inn Las Vegas Hughes Center","phone":"1 702-650-0040","id":"a63gg2z6fvqu","address":"370 Hughes Center Dr","lat":36.115472,"state":"NV"},"type":"Feature","geometry":{"type":"Point","coordinates":[-115.157038,36.115472]}},{"properties":{"city":"Las Vegas","lon":-115.181732,"zip":89118,"hotel":"Residence Inn Las Vegas South","phone":"1 702-795-7378","id":"a63gg2l6mnm4","address":"5875 Dean Martin Drive","lat":36.081524,"state":"NV"},"type":"Feature","geometry":{"type":"Point","coordinates":[-115.181732,36.081524]}},{"properties":{"city":"Lexington","lon":-84.494072,"zip":40511,"hotel":"Residence Inn Lexington North","phone":"1 859-231-6191","id":"a63gg2j374oc","address":"1080 Newtown Pike","lat":38.076631,"state":"KY"},"type":"Feature","geometry":{"type":"Point","coordinates":[-84.494072,38.076631]}},{"properties":{"city":"Lexington","lon":-84.423629,"zip":40509,"hotel":"Residence Inn Lexington South/Hamburg Place","phone":"1 859-263-9979","id":"a63gg2j0dh39","address":"2688 Pink Pigeon Parkway","lat":38.017962,"state":"KY"},"type":"Feature","geometry":{"type":"Point","coordinates":[-84.423629,38.017962]}},{"properties":{"city":"Little Rock","lon":-92.394277,"zip":72211,"hotel":"Residence Inn Little Rock","phone":"1 501-312-0200","id":"a63gg2miv8sh","address":"1401 South Shackleford Road","lat":34.740368,"state":"AR"},"type":"Feature","geometry":{"type":"Point","coordinates":[-92.394277,34.740368]}},{"properties":{"city":"North Little Rock","lon":-92.22009,"zip":72117,"hotel":"Residence Inn Little Rock North","phone":"1 501-945-7777","id":"a63gg2o79k9h","address":"4110 Health Care Drive","lat":34.781619,"state":"AR"},"type":"Feature","geometry":{"type":"Point","coordinates":[-92.22009,34.781619]}},{"properties":{"city":"Livermore","lon":-121.818483,"zip":94551,"hotel":"Residence Inn Livermore Pleasanton","phone":"1 925-373-1800","id":"a63gg2jkrxjr","address":"1000 Airway Blvd","lat":37.703252,"state":"CA"},"type":"Feature","geometry":{"type":"Point","coordinates":[-121.818483,37.703252]}},{"properties":{"city":"Long Beach","lon":-118.14425,"zip":90815,"hotel":"Residence Inn Long Beach","phone":"1 562-595-0909","id":"a63gg2qp70am","address":"4111 East Willow Street","lat":33.803537,"state":"CA"},"type":"Feature","geometry":{"type":"Point","coordinates":[-118.14425,33.803537]}},{"properties":{"city":"Hauppauge","lon":-73.204114,"zip":11788,"hotel":"Residence Inn Long Island Hauppauge/Islandia","phone":"1 631-724-4188","id":"a63gg2yzepep","address":"850 Veterans Memorial Hwy.","lat":40.820553,"state":"NY"},"type":"Feature","geometry":{"type":"Point","coordinates":[-73.204114,40.820553]}},{"properties":{"city":"Holtsville","lon":-73.055961,"zip":11742,"hotel":"Residence Inn Long Island Holtsville","phone":"1 631-475-9500","id":"a63gg2svafq5","address":"25 Middle Avenue","lat":40.816146,"state":"NY"},"type":"Feature","geometry":{"type":"Point","coordinates":[-73.055961,40.816146]}},{"properties":{"city":"El Segundo","lon":-118.389575,"zip":90245,"hotel":"Residence Inn Los Angeles LAX/El Segundo","phone":"1 310-333-0888","id":"a63gg2yfuyef","address":"2135 East El Segundo Blvd.","lat":33.916632,"state":"CA"},"type":"Feature","geometry":{"type":"Point","coordinates":[-118.389575,33.916632]}},{"properties":{"city":"Manhattan Beach","lon":-118.395798,"zip":90266,"hotel":"Residence Inn Los Angeles LAX/Manhattan Beach","phone":"1 310-421-3100","id":"a63gg2lazi6g","address":"1700 North Sepulveda Boulevard","lat":33.890388,"state":"CA"},"type":"Feature","geometry":{"type":"Point","coordinates":[-118.395798,33.890388]}},{"properties":{"city":"Torrance","lon":-118.351336,"zip":90503,"hotel":"Residence Inn Los Angeles Torrance/Redondo Beach","phone":"1 310-543-4566","id":"a63gg2okjksg","address":"3701 Torrance Boulevard","lat":33.837722,"state":"CA"},"type":"Feature","geometry":{"type":"Point","coordinates":[-118.351336,33.837722]}},{"properties":{"city":"Westlake Village","lon":-118.801579,"zip":91362,"hotel":"Residence Inn Los Angeles Westlake Village","phone":"1 818-707-4411","id":"a63gg2xu80j1","address":"30950 Russell Ranch Road","lat":34.150678,"state":"CA"},"type":"Feature","geometry":{"type":"Point","coordinates":[-118.801579,34.150678]}},{"properties":{"city":"Louisville","lon":-85.744302,"zip":40209,"hotel":"Residence Inn Louisville Airport","phone":"1 502-363-8800","id":"a63gg2u4ft4f","address":"700 Phillips Lane","lat":38.190748,"state":"KY"},"type":"Feature","geometry":{"type":"Point","coordinates":[-85.744302,38.190748]}},{"properties":{"city":"Louisville","lon":-85.747381,"zip":40202,"hotel":"Residence Inn Louisville Downtown","phone":"1 502-589-8998","id":"a63gg2pg8rn4","address":"333 East Market Street","lat":38.254347,"state":"KY"},"type":"Feature","geometry":{"type":"Point","coordinates":[-85.747381,38.254347]}},{"properties":{"city":"Louisville","lon":-85.578676,"zip":40222,"hotel":"Residence Inn Louisville East","phone":"1 502-425-1821","id":"a63gg2qpuca8","address":"120 North Hurstbourne Parkway","lat":38.249787,"state":"KY"},"type":"Feature","geometry":{"type":"Point","coordinates":[-85.578676,38.249787]}},{"properties":{"city":"Louisville","lon":-85.561085,"zip":40241,"hotel":"Residence Inn Louisville Northeast","phone":"1 502-412-1311","id":"a63gg2pkkeh3","address":"3500 Springhurst Commons Drive","lat":38.296527,"state":"KY"},"type":"Feature","geometry":{"type":"Point","coordinates":[-85.561085,38.296527]}},{"properties":{"city":"Loveland","lon":-104.99749,"zip":80538,"hotel":"Residence Inn Loveland","phone":"1 970-622-7000","id":"a63gg2iygy7f","address":"5450 McWhinney Blvd","lat":40.410617,"state":"CO"},"type":"Feature","geometry":{"type":"Point","coordinates":[-104.99749,40.410617]}},{"properties":{"city":"Lubbock","lon":-101.874613,"zip":79423,"hotel":"Residence Inn Lubbock","phone":"1 806-745-1963","id":"a63gg2m4m4e8","address":"2551 S Loop 289","lat":33.528911,"state":"TX"},"type":"Feature","geometry":{"type":"Point","coordinates":[-101.874613,33.528911]}},{"properties":{"city":"Macon","lon":-83.68877,"zip":31210,"hotel":"Residence Inn Macon","phone":"1 478-475-4280","id":"a63gg2t59vhq","address":"3900 Sheraton Drive","lat":32.905945,"state":"GA"},"type":"Feature","geometry":{"type":"Point","coordinates":[-83.68877,32.905945]}},{"properties":{"city":"Madison","lon":-89.30039,"zip":53704,"hotel":"Residence Inn Madison East","phone":"1 608-244-5047","id":"a63gg2s7d3oo","address":"4862 Hayes Road","lat":43.136502,"state":"WI"},"type":"Feature","geometry":{"type":"Point","coordinates":[-89.30039,43.136502]}},{"properties":{"city":"Middleton","lon":-89.528349,"zip":53562,"hotel":"Residence Inn Madison West/Middleton","phone":"1 608-662-1100","id":"a63gg2s02qfp","address":"8400 Market Street","lat":43.093414,"state":"WI"},"type":"Feature","geometry":{"type":"Point","coordinates":[-89.528349,43.093414]}},{"properties":{"city":"Manassas","lon":-77.514269,"zip":20109,"hotel":"Residence Inn Manassas Battlefield Park","phone":"1 703-330-8808","id":"a63gg2rwnhe8","address":"7345 Williamson Blvd.","lat":38.796711,"state":"VA"},"type":"Feature","geometry":{"type":"Point","coordinates":[-77.514269,38.796711]}},{"properties":{"city":"McAllen","lon":-98.225733,"zip":78501,"hotel":"Residence Inn McAllen","phone":"1 956-994-8626","id":"a63gg2jojlv6","address":"220 W. Expressway 83","lat":26.189076,"state":"TX"},"type":"Feature","geometry":{"type":"Point","coordinates":[-98.225733,26.189076]}},{"properties":{"city":"Melbourne","lon":-80.621944,"zip":32901,"hotel":"Residence Inn Melbourne","phone":"1 321-723-5740","id":"a63gg2wv6t58","address":"1430 South Babcock Street","lat":28.086483,"state":"FL"},"type":"Feature","geometry":{"type":"Point","coordinates":[-80.621944,28.086483]}},{"properties":{"city":"Memphis","lon":-90.052602,"zip":38103,"hotel":"Residence Inn Memphis Downtown","phone":"1 901-578-3700","id":"a63gg2otoakq","address":"110 Monroe Avenue","lat":35.14415,"state":"TN"},"type":"Feature","geometry":{"type":"Point","coordinates":[-90.052602,35.14415]}},{"properties":{"city":"Memphis","lon":-89.856296,"zip":38119,"hotel":"Residence Inn Memphis East","phone":"1 901-685-9595","id":"a63gg2uky0yp","address":"6141 Old Poplar Pike","lat":35.10027,"state":"TN"},"type":"Feature","geometry":{"type":"Point","coordinates":[-89.856296,35.10027]}},{"properties":{"city":"Germantown","lon":-89.751555,"zip":38138,"hotel":"Residence Inn Memphis Germantown","phone":"1 901-752-0900","id":"a63gg2iwyvs9","address":"9314 Poplar Pike","lat":35.062372,"state":"TN"},"type":"Feature","geometry":{"type":"Point","coordinates":[-89.751555,35.062372]}},{"properties":{"city":"Southaven","lon":-89.996615,"zip":38671,"hotel":"Residence Inn Memphis Southaven","phone":"1 662-996-1500","id":"a63gg2vsgavq","address":"7165 Sleepy Hollow Drive","lat":34.965496,"state":"MS"},"type":"Feature","geometry":{"type":"Point","coordinates":[-89.996615,34.965496]}},{"properties":{"city":"Meriden","lon":-72.765533,"zip":6450,"hotel":"Residence Inn Meriden","phone":"1 203-634-7770","id":"a63gg2o2hzq2","address":"390 Bee Street","lat":41.536751,"state":"CT"},"type":"Feature","geometry":{"type":"Point","coordinates":[-72.765533,41.536751]}},{"properties":{"city":"Merrillville","lon":-87.330703,"zip":46410,"hotel":"Residence Inn Merrillville","phone":"1 219-791-9000","id":"a63gg2nc3ews","address":"8018 Delaware Place","lat":41.473223,"state":"IN"},"type":"Feature","geometry":{"type":"Point","coordinates":[-87.330703,41.473223]}},{"properties":{"city":"Miami","lon":-80.328843,"zip":33126,"hotel":"Residence Inn Miami Airport West/Doral Area","phone":"1 305-591-2211","id":"a63gg2skrw6r","address":"1212 NW 82nd Avenue","lat":25.783026,"state":"FL"},"type":"Feature","geometry":{"type":"Point","coordinates":[-80.328843,25.783026]}},{"properties":{"city":"Aventura","lon":-80.139679,"zip":33180,"hotel":"Residence Inn Miami Aventura Mall","phone":"1 786-528-1001","id":"a63gg2qhzzr8","address":"19900 West Country Club Drive","lat":25.960193,"state":"FL"},"type":"Feature","geometry":{"type":"Point","coordinates":[-80.139679,25.960193]}},{"properties":{"city":"Coconut Grove","lon":-80.239049,"zip":33133,"hotel":"Residence Inn Miami Coconut Grove","phone":"1 305-285-9303","id":"a63gg2odw8bn","address":"2835 Tigertail Avenue","lat":25.730433,"state":"FL"},"type":"Feature","geometry":{"type":"Point","coordinates":[-80.239049,25.730433]}},{"properties":{"city":"Midland","lon":-102.157679,"zip":79706,"hotel":"Residence Inn Midland","phone":"1 432-689-3511","id":"a63gg2pu5mu3","address":"5509 Deauville Blvd","lat":31.99185,"state":"TX"},"type":"Feature","geometry":{"type":"Point","coordinates":[-102.157679,31.99185]}},{"properties":{"city":"Milford","lon":-73.091652,"zip":6460,"hotel":"Residence Inn Milford","phone":"1 203-283-2100","id":"a63gg2tqvair","address":"62 Rowe Avenue","lat":41.210461,"state":"CT"},"type":"Feature","geometry":{"type":"Point","coordinates":[-73.091652,41.210461]}},{"properties":{"city":"Milpitas","lon":-121.919643,"zip":95035,"hotel":"Residence Inn Milpitas Silicon Valley","phone":"1 408-941-9222","id":"a63gg2ksyji1","address":"1501 California Circle","lat":37.450597,"state":"CA"},"type":"Feature","geometry":{"type":"Point","coordinates":[-121.919643,37.450597]}},{"properties":{"city":"Brookfield","lon":-88.114867,"zip":53005,"hotel":"Residence Inn Milwaukee Brookfield","phone":"1 262-782-5990","id":"a63gg2jynjb0","address":"950 South Pinehurst Court","lat":43.021725,"state":"WI"},"type":"Feature","geometry":{"type":"Point","coordinates":[-88.114867,43.021725]}},{"properties":{"city":"Milwaukee","lon":-87.911097,"zip":53203,"hotel":"Residence Inn Milwaukee Downtown","phone":"1 414-224-7890","id":"a63gg2wlxbwd","address":"648 North Plankinton Avenue","lat":43.038055,"state":"WI"},"type":"Feature","geometry":{"type":"Point","coordinates":[-87.911097,43.038055]}},{"properties":{"city":"Glendale","lon":-87.914594,"zip":53217,"hotel":"Residence Inn Milwaukee Glendale","phone":"1 414-352-0070","id":"a63gg2k47lco","address":"7275 N Port Washington Road","lat":43.148961,"state":"WI"},"type":"Feature","geometry":{"type":"Point","coordinates":[-87.914594,43.148961]}},{"properties":{"city":"Bloomington","lon":-93.253094,"zip":55425,"hotel":"Residence Inn Minneapolis Bloomington","phone":"1 952-876-0900","id":"a63gg2th0jbk","address":"7850 Bloomington Avenue South","lat":44.860924,"state":"MN"},"type":"Feature","geometry":{"type":"Point","coordinates":[-93.253094,44.860924]}},{"properties":{"city":"Minneapolis","lon":-93.261741,"zip":55401,"hotel":"Residence Inn Minneapolis Downtown at The Depot","phone":"1 612-340-1300","id":"a63gg2uwtxoa","address":"425 South Second Street","lat":44.980233,"state":"MN"},"type":"Feature","geometry":{"type":"Point","coordinates":[-93.261741,44.980233]}},{"properties":{"city":"Minneapolis","lon":-93.274049,"zip":55402,"hotel":"Residence Inn Minneapolis Downtown/City Center","phone":"1 612-677-1000","id":"a63gg2tzkud2","address":"45 South Eighth Street","lat":44.976183,"state":"MN"},"type":"Feature","geometry":{"type":"Point","coordinates":[-93.274049,44.976183]}},{"properties":{"city":"Eden Prairie","lon":-93.423425,"zip":55344,"hotel":"Residence Inn Minneapolis Eden Prairie","phone":"1 952-829-0033","id":"a63gg2nz3yag","address":"7780 Flying Cloud Drive","lat":44.864266,"state":"MN"},"type":"Feature","geometry":{"type":"Point","coordinates":[-93.423425,44.864266]}},{"properties":{"city":"Edina","lon":-93.321927,"zip":55435,"hotel":"Residence Inn Minneapolis Edina","phone":"1 952-893-9300","id":"a63gg2ne3c3b","address":"3400 Edinborough Way","lat":44.861701,"state":"MN"},"type":"Feature","geometry":{"type":"Point","coordinates":[-93.321927,44.861701]}},{"properties":{"city":"Plymouth","lon":-93.453081,"zip":55441,"hotel":"Residence Inn Minneapolis Plymouth","phone":"1 763-577-1600","id":"a63gg2lmqd61","address":"2750 Annapolis Circle","lat":45.009511,"state":"MN"},"type":"Feature","geometry":{"type":"Point","coordinates":[-93.453081,45.009511]}},{"properties":{"city":"Roseville","lon":-93.189168,"zip":55113,"hotel":"Residence Inn Minneapolis St. Paul/Roseville","phone":"1 651-636-0680","id":"a63gg2mhknjc","address":"2985 Centre Pointe Drive","lat":45.031438,"state":"MN"},"type":"Feature","geometry":{"type":"Point","coordinates":[-93.189168,45.031438]}},{"properties":{"city":"Eagan","lon":-93.158104,"zip":55121,"hotel":"Residence Inn Minneapolis-St. Paul Airport/Eagan","phone":"1 651-688-0363","id":"a63gg2q14h82","address":"3040 Eagandale Place","lat":44.846314,"state":"MN"},"type":"Feature","geometry":{"type":"Point","coordinates":[-93.158104,44.846314]}},{"properties":{"city":"Mobile","lon":-88.127769,"zip":36609,"hotel":"Residence Inn Mobile","phone":"1 251-304-0570","id":"a63gg2z2sd28","address":"950 West I 65 Service Road South","lat":30.67213,"state":"AL"},"type":"Feature","geometry":{"type":"Point","coordinates":[-88.127769,30.67213]}},{"properties":{"city":"Moline","lon":-90.463418,"zip":61265,"hotel":"Residence Inn Moline Quad Cities","phone":"1 309-796-4244","id":"a63gg2nkrbxa","address":"4600 53rd Street","lat":41.468224,"state":"IL"},"type":"Feature","geometry":{"type":"Point","coordinates":[-90.463418,41.468224]}},{"properties":{"city":"Monroe","lon":-92.055573,"zip":71203,"hotel":"Residence Inn Monroe","phone":"1 318-387-0210","id":"a63gg2m5sd49","address":"4960 Millhaven Rd.","lat":32.500114,"state":"LA"},"type":"Feature","geometry":{"type":"Point","coordinates":[-92.055573,32.500114]}},{"properties":{"city":"Montgomery","lon":-86.209926,"zip":36117,"hotel":"Residence Inn Montgomery","phone":"1 334-270-3300","id":"a63gg2o8di8e","address":"1200 Hilmar Court","lat":32.360865,"state":"AL"},"type":"Feature","geometry":{"type":"Point","coordinates":[-86.209926,32.360865]}},{"properties":{"city":"Morgantown","lon":-79.953126,"zip":26505,"hotel":"Residence Inn Morgantown","phone":"1 304-599-0237","id":"a63gg2uoilhh","address":"1046 Willowdale Road","lat":39.65414,"state":"WV"},"type":"Feature","geometry":{"type":"Point","coordinates":[-79.953126,39.65414]}},{"properties":{"city":"Mount Laurel","lon":-75.963631,"zip":8054,"hotel":"Residence Inn Mt. Laurel at Bishop's Gate","phone":"1 856-234-1025","id":"a63gg2x8q2t3","address":"1001 Sunburst Lane","lat":40.988564,"state":"NJ"},"type":"Feature","geometry":{"type":"Point","coordinates":[-75.963631,40.988564]}},{"properties":{"city":"Mount Olive","lon":-74.722382,"zip":7828,"hotel":"Residence Inn Mt. Olive at International Trade Center","phone":"1 973-691-1720","id":"a63gg2p5b5bg","address":"271 Continental Drive","lat":40.909637,"state":"NJ"},"type":"Feature","geometry":{"type":"Point","coordinates":[-74.722382,40.909637]}},{"properties":{"city":"Mystic","lon":-71.956795,"zip":6355,"hotel":"Residence Inn Mystic Groton","phone":"1 860-536-5150","id":"a63gg2jpanig","address":"40 Whitehall Avenue","lat":41.378445,"state":"CT"},"type":"Feature","geometry":{"type":"Point","coordinates":[-71.956795,41.378445]}},{"properties":{"city":"Naples","lon":-81.800391,"zip":34103,"hotel":"Residence Inn Naples","phone":"1 239-659-1300","id":"a63gg2vmdlxq","address":"4075 Tamiami Trail North","lat":26.196299,"state":"FL"},"type":"Feature","geometry":{"type":"Point","coordinates":[-81.800391,26.196299]}},{"properties":{"city":"Merrimack","lon":-71.491272,"zip":3054,"hotel":"Residence Inn Nashua Merrimack","phone":"1 603-424-8100","id":"a63gg2of2r6c","address":"246 Daniel Webster Highway","lat":42.831242,"state":"NH"},"type":"Feature","geometry":{"type":"Point","coordinates":[-71.491272,42.831242]}},{"properties":{"city":"Nashville","lon":-86.686867,"zip":37214,"hotel":"Residence Inn Nashville Airport","phone":"1 615-889-8600","id":"a63gg2mf04e5","address":"2300 Elm Hill Pike","lat":36.153403,"state":"TN"},"type":"Feature","geometry":{"type":"Point","coordinates":[-86.686867,36.153403]}},{"properties":{"city":"Brentwood","lon":-86.800403,"zip":37027,"hotel":"Residence Inn Nashville Brentwood","phone":"1 615-371-0100","id":"a63gg2q8bqfv","address":"206 Ward Circle","lat":36.031506,"state":"TN"},"type":"Feature","geometry":{"type":"Point","coordinates":[-86.800403,36.031506]}},{"properties":{"city":"National Harbor","lon":-77.01712,"zip":20745,"hotel":"Residence Inn National Harbor Washington, DC","phone":"1 301-749-4755","id":"a63gg2kus15m","address":"192 Waterfront St","lat":38.783426,"state":"MD"},"type":"Feature","geometry":{"type":"Point","coordinates":[-77.01712,38.783426]}},{"properties":{"city":"Neptune","lon":-74.035881,"zip":7753,"hotel":"Residence Inn Neptune at Gateway Centre","phone":"1 732-643-9350","id":"a63gg2r2gzy4","address":"230 Jumping Brook Road","lat":40.209709,"state":"NJ"},"type":"Feature","geometry":{"type":"Point","coordinates":[-74.035881,40.209709]}},{"properties":{"city":"North Dartmouth","lon":-70.987457,"zip":2747,"hotel":"Residence Inn New Bedford Dartmouth","phone":"1 508-984-5858","id":"a63gg2wzh6gh","address":"181 Faunce Corner Road","lat":41.652142,"state":"MA"},"type":"Feature","geometry":{"type":"Point","coordinates":[-70.987457,41.652142]}},{"properties":{"city":"New Orleans","lon":-90.067694,"zip":70130,"hotel":"Residence Inn New Orleans Convention Center","phone":"1 504-522-1300","id":"a63gg2vk84yd","address":"345 St. Joseph Street","lat":29.943468,"state":"LA"},"type":"Feature","geometry":{"type":"Point","coordinates":[-90.067694,29.943468]}},{"properties":{"city":"Covington","lon":-90.082829,"zip":70433,"hotel":"Residence Inn New Orleans Covington/North Shore","phone":"-","id":"a63gg2uqqww3","address":"290 Park Place Blvd.","lat":30.44039,"state":"LA"},"type":"Feature","geometry":{"type":"Point","coordinates":[-90.082829,30.44039]}},{"properties":{"city":"Metairie","lon":-90.152544,"zip":70001,"hotel":"Residence Inn New Orleans Metairie","phone":"1 504-832-0888","id":"a63gg2yydmja","address":"Three Galleria Boulevard","lat":29.993519,"state":"LA"},"type":"Feature","geometry":{"type":"Point","coordinates":[-90.152544,29.993519]}},{"properties":{"city":"New Rochelle","lon":-73.780591,"zip":10801,"hotel":"Residence Inn New Rochelle","phone":"1 914-636-7888","id":"a63gg2tvbzxc","address":"35 LeCount Place","lat":40.911249,"state":"NY"},"type":"Feature","geometry":{"type":"Point","coordinates":[-73.780591,40.911249]}},{"properties":{"city":"New York","lon":-73.985819,"zip":10018,"hotel":"Residence Inn New York Manhattan/Times Square","phone":"1 212-768-0007","id":"a63gg2yitxxj","address":"1033 Avenue of the Americas","lat":40.752766,"state":"NY"},"type":"Feature","geometry":{"type":"Point","coordinates":[-73.985819,40.752766]}},{"properties":{"city":"Elizabeth","lon":-74.177216,"zip":7201,"hotel":"Residence Inn Newark Elizabeth/Liberty International Airport","phone":"1 908-352-4300","id":"a63gg2ksat2o","address":"83 Glimcher Realty Way","lat":40.663452,"state":"NJ"},"type":"Feature","geometry":{"type":"Point","coordinates":[-74.177216,40.663452]}},{"properties":{"city":"Newark","lon":-122.052214,"zip":94560,"hotel":"Residence Inn Newark Silicon Valley","phone":"1 510-739-6000","id":"a63gg2yzgknk","address":"35466 Dumbarton Court","lat":37.548285,"state":"CA"},"type":"Feature","geometry":{"type":"Point","coordinates":[-122.052214,37.548285]}},{"properties":{"city":"Middletown","lon":-72.639267,"zip":2842,"hotel":"Residence Inn Newport Middletown","phone":"1 401-845-2005","id":"a63gg2v1y4ar","address":"325 West Main Road","lat":41.547764,"state":"RI"},"type":"Feature","geometry":{"type":"Point","coordinates":[-72.639267,41.547764]}},{"properties":{"city":"Newport News","lon":-76.515918,"zip":23602,"hotel":"Residence Inn Newport News Airport","phone":"1 757-842-6214","id":"a63gg2u1l5tb","address":"531 St. Johns Road","lat":37.113929,"state":"VA"},"type":"Feature","geometry":{"type":"Point","coordinates":[-76.515918,37.113929]}},{"properties":{"city":"Norfolk","lon":-76.210616,"zip":23502,"hotel":"Residence Inn Norfolk Airport","phone":"1 757-333-3000","id":"a63gg2qd25h2","address":"1590 North Military Highway","lat":36.876846,"state":"VA"},"type":"Feature","geometry":{"type":"Point","coordinates":[-76.210616,36.876846]}},{"properties":{"city":"Norman","lon":-97.480879,"zip":73072,"hotel":"Residence Inn Norman","phone":"1 405-366-0900","id":"a63gg2oackdv","address":"2681 Jefferson Street","lat":35.195971,"state":"OK"},"type":"Feature","geometry":{"type":"Point","coordinates":[-97.480879,35.195971]}},{"properties":{"city":"Ocala","lon":-82.187189,"zip":34474,"hotel":"Residence Inn Ocala","phone":"1 352-547-1600","id":"a63gg2t0c4z2","address":"3610 SW 38th Ave","lat":29.150865,"state":"FL"},"type":"Feature","geometry":{"type":"Point","coordinates":[-82.187189,29.150865]}},{"properties":{"city":"Oklahoma City","lon":-97.505954,"zip":73104,"hotel":"Residence Inn Oklahoma City Downtown/Bricktown","phone":"1 405-601-1700","id":"a63gg2o1xcs8","address":"400 East Reno Ave","lat":35.46418,"state":"OK"},"type":"Feature","geometry":{"type":"Point","coordinates":[-97.505954,35.46418]}},{"properties":{"city":"Oklahoma City","lon":-97.49214,"zip":73149,"hotel":"Residence Inn Oklahoma City South/Crossroads Mall","phone":"1 405-634-9696","id":"a63gg2pmrxna","address":"1111 East I-240 Service Road","lat":35.391915,"state":"OK"},"type":"Feature","geometry":{"type":"Point","coordinates":[-97.49214,35.391915]}},{"properties":{"city":"Oklahoma City","lon":-97.598232,"zip":73107,"hotel":"Residence Inn Oklahoma City West","phone":"1 405-942-4500","id":"a63gg2p01i32","address":"4361 West Reno Avenue","lat":35.464555,"state":"OK"},"type":"Feature","geometry":{"type":"Point","coordinates":[-97.598232,35.464555]}},{"properties":{"city":"Omaha","lon":-96.020365,"zip":68132,"hotel":"Residence Inn Omaha","phone":"1 402-553-8898","id":"a63gg2x2ekr8","address":"6990 Dodge Street","lat":41.259839,"state":"NE"},"type":"Feature","geometry":{"type":"Point","coordinates":[-96.020365,41.259839]}},{"properties":{"city":"Ontario","lon":-117.608262,"zip":91764,"hotel":"Residence Inn Ontario Airport","phone":"1 909-937-6788","id":"a63gg2sj3piq","address":"2025 Convention Center Way","lat":34.067292,"state":"CA"},"type":"Feature","geometry":{"type":"Point","coordinates":[-117.608262,34.067292]}},{"properties":{"city":"Orlando","lon":-81.305817,"zip":32822,"hotel":"Residence Inn Orlando Airport","phone":"1 407-856-2444","id":"a63gg2z1u6n4","address":"7024 Augusta National Drive","lat":28.462104,"state":"FL"},"type":"Feature","geometry":{"type":"Point","coordinates":[-81.305817,28.462104]}},{"properties":{"city":"Altamonte Springs","lon":-81.390495,"zip":32714,"hotel":"Residence Inn Orlando Altamonte Springs","phone":"1 407-788-7991","id":"a63gg2ma9tf8","address":"270 Douglas Avenue","lat":28.664967,"state":"FL"},"type":"Feature","geometry":{"type":"Point","coordinates":[-81.390495,28.664967]}},{"properties":{"city":"Orlando","lon":-81.468288,"zip":32819,"hotel":"Residence Inn Orlando Convention Center","phone":"1 407-226-0288","id":"a63gg2sj0tfs","address":"8800 Universal Blvd","lat":28.438441,"state":"FL"},"type":"Feature","geometry":{"type":"Point","coordinates":[-81.468288,28.438441]}},{"properties":{"city":"Orlando","lon":-81.218378,"zip":32817,"hotel":"Residence Inn Orlando East/UCF","phone":"1 407-513-9000","id":"a63gg2wv1zx3","address":"11651 University Blvd.","lat":28.597862,"state":"FL"},"type":"Feature","geometry":{"type":"Point","coordinates":[-81.218378,28.597862]}},{"properties":{"city":"Orlando","lon":-81.468043,"zip":32819,"hotel":"Residence Inn Orlando International Drive","phone":"1 407-345-0117","id":"a63gg2yjb25w","address":"7975 Canada Avenue","lat":28.450762,"state":"FL"},"type":"Feature","geometry":{"type":"Point","coordinates":[-81.468043,28.450762]}},{"properties":{"city":"Orlando","lon":-81.492952,"zip":32836,"hotel":"Residence Inn Orlando Lake Buena Vista","phone":"1 407-465-0075","id":"a63gg2o35g7p","address":"11450 Marbella Palm Court","lat":28.393075,"state":"FL"},"type":"Feature","geometry":{"type":"Point","coordinates":[-81.492952,28.393075]}},{"properties":{"city":"Orlando","lon":-81.474614,"zip":32821,"hotel":"Residence Inn Orlando SeaWorld/International Center","phone":"1 407-313 3600","id":"a63gg2lyloz0","address":"11000 Westwood Boulevard","lat":28.406417,"state":"FL"},"type":"Feature","geometry":{"type":"Point","coordinates":[-81.474614,28.406417]}},{"properties":{"city":"Oxnard","lon":-119.196944,"zip":93036,"hotel":"Residence Inn Oxnard River Ridge","phone":"1 805-278-2200","id":"a63gg2iz97lr","address":"2101 West Vineyard Ave.","lat":34.229629,"state":"CA"},"type":"Feature","geometry":{"type":"Point","coordinates":[-119.196944,34.229629]}},{"properties":{"city":"Paducah","lon":-88.678483,"zip":42001,"hotel":"Residence Inn Paducah","phone":"1 270-444-3966","id":"a63gg2o5cndj","address":"3900 Coleman Crossing Circle","lat":37.086785,"state":"KY"},"type":"Feature","geometry":{"type":"Point","coordinates":[-88.678483,37.086785]}},{"properties":{"city":"Palm Desert","lon":-116.356153,"zip":92211,"hotel":"Residence Inn Palm Desert","phone":"1 760-776-0050","id":"a63gg2t560i7","address":"38305 Cook Street","lat":33.772175,"state":"CA"},"type":"Feature","geometry":{"type":"Point","coordinates":[-116.356153,33.772175]}},{"properties":{"city":"Palmdale","lon":-118.183338,"zip":93551,"hotel":"Residence Inn Palmdale Lancaster","phone":"1 661-947-4204","id":"a63gg2lfdmrm","address":"514 West Avenue P/Rancho Vista Blvd","lat":34.602396,"state":"CA"},"type":"Feature","geometry":{"type":"Point","coordinates":[-118.183338,34.602396]}},{"properties":{"city":"Los Altos","lon":-122.116139,"zip":94022,"hotel":"Residence Inn Palo Alto Los Altos","phone":"1 650-559-7890","id":"a63gg2oiu4z2","address":"4460 El Camino Real","lat":37.402569,"state":"CA"},"type":"Feature","geometry":{"type":"Point","coordinates":[-122.116139,37.402569]}},{"properties":{"city":"Mountain View","lon":-122.095647,"zip":94040,"hotel":"Residence Inn Palo Alto Mountain View","phone":"1 650-940-1300","id":"a63gg2r4jo9e","address":"1854 El Camino Real West","lat":37.392517,"state":"CA"},"type":"Feature","geometry":{"type":"Point","coordinates":[-122.095647,37.392517]}},{"properties":{"city":"Parsippany","lon":-74.462082,"zip":7054,"hotel":"Residence Inn Parsippany","phone":"1 973-984-3313","id":"a63gg2nzye1s","address":"3 Gatehall Drive","lat":40.847675,"state":"NJ"},"type":"Feature","geometry":{"type":"Point","coordinates":[-74.462082,40.847675]}},{"properties":{"city":"Arcadia","lon":-118.023297,"zip":91006,"hotel":"Residence Inn Pasadena Arcadia","phone":"1 626-446-6500","id":"a63gg2p3icdp","address":"321 East Huntington Drive","lat":34.140287,"state":"CA"},"type":"Feature","geometry":{"type":"Point","coordinates":[-118.023297,34.140287]}},{"properties":{"city":"Pensacola","lon":-87.202325,"zip":32502,"hotel":"Residence Inn Pensacola Downtown","phone":"1 850-432-0202","id":"a63gg2ixerqz","address":"601 E. Chase Street","lat":30.416427,"state":"FL"},"type":"Feature","geometry":{"type":"Point","coordinates":[-87.202325,30.416427]}},{"properties":{"city":"Pensacola","lon":-87.227853,"zip":32504,"hotel":"Residence Inn Pensacola University Mall","phone":"1 850-479-1000","id":"a63gg2lotti0","address":"7230 Plantation Road","lat":30.501911,"state":"FL"},"type":"Feature","geometry":{"type":"Point","coordinates":[-87.227853,30.501911]}},{"properties":{"city":"Peoria","lon":-89.625148,"zip":61614,"hotel":"Residence Inn Peoria","phone":"1 309-681-9000","id":"a63gg2o385p3","address":"2000 West War Memorial Drive","lat":40.738447,"state":"IL"},"type":"Feature","geometry":{"type":"Point","coordinates":[-89.625148,40.738447]}},{"properties":{"city":"Philadelphia","lon":-75.230852,"zip":19153,"hotel":"Residence Inn Philadelphia Airport","phone":"1 215-492-1611","id":"a63gg2qmpazd","address":"4630 Island Avenue","lat":39.884851,"state":"PA"},"type":"Feature","geometry":{"type":"Point","coordinates":[-75.230852,39.884851]}},{"properties":{"city":"Philadelphia","lon":-75.162529,"zip":19107,"hotel":"Residence Inn Philadelphia Center City","phone":"1 215-557-0005","id":"a63gg2yo63qt","address":"One East Penn Square","lat":39.952326,"state":"PA"},"type":"Feature","geometry":{"type":"Point","coordinates":[-75.162529,39.952326]}},{"properties":{"city":"Conshohocken","lon":-75.305037,"zip":19428,"hotel":"Residence Inn Philadelphia Conshohocken","phone":"1 610-828-8800","id":"a63gg2qt9ccy","address":"191 Washington Street","lat":40.071176,"state":"PA"},"type":"Feature","geometry":{"type":"Point","coordinates":[-75.305037,40.071176]}},{"properties":{"city":"Exton","lon":-75.659786,"zip":19341,"hotel":"Residence Inn Philadelphia Great Valley/Exton","phone":"1 610-594-9705","id":"a63gg2nrc1h6","address":"10 N Pottstown Pike","lat":40.057042,"state":"PA"},"type":"Feature","geometry":{"type":"Point","coordinates":[-75.659786,40.057042]}},{"properties":{"city":"Langhorne","lon":-74.862509,"zip":19047,"hotel":"Residence Inn Philadelphia Langhorne","phone":"1 215-946-6500","id":"a63gg2x5tvnl","address":"15 Cabot Blvd East","lat":40.190156,"state":"PA"},"type":"Feature","geometry":{"type":"Point","coordinates":[-74.862509,40.190156]}},{"properties":{"city":"North Wales","lon":-75.225021,"zip":19454,"hotel":"Residence Inn Philadelphia Montgomeryville","phone":"1 267-468-0111","id":"a63gg2jc3r8n","address":"1110 Bethlehem Pike","lat":40.210377,"state":"PA"},"type":"Feature","geometry":{"type":"Point","coordinates":[-75.225021,40.210377]}},{"properties":{"city":"Berwyn","lon":-75.451068,"zip":19312,"hotel":"Residence Inn Philadelphia Valley Forge","phone":"1 610-640-9494","id":"a63gg2wtsn03","address":"600 West Swedesford Road","lat":40.0676,"state":"PA"},"type":"Feature","geometry":{"type":"Point","coordinates":[-75.451068,40.0676]}},{"properties":{"city":"Horsham","lon":-75.14326,"zip":19044,"hotel":"Residence Inn Philadelphia Willow Grove","phone":"1 215-443-7330","id":"a63gg2y3iqou","address":"3 Walnut Grove Drive","lat":40.168181,"state":"PA"},"type":"Feature","geometry":{"type":"Point","coordinates":[-75.14326,40.168181]}},{"properties":{"city":"Phoenix","lon":-112.113592,"zip":85051,"hotel":"Residence Inn Phoenix","phone":"1 602-864-1900","id":"a63gg2kfr18a","address":"8242 N Black Canyon Freeway","lat":33.557505,"state":"AZ"},"type":"Feature","geometry":{"type":"Point","coordinates":[-112.113592,33.557505]}},{"properties":{"city":"Phoenix","lon":-111.986975,"zip":85008,"hotel":"Residence Inn Phoenix Airport","phone":"1 602-273-9220","id":"a63gg2qbyubk","address":"801 North 44th Street","lat":33.456236,"state":"AZ"},"type":"Feature","geometry":{"type":"Point","coordinates":[-111.986975,33.456236]}},{"properties":{"city":"Chandler","lon":-111.896243,"zip":85226,"hotel":"Residence Inn Phoenix Chandler/Fashion Center","phone":"1 480-782-1551","id":"a63gg2wb56ap","address":"200 North Federal Street","lat":33.306072,"state":"AZ"},"type":"Feature","geometry":{"type":"Point","coordinates":[-111.896243,33.306072]}},{"properties":{"city":"Phoenix","lon":-111.958593,"zip":85054,"hotel":"Residence Inn Phoenix Desert View at Mayo Clinic","phone":"1 480-563-1500","id":"a63gg2pekntm","address":"5665 E. Mayo Boulevard","lat":33.663377,"state":"AZ"},"type":"Feature","geometry":{"type":"Point","coordinates":[-111.958593,33.663377]}},{"properties":{"city":"Glendale","lon":-112.256663,"zip":85305,"hotel":"Residence Inn Phoenix Glendale","phone":"1 623-772-8900","id":"a63gg2wuabfy","address":"7350 N. Zanjero Boulevard","lat":33.5321,"state":"AZ"},"type":"Feature","geometry":{"type":"Point","coordinates":[-112.256663,33.5321]}},{"properties":{"city":"Peoria","lon":-112.236593,"zip":85382,"hotel":"Residence Inn Phoenix Glendale/Peoria","phone":"1 623-979-2074","id":"a63gg2ts1s8c","address":"8435 West Paradise Lane","lat":33.636525,"state":"AZ"},"type":"Feature","geometry":{"type":"Point","coordinates":[-112.236593,33.636525]}},{"properties":{"city":"Goodyear","lon":-112.358344,"zip":85395,"hotel":"Residence Inn Phoenix Goodyear","phone":"1 623-866-1313","id":"a63gg2nv8rll","address":"2020 N. Litchfield Rd.","lat":33.469029,"state":"AZ"},"type":"Feature","geometry":{"type":"Point","coordinates":[-112.358344,33.469029]}},{"properties":{"city":"Mesa","lon":-111.851502,"zip":85210,"hotel":"Residence Inn Phoenix Mesa","phone":"1 480-610-0100","id":"a63gg2z1g4pl","address":"941 W. Grove Avenue","lat":33.390116,"state":"AZ"},"type":"Feature","geometry":{"type":"Point","coordinates":[-111.851502,33.390116]}},{"properties":{"city":"Phoenix","lon":-112.102814,"zip":85085,"hotel":"Residence Inn Phoenix North/Happy Valley","phone":"1 623-580-8833","id":"a63gg2pipar9","address":"2035 W Whispering Wind Drive (formerly Hatfield Rd.)","lat":33.710891,"state":"AZ"},"type":"Feature","geometry":{"type":"Point","coordinates":[-112.102814,33.710891]}},{"properties":{"city":"Southern Pines","lon":-79.422019,"zip":28387,"hotel":"Residence Inn Pinehurst Southern Pines","phone":"1 910-693-3400","id":"a63gg2nxrf9y","address":"105 Brucewood Road","lat":35.17421,"state":"NC"},"type":"Feature","geometry":{"type":"Point","coordinates":[-79.422019,35.17421]}},{"properties":{"city":"Pittsburgh","lon":-80.188733,"zip":15275,"hotel":"Residence Inn Pittsburgh Airport Coraopolis","phone":"1 412-787-3300","id":"a63gg2yh55vh","address":"1500 Park Lane Drive","lat":40.455567,"state":"PA"},"type":"Feature","geometry":{"type":"Point","coordinates":[-80.188733,40.455567]}},{"properties":{"city":"Cranberry Township","lon":-80.108641,"zip":16066,"hotel":"Residence Inn Pittsburgh Cranberry Township","phone":"1 724-779-1000","id":"a63gg2jgdwpw","address":"1308 Freedom Road","lat":40.684662,"state":"PA"},"type":"Feature","geometry":{"type":"Point","coordinates":[-80.108641,40.684662]}},{"properties":{"city":"Pittsburgh","lon":-79.954405,"zip":15213,"hotel":"Residence Inn Pittsburgh University/Medical Center","phone":"1 412-621-2200","id":"a63gg2t793aq","address":"3896 Bigelow Boulevard","lat":40.453636,"state":"PA"},"type":"Feature","geometry":{"type":"Point","coordinates":[-79.954405,40.453636]}},{"properties":{"city":"Plainview","lon":-73.477683,"zip":11803,"hotel":"Residence Inn Plainview Long Island","phone":"1 516-433-6200","id":"a63gg2un8dzq","address":"9 Gerhard Road","lat":40.773011,"state":"NY"},"type":"Feature","geometry":{"type":"Point","coordinates":[-73.477683,40.773011]}},{"properties":{"city":"Pleasant Hill","lon":-122.055376,"zip":94523,"hotel":"Residence Inn Pleasant Hill Concord","phone":"1 925-689-1010","id":"a63gg2pv97gn","address":"700 Ellinwood Way","lat":37.962244,"state":"CA"},"type":"Feature","geometry":{"type":"Point","coordinates":[-122.055376,37.962244]}},{"properties":{"city":"Pleasanton","lon":-121.935954,"zip":94588,"hotel":"Residence Inn Pleasanton","phone":"1 925-227-0500","id":"a63gg2u1s0fg","address":"11920 Dublin Canyon Road","lat":37.695354,"state":"CA"},"type":"Feature","geometry":{"type":"Point","coordinates":[-121.935954,37.695354]}},{"properties":{"city":"Port St. Lucie","lon":-80.410099,"zip":34986,"hotel":"Residence Inn Port St. Lucie","phone":"1 772-879-9481","id":"a63gg2r2tmwe","address":"1920 SW Fountainview Blvd.","lat":27.30948,"state":"FL"},"type":"Feature","geometry":{"type":"Point","coordinates":[-80.410099,27.30948]}},{"properties":{"city":"Portland","lon":-122.648179,"zip":97232,"hotel":"Residence Inn Portland Downtown/Lloyd Center","phone":"1 503-288-1400","id":"a63gg2llj165","address":"1710 NE Multnomah Street","lat":45.531343,"state":"OR"},"type":"Feature","geometry":{"type":"Point","coordinates":[-122.648179,45.531343]}},{"properties":{"city":"Portland","lon":-122.673161,"zip":97201,"hotel":"Residence Inn Portland Downtown/RiverPlace","phone":"1 503-552-9500","id":"a63gg2sjc9he","address":"2115 SW River Parkway","lat":45.506712,"state":"OR"},"type":"Feature","geometry":{"type":"Point","coordinates":[-122.673161,45.506712]}},{"properties":{"city":"Portland","lon":-122.678461,"zip":97217,"hotel":"Residence Inn Portland North Harbour","phone":"1 503-285-9888","id":"a63gg2mocdiz","address":"1250 North Anchor Way","lat":45.604322,"state":"OR"},"type":"Feature","geometry":{"type":"Point","coordinates":[-122.678461,45.604322]}},{"properties":{"city":"Vancouver","lon":-122.590534,"zip":98662,"hotel":"Residence Inn Portland North/Vancouver","phone":"1 360-253-4800","id":"a63gg2mkmnec","address":"8005 NE Parkway Drive","lat":45.655359,"state":"WA"},"type":"Feature","geometry":{"type":"Point","coordinates":[-122.590534,45.655359]}},{"properties":{"city":"Scarborough","lon":-70.353767,"zip":4074,"hotel":"Residence Inn Portland Scarborough","phone":"1 207-883-0400","id":"a63gg2ylbcfo","address":"800 Roundwood Drive","lat":43.620304,"state":"ME"},"type":"Feature","geometry":{"type":"Point","coordinates":[-70.353767,43.620304]}},{"properties":{"city":"Lake Oswego","lon":-122.74258,"zip":97035,"hotel":"Residence Inn Portland South/Lake Oswego","phone":"1 503-684-2603","id":"a63gg2vhnodo","address":"15200 SW Bangy Road","lat":45.416172,"state":"OR"},"type":"Feature","geometry":{"type":"Point","coordinates":[-122.74258,45.416172]}},{"properties":{"city":"Hillsboro","lon":-122.871365,"zip":97124,"hotel":"Residence Inn Portland West/Hillsboro","phone":"1 503-531-3200","id":"a63gg2qkd8r6","address":"18855 NW Tanasbourne Drive","lat":45.539857,"state":"OR"},"type":"Feature","geometry":{"type":"Point","coordinates":[-122.871365,45.539857]}},{"properties":{"city":"Portsmouth","lon":-70.808365,"zip":3801,"hotel":"Residence Inn Portsmouth","phone":"1 603-436-8880","id":"a63gg2neealm","address":"1 International Drive","lat":43.087669,"state":"NH"},"type":"Feature","geometry":{"type":"Point","coordinates":[-70.808365,43.087669]}},{"properties":{"city":"Woodbridge","lon":-77.284785,"zip":22192,"hotel":"Residence Inn Potomac Mills Woodbridge","phone":"1 703-490-4020","id":"a63gg2yr5qb9","address":"14301 Crossing Place","lat":38.654166,"state":"VA"},"type":"Feature","geometry":{"type":"Point","coordinates":[-77.284785,38.654166]}},{"properties":{"city":"Poughkeepsie","lon":-73.930386,"zip":12601,"hotel":"Residence Inn Poughkeepsie","phone":"1 845-463-4343","id":"a63gg2l148pb","address":"2525 South Rd","lat":41.662327,"state":"NY"},"type":"Feature","geometry":{"type":"Point","coordinates":[-73.930386,41.662327]}},{"properties":{"city":"Prescott","lon":-112.401814,"zip":86301,"hotel":"Residence Inn Prescott","phone":"1 928-775-2232","id":"a63gg2jn7r1g","address":"3599 Lee Circle","lat":34.549742,"state":"AZ"},"type":"Feature","geometry":{"type":"Point","coordinates":[-112.401814,34.549742]}},{"properties":{"city":"Princeton","lon":-67.577217,"zip":8540,"hotel":"Residence Inn Princeton at Carnegie Center","phone":"1 609-799-0550","id":"a63gg2s9eb2n","address":"3563 US Route 1","lat":45.226238,"state":"NJ"},"type":"Feature","geometry":{"type":"Point","coordinates":[-67.577217,45.226238]}},{"properties":{"city":"Monmouth Junction","lon":-74.583626,"zip":8852,"hotel":"Residence Inn Princeton-South Brunswick","phone":"1 732-329-9600","id":"a63gg2rrz30p","address":"4225 US Highway 1","lat":40.376392,"state":"NJ"},"type":"Feature","geometry":{"type":"Point","coordinates":[-74.583626,40.376392]}},{"properties":{"city":"West Greenwich","lon":-71.568039,"zip":2817,"hotel":"Residence Inn Providence Coventry","phone":"1 401-828-1170","id":"a63gg2ny295c","address":"755 Center of New England Blvd","lat":41.662209,"state":"RI"},"type":"Feature","geometry":{"type":"Point","coordinates":[-71.568039,41.662209]}},{"properties":{"city":"Warwick","lon":-71.454208,"zip":2886,"hotel":"Residence Inn Providence Warwick","phone":"1 401-737-7100","id":"a63gg2o5jpw3","address":"500 Kilvert Street","lat":41.728996,"state":"RI"},"type":"Feature","geometry":{"type":"Point","coordinates":[-71.454208,41.728996]}},{"properties":{"city":"Provo","lon":-111.662422,"zip":84604,"hotel":"Residence Inn Provo","phone":"1 801-374-1000","id":"a63gg2lwuaf5","address":"252 West 2230 North","lat":40.263483,"state":"UT"},"type":"Feature","geometry":{"type":"Point","coordinates":[-111.662422,40.263483]}},{"properties":{"city":"Raleigh","lon":-78.624008,"zip":27609,"hotel":"Residence Inn Raleigh","phone":"1 919-878-6100","id":"a63gg2qggf90","address":"1000 Navaho Drive","lat":35.827981,"state":"NC"},"type":"Feature","geometry":{"type":"Point","coordinates":[-78.624008,35.827981]}},{"properties":{"city":"Cary","lon":-78.789371,"zip":27518,"hotel":"Residence Inn Raleigh Cary","phone":"1 919-467-4080","id":"a63gg2vfldzc","address":"2900 Regency Parkway","lat":35.733861,"state":"NC"},"type":"Feature","geometry":{"type":"Point","coordinates":[-78.789371,35.733861]}},{"properties":{"city":"Raleigh","lon":-78.674922,"zip":27612,"hotel":"Residence Inn Raleigh Crabtree Valley","phone":"1 919-279-3000","id":"a63gg2to4amw","address":"2200 Summit Park Lane","lat":35.834612,"state":"NC"},"type":"Feature","geometry":{"type":"Point","coordinates":[-78.674922,35.834612]}},{"properties":{"city":"Morrisville","lon":-78.833841,"zip":27560,"hotel":"Residence Inn Raleigh-Durham Airport","phone":"1 919-467-8689","id":"a63gg2yfuhsy","address":"2020 Hospitality Court","lat":35.845007,"state":"NC"},"type":"Feature","geometry":{"type":"Point","coordinates":[-78.833841,35.845007]}},{"properties":{"city":"Reno","lon":-119.761722,"zip":89521,"hotel":"Residence Inn Reno","phone":"1 775-853-8800","id":"a63gg2ndbwa7","address":"9845 Gateway Drive","lat":39.439431,"state":"NV"},"type":"Feature","geometry":{"type":"Point","coordinates":[-119.761722,39.439431]}},{"properties":{"city":"Richmond","lon":-77.576859,"zip":23233,"hotel":"Residence Inn Richmond Northwest","phone":"1 804-762-9852","id":"a63gg2wzggje","address":"3940 Westerre Parkway","lat":37.64434,"state":"VA"},"type":"Feature","geometry":{"type":"Point","coordinates":[-77.576859,37.64434]}},{"properties":{"city":"Richmond","lon":-77.513642,"zip":23230,"hotel":"Residence Inn Richmond West End","phone":"1 804-285-8200","id":"a63gg2sno1h9","address":"2121 Dickens Road","lat":37.600319,"state":"VA"},"type":"Feature","geometry":{"type":"Point","coordinates":[-77.513642,37.600319]}},{"properties":{"city":"Roanoke","lon":-79.979157,"zip":24017,"hotel":"Residence Inn Roanoke Airport","phone":"1 540-265-1119","id":"a63gg2miy8zy","address":"3305 Ordway Drive","lat":37.307163,"state":"VA"},"type":"Feature","geometry":{"type":"Point","coordinates":[-79.979157,37.307163]}},{"properties":{"city":"Rochester","lon":-77.595869,"zip":14623,"hotel":"Residence Inn Rochester","phone":"1 585-272-8850","id":"a63gg2rkakli","address":"1300 Jefferson Road","lat":43.087241,"state":"NY"},"type":"Feature","geometry":{"type":"Point","coordinates":[-77.595869,43.087241]}},{"properties":{"city":"Rochester","lon":-92.468746,"zip":55902,"hotel":"Residence Inn Rochester Mayo Clinic Area","phone":"1 507-292-1400","id":"a63gg2rkyed0","address":"441 West Center St NW","lat":44.023559,"state":"MN"},"type":"Feature","geometry":{"type":"Point","coordinates":[-92.468746,44.023559]}},{"properties":{"city":"Rochester","lon":-77.673324,"zip":14615,"hotel":"Residence Inn Rochester West/Greece","phone":"1 585-865-2090","id":"a63gg2xkrphz","address":"500 Paddy Creek Circle","lat":43.204997,"state":"NY"},"type":"Feature","geometry":{"type":"Point","coordinates":[-77.673324,43.204997]}},{"properties":{"city":"Rockford","lon":-88.969201,"zip":61107,"hotel":"Residence Inn Rockford","phone":"1 815-227-0013","id":"a63gg2malsq2","address":"7542 Colosseum Drive","lat":42.273624,"state":"IL"},"type":"Feature","geometry":{"type":"Point","coordinates":[-88.969201,42.273624]}},{"properties":{"city":"Rocky Mount","lon":-77.845538,"zip":27804,"hotel":"Residence Inn Rocky Mount","phone":"1 252-451-5600","id":"a63gg2sk77d7","address":"230 Gateway Boulevard","lat":35.972221,"state":"NC"},"type":"Feature","geometry":{"type":"Point","coordinates":[-77.845538,35.972221]}},{"properties":{"city":"Rogers","lon":-94.17962,"zip":72756,"hotel":"Residence Inn Rogers","phone":"1 479-636-5900","id":"a63gg2mj6y2p","address":"4611 West Locust Street","lat":36.339495,"state":"AR"},"type":"Feature","geometry":{"type":"Point","coordinates":[-94.17962,36.339495]}},{"properties":{"city":"Roseville","lon":-121.255593,"zip":95661,"hotel":"Residence Inn Roseville","phone":"1 916-772-5500","id":"a63gg2ozlajl","address":"1930 Taylor Rd","lat":38.763137,"state":"CA"},"type":"Feature","geometry":{"type":"Point","coordinates":[-121.255593,38.763137]}},{"properties":{"city":"Sacramento","lon":-121.513718,"zip":95833,"hotel":"Residence Inn Sacramento Airport Natomas","phone":"1 916-649-1300","id":"a63gg2trty55","address":"2410 West El Camino Avenue","lat":38.614552,"state":"CA"},"type":"Feature","geometry":{"type":"Point","coordinates":[-121.513718,38.614552]}},{"properties":{"city":"Sacramento","lon":-121.415188,"zip":95825,"hotel":"Residence Inn Sacramento Cal Expo","phone":"1 916-920-9111","id":"a63gg2vpobbo","address":"1530 Howe Avenue","lat":38.593268,"state":"CA"},"type":"Feature","geometry":{"type":"Point","coordinates":[-121.415188,38.593268]}},{"properties":{"city":"Sacramento","lon":-121.487029,"zip":95814,"hotel":"Residence Inn Sacramento Downtown at Capitol Park","phone":"1 916-443-0500","id":"a63gg2vmebpb","address":"1121 15th Street","lat":38.577028,"state":"CA"},"type":"Feature","geometry":{"type":"Point","coordinates":[-121.487029,38.577028]}},{"properties":{"city":"Folsom","lon":-121.117863,"zip":95630,"hotel":"Residence Inn Sacramento Folsom","phone":"1 916-983-7289","id":"a63gg2l2v0ht","address":"2555 Iron Point Road","lat":38.646773,"state":"CA"},"type":"Feature","geometry":{"type":"Point","coordinates":[-121.117863,38.646773]}},{"properties":{"city":"Rancho Cordova","lon":-121.284017,"zip":95670,"hotel":"Residence Inn Sacramento Rancho Cordova","phone":"1 916-851-1550","id":"a63gg2qxwegd","address":"2779 Prospect Park Drive","lat":38.590121,"state":"CA"},"type":"Feature","geometry":{"type":"Point","coordinates":[-121.284017,38.590121]}},{"properties":{"city":"Saddle River","lon":-74.114777,"zip":7458,"hotel":"Residence Inn Saddle River","phone":"1 201-934-4144","id":"a63gg2sjnv6d","address":"7 Boroline Road","lat":41.036419,"state":"NJ"},"type":"Feature","geometry":{"type":"Point","coordinates":[-74.114777,41.036419]}},{"properties":{"city":"Saginaw","lon":-83.969,"zip":48604,"hotel":"Residence Inn Saginaw","phone":"1 989-799-9000","id":"a63gg2jkukn0","address":"5230 Fashion Square Blvd.","lat":43.482962,"state":"MI"},"type":"Feature","geometry":{"type":"Point","coordinates":[-83.969,43.482962]}},{"properties":{"city":"Salem","lon":-122.994939,"zip":97301,"hotel":"Residence Inn Salem","phone":"1 503-585-6500","id":"a63gg2ouprb7","address":"640 Hawthorne Avenue SE","lat":44.922302,"state":"OR"},"type":"Feature","geometry":{"type":"Point","coordinates":[-122.994939,44.922302]}},{"properties":{"city":"Salinas","lon":-121.669991,"zip":93907,"hotel":"Residence Inn Salinas Monterey","phone":"1 831-775-0410","id":"a63gg2izwx6t","address":"17215 El Rancho Way","lat":36.698697,"state":"CA"},"type":"Feature","geometry":{"type":"Point","coordinates":[-121.669991,36.698697]}},{"properties":{"city":"Salisbury","lon":-75.564149,"zip":21801,"hotel":"Residence Inn Salisbury","phone":"1 410-543-0033","id":"a63gg2rjwl8m","address":"140 Centre Road","lat":38.39583,"state":"MD"},"type":"Feature","geometry":{"type":"Point","coordinates":[-75.564149,38.39583]}},{"properties":{"city":"Salt Lake City","lon":-111.899278,"zip":84101,"hotel":"Residence Inn Salt Lake City - City Center","phone":"1 801-355-3300","id":"a63gg2t4x70s","address":"285 West Broadway (300 S)","lat":40.762706,"state":"UT"},"type":"Feature","geometry":{"type":"Point","coordinates":[-111.899278,40.762706]}},{"properties":{"city":"Salt Lake City","lon":-112.007065,"zip":84116,"hotel":"Residence Inn Salt Lake City Airport","phone":"1 801-532-4101","id":"a63gg2vos46l","address":"4883 West Douglas Corrigan Way","lat":40.771333,"state":"UT"},"type":"Feature","geometry":{"type":"Point","coordinates":[-112.007065,40.771333]}},{"properties":{"city":"Salt Lake City","lon":-111.806008,"zip":84121,"hotel":"Residence Inn Salt Lake City Cottonwood","phone":"1 801-453-0430","id":"a63gg2xhs74u","address":"6425 South 3000 East","lat":40.633794,"state":"UT"},"type":"Feature","geometry":{"type":"Point","coordinates":[-111.806008,40.633794]}},{"properties":{"city":"Sandy","lon":-111.898117,"zip":84070,"hotel":"Residence Inn Salt Lake City Sandy","phone":"1 801-561-5005","id":"a63gg2j0pi0n","address":"270 West 10000 South","lat":40.569857,"state":"UT"},"type":"Feature","geometry":{"type":"Point","coordinates":[-111.898117,40.569857]}},{"properties":{"city":"San Antonio","lon":-98.458132,"zip":78209,"hotel":"Residence Inn San Antonio Airport","phone":"1 210-805-8118","id":"a63gg2miloul","address":"1014 NE Loop 410","lat":29.515339,"state":"TX"},"type":"Feature","geometry":{"type":"Point","coordinates":[-98.458132,29.515339]}},{"properties":{"city":"San Antonio","lon":-98.484388,"zip":78205,"hotel":"Residence Inn San Antonio Downtown/Alamo Plaza","phone":"1 210-212-5555","id":"a63gg2ji5z2m","address":"425 Bonham Street","lat":29.426409,"state":"TX"},"type":"Feature","geometry":{"type":"Point","coordinates":[-98.484388,29.426409]}},{"properties":{"city":"San Antonio","lon":-98.499351,"zip":78204,"hotel":"Residence Inn San Antonio Downtown/Market Square","phone":"1 210-231-6000","id":"a63gg2uaoja7","address":"628 S Santa Rosa Blvd","lat":29.419808,"state":"TX"},"type":"Feature","geometry":{"type":"Point","coordinates":[-98.499351,29.419808]}},{"properties":{"city":"San Antonio","lon":-98.476594,"zip":78232,"hotel":"Residence Inn San Antonio North/Stone Oak","phone":"1 210-490-1333","id":"a63gg2wxpfta","address":"1115 North 1604 East","lat":29.610819,"state":"TX"},"type":"Feature","geometry":{"type":"Point","coordinates":[-98.476594,29.610819]}},{"properties":{"city":"San Antonio","lon":-98.565158,"zip":78240,"hotel":"Residence Inn San Antonio Northwest","phone":"1 210-561-9660","id":"a63gg2ujaaca","address":"4041 Bluemel Road","lat":29.531262,"state":"TX"},"type":"Feature","geometry":{"type":"Point","coordinates":[-98.565158,29.531262]}},{"properties":{"city":"San Antonio","lon":-98.619311,"zip":78238,"hotel":"Residence Inn San Antonio Seaworld","phone":"1 210-509-3100","id":"a63gg2rumgec","address":"2838 Cinema Ridge","lat":29.462937,"state":"TX"},"type":"Feature","geometry":{"type":"Point","coordinates":[-98.619311,29.462937]}},{"properties":{"city":"San Bernardino","lon":-117.264912,"zip":92408,"hotel":"Residence Inn San Bernardino","phone":"1 909-382-4564","id":"a63gg2m5u7n5","address":"1040 E. Harriman Place","lat":34.066199,"state":"CA"},"type":"Feature","geometry":{"type":"Point","coordinates":[-117.264912,34.066199]}},{"properties":{"city":"Carlsbad","lon":-117.285602,"zip":92008,"hotel":"Residence Inn San Diego Carlsbad","phone":"1 760-431-9999","id":"a63gg2qfhtgn","address":"2000 Faraday Ave.","lat":33.135363,"state":"CA"},"type":"Feature","geometry":{"type":"Point","coordinates":[-117.285602,33.135363]}},{"properties":{"city":"San Diego","lon":-117.143366,"zip":92111,"hotel":"Residence Inn San Diego Central","phone":"1 858-278-2100","id":"a63gg2x099vc","address":"5400 Kearny Mesa Road","lat":32.833411,"state":"CA"},"type":"Feature","geometry":{"type":"Point","coordinates":[-117.143366,32.833411]}},{"properties":{"city":"San Diego","lon":-117.17112,"zip":92101,"hotel":"Residence Inn San Diego Downtown","phone":"1 619-338-8200","id":"a63gg2jlporh","address":"1747 Pacific Highway","lat":32.722873,"state":"CA"},"type":"Feature","geometry":{"type":"Point","coordinates":[-117.17112,32.722873]}},{"properties":{"city":"La Jolla","lon":-117.237922,"zip":92037,"hotel":"Residence Inn San Diego La Jolla","phone":"1 858-587-1770","id":"a63gg2q0vc78","address":"8901 Gilman Drive","lat":32.869683,"state":"CA"},"type":"Feature","geometry":{"type":"Point","coordinates":[-117.237922,32.869683]}},{"properties":{"city":"San Diego","lon":-117.181907,"zip":92108,"hotel":"Residence Inn San Diego Mission Valley","phone":"1 619-881-3600","id":"a63gg2tl044w","address":"1865 Hotel Circle South","lat":32.758996,"state":"CA"},"type":"Feature","geometry":{"type":"Point","coordinates":[-117.181907,32.758996]}},{"properties":{"city":"Oceanside","lon":-117.312476,"zip":92056,"hotel":"Residence Inn San Diego Oceanside","phone":"1 760-722-9600","id":"a63gg2tcfi5r","address":"3603 Ocean Ranch Blvd.","lat":33.20956,"state":"CA"},"type":"Feature","geometry":{"type":"Point","coordinates":[-117.312476,33.20956]}},{"properties":{"city":"San Diego","lon":-117.083248,"zip":92128,"hotel":"Residence Inn San Diego Rancho Bernardo/Carmel Mountain Ranch","phone":"1 858-673-1900","id":"a63gg2rzshfz","address":"11002 Rancho Carmel Drive","lat":32.976768,"state":"CA"},"type":"Feature","geometry":{"type":"Point","coordinates":[-117.083248,32.976768]}},{"properties":{"city":"San Diego","lon":-117.107571,"zip":92131,"hotel":"Residence Inn San Diego Rancho Bernardo/Scripps Poway","phone":"1 858-635-5724","id":"a63gg2yi23ps","address":"12011 Scripps Highland Drive","lat":32.936641,"state":"CA"},"type":"Feature","geometry":{"type":"Point","coordinates":[-117.107571,32.936641]}},{"properties":{"city":"San Diego","lon":-117.189772,"zip":92121,"hotel":"Residence Inn San Diego Sorrento Mesa/Sorrento Valley","phone":"1 858-552-9100","id":"a63gg2q4az7y","address":"5995 Pacific Mesa Court","lat":32.901913,"state":"CA"},"type":"Feature","geometry":{"type":"Point","coordinates":[-117.189772,32.901913]}},{"properties":{"city":"South San Francisco","lon":-122.394801,"zip":94080,"hotel":"Residence Inn San Francisco Airport/Oyster Point Waterfront","phone":"1 650-837 9000","id":"a63gg2vxu7tv","address":"1350 Veterans Blvd","lat":37.665885,"state":"CA"},"type":"Feature","geometry":{"type":"Point","coordinates":[-122.394801,37.665885]}},{"properties":{"city":"San Mateo","lon":-122.28269,"zip":94404,"hotel":"Residence Inn San Francisco Airport/San Mateo","phone":"1 650-574-4700","id":"a63gg2mxga4d","address":"2000 Winward Way","lat":37.555483,"state":"CA"},"type":"Feature","geometry":{"type":"Point","coordinates":[-122.28269,37.555483]}},{"properties":{"city":"Campbell","lon":-121.936745,"zip":95008,"hotel":"Residence Inn San Jose Campbell","phone":"1 408-559-1551","id":"a63gg2r2nl9w","address":"2761 South Bascom Avenue","lat":37.271414,"state":"CA"},"type":"Feature","geometry":{"type":"Point","coordinates":[-121.936745,37.271414]}},{"properties":{"city":"San Jose","lon":-121.774945,"zip":95119,"hotel":"Residence Inn San Jose South","phone":"1 408-226-7676","id":"a63gg2l9jybd","address":"6111 San Ignacio Avenue","lat":37.23412,"state":"CA"},"type":"Feature","geometry":{"type":"Point","coordinates":[-121.774945,37.23412]}},{"properties":{"city":"Morgan Hill","lon":-121.656327,"zip":95037,"hotel":"Residence Inn San Jose South/Morgan Hill","phone":"1 408-782-8311","id":"a63gg2j9wwjo","address":"18620 Madrone Parkway","lat":37.152269,"state":"CA"},"type":"Feature","geometry":{"type":"Point","coordinates":[-121.656327,37.152269]}},{"properties":{"city":"San Ramon","lon":-121.952778,"zip":94583,"hotel":"Residence Inn San Ramon","phone":"1 925-277-9292","id":"a63gg2jpxtv9","address":"1071 Market Place","lat":37.763202,"state":"CA"},"type":"Feature","geometry":{"type":"Point","coordinates":[-121.952778,37.763202]}},{"properties":{"city":"Destin","lon":-86.317431,"zip":32550,"hotel":"Residence Inn Sandestin at Grand Boulevard","phone":"1 850-650-7811","id":"a63gg2magms3","address":"300 Grand Boulevard","lat":30.379687,"state":"FL"},"type":"Feature","geometry":{"type":"Point","coordinates":[-86.317431,30.379687]}},{"properties":{"city":"Santa Clarita","lon":-118.586887,"zip":91381,"hotel":"Residence Inn Santa Clarita Valencia","phone":"1 661-290-2800","id":"a63gg2kivxuo","address":"25320 The Old Road","lat":34.390254,"state":"CA"},"type":"Feature","geometry":{"type":"Point","coordinates":[-118.586887,34.390254]}},{"properties":{"city":"Santa Fe","lon":-105.94993,"zip":87505,"hotel":"Residence Inn Santa Fe","phone":"1 505-988-7300","id":"a63gg2w6kxmk","address":"1698 Galisteo Street","lat":35.661563,"state":"NM"},"type":"Feature","geometry":{"type":"Point","coordinates":[-105.94993,35.661563]}},{"properties":{"city":"Sarasota","lon":-82.54992,"zip":34234,"hotel":"Residence Inn Sarasota Bradenton","phone":"1 941-358-1468","id":"a63gg2sniq3t","address":"1040 University Parkway","lat":27.381709,"state":"FL"},"type":"Feature","geometry":{"type":"Point","coordinates":[-82.54992,27.381709]}},{"properties":{"city":"Saratoga Springs","lon":-73.760234,"zip":12866,"hotel":"Residence Inn Saratoga Springs","phone":"1 518-584-9600","id":"a63gg2ok3eci","address":"295 Excelsior Ave.","lat":43.092454,"state":"NY"},"type":"Feature","geometry":{"type":"Point","coordinates":[-73.760234,43.092454]}},{"properties":{"city":"Savannah","lon":-81.099545,"zip":31401,"hotel":"Residence Inn Savannah Downtown/Historic District","phone":"1 912-233-9996","id":"a63gg2tquudq","address":"500 West Charlton Street","lat":32.074834,"state":"GA"},"type":"Feature","geometry":{"type":"Point","coordinates":[-81.099545,32.074834]}},{"properties":{"city":"Savannah","lon":-81.113094,"zip":31405,"hotel":"Residence Inn Savannah Midtown","phone":"1 912-356-3266","id":"a63gg2ofhiqw","address":"5710 White Bluff Road","lat":32.021793,"state":"GA"},"type":"Feature","geometry":{"type":"Point","coordinates":[-81.113094,32.021793]}},{"properties":{"city":"Scottsdale","lon":-111.925222,"zip":85255,"hotel":"Residence Inn Scottsdale North","phone":"1 480-563-4120","id":"a63gg2xp13mt","address":"17011 North Scottsdale Road","lat":33.639824,"state":"AZ"},"type":"Feature","geometry":{"type":"Point","coordinates":[-111.925222,33.639824]}},{"properties":{"city":"Scottsdale","lon":-111.926146,"zip":85253,"hotel":"Residence Inn Scottsdale Paradise Valley","phone":"1 480-948-8666","id":"a63gg2sx3t02","address":"6040 North Scottsdale Road","lat":33.525227,"state":"AZ"},"type":"Feature","geometry":{"type":"Point","coordinates":[-111.926146,33.525227]}},{"properties":{"city":"Dickson City","lon":-75.646537,"zip":18519,"hotel":"Residence Inn Scranton","phone":"1 570-343-5121","id":"a63gg2nlglah","address":"947 Viewmont Drive","lat":41.454698,"state":"PA"},"type":"Feature","geometry":{"type":"Point","coordinates":[-75.646537,41.454698]}},{"properties":{"city":"Bellevue","lon":-122.149035,"zip":98007,"hotel":"Residence Inn Seattle Bellevue","phone":"1 425-882-1222","id":"a63gg2oziamh","address":"14455 NE 29th Place","lat":47.632053,"state":"WA"},"type":"Feature","geometry":{"type":"Point","coordinates":[-122.149035,47.632053]}},{"properties":{"city":"Bellevue","lon":-122.185969,"zip":98004,"hotel":"Residence Inn Seattle Bellevue/Downtown","phone":"1 425-637-8500","id":"a63gg2iy8nnc","address":"605 114th Ave SE","lat":47.60456,"state":"WA"},"type":"Feature","geometry":{"type":"Point","coordinates":[-122.185969,47.60456]}},{"properties":{"city":"Seattle","lon":-122.333876,"zip":98109,"hotel":"Residence Inn Seattle Downtown/Lake Union","phone":"1 206-624-6000","id":"a63gg2ksz4z1","address":"800 Fairview Avenue North","lat":47.626311,"state":"WA"},"type":"Feature","geometry":{"type":"Point","coordinates":[-122.333876,47.626311]}},{"properties":{"city":"Redmond","lon":-122.121683,"zip":98052,"hotel":"Residence Inn Seattle East/Redmond","phone":"1 425-497-9226","id":"a63gg2o56lvj","address":"7575 164th Ave. N.E.","lat":47.671935,"state":"WA"},"type":"Feature","geometry":{"type":"Point","coordinates":[-122.121683,47.671935]}},{"properties":{"city":"Lynnwood","lon":-122.269316,"zip":98037,"hotel":"Residence Inn Seattle North/Lynnwood Everett","phone":"1 425-771-1100","id":"a63gg2xrsrt0","address":"18200 Alderwood Mall Parkway","lat":47.833794,"state":"WA"},"type":"Feature","geometry":{"type":"Point","coordinates":[-122.269316,47.833794]}},{"properties":{"city":"Bothell","lon":-122.181218,"zip":98011,"hotel":"Residence Inn Seattle Northeast/Bothell","phone":"1 425-485-3030","id":"a63gg2k17dnu","address":"11920 NE 195th Street","lat":47.769226,"state":"WA"},"type":"Feature","geometry":{"type":"Point","coordinates":[-122.181218,47.769226]}},{"properties":{"city":"Seattle","lon":-122.244399,"zip":98188,"hotel":"Residence Inn Seattle South/Tukwila","phone":"1 425-226-5500","id":"a63gg2uy7vv9","address":"16201 West Valley Highway","lat":47.458151,"state":"WA"},"type":"Feature","geometry":{"type":"Point","coordinates":[-122.244399,47.458151]}},{"properties":{"city":"Sebring","lon":-81.458974,"zip":33875,"hotel":"Residence Inn Sebring","phone":"1 863-314-9100","id":"a63gg2pv0il9","address":"3221 Tubbs Road","lat":27.470724,"state":"FL"},"type":"Feature","geometry":{"type":"Point","coordinates":[-81.458974,27.470724]}},{"properties":{"city":"Shelton","lon":-73.188156,"zip":6484,"hotel":"Residence Inn Shelton Fairfield County","phone":"1 203-926-9000","id":"a63gg2yi9ve7","address":"1001 Bridgeport Avenue","lat":41.191341,"state":"CT"},"type":"Feature","geometry":{"type":"Point","coordinates":[-73.188156,41.191341]}},{"properties":{"city":"Shreveport","lon":-93.82808,"zip":71109,"hotel":"Residence Inn Shreveport Airport","phone":"1 318-635-8000","id":"a63gg2p2ego2","address":"4910 W. Monkhouse Drive","lat":32.463369,"state":"LA"},"type":"Feature","geometry":{"type":"Point","coordinates":[-93.82808,32.463369]}},{"properties":{"city":"Bossier City","lon":-93.710732,"zip":71111,"hotel":"Residence Inn Shreveport-Bossier City","phone":"1 318-747-6220","id":"a63gg2l31jfk","address":"1001 Gould Drive","lat":32.517926,"state":"LA"},"type":"Feature","geometry":{"type":"Point","coordinates":[-93.710732,32.517926]}},{"properties":{"city":"Silver Spring","lon":-76.956516,"zip":20904,"hotel":"Residence Inn Silver Spring","phone":"1 301-572-2322","id":"a63gg2n6lkg9","address":"12000 Plum Orchard Drive","lat":39.050523,"state":"MD"},"type":"Feature","geometry":{"type":"Point","coordinates":[-76.956516,39.050523]}},{"properties":{"city":"Sioux Falls","lon":-96.781051,"zip":57106,"hotel":"Residence Inn Sioux Falls","phone":"1 605-361-2202","id":"a63gg2nncxd3","address":"4509 W. Empire Place","lat":43.508412,"state":"SD"},"type":"Feature","geometry":{"type":"Point","coordinates":[-96.781051,43.508412]}},{"properties":{"city":"Somerset","lon":-74.524109,"zip":8873,"hotel":"Residence Inn Somerset","phone":"1 732-627-0881","id":"a63gg2txbfxo","address":"37 Worlds Fair Drive","lat":40.49752,"state":"NJ"},"type":"Feature","geometry":{"type":"Point","coordinates":[-74.524109,40.49752]}},{"properties":{"city":"South Bend","lon":-86.244576,"zip":46617,"hotel":"Residence Inn South Bend","phone":"1 574-289-5555","id":"a63gg2j1m88p","address":"716 North Niles Avenue","lat":41.683903,"state":"IN"},"type":"Feature","geometry":{"type":"Point","coordinates":[-86.244576,41.683903]}},{"properties":{"city":"Mishawaka","lon":-86.179116,"zip":46545,"hotel":"Residence Inn South Bend Mishawaka","phone":"1 574-271-9283","id":"a63gg2wtgs6g","address":"231 Park Place","lat":41.697999,"state":"IN"},"type":"Feature","geometry":{"type":"Point","coordinates":[-86.179116,41.697999]}},{"properties":{"city":"Southington","lon":-72.899002,"zip":6489,"hotel":"Residence Inn Southington","phone":"1 860-621-4440","id":"a63gg2vqv12u","address":"778 West Street","lat":41.610367,"state":"CT"},"type":"Feature","geometry":{"type":"Point","coordinates":[-72.899002,41.610367]}},{"properties":{"city":"Spartanburg","lon":-82.000864,"zip":29301,"hotel":"Residence Inn Spartanburg","phone":"1 864-576-3333","id":"a63gg2mccxuv","address":"9011 Fairforest Road","lat":34.966335,"state":"SC"},"type":"Feature","geometry":{"type":"Point","coordinates":[-82.000864,34.966335]}},{"properties":{"city":"Spokane","lon":-117.196629,"zip":99216,"hotel":"Residence Inn Spokane East Valley","phone":"1 509-892-9300","id":"a63gg2nnyh0z","address":"15915 E. Indiana Avenue","lat":47.67125,"state":"WA"},"type":"Feature","geometry":{"type":"Point","coordinates":[-117.196629,47.67125]}},{"properties":{"city":"Springdale","lon":-94.183814,"zip":72762,"hotel":"Residence Inn Springdale","phone":"1 479-872-9100","id":"a63gg2wj8z4h","address":"1740 South 48th Street","lat":36.170531,"state":"AR"},"type":"Feature","geometry":{"type":"Point","coordinates":[-94.183814,36.170531]}},{"properties":{"city":"Springfield","lon":-93.274989,"zip":65804,"hotel":"Residence Inn Springfield","phone":"1 417-890-0020","id":"a63gg2t56x83","address":"1303 East Kingsley Street","lat":37.140386,"state":"MO"},"type":"Feature","geometry":{"type":"Point","coordinates":[-93.274989,37.140386]}},{"properties":{"city":"Earth City","lon":-90.455009,"zip":63045,"hotel":"Residence Inn St. Louis Airport/Earth City","phone":"1 314-209-0995","id":"a63gg2rmrmqc","address":"3290 Rider Trail South","lat":38.762482,"state":"MO"},"type":"Feature","geometry":{"type":"Point","coordinates":[-90.455009,38.762482]}},{"properties":{"city":"Chesterfield","lon":-90.554587,"zip":63017,"hotel":"Residence Inn St. Louis Chesterfield","phone":"1 636-537-1444","id":"a63gg2mlzamz","address":"15431 Conway Road","lat":38.652472,"state":"MO"},"type":"Feature","geometry":{"type":"Point","coordinates":[-90.554587,38.652472]}},{"properties":{"city":"St. Louis","lon":-90.218307,"zip":63103,"hotel":"Residence Inn St. Louis Downtown","phone":"1 314-289-7500","id":"a63gg2necvr3","address":"525 S. Jefferson Avenue","lat":38.626453,"state":"MO"},"type":"Feature","geometry":{"type":"Point","coordinates":[-90.218307,38.626453]}},{"properties":{"city":"St. Louis","lon":-90.34337,"zip":63117,"hotel":"Residence Inn St. Louis Galleria","phone":"1 314-862-1900","id":"a63gg2xdhlsj","address":"1100 McMorrow Avenue","lat":38.633867,"state":"MO"},"type":"Feature","geometry":{"type":"Point","coordinates":[-90.34337,38.633867]}},{"properties":{"city":"OFallon","lon":-90.700953,"zip":63368,"hotel":"Residence Inn St. Louis O'Fallon","phone":"1 636-300-3535","id":"a63gg2kh3sia","address":"101 Progress Point Ct.","lat":38.715745,"state":"MO"},"type":"Feature","geometry":{"type":"Point","coordinates":[-90.700953,38.715745]}},{"properties":{"city":"St. Louis","lon":-90.447964,"zip":63146,"hotel":"Residence Inn St. Louis Westport Plaza","phone":"1 314-469-0060","id":"a63gg2mhgw9o","address":"1881 Craigshire Rd.","lat":38.692291,"state":"MO"},"type":"Feature","geometry":{"type":"Point","coordinates":[-90.447964,38.692291]}},{"properties":{"city":"Clearwater","lon":-82.701909,"zip":33760,"hotel":"Residence Inn St. Petersburg Clearwater","phone":"1 727-573-4444","id":"a63gg2w773b5","address":"5050 Ulmerton Road","lat":27.893678,"state":"FL"},"type":"Feature","geometry":{"type":"Point","coordinates":[-82.701909,27.893678]}},{"properties":{"city":"Treasure Island","lon":-82.777285,"zip":33706,"hotel":"Residence Inn St. Petersburg Treasure Island","phone":"1 727-367-2761","id":"a63gg2mqcttz","address":"11908 Gulf Blvd","lat":27.775993,"state":"FL"},"type":"Feature","geometry":{"type":"Point","coordinates":[-82.777285,27.775993]}},{"properties":{"city":"State College","lon":-77.837747,"zip":16801,"hotel":"Residence Inn State College","phone":"1 814-235-6960","id":"a63gg2oe8q76","address":"1555 University Drive","lat":40.786102,"state":"PA"},"type":"Feature","geometry":{"type":"Point","coordinates":[-77.837747,40.786102]}},{"properties":{"city":"Stockton","lon":-121.353558,"zip":95219,"hotel":"Residence Inn Stockton","phone":"1 209-472-9800","id":"a63gg2oa294o","address":"3240 March Lane","lat":37.983679,"state":"CA"},"type":"Feature","geometry":{"type":"Point","coordinates":[-121.353558,37.983679]}},{"properties":{"city":"Sunnyvale","lon":-121.988036,"zip":94085,"hotel":"Residence Inn Sunnyvale Silicon Valley I","phone":"1 408-720-1000","id":"a63gg2tvx017","address":"750 Lakeway Drive","lat":37.387396,"state":"CA"},"type":"Feature","geometry":{"type":"Point","coordinates":[-121.988036,37.387396]}},{"properties":{"city":"Sunnyvale","lon":-121.997713,"zip":94086,"hotel":"Residence Inn Sunnyvale Silicon Valley II","phone":"1 408-720-8893","id":"a63gg2voikcj","address":"1080 Stewart Drive","lat":37.385773,"state":"CA"},"type":"Feature","geometry":{"type":"Point","coordinates":[-121.997713,37.385773]}},{"properties":{"city":"Syracuse","lon":-76.085909,"zip":13057,"hotel":"Residence Inn Syracuse","phone":"1 315-432-4488","id":"a63gg2u1u20p","address":"6420 Yorktown Circle","lat":43.091612,"state":"NY"},"type":"Feature","geometry":{"type":"Point","coordinates":[-76.085909,43.091612]}},{"properties":{"city":"Tallahassee","lon":-84.24569,"zip":32308,"hotel":"Residence Inn Tallahassee North/I-10 Capital Circle","phone":"1 850-422-0093","id":"a63gg2lydxuz","address":"1880 Raymond Diehl Road","lat":30.500363,"state":"FL"},"type":"Feature","geometry":{"type":"Point","coordinates":[-84.24569,30.500363]}},{"properties":{"city":"Tallahassee","lon":-84.29011,"zip":32304,"hotel":"Residence Inn Tallahassee Universities at the Capitol","phone":"1 850-329-9080","id":"a63gg2m7g5xj","address":"600 W Gaines St","lat":30.435647,"state":"FL"},"type":"Feature","geometry":{"type":"Point","coordinates":[-84.29011,30.435647]}},{"properties":{"city":"Tampa","lon":-82.461425,"zip":33602,"hotel":"Residence Inn Tampa Downtown","phone":"1 813-221-4224","id":"a63gg2teu1i5","address":"101 East Tyler Street","lat":27.951567,"state":"FL"},"type":"Feature","geometry":{"type":"Point","coordinates":[-82.461425,27.951567]}},{"properties":{"city":"Tampa","lon":-82.369799,"zip":33637,"hotel":"Residence Inn Tampa North/I-75 Fletcher","phone":"1 813-972-4400","id":"a63gg2iravro","address":"13420 North Telecom Parkway","lat":28.068807,"state":"FL"},"type":"Feature","geometry":{"type":"Point","coordinates":[-82.369799,28.068807]}},{"properties":{"city":"Oldsmar","lon":-82.657076,"zip":34677,"hotel":"Residence Inn Tampa Oldsmar","phone":"1 813-818-9400","id":"a63gg2u1fz5g","address":"4012 Tampa Road","lat":28.036321,"state":"FL"},"type":"Feature","geometry":{"type":"Point","coordinates":[-82.657076,28.036321]}},{"properties":{"city":"Tampa","lon":-82.338897,"zip":33619,"hotel":"Residence Inn Tampa Sabal Park/Brandon","phone":"1 813-627-8855","id":"a63gg2sq8s8l","address":"9719 Princess Palm Avenue","lat":27.980048,"state":"FL"},"type":"Feature","geometry":{"type":"Point","coordinates":[-82.338897,27.980048]}},{"properties":{"city":"Lutz","lon":-82.538459,"zip":33558,"hotel":"Residence Inn Tampa Suncoast Parkway at NorthPointe Village","phone":"1 813-792-8400","id":"a63gg2p9zzes","address":"2101 Northpointe Parkway","lat":28.18647,"state":"FL"},"type":"Feature","geometry":{"type":"Point","coordinates":[-82.538459,28.18647]}},{"properties":{"city":"Tampa","lon":-82.515602,"zip":33607,"hotel":"Residence Inn Tampa Westshore/Airport","phone":"1 813-877-7988","id":"a63gg2rna118","address":"4312 W. Boy Scout Boulevard","lat":27.963102,"state":"FL"},"type":"Feature","geometry":{"type":"Point","coordinates":[-82.515602,27.963102]}},{"properties":{"city":"Tempe","lon":-111.962818,"zip":85282,"hotel":"Residence Inn Tempe","phone":"1 480-756-2122","id":"a63gg2pmvo3k","address":"5075 South Priest Drive","lat":33.379068,"state":"AZ"},"type":"Feature","geometry":{"type":"Point","coordinates":[-111.962818,33.379068]}},{"properties":{"city":"Temple","lon":-97.394539,"zip":76502,"hotel":"Residence Inn Temple","phone":"1 254-773-8400","id":"a63gg2vy5wye","address":"4301 South General Bruce Dr","lat":31.08779,"state":"TX"},"type":"Feature","geometry":{"type":"Point","coordinates":[-97.394539,31.08779]}},{"properties":{"city":"Tinton Falls","lon":-74.083672,"zip":7724,"hotel":"Residence Inn Tinton Falls","phone":"1 732-389-8100","id":"a63gg2nm6ndt","address":"90 Park Road","lat":40.286293,"state":"NJ"},"type":"Feature","geometry":{"type":"Point","coordinates":[-74.083672,40.286293]}},{"properties":{"city":"Maumee","lon":-83.685655,"zip":43537,"hotel":"Residence Inn Toledo Maumee","phone":"1 419-891-2233","id":"a63gg2k2ho2n","address":"1370 Arrowhead Drive","lat":41.5784,"state":"OH"},"type":"Feature","geometry":{"type":"Point","coordinates":[-83.685655,41.5784]}},{"properties":{"city":"Topeka","lon":-95.759771,"zip":66604,"hotel":"Residence Inn Topeka","phone":"1 785-271-8903","id":"a63gg2kywwbd","address":"1620 SW Westport Drive","lat":39.038232,"state":"KS"},"type":"Feature","geometry":{"type":"Point","coordinates":[-95.759771,39.038232]}},{"properties":{"city":"Tucson","lon":-110.854005,"zip":85710,"hotel":"Residence Inn Tucson","phone":"1 520-721-0991","id":"a63gg2mandwv","address":"6477 East Speedway Boulevard","lat":32.235829,"state":"AZ"},"type":"Feature","geometry":{"type":"Point","coordinates":[-110.854005,32.235829]}},{"properties":{"city":"Tucson","lon":-110.930315,"zip":85756,"hotel":"Residence Inn Tucson Airport","phone":"1 520-294-5522","id":"a63gg2y96b85","address":"2660 East Medina Road","lat":32.130311,"state":"AZ"},"type":"Feature","geometry":{"type":"Point","coordinates":[-110.930315,32.130311]}},{"properties":{"city":"Tucson","lon":-110.879067,"zip":85711,"hotel":"Residence Inn Tucson Williams Centre","phone":"1 520-790-6100","id":"a63gg2typbud","address":"5400 East Williams Circle","lat":32.220347,"state":"AZ"},"type":"Feature","geometry":{"type":"Point","coordinates":[-110.879067,32.220347]}},{"properties":{"city":"Tulsa","lon":-95.852157,"zip":74133,"hotel":"Residence Inn Tulsa South","phone":"1 918-250-4850","id":"a63gg2vml3r8","address":"11025 East 73rd Street South","lat":36.058891,"state":"OK"},"type":"Feature","geometry":{"type":"Point","coordinates":[-95.852157,36.058891]}},{"properties":{"city":"Tyler","lon":-95.2758,"zip":75701,"hotel":"Residence Inn Tyler","phone":"1 903-595-5188","id":"a63gg2ro8yh1","address":"3303 Troup Highway","lat":32.313715,"state":"TX"},"type":"Feature","geometry":{"type":"Point","coordinates":[-95.2758,32.313715]}},{"properties":{"city":"Vienna","lon":-77.24625,"zip":22182,"hotel":"Residence Inn Tysons Corner","phone":"1 703-893-0120","id":"a63gg2odpgz6","address":"8616 Westwood Center Drive","lat":38.929156,"state":"VA"},"type":"Feature","geometry":{"type":"Point","coordinates":[-77.24625,38.929156]}},{"properties":{"city":"Vienna","lon":-77.235274,"zip":22182,"hotel":"Residence Inn Tysons Corner Mall","phone":"1 703-917-0800","id":"a63gg2jqagei","address":"8400 Old Courthouse Road","lat":38.915526,"state":"VA"},"type":"Feature","geometry":{"type":"Point","coordinates":[-77.235274,38.915526]}},{"properties":{"city":"Vacaville","lon":-121.953522,"zip":95687,"hotel":"Residence Inn Vacaville","phone":"1 707-469-0300","id":"a63gg2vwbck6","address":"360 Orange Drive","lat":38.371148,"state":"CA"},"type":"Feature","geometry":{"type":"Point","coordinates":[-121.953522,38.371148]}},{"properties":{"city":"Virginia Beach","lon":-75.978334,"zip":23451,"hotel":"Residence Inn Virginia Beach Oceanfront","phone":"1 757-425-1141","id":"a63gg2x56jq7","address":"3217 Atlantic Ave","lat":36.86042,"state":"VA"},"type":"Feature","geometry":{"type":"Point","coordinates":[-75.978334,36.86042]}},{"properties":{"city":"Waco","lon":-97.124283,"zip":76706,"hotel":"Residence Inn Waco","phone":"1 254-714-1386","id":"a63gg2rkar6u","address":"501 University Parks Drive","lat":31.556551,"state":"TX"},"type":"Feature","geometry":{"type":"Point","coordinates":[-97.124283,31.556551]}},{"properties":{"city":"Washington","lon":-77.016053,"zip":20024,"hotel":"Residence Inn Washington, DC /Capitol","phone":"1 202-484-8280","id":"a63gg2jkzv4p","address":"333 E St. SW","lat":38.883368,"state":"DC"},"type":"Feature","geometry":{"type":"Point","coordinates":[-77.016053,38.883368]}},{"properties":{"city":"Washington","lon":-77.047087,"zip":20037,"hotel":"Residence Inn Washington, DC/Dupont Circle","phone":"1 202-466-6800","id":"a63gg2t4x22d","address":"2120 P Street NW","lat":38.909511,"state":"DC"},"type":"Feature","geometry":{"type":"Point","coordinates":[-77.047087,38.909511]}},{"properties":{"city":"Washington","lon":-77.032383,"zip":20005,"hotel":"Residence Inn Washington, DC/Vermont Avenue","phone":"1 202-898-1100","id":"a63gg2sw6su0","address":"1199 Vermont Avenue, NW","lat":38.904707,"state":"DC"},"type":"Feature","geometry":{"type":"Point","coordinates":[-77.032383,38.904707]}},{"properties":{"city":"Wayne","lon":-74.228645,"zip":7470,"hotel":"Residence Inn Wayne","phone":"1 973-872-7100","id":"a63gg2o42lha","address":"30 Nevins Road","lat":40.964622,"state":"NJ"},"type":"Feature","geometry":{"type":"Point","coordinates":[-74.228645,40.964622]}},{"properties":{"city":"Waynesboro","lon":-78.934679,"zip":22980,"hotel":"Residence Inn Waynesboro","phone":"1 540-943-7426","id":"a63gg2q26f56","address":"44 Windigrove Drive","lat":38.061752,"state":"VA"},"type":"Feature","geometry":{"type":"Point","coordinates":[-78.934679,38.061752]}},{"properties":{"city":"West Orange","lon":-74.244385,"zip":7052,"hotel":"Residence Inn West Orange","phone":"1 973-669-4700","id":"a63gg2m3hmh8","address":"107 Prospect Avenue","lat":40.81284,"state":"NJ"},"type":"Feature","geometry":{"type":"Point","coordinates":[-74.244385,40.81284]}},{"properties":{"city":"West Palm Beach","lon":-80.094382,"zip":33407,"hotel":"Residence Inn West Palm Beach","phone":"1 561-687-4747","id":"a63gg2s9nl9o","address":"2461 Metrocentre Blvd","lat":26.757431,"state":"FL"},"type":"Feature","geometry":{"type":"Point","coordinates":[-80.094382,26.757431]}},{"properties":{"city":"West Springfield","lon":-72.627357,"zip":1089,"hotel":"Residence Inn West Springfield","phone":"1 413-732-9543","id":"a63gg2taibjr","address":"64 Border Way","lat":42.138054,"state":"MA"},"type":"Feature","geometry":{"type":"Point","coordinates":[-72.627357,42.138054]}},{"properties":{"city":"White Plains","lon":-73.770143,"zip":10601,"hotel":"Residence Inn White Plains Westchester County","phone":"1 914-761-7700","id":"a63gg2ixstmc","address":"5 Barker Avenue","lat":41.034775,"state":"NY"},"type":"Feature","geometry":{"type":"Point","coordinates":[-73.770143,41.034775]}},{"properties":{"city":"Wichita","lon":-97.207765,"zip":67206,"hotel":"Residence Inn Wichita East at Plazzio","phone":"1 316-682-7300","id":"a63gg2ueh8qo","address":"1212 N. Greenwich","lat":37.705548,"state":"KS"},"type":"Feature","geometry":{"type":"Point","coordinates":[-97.207765,37.705548]}},{"properties":{"city":"Williamsburg","lon":-76.725351,"zip":23185,"hotel":"Residence Inn Williamsburg","phone":"1 757-941-2000","id":"a63gg2smvmv6","address":"1648 Richmond Road","lat":37.294471,"state":"VA"},"type":"Feature","geometry":{"type":"Point","coordinates":[-76.725351,37.294471]}},{"properties":{"city":"Wilmington","lon":-77.828387,"zip":28405,"hotel":"Residence Inn Wilmington Landfall","phone":"1 910-256-0098","id":"a63gg2u9qvf2","address":"1200 Culbreth Drive","lat":34.233887,"state":"NC"},"type":"Feature","geometry":{"type":"Point","coordinates":[-77.828387,34.233887]}},{"properties":{"city":"Newark","lon":-75.674822,"zip":19702,"hotel":"Residence Inn Wilmington Newark","phone":"1 302-453-9200","id":"a63gg2wr1cjn","address":"240 Chapman Road","lat":39.668002,"state":"DE"},"type":"Feature","geometry":{"type":"Point","coordinates":[-75.674822,39.668002]}},{"properties":{"city":"Winston-Salem","lon":-80.276028,"zip":27106,"hotel":"Residence Inn Winston-Salem","phone":"1 336-759-0777","id":"a63gg2wmn69a","address":"7835 North Point Boulevard","lat":36.150458,"state":"NC"},"type":"Feature","geometry":{"type":"Point","coordinates":[-80.276028,36.150458]}},{"properties":{"city":"Worcester","lon":-71.762794,"zip":1605,"hotel":"Residence Inn Worcester","phone":"1 508-753-6300","id":"a63gg2vymghn","address":"503 Plantation Street","lat":42.283676,"state":"MA"},"type":"Feature","geometry":{"type":"Point","coordinates":[-71.762794,42.283676]}},{"properties":{"city":"Poland","lon":-80.630086,"zip":44514,"hotel":"Residence Inn Youngstown Boardman/Poland","phone":"1 330-726-1747","id":"a63gg2wwc3d6","address":"7396 Tiffany South","lat":41.020953,"state":"OH"},"type":"Feature","geometry":{"type":"Point","coordinates":[-80.630086,41.020953]}},{"properties":{"city":"Corona","lon":-117.540929,"zip":92879,"hotel":"Residence Inn by Marriott Corona Riverside","phone":"1 951-371-0107","id":"a63gg2w0gsjg","address":"1015 Montecito Drive","lat":33.869579,"state":"CA"},"type":"Feature","geometry":{"type":"Point","coordinates":[-117.540929,33.869579]}},{"properties":{"city":"Jacksonville","lon":-81.438573,"zip":32224,"hotel":"The Inn at Mayo Clinic","phone":"1 904-992-9992","id":"a63gg2wpjnw8","address":"4420 Mary Brigh Drive","lat":30.262915,"state":"FL"},"type":"Feature","geometry":{"type":"Point","coordinates":[-81.438573,30.262915]}}],"is_temporal":false,"author":{"url":"http://www.marriott.com/corporateinfo/glance.mi#brand10 ","metadata":"http://www.marriott.com/search/default.mi?destinationAddress.city=&destinationAddress.stateProvince=&destinationAddress.country=&fromDate=&toDate=&roomCount=1&guestCount=1&marriottRewardsNumber=&corporateCode=&marriottBrands=all ","contact_name":"","contact_address":"","source":"Marriott International, Inc ","contact_phone":""},"source":"http://www.marriott.com/corporateinfo/glance.mi#brand10 ","pagination":{"sort":null,"start":0,"total":565,"limit":1000000},"state":"complete","tags":"hotels,lodging,marriott,resorts,tourism,travel,usa","published":"2008-11-16T12:00:00Z","id":7509}