{"type":"FeatureCollection","data_type":"Dataset","url_type":null,"permissions":[{"permissions":{"download":true,"view":true},"group_id":"everyone"}],"classification":null,"title":"Marriott Conference Centers Hotels, USA, 11.2008 ","count":8,"stream_id":7514,"contributor":{"url":"http://geocommons.com/users/139","name":"Burkey"},"data_attributes":null,"calculation_params":null,"icon_link":null,"link":"http://geocommons.com/overlays/7514.json","extent":[-88.0807,33.7981,-76.1582,41.7736],"geometry_types":["point"],"unique_name":null,"name":"Marriott Conference Centers Hotels, USA, 11.2008 ","feature_count":8,"description":"This dataset locates all Marriott Conference Centers Hotels in the USA as of 11.2008. Marriott Conference Centers Hotels is a franchise under Marriott International, Inc.. \nMarriott International describes the franchise as: \n•\tQuality-tier brand specializing in highly effective small- to mid-sized meetings \n•\t13 Marriott Conference Centers in the US\n•\tProperties provide:\n  -  The latest audiovisual communications technology\n  -  Experiential learning facilities\n  -  Gourmet conference dining\n  -  Golf\n  -  Recreational/fitness venues\nMarriott International Inc. franchise hotels include: Marriott Hotels &amp; Resorts, JW Marriott Hotels &amp; Resorts, Renaissance Hotels &amp; Resorts, Courtyard by Marriott, Residence Inn by Marriott, Fairfield Inn by Marriott, Marriott Conference Centers, TownePlace Suites by Marriott, SpringHill Suites by Marriott, Marriott Vacation Club International, and The Ritz-Carlton Hotel Company, LLC. These are only hotels and do not include long term lodging franchises.\nThe data includes: Hotel Name, Address, City, State, Zip, Phone, and lat/lon position. The lat/lon position was obtained by geocoding the street address of the hotel at gpsvisualizer.com/geocoder. Some of these hotels are just opening or about to open and some of the data is incomplete. Please refer to the provided websites for more information about these hotels.\nAlso individual datasets are available for all other Marriott International Franchise Hotels and a dataset that contains all of the Franchise Hotels together on Finder! These datasets provide locations as this dataset does.\n","next_feature":null,"is_raster":false,"short_classification":"Y","stats":{"lon":{"max":-76.158251,"mean":-81.643405375,"variance":20.0521326284574,"stdev":4.47796076673941,"min":-88.080674,"median":-82.568033},"zip":{"max":60532,"mean":33402.75,"variance":194541767.357143,"stdev":13947.8230329017,"min":20783,"median":30083},"lat":{"max":41.773622,"mean":37.79061075,"variance":8.0480781135705,"stdev":2.8369134836245,"min":33.79811,"median":38.985704}},"features":[{"properties":{"city":"Queenstown","lon":-76.158251,"zip":21658,"hotel":"Aspen Wye River Conference Centers","phone":"1 410-827-7400","id":"a63ud2664de9","address":"201 Wye Woods Way","lat":38.91205,"state":"MD"},"type":"Feature","geometry":{"type":"Point","coordinates":[-76.158251,38.91205]}},{"properties":{"city":"Towson","lon":-76.604261,"zip":21204,"hotel":"Burkshire Marriott Conference Hotel","phone":"1 410-324-8100","id":"a63ud268p7c7","address":"10 West Burke Avenue","lat":39.395487,"state":"MD"},"type":"Feature","geometry":{"type":"Point","coordinates":[-76.604261,39.395487]}},{"properties":{"city":"Stone Mountain","lon":-84.129187,"zip":30083,"hotel":"Evergreen Marriott Conference Resort","phone":"1 770-879-9900","id":"a63ud1xoq07g","address":"4021 Lakeview Drive","lat":33.79811,"state":"GA"},"type":"Feature","geometry":{"type":"Point","coordinates":[-84.129187,33.79811]}},{"properties":{"city":"Lisle","lon":-88.080674,"zip":60532,"hotel":"Hickory Ridge Marriott Conference Hotel","phone":"1 630-971-5000","id":"a63ud25o2jlt","address":"1195 Summerhill Drive","lat":41.773622,"state":"IL"},"type":"Feature","geometry":{"type":"Point","coordinates":[-88.080674,41.773622]}},{"properties":{"city":"Cincinnati","lon":-84.507356,"zip":45219,"hotel":"Kingsgate Marriott Conference Hotel at the University of Cincinnati","phone":"1 513-487-3800","id":"a63ud27puwvv","address":"151 Goodman Drive","lat":39.136897,"state":"OH"},"type":"Feature","geometry":{"type":"Point","coordinates":[-84.507356,39.136897]}},{"properties":{"city":"Kingsport","lon":-82.568033,"zip":37660,"hotel":"MeadowView Conference Resort &amp; Convention Center","phone":"1 423-578-6600","id":"a63ud1y565i7","address":"1901 Meadowview Parkway","lat":36.509424,"state":"TN"},"type":"Feature","geometry":{"type":"Point","coordinates":[-82.568033,36.509424]}},{"properties":{"city":"Stone Mountain","lon":-84.14266,"zip":30083,"hotel":"Stone Mountain Inn","phone":"1 770-469-3311","id":"a63ud236zk1w","address":"1058 Robert E. Lee Drive","lat":33.813592,"state":"GA"},"type":"Feature","geometry":{"type":"Point","coordinates":[-84.14266,33.813592]}},{"properties":{"city":"Adelphi","lon":-76.956821,"zip":20783,"hotel":"The Inn &amp; Conference Center, University of Maryland University College","phone":"1 301-985-7300","id":"a63ud2a5ijuz","address":"3501 University Blvd E","lat":38.985704,"state":"MD"},"type":"Feature","geometry":{"type":"Point","coordinates":[-76.956821,38.985704]}}],"is_temporal":false,"author":{"url":"http://www.marriott.com/corporateinfo/glance.mi#brand10 ","metadata":"http://www.marriott.com/search/default.mi?destinationAddress.city=&destinationAddress.stateProvince=&destinationAddress.country=&fromDate=&toDate=&roomCount=1&guestCount=1&marriottRewardsNumber=&corporateCode=&marriottBrands=all ","contact_name":"","contact_address":"","source":"Marriott International, Inc ","contact_phone":""},"source":"http://www.marriott.com/corporateinfo/glance.mi#brand10 ","pagination":{"sort":null,"start":0,"total":8,"limit":1000000},"state":"complete","tags":"hotels,lodging,marriott,resorts,tourism,travel,usa","published":"2008-11-16T12:00:00Z","id":7514}