{"type":"FeatureCollection","data_type":"Dataset","url_type":null,"permissions":[{"permissions":{"download":true,"view":true},"group_id":"everyone"}],"classification":null,"title":"TownePlace Suites by Marriott Hotels, USA, 11.2008 ","count":167,"stream_id":7517,"contributor":{"url":"http://geocommons.com/users/139","name":"Burkey"},"data_attributes":null,"calculation_params":null,"icon_link":null,"link":"http://geocommons.com/overlays/7517.json","extent":[-122.913,25.8072,-70.3533,47.9208],"geometry_types":["point"],"unique_name":null,"name":"TownePlace Suites by Marriott Hotels, USA, 11.2008 ","feature_count":167,"description":"This dataset locates all TownePlace Suites by Marriott Hotels in the USA as of 11.2008. TownePlace Suites by Marriott Hotels is a franchise under Marriott International, Inc.. \nMarriott International describes the franchise as: \n•\tMid-priced, extended-stay brand \n•\tProvides all the conveniences of home in a residential atmosphere\n•\tLaunched in 1997 \n•\t145 TownePlace Suites by Marriott locations in the US\nMarriott International Inc. franchise hotels include: Marriott Hotels &amp; Resorts, JW Marriott Hotels &amp; Resorts, Renaissance Hotels &amp; Resorts, Courtyard by Marriott, Residence Inn by Marriott, Fairfield Inn by Marriott, Marriott Conference Centers, TownePlace Suites by Marriott, SpringHill Suites by Marriott, Marriott Vacation Club International, and The Ritz-Carlton Hotel Company, LLC. These are only hotels and do not include long term lodging franchises.\nThe data includes: Hotel Name, Address, City, State, Zip, Phone, and lat/lon position. The lat/lon position was obtained by geocoding the street address of the hotel at gpsvisualizer.com/geocoder. Some of these hotels are just opening or about to open and some of the data is incomplete. Please refer to the provided websites for more information about these hotels.\nAlso individual datasets are available for all other Marriott International Franchise Hotels and a dataset that contains all of the Franchise Hotels together on Finder! These datasets provide locations as this dataset does.\n","next_feature":null,"is_raster":false,"short_classification":"Y","stats":{"lon":{"max":-70.353317,"mean":-92.4784386287425,"variance":226.169230456596,"stdev":15.0389238463593,"min":-122.912693,"median":-87.225152},"zip":{"max":98275,"mean":54158.4610778443,"variance":763210942.334319,"stdev":27626.2726826172,"min":1876,"median":48823},"lat":{"max":47.920834,"mean":37.0315585988024,"variance":25.1129766621698,"stdev":5.01128493124965,"min":25.807213,"median":37.652007}},"features":[{"properties":{"city":"Albany","lon":-73.772428,"zip":12209,"hotel":"TownePlace Suites Albany Empire State Plaza/University Heights","phone":"1 518-860-1500","id":"a621h0o6hbhy","address":"22 Holland Avenue","lat":42.646747,"state":"NY"},"type":"Feature","geometry":{"type":"Point","coordinates":[-73.772428,42.646747]}},{"properties":{"city":"Albany","lon":-73.816355,"zip":12206,"hotel":"TownePlace Suites Albany SUNY","phone":"1 518-435-1900","id":"a621h0hz8wpp","address":"1379 Washington Avenue","lat":42.687602,"state":"NY"},"type":"Feature","geometry":{"type":"Point","coordinates":[-73.816355,42.687602]}},{"properties":{"city":"Albuquerque","lon":-106.618772,"zip":87106,"hotel":"TownePlace Suites Albuquerque Airport","phone":"1 505-232-5800","id":"a621h0henqyf","address":"2400 Centre Ave SE","lat":35.059607,"state":"NM"},"type":"Feature","geometry":{"type":"Point","coordinates":[-106.618772,35.059607]}},{"properties":{"city":"Anaheim","lon":-117.889076,"zip":92806,"hotel":"TownePlace Suites Anaheim","phone":"1 714-939-9700","id":"a621h0gestzm","address":"1730 South State College Boulevard","lat":33.804685,"state":"CA"},"type":"Feature","geometry":{"type":"Point","coordinates":[-117.889076,33.804685]}},{"properties":{"city":"Arlington","lon":-97.084753,"zip":76006,"hotel":"TownePlace Suites Arlington Near Six Flags","phone":"1 817-861-8728","id":"a621h0gslwma","address":"1709 East Lamar Boulevard","lat":32.763487,"state":"TX"},"type":"Feature","geometry":{"type":"Point","coordinates":[-97.084753,32.763487]}},{"properties":{"city":"Hanover","lon":-76.722305,"zip":21076,"hotel":"TownePlace Suites Arundel Mills BWI Airport","phone":"1 410-379-9000","id":"a621h0cnmuq3","address":"7021 Arundel Mills Circle","lat":39.160261,"state":"MD"},"type":"Feature","geometry":{"type":"Point","coordinates":[-76.722305,39.160261]}},{"properties":{"city":"Alpharetta","lon":-84.287005,"zip":30004,"hotel":"TownePlace Suites Atlanta Alpharetta","phone":"1 770-664-1300","id":"a621h0oacb5x","address":"7925 Westside Parkway","lat":34.061372,"state":"GA"},"type":"Feature","geometry":{"type":"Point","coordinates":[-84.287005,34.061372]}},{"properties":{"city":"Atlanta","lon":-84.361369,"zip":30324,"hotel":"TownePlace Suites Atlanta Buckhead","phone":"1 404-949-4820","id":"a621h0nlkuxl","address":"820 Sidney Marcus Blvd.","lat":33.825815,"state":"GA"},"type":"Feature","geometry":{"type":"Point","coordinates":[-84.361369,33.825815]}},{"properties":{"city":"Kennesaw","lon":-84.586237,"zip":30144,"hotel":"TownePlace Suites Atlanta Kennesaw","phone":"1 770-794-8282","id":"a621h0itsb1a","address":"1074 Cobb Place Boulevard N.W.","lat":34.001062,"state":"GA"},"type":"Feature","geometry":{"type":"Point","coordinates":[-84.586237,34.001062]}},{"properties":{"city":"Norcross","lon":-84.247721,"zip":30071,"hotel":"TownePlace Suites Atlanta Norcross/Peachtree Corners","phone":"1 770-447-8446","id":"a621h0h7ke5g","address":"6640 Bay Circle","lat":33.935283,"state":"GA"},"type":"Feature","geometry":{"type":"Point","coordinates":[-84.247721,33.935283]}},{"properties":{"city":"Atlanta","lon":-84.252965,"zip":30345,"hotel":"TownePlace Suites Atlanta Northlake","phone":"1 770-938-0408","id":"a621h0ni7kny","address":"3300 Northlake Parkway","lat":33.851784,"state":"GA"},"type":"Feature","geometry":{"type":"Point","coordinates":[-84.252965,33.851784]}},{"properties":{"city":"Austin","lon":-97.738323,"zip":78759,"hotel":"TownePlace Suites Austin Northwest","phone":"1 512-231-9360","id":"a621h0i881a0","address":"10024 North Capital of TX Highway North","lat":30.390841,"state":"TX"},"type":"Feature","geometry":{"type":"Point","coordinates":[-97.738323,30.390841]}},{"properties":{"city":"Linthicum","lon":-76.679669,"zip":21090,"hotel":"TownePlace Suites Baltimore BWI Airport","phone":"1 410-694-0060","id":"a621h0n7zffd","address":"1171 Winterson Road","lat":39.202878,"state":"MD"},"type":"Feature","geometry":{"type":"Point","coordinates":[-76.679669,39.202878]}},{"properties":{"city":"Annapolis Junction","lon":-76.777647,"zip":20701,"hotel":"TownePlace Suites Baltimore Fort Meade","phone":"1 301-498-7477","id":"a621h0k33ga2","address":"120 National Business Parkway","lat":39.122587,"state":"MD"},"type":"Feature","geometry":{"type":"Point","coordinates":[-76.777647,39.122587]}},{"properties":{"city":"Baton Rouge","lon":-91.09513,"zip":70809,"hotel":"TownePlace Suites Baton Rouge South","phone":"1 225-819-2112","id":"a621h0knyayf","address":"8735 Summa Boulevard","lat":30.396521,"state":"LA"},"type":"Feature","geometry":{"type":"Point","coordinates":[-91.09513,30.396521]}},{"properties":{"city":"Bend","lon":-121.330706,"zip":97702,"hotel":"TownePlace Suites Bend","phone":"1 541-382-5006","id":"a621h0sgkv6e","address":"755 SW 13th Place","lat":44.042727,"state":"OR"},"type":"Feature","geometry":{"type":"Point","coordinates":[-121.330706,44.042727]}},{"properties":{"city":"Bentonville","lon":-94.175971,"zip":72712,"hotel":"TownePlace Suites Bentonville Rogers","phone":"1 479-621-0202","id":"a621h0ck3n51","address":"3100 S.E. 14th Street","lat":36.356198,"state":"AR"},"type":"Feature","geometry":{"type":"Point","coordinates":[-94.175971,36.356198]}},{"properties":{"city":"Birmingham","lon":-86.845308,"zip":35209,"hotel":"TownePlace Suites Birmingham Homewood","phone":"1 205-943-0114","id":"a621h0p0zex0","address":"500 Wildwood Circle","lat":33.430385,"state":"AL"},"type":"Feature","geometry":{"type":"Point","coordinates":[-86.845308,33.430385]}},{"properties":{"city":"Bloomington","lon":-86.57077,"zip":47404,"hotel":"TownePlace Suites Bloomington","phone":"1 812-334-1234","id":"a621h0g7lut2","address":"105 South Franklin","lat":39.168327,"state":"IN"},"type":"Feature","geometry":{"type":"Point","coordinates":[-86.57077,39.168327]}},{"properties":{"city":"Boca Raton","lon":-80.097905,"zip":33487,"hotel":"TownePlace Suites Boca Raton","phone":"1 561-994-7232","id":"a621h0iscf3d","address":"5110 NW 8th Avenue","lat":26.39471,"state":"FL"},"type":"Feature","geometry":{"type":"Point","coordinates":[-80.097905,26.39471]}},{"properties":{"city":"Boise","lon":-116.213061,"zip":83706,"hotel":"TownePlace Suites Boise Downtown","phone":"1 208-429-8881","id":"a621h0j2zspt","address":"1455 S. Capitol Blvd.","lat":43.604332,"state":"ID"},"type":"Feature","geometry":{"type":"Point","coordinates":[-116.213061,43.604332]}},{"properties":{"city":"Meridian","lon":-116.354718,"zip":83642,"hotel":"TownePlace Suites Boise West/Meridian","phone":"1 208-884-8550","id":"a621h0efv9kd","address":"1415 South Eagle Road","lat":43.591823,"state":"ID"},"type":"Feature","geometry":{"type":"Point","coordinates":[-116.354718,43.591823]}},{"properties":{"city":"Danvers","lon":-70.979668,"zip":1923,"hotel":"TownePlace Suites Boston North Shore/Danvers","phone":"1 978-777-6222","id":"a621h0qoshiq","address":"238 Andover Street","lat":42.562878,"state":"MA"},"type":"Feature","geometry":{"type":"Point","coordinates":[-70.979668,42.562878]}},{"properties":{"city":"Tewksbury","lon":-71.23243,"zip":1876,"hotel":"TownePlace Suites Boston Tewksbury/Andover","phone":"1 978-863-9800","id":"a621h0ma735r","address":"20 International Place","lat":42.611382,"state":"MA"},"type":"Feature","geometry":{"type":"Point","coordinates":[-71.23243,42.611382]}},{"properties":{"city":"Broomfield","lon":-105.130463,"zip":80021,"hotel":"TownePlace Suites Boulder Broomfield","phone":"1 303-466-2200","id":"a621h0g1l7he","address":"480 FlatIron Blvd.","lat":39.926218,"state":"CO"},"type":"Feature","geometry":{"type":"Point","coordinates":[-105.130463,39.926218]}},{"properties":{"city":"Bowie","lon":-76.733923,"zip":20716,"hotel":"TownePlace Suites Bowie Town Center","phone":"1 301-262-8045","id":"a621h0jp3dbv","address":"3700 Town Center Boulevard","lat":38.942765,"state":"MD"},"type":"Feature","geometry":{"type":"Point","coordinates":[-76.733923,38.942765]}},{"properties":{"city":"College Station","lon":-96.317924,"zip":77840,"hotel":"TownePlace Suites Bryan College Station","phone":"1 979-260-8500","id":"a621h0cmboso","address":"1300 University Drive East","lat":30.637034,"state":"TX"},"type":"Feature","geometry":{"type":"Point","coordinates":[-96.317924,30.637034]}},{"properties":{"city":"Williston","lon":-73.110222,"zip":5495,"hotel":"TownePlace Suites Burlington Williston","phone":"1 802-872-5900","id":"a621h0enuc2k","address":"66 Zephyr Road, Taft Corners","lat":44.453575,"state":"VT"},"type":"Feature","geometry":{"type":"Point","coordinates":[-73.110222,44.453575]}},{"properties":{"city":"Chantilly","lon":-77.434174,"zip":20151,"hotel":"TownePlace Suites Chantilly","phone":"1 703-709-0453","id":"a621h0le46dq","address":"14036 Thunderbolt Place","lat":38.897995,"state":"VA"},"type":"Feature","geometry":{"type":"Point","coordinates":[-77.434174,38.897995]}},{"properties":{"city":"Charlotte","lon":-80.904752,"zip":28217,"hotel":"TownePlace Suites Charlotte Arrowood","phone":"1 704-227-2000","id":"a621h0r4zsps","address":"7805 Forest Point Boulevard","lat":35.137789,"state":"NC"},"type":"Feature","geometry":{"type":"Point","coordinates":[-80.904752,35.137789]}},{"properties":{"city":"Charlotte","lon":-80.761859,"zip":28262,"hotel":"TownePlace Suites Charlotte University Research Park","phone":"1 704-548-0388","id":"a621h0seuxqx","address":"8710 Research Drive","lat":35.315584,"state":"NC"},"type":"Feature","geometry":{"type":"Point","coordinates":[-80.761859,35.315584]}},{"properties":{"city":"Chesapeake","lon":-76.233859,"zip":23320,"hotel":"TownePlace Suites Chesapeake","phone":"1 757-523-5004","id":"a621h0hxxd1p","address":"2000 Old Greenbrier Road","lat":36.792377,"state":"VA"},"type":"Feature","geometry":{"type":"Point","coordinates":[-76.233859,36.792377]}},{"properties":{"city":"West Dundee","lon":-88.287461,"zip":60118,"hotel":"TownePlace Suites Chicago Elgin/West Dundee","phone":"1 847-608-6320","id":"a621h0ip5yp4","address":"2185 Marriott Drive","lat":42.075049,"state":"IL"},"type":"Feature","geometry":{"type":"Point","coordinates":[-88.287461,42.075049]}},{"properties":{"city":"Lombard","lon":-88.005223,"zip":60148,"hotel":"TownePlace Suites Chicago Lombard","phone":"1 630-932-4400","id":"a621h0jisfck","address":"455 E. 22nd Street","lat":41.845647,"state":"IL"},"type":"Feature","geometry":{"type":"Point","coordinates":[-88.005223,41.845647]}},{"properties":{"city":"Naperville","lon":-88.206562,"zip":60563,"hotel":"TownePlace Suites Chicago Naperville","phone":"1 630-548-0881","id":"a621h0pjue3n","address":"1843 West Diehl Road","lat":41.799179,"state":"IL"},"type":"Feature","geometry":{"type":"Point","coordinates":[-88.206562,41.799179]}},{"properties":{"city":"Blue Ash","lon":-84.377239,"zip":45241,"hotel":"TownePlace Suites Cincinnati Blue Ash","phone":"1 513-469-8222","id":"a621h0js8h33","address":"4650 Cornell Road","lat":39.270527,"state":"OH"},"type":"Feature","geometry":{"type":"Point","coordinates":[-84.377239,39.270527]}},{"properties":{"city":"Cincinnati","lon":-84.301566,"zip":45249,"hotel":"TownePlace Suites Cincinnati Northeast","phone":"1 513-774-0610","id":"a621h0gp5sp7","address":"9369 Waterstone Boulevard","lat":39.30066,"state":"OH"},"type":"Feature","geometry":{"type":"Point","coordinates":[-84.301566,39.30066]}},{"properties":{"city":"Middleburg Heights","lon":-81.824807,"zip":44130,"hotel":"TownePlace Suites Cleveland Airport","phone":"1 440-816-9300","id":"a621h0nx58wd","address":"7325 Engle Road","lat":41.367624,"state":"OH"},"type":"Feature","geometry":{"type":"Point","coordinates":[-81.824807,41.367624]}},{"properties":{"city":"Streetsboro","lon":-81.368538,"zip":44241,"hotel":"TownePlace Suites Cleveland Streetsboro","phone":"1 330-422-1855","id":"a621h0pf3bo2","address":"795 Mondial Parkway","lat":41.249634,"state":"OH"},"type":"Feature","geometry":{"type":"Point","coordinates":[-81.368538,41.249634]}},{"properties":{"city":"Westlake","lon":-81.897985,"zip":44145,"hotel":"TownePlace Suites Cleveland Westlake","phone":"1 440-892-4275","id":"a621h0ddj7xv","address":"25052 Sperry Drive","lat":41.474094,"state":"OH"},"type":"Feature","geometry":{"type":"Point","coordinates":[-81.897985,41.474094]}},{"properties":{"city":"Clinton","lon":-76.885601,"zip":20735,"hotel":"TownePlace Suites Clinton at Andrews Air Force Base","phone":"1 301-856-2266","id":"a621h0ozpk88","address":"7800 Ferry Avenue","lat":38.783634,"state":"MD"},"type":"Feature","geometry":{"type":"Point","coordinates":[-76.885601,38.783634]}},{"properties":{"city":"Colorado Springs","lon":-104.853978,"zip":80919,"hotel":"TownePlace Suites Colorado Springs","phone":"1 719-594-4447","id":"a621h0dbz68n","address":"4760 Centennial Blvd.","lat":38.90101,"state":"CO"},"type":"Feature","geometry":{"type":"Point","coordinates":[-104.853978,38.90101]}},{"properties":{"city":"Colorado Springs","lon":-104.728569,"zip":80916,"hotel":"TownePlace Suites Colorado Springs South","phone":"1 719-638-0800","id":"a621h0n5y8p3","address":"1530 N. Newport Road","lat":38.809346,"state":"CO"},"type":"Feature","geometry":{"type":"Point","coordinates":[-104.728569,38.809346]}},{"properties":{"city":"Columbia","lon":-81.160968,"zip":29212,"hotel":"TownePlace Suites Columbia","phone":"1 803-781-9391","id":"a621h0nw1gqt","address":"350 Columbiana Drive","lat":34.084067,"state":"SC"},"type":"Feature","geometry":{"type":"Point","coordinates":[-81.160968,34.084067]}},{"properties":{"city":"Columbus","lon":-84.953354,"zip":31904,"hotel":"TownePlace Suites Columbus","phone":"1 706-322-3001","id":"a621h0mhh0sw","address":"4534 Armour Road","lat":32.507333,"state":"GA"},"type":"Feature","geometry":{"type":"Point","coordinates":[-84.953354,32.507333]}},{"properties":{"city":"Columbus","lon":-82.857448,"zip":43230,"hotel":"TownePlace Suites Columbus Airport Gahanna","phone":"1 614-861-1400","id":"a621h0pcsat6","address":"695 Taylor Road","lat":40.003162,"state":"OH"},"type":"Feature","geometry":{"type":"Point","coordinates":[-82.857448,40.003162]}},{"properties":{"city":"Columbus","lon":-83.005876,"zip":43235,"hotel":"TownePlace Suites Columbus Worthington","phone":"1 614-885-1557","id":"a621h0ec7vb2","address":"7272 Huntington Park Drive","lat":40.115134,"state":"OH"},"type":"Feature","geometry":{"type":"Point","coordinates":[-83.005876,40.115134]}},{"properties":{"city":"Bedford","lon":-97.113479,"zip":76021,"hotel":"TownePlace Suites Dallas Bedford","phone":"1 817-283-3725","id":"a621h0cy7ewe","address":"2301 Plaza Parkway","lat":32.84179,"state":"TX"},"type":"Feature","geometry":{"type":"Point","coordinates":[-97.113479,32.84179]}},{"properties":{"city":"Irving","lon":-96.961975,"zip":75038,"hotel":"TownePlace Suites Dallas Las Colinas","phone":"1 972-550-7796","id":"a621h0phoca6","address":"900 West Walnut Hill Lane","lat":32.8847,"state":"TX"},"type":"Feature","geometry":{"type":"Point","coordinates":[-96.961975,32.8847]}},{"properties":{"city":"Plano","lon":-96.796547,"zip":75024,"hotel":"TownePlace Suites Dallas Plano","phone":"1 972-943-8200","id":"a621h0k5fjvm","address":"5005 Whitestone Lane","lat":33.058192,"state":"TX"},"type":"Feature","geometry":{"type":"Point","coordinates":[-96.796547,33.058192]}},{"properties":{"city":"Butler Township","lon":-84.19394,"zip":45414,"hotel":"TownePlace Suites Dayton North","phone":"1 937-898-5700","id":"a621h0g7v0h0","address":"3642 Maxton Rd","lat":39.851497,"state":"OH"},"type":"Feature","geometry":{"type":"Point","coordinates":[-84.19394,39.851497]}},{"properties":{"city":"Denver","lon":-104.988625,"zip":80204,"hotel":"TownePlace Suites Denver Downtown","phone":"1 303-722-2322","id":"a621h0lo93mk","address":"685 Speer Blvd","lat":39.727024,"state":"CO"},"type":"Feature","geometry":{"type":"Point","coordinates":[-104.988625,39.727024]}},{"properties":{"city":"Denver","lon":-104.913271,"zip":80237,"hotel":"TownePlace Suites Denver Southeast","phone":"1 303-759-9393","id":"a621h0jgebn3","address":"3699 South Monaco Parkway","lat":39.650572,"state":"CO"},"type":"Feature","geometry":{"type":"Point","coordinates":[-104.913271,39.650572]}},{"properties":{"city":"Littleton","lon":-105.117881,"zip":80127,"hotel":"TownePlace Suites Denver Southwest/Littleton","phone":"1 303-972-0555","id":"a621h0ekscer","address":"10902 W. Toller Drive","lat":39.559916,"state":"CO"},"type":"Feature","geometry":{"type":"Point","coordinates":[-105.117881,39.559916]}},{"properties":{"city":"Englewood","lon":-104.880904,"zip":80112,"hotel":"TownePlace Suites Denver Tech Center","phone":"1 720-875-1113","id":"a621h0fhurw9","address":"7877 S. Chester Street","lat":39.5743,"state":"CO"},"type":"Feature","geometry":{"type":"Point","coordinates":[-104.880904,39.5743]}},{"properties":{"city":"Golden","lon":-105.130437,"zip":80401,"hotel":"TownePlace Suites Denver West/Federal Center","phone":"1 303-232-7790","id":"a621h0m5u6t8","address":"800 Tabor Street","lat":39.729367,"state":"CO"},"type":"Feature","geometry":{"type":"Point","coordinates":[-105.130437,39.729367]}},{"properties":{"city":"Johnston","lon":-93.740817,"zip":50131,"hotel":"TownePlace Suites Des Moines Urbandale","phone":"1 515-727-4066","id":"a621h0s7p5ro","address":"8800 NorthPark Dr.","lat":41.654862,"state":"IA"},"type":"Feature","geometry":{"type":"Point","coordinates":[-93.740817,41.654862]}},{"properties":{"city":"Dearborn","lon":-83.211743,"zip":48126,"hotel":"TownePlace Suites Detroit Dearborn","phone":"1 313-271-0200","id":"a621h0oc0rmv","address":"6141 Mercury Drive","lat":42.333375,"state":"MI"},"type":"Feature","geometry":{"type":"Point","coordinates":[-83.211743,42.333375]}},{"properties":{"city":"Livonia","lon":-83.428976,"zip":48152,"hotel":"TownePlace Suites Detroit Livonia","phone":"1 734-542-7400","id":"a621h0jfxr66","address":"17450 Fox Drive","lat":42.412254,"state":"MI"},"type":"Feature","geometry":{"type":"Point","coordinates":[-83.428976,42.412254]}},{"properties":{"city":"Novi","lon":-83.466658,"zip":48375,"hotel":"TownePlace Suites Detroit Novi","phone":"1 248-305-5533","id":"a621h0hdrgis","address":"42600 Eleven Mile Road","lat":42.481405,"state":"MI"},"type":"Feature","geometry":{"type":"Point","coordinates":[-83.466658,42.481405]}},{"properties":{"city":"Sterling Heights","lon":-82.982115,"zip":48313,"hotel":"TownePlace Suites Detroit Sterling Heights","phone":"1 586-566-0900","id":"a621h0n2tann","address":"14800 Lakeside Circle","lat":42.62469,"state":"MI"},"type":"Feature","geometry":{"type":"Point","coordinates":[-82.982115,42.62469]}},{"properties":{"city":"Warren","lon":-83.030909,"zip":48092,"hotel":"TownePlace Suites Detroit Warren","phone":"1 586-264-8800","id":"a621h0kxzb9m","address":"7601 Chicago Road","lat":42.524097,"state":"MI"},"type":"Feature","geometry":{"type":"Point","coordinates":[-83.030909,42.524097]}},{"properties":{"city":"Sterling","lon":-77.429286,"zip":20166,"hotel":"TownePlace Suites Dulles Airport","phone":"1 703-707-2017","id":"a621h0qne2mk","address":"22744 Holiday Park Drive","lat":38.986953,"state":"VA"},"type":"Feature","geometry":{"type":"Point","coordinates":[-77.429286,38.986953]}},{"properties":{"city":"East Lansing","lon":-84.454769,"zip":48823,"hotel":"TownePlace Suites East Lansing","phone":"1 517-203-1000","id":"a621h0sdwrl3","address":"2855 Hannah Boulevard","lat":42.719015,"state":"MI"},"type":"Feature","geometry":{"type":"Point","coordinates":[-84.454769,42.719015]}},{"properties":{"city":"El Centro","lon":-115.535015,"zip":92243,"hotel":"TownePlace Suites El Centro","phone":"1 760-370-3800","id":"a621h0oganc6","address":"3003 South Dogwood Avenue","lat":32.768019,"state":"CA"},"type":"Feature","geometry":{"type":"Point","coordinates":[-115.535015,32.768019]}},{"properties":{"city":"Erie","lon":-80.10381,"zip":16565,"hotel":"TownePlace Suites Erie","phone":"1 814-866-7100","id":"a621h0jsr8i8","address":"2090 Interchange Road","lat":42.06554,"state":"PA"},"type":"Feature","geometry":{"type":"Point","coordinates":[-80.10381,42.06554]}},{"properties":{"city":"Falls Church","lon":-77.171246,"zip":22046,"hotel":"TownePlace Suites Falls Church","phone":"1 703-237-6172","id":"a621h0gms4vt","address":"205 Hillwood Ave.","lat":38.87886,"state":"VA"},"type":"Feature","geometry":{"type":"Point","coordinates":[-77.171246,38.87886]}},{"properties":{"city":"Johnson","lon":-94.178259,"zip":72741,"hotel":"TownePlace Suites Fayetteville North/Johnson","phone":"1 479-966-4400","id":"a621h0l59pgd","address":"5437 S 48th St","lat":36.13679,"state":"AR"},"type":"Feature","geometry":{"type":"Point","coordinates":[-94.178259,36.13679]}},{"properties":{"city":"Findlay","lon":-83.594943,"zip":45840,"hotel":"TownePlace Suites Findlay","phone":"1 419-425-9545","id":"a621h0jzjtqs","address":"2501 Tiffin Ave.","lat":41.055369,"state":"OH"},"type":"Feature","geometry":{"type":"Point","coordinates":[-83.594943,41.055369]}},{"properties":{"city":"Fort Lauderdale","lon":-80.189564,"zip":33309,"hotel":"TownePlace Suites Fort Lauderdale West","phone":"1 954-484-2214","id":"a621h0o29tva","address":"3100 Prospect Road","lat":26.194835,"state":"FL"},"type":"Feature","geometry":{"type":"Point","coordinates":[-80.189564,26.194835]}},{"properties":{"city":"Weston","lon":-80.375734,"zip":33326,"hotel":"TownePlace Suites Fort Lauderdale Weston","phone":"1 954-659-2234","id":"a621h0jvbel1","address":"1545 Three Village Road","lat":26.111264,"state":"FL"},"type":"Feature","geometry":{"type":"Point","coordinates":[-80.375734,26.111264]}},{"properties":{"city":"Fort Worth","lon":-97.400088,"zip":76109,"hotel":"TownePlace Suites Fort Worth Southwest","phone":"1 817-732-2224","id":"a621h0fkqqtc","address":"4200 International Plaza","lat":32.687128,"state":"TX"},"type":"Feature","geometry":{"type":"Point","coordinates":[-97.400088,32.687128]}},{"properties":{"city":"Fredericksburg","lon":-77.494149,"zip":22408,"hotel":"TownePlace Suites Fredericksburg","phone":"1 540-891-0775","id":"a621h0o7ljup","address":"4700 Market Street (Route 1489)","lat":38.24344,"state":"VA"},"type":"Feature","geometry":{"type":"Point","coordinates":[-77.494149,38.24344]}},{"properties":{"city":"Fresno","lon":-119.78228,"zip":93720,"hotel":"TownePlace Suites Fresno","phone":"1 559-435-4600","id":"a621h0e9msca","address":"7127 North Fresno Street","lat":36.84056,"state":"CA"},"type":"Feature","geometry":{"type":"Point","coordinates":[-119.78228,36.84056]}},{"properties":{"city":"Gaithersburg","lon":-77.209618,"zip":20877,"hotel":"TownePlace Suites Gaithersburg","phone":"1 301-590-2300","id":"a621h0nkrjb1","address":"212 Perry Parkway","lat":39.141459,"state":"MD"},"type":"Feature","geometry":{"type":"Point","coordinates":[-77.209618,39.141459]}},{"properties":{"city":"Greenville","lon":-82.330518,"zip":29607,"hotel":"TownePlace Suites Greenville Haywood Mall","phone":"1 864-675-1670","id":"a621h0chd9zy","address":"75 Mall Connector Rd.","lat":34.843972,"state":"SC"},"type":"Feature","geometry":{"type":"Point","coordinates":[-82.330518,34.843972]}},{"properties":{"city":"Harrisburg","lon":-76.825773,"zip":17111,"hotel":"TownePlace Suites Harrisburg Hershey","phone":"1 717-558-0200","id":"a621h0olmdu8","address":"450 Friendship Road","lat":40.251375,"state":"PA"},"type":"Feature","geometry":{"type":"Point","coordinates":[-76.825773,40.251375]}},{"properties":{"city":"Houston","lon":-95.493131,"zip":77040,"hotel":"TownePlace Suites Houston Central/Northwest Freeway","phone":"1 713-690-4035","id":"a621h0eolb1j","address":"12820 Northwest Freeway","lat":29.842432,"state":"TX"},"type":"Feature","geometry":{"type":"Point","coordinates":[-95.493131,29.842432]}},{"properties":{"city":"Houston","lon":-95.118855,"zip":77058,"hotel":"TownePlace Suites Houston Clear Lake","phone":"1 281-286-2132","id":"a621h0d8vind","address":"1050 Bay Area Boulevard","lat":29.555526,"state":"TX"},"type":"Feature","geometry":{"type":"Point","coordinates":[-95.118855,29.555526]}},{"properties":{"city":"Houston","lon":-95.581287,"zip":77070,"hotel":"TownePlace Suites Houston Northwest","phone":"1 281-374-6767","id":"a621h0h1h60h","address":"11040 Louetta Road","lat":29.996887,"state":"TX"},"type":"Feature","geometry":{"type":"Point","coordinates":[-95.581287,29.996887]}},{"properties":{"city":"Shenandoah","lon":-95.455489,"zip":77384,"hotel":"TownePlace Suites Houston The Woodlands","phone":"1 936-273-7772","id":"a621h0kzg2t0","address":"107 Vision Park Blvd","lat":30.19127,"state":"TX"},"type":"Feature","geometry":{"type":"Point","coordinates":[-95.455489,30.19127]}},{"properties":{"city":"Houston","lon":-95.650554,"zip":77094,"hotel":"TownePlace Suites Houston West","phone":"1 281-646-0058","id":"a621h0fffovg","address":"15155 Katy Freeway","lat":29.784262,"state":"TX"},"type":"Feature","geometry":{"type":"Point","coordinates":[-95.650554,29.784262]}},{"properties":{"city":"Huntsville","lon":-86.684364,"zip":35806,"hotel":"TownePlace Suites Huntsville","phone":"1 256-971-5277","id":"a621h0otj25h","address":"1125 McMurtrie Drive","lat":34.743114,"state":"AL"},"type":"Feature","geometry":{"type":"Point","coordinates":[-86.684364,34.743114]}},{"properties":{"city":"Indianapolis","lon":-86.108177,"zip":46240,"hotel":"TownePlace Suites Indianapolis Keystone","phone":"1 317-255-3700","id":"a621h0cdvy7h","address":"8468 Union Chapel Road","lat":39.909957,"state":"IN"},"type":"Feature","geometry":{"type":"Point","coordinates":[-86.108177,39.909957]}},{"properties":{"city":"Indianapolis","lon":-86.26229,"zip":46278,"hotel":"TownePlace Suites Indianapolis Park 100","phone":"1 317-290-8900","id":"a621h0n0c1ua","address":"5802 West 71st Street","lat":39.88188,"state":"IN"},"type":"Feature","geometry":{"type":"Point","coordinates":[-86.26229,39.88188]}},{"properties":{"city":"Jacksonville","lon":-77.418574,"zip":28546,"hotel":"TownePlace Suites Jacksonville","phone":"1 910-478-9795","id":"a621h0f1dlh0","address":"400 Northwest Drive","lat":34.798315,"state":"NC"},"type":"Feature","geometry":{"type":"Point","coordinates":[-77.418574,34.798315]}},{"properties":{"city":"Jacksonville","lon":-81.602589,"zip":32216,"hotel":"TownePlace Suites Jacksonville Butler Boulevard","phone":"1 904-296-1661","id":"a621h0o8f8rz","address":"4801 Lenoir Ave","lat":30.247546,"state":"FL"},"type":"Feature","geometry":{"type":"Point","coordinates":[-81.602589,30.247546]}},{"properties":{"city":"Joliet","lon":-88.16563,"zip":60431,"hotel":"TownePlace Suites Joliet South","phone":"1 815-741-2400","id":"a621h0dvynos","address":"1515 Riverboat Center Dr","lat":41.494812,"state":"IL"},"type":"Feature","geometry":{"type":"Point","coordinates":[-88.16563,41.494812]}},{"properties":{"city":"Joplin","lon":-94.483068,"zip":64804,"hotel":"TownePlace Suites Joplin","phone":"1 417-659-8111","id":"a621h0g42ttu","address":"4026 S. Arizona Avenue","lat":37.044979,"state":"MO"},"type":"Feature","geometry":{"type":"Point","coordinates":[-94.483068,37.044979]}},{"properties":{"city":"Kalamazoo","lon":-85.6771,"zip":49009,"hotel":"TownePlace Suites Kalamazoo","phone":"1 269-353-1500","id":"a621h0jr96q4","address":"5683 S. 9th Street","lat":42.233447,"state":"MI"},"type":"Feature","geometry":{"type":"Point","coordinates":[-85.6771,42.233447]}},{"properties":{"city":"Overland Park","lon":-94.66644,"zip":66209,"hotel":"TownePlace Suites Kansas City Overland Park","phone":"1 913-851-3100","id":"a621h0httmog","address":"7020 W. 133rd Street","lat":38.886725,"state":"KS"},"type":"Feature","geometry":{"type":"Point","coordinates":[-94.66644,38.886725]}},{"properties":{"city":"Killeen","lon":-97.742354,"zip":76542,"hotel":"TownePlace Suites Killeen","phone":"1 254-554-8899","id":"a621h0mgep3d","address":"2401 Florence Road","lat":31.09776,"state":"TX"},"type":"Feature","geometry":{"type":"Point","coordinates":[-97.742354,31.09776]}},{"properties":{"city":"Knoxville","lon":-84.102024,"zip":37922,"hotel":"TownePlace Suites Knoxville Cedar Bluff","phone":"1 865-693-5216","id":"a621h0eq0fpm","address":"205 Langley Place","lat":35.913765,"state":"TN"},"type":"Feature","geometry":{"type":"Point","coordinates":[-84.102024,35.913765]}},{"properties":{"city":"Lafayette","lon":-86.818788,"zip":47905,"hotel":"TownePlace Suites Lafayette","phone":"1 765-446-8668","id":"a621h0pbjq11","address":"163 Frontage Road","lat":40.419218,"state":"IN"},"type":"Feature","geometry":{"type":"Point","coordinates":[-86.818788,40.419218]}},{"properties":{"city":"Las Cruces","lon":-106.764703,"zip":88011,"hotel":"TownePlace Suites Las Cruces","phone":"1 575-532-6500","id":"a621h0r0n56m","address":"2143 Telshor Court","lat":32.344121,"state":"NM"},"type":"Feature","geometry":{"type":"Point","coordinates":[-106.764703,32.344121]}},{"properties":{"city":"Henderson","lon":-115.046661,"zip":89012,"hotel":"TownePlace Suites Las Vegas Henderson","phone":"-","id":"a621h0fv7t9p","address":"1471 Paseo Verde Parkway","lat":36.02622,"state":"NV"},"type":"Feature","geometry":{"type":"Point","coordinates":[-115.046661,36.02622]}},{"properties":{"city":"Hawthorne","lon":-118.378658,"zip":90250,"hotel":"TownePlace Suites Los Angeles LAX/Manhattan Beach","phone":"1 310-725-9696","id":"a621h0e5ivxh","address":"14400 Aviation Boulevard","lat":33.901729,"state":"CA"},"type":"Feature","geometry":{"type":"Point","coordinates":[-118.378658,33.901729]}},{"properties":{"city":"Jeffersonville","lon":-85.74802,"zip":47130,"hotel":"TownePlace Suites Louisville North","phone":"1 812-280-8200","id":"a621h0qgl366","address":"703 North Shore Drive","lat":38.270861,"state":"IN"},"type":"Feature","geometry":{"type":"Point","coordinates":[-85.74802,38.270861]}},{"properties":{"city":"Lubbock","lon":-101.937143,"zip":79424,"hotel":"TownePlace Suites Lubbock","phone":"1 806-799-6226","id":"a621h0s0c03c","address":"5310 West Loop 289","lat":33.546064,"state":"TX"},"type":"Feature","geometry":{"type":"Point","coordinates":[-101.937143,33.546064]}},{"properties":{"city":"Manchester","lon":-71.431511,"zip":3103,"hotel":"TownePlace Suites Manchester-Boston Regional Airport","phone":"1 603-641-2288","id":"a621h0psvadn","address":"686 Huse Road","lat":42.950459,"state":"NH"},"type":"Feature","geometry":{"type":"Point","coordinates":[-71.431511,42.950459]}},{"properties":{"city":"Medford","lon":-122.853946,"zip":97501,"hotel":"TownePlace Suites Medford","phone":"1 541-842-5757","id":"a621h0kurj74","address":"1395 Center Drive","lat":42.307998,"state":"OR"},"type":"Feature","geometry":{"type":"Point","coordinates":[-122.853946,42.307998]}},{"properties":{"city":"Miami","lon":-80.365951,"zip":33178,"hotel":"TownePlace Suites Miami Airport West/Doral Area","phone":"1 305-718-4144","id":"a621h0gkb3s0","address":"10505 NW 36th Street","lat":25.807213,"state":"FL"},"type":"Feature","geometry":{"type":"Point","coordinates":[-80.365951,25.807213]}},{"properties":{"city":"Miami Lakes","lon":-80.331473,"zip":33016,"hotel":"TownePlace Suites Miami Lakes","phone":"1 305-512-9191","id":"a621h0jed4oc","address":"8079 NW 154 Street","lat":25.91351,"state":"FL"},"type":"Feature","geometry":{"type":"Point","coordinates":[-80.331473,25.91351]}},{"properties":{"city":"Milpitas","lon":-121.893758,"zip":95035,"hotel":"TownePlace Suites Milpitas Silicon Valley","phone":"1 408-719-1959","id":"a621h0li59nd","address":"1428 Falcon Drive","lat":37.412202,"state":"CA"},"type":"Feature","geometry":{"type":"Point","coordinates":[-121.893758,37.412202]}},{"properties":{"city":"Brookfield","lon":-88.126525,"zip":53005,"hotel":"TownePlace Suites Milwaukee Brookfield","phone":"1 262-784-8450","id":"a621h0o3e2hu","address":"600 North Calhoun Road","lat":43.038109,"state":"WI"},"type":"Feature","geometry":{"type":"Point","coordinates":[-88.126525,43.038109]}},{"properties":{"city":"Minneapolis","lon":-93.274237,"zip":55401,"hotel":"TownePlace Suites Minneapolis Downtown","phone":"1 612-340-1000","id":"a621h0hz15vt","address":"525 North 2nd Street","lat":44.987254,"state":"MN"},"type":"Feature","geometry":{"type":"Point","coordinates":[-93.274237,44.987254]}},{"properties":{"city":"Eden Prairie","lon":-93.424685,"zip":55344,"hotel":"TownePlace Suites Minneapolis Eden Prairie","phone":"1 952-942-6001","id":"a621h0caqewo","address":"11588 Leona Road","lat":44.85996,"state":"MN"},"type":"Feature","geometry":{"type":"Point","coordinates":[-93.424685,44.85996]}},{"properties":{"city":"St. Louis Park","lon":-93.355475,"zip":55416,"hotel":"TownePlace Suites Minneapolis West/St. Louis Park","phone":"1 952-847-6900","id":"a621h0hyqued","address":"1400 Zarthan Avenue South","lat":44.968868,"state":"MN"},"type":"Feature","geometry":{"type":"Point","coordinates":[-93.355475,44.968868]}},{"properties":{"city":"Eagan","lon":-93.168594,"zip":55122,"hotel":"TownePlace Suites Minneapolis-St. Paul Airport/Eagan","phone":"1 651-994-4600","id":"a621h0g8s843","address":"3615 Crestridge Drive","lat":44.82605,"state":"MN"},"type":"Feature","geometry":{"type":"Point","coordinates":[-93.168594,44.82605]}},{"properties":{"city":"Mobile","lon":-88.133085,"zip":36609,"hotel":"TownePlace Suites Mobile","phone":"1 251-345-9588","id":"a621h0mn45rg","address":"1075 Montlimar Drive","lat":30.66836,"state":"AL"},"type":"Feature","geometry":{"type":"Point","coordinates":[-88.133085,30.66836]}},{"properties":{"city":"Montgomery","lon":-86.219539,"zip":36106,"hotel":"TownePlace Suites Montgomery","phone":"1 334-396-5505","id":"a621h0phdbbl","address":"5047 TownePlace Drive","lat":32.36087,"state":"AL"},"type":"Feature","geometry":{"type":"Point","coordinates":[-86.219539,32.36087]}},{"properties":{"city":"Mount Laurel","lon":-74.959908,"zip":8054,"hotel":"TownePlace Suites Mt. Laurel","phone":"1 856-778-8221","id":"a621h0nkw9kv","address":"450 Century Parkway","lat":39.927364,"state":"NJ"},"type":"Feature","geometry":{"type":"Point","coordinates":[-74.959908,39.927364]}},{"properties":{"city":"Harahan","lon":-90.191854,"zip":70123,"hotel":"TownePlace Suites New Orleans Metairie","phone":"1 504-818-2400","id":"a621h0sen4ac","address":"5424 Citrus Boulevard","lat":29.965449,"state":"LA"},"type":"Feature","geometry":{"type":"Point","coordinates":[-90.191854,29.965449]}},{"properties":{"city":"Newark","lon":-121.994801,"zip":94560,"hotel":"TownePlace Suites Newark Silicon Valley","phone":"1 510-657-4600","id":"a621h0oo3hwq","address":"39802 Cedar Blvd.","lat":37.520032,"state":"CA"},"type":"Feature","geometry":{"type":"Point","coordinates":[-121.994801,37.520032]}},{"properties":{"city":"Yorktown","lon":-76.466154,"zip":23693,"hotel":"TownePlace Suites Newport News Yorktown","phone":"1 757-874-8884","id":"a621h0q0yv7a","address":"200 Cybernetics Wy.","lat":37.118081,"state":"VA"},"type":"Feature","geometry":{"type":"Point","coordinates":[-76.466154,37.118081]}},{"properties":{"city":"Odessa","lon":-102.34306,"zip":79762,"hotel":"TownePlace Suites Odessa","phone":"1 432-362-1077","id":"a621h0e9wckj","address":"4412 Tanglewood Lane","lat":31.896378,"state":"TX"},"type":"Feature","geometry":{"type":"Point","coordinates":[-102.34306,31.896378]}},{"properties":{"city":"Rancho Cucamonga","lon":-117.558053,"zip":91730,"hotel":"TownePlace Suites Ontario Airport","phone":"1 909-466-1100","id":"a621h0dpsclu","address":"9625 Milliken Ave","lat":34.078495,"state":"CA"},"type":"Feature","geometry":{"type":"Point","coordinates":[-117.558053,34.078495]}},{"properties":{"city":"Orlando","lon":-81.215358,"zip":32817,"hotel":"TownePlace Suites Orlando East/UCF","phone":"1 407-243-6100","id":"a621h0byjjkr","address":"11801 High Tech Avenue","lat":28.599881,"state":"FL"},"type":"Feature","geometry":{"type":"Point","coordinates":[-81.215358,28.599881]}},{"properties":{"city":"Pensacola","lon":-87.225152,"zip":32504,"hotel":"TownePlace Suites Pensacola","phone":"1 850-484-7022","id":"a621h0jjm6kg","address":"481 Creighton Road","lat":30.495962,"state":"FL"},"type":"Feature","geometry":{"type":"Point","coordinates":[-87.225152,30.495962]}},{"properties":{"city":"Horsham","lon":-75.154624,"zip":19044,"hotel":"TownePlace Suites Philadelphia Horsham","phone":"1 215-323-9900","id":"a621h0ce6r4s","address":"198 Precision Drive","lat":40.190962,"state":"PA"},"type":"Feature","geometry":{"type":"Point","coordinates":[-75.154624,40.190962]}},{"properties":{"city":"Phoenix","lon":-112.116648,"zip":85021,"hotel":"TownePlace Suites Phoenix Metrocenter Mall/I-17","phone":"1 602-943-9510","id":"a621h0ikwrk1","address":"9425 N. Black Canyon Freeway","lat":33.571977,"state":"AZ"},"type":"Feature","geometry":{"type":"Point","coordinates":[-112.116648,33.571977]}},{"properties":{"city":"Pocatello","lon":-112.420442,"zip":83201,"hotel":"TownePlace Suites Pocatello","phone":"1 208-4787000","id":"a621h0fs4rrx","address":"2376 Via Caporatti","lat":42.877024,"state":"ID"},"type":"Feature","geometry":{"type":"Point","coordinates":[-112.420442,42.877024]}},{"properties":{"city":"Hillsboro","lon":-122.912693,"zip":97124,"hotel":"TownePlace Suites Portland Hillsboro","phone":"1 503-268-6000","id":"a621h0qbxpdq","address":"6550 NE Brighton Street","lat":45.535096,"state":"OR"},"type":"Feature","geometry":{"type":"Point","coordinates":[-122.912693,45.535096]}},{"properties":{"city":"Scarborough","lon":-70.353317,"zip":4074,"hotel":"TownePlace Suites Portland Scarborough","phone":"1 207-883-6800","id":"a621h0rwytss","address":"700 Roundwood Drive","lat":43.620335,"state":"ME"},"type":"Feature","geometry":{"type":"Point","coordinates":[-70.353317,43.620335]}},{"properties":{"city":"Cary","lon":-78.805232,"zip":27513,"hotel":"TownePlace Suites Raleigh Cary/Weston Parkway","phone":"1 919-678-0005","id":"a621h0j5wzu9","address":"120 Sage Commons Way","lat":35.827281,"state":"NC"},"type":"Feature","geometry":{"type":"Point","coordinates":[-78.805232,35.827281]}},{"properties":{"city":"Redwood City","lon":-122.252229,"zip":94065,"hotel":"TownePlace Suites Redwood City Redwood Shores","phone":"1 650-593-4100","id":"a621h0rhc8fm","address":"1000 Twin Dolphin Drive","lat":37.518648,"state":"CA"},"type":"Feature","geometry":{"type":"Point","coordinates":[-122.252229,37.518648]}},{"properties":{"city":"Farmingdale","lon":-73.422332,"zip":11735,"hotel":"TownePlace Suites Republic Airport Long Island/Farmingdale","phone":"1 631-454-0080","id":"a621h0f1fiju","address":"1 Marriott Plaza","lat":40.728413,"state":"NY"},"type":"Feature","geometry":{"type":"Point","coordinates":[-73.422332,40.728413]}},{"properties":{"city":"Glen Allen","lon":-77.579505,"zip":23060,"hotel":"TownePlace Suites Richmond","phone":"1 804-747-5253","id":"a621h0hnj7xw","address":"4231 Park Place Court","lat":37.652007,"state":"VA"},"type":"Feature","geometry":{"type":"Point","coordinates":[-77.579505,37.652007]}},{"properties":{"city":"Rochester","lon":-92.50544,"zip":55901,"hotel":"TownePlace Suites Rochester","phone":"1 507-281-1200","id":"a621h0dj7mvj","address":"2829 43rd Street NW","lat":44.068119,"state":"MN"},"type":"Feature","geometry":{"type":"Point","coordinates":[-92.50544,44.068119]}},{"properties":{"city":"Sacramento","lon":-121.446795,"zip":95815,"hotel":"TownePlace Suites Sacramento Cal Expo","phone":"1 916-920-5400","id":"a621h0qcppoj","address":"1784 Tribute Road","lat":38.597525,"state":"CA"},"type":"Feature","geometry":{"type":"Point","coordinates":[-121.446795,38.597525]}},{"properties":{"city":"Roseville","lon":-121.291877,"zip":95678,"hotel":"TownePlace Suites Sacramento Roseville","phone":"1 916-782-2232","id":"a621h0ix84yh","address":"10569 Fairway Drive","lat":38.794686,"state":"CA"},"type":"Feature","geometry":{"type":"Point","coordinates":[-121.291877,38.794686]}},{"properties":{"city":"Layton","lon":-111.984373,"zip":84041,"hotel":"TownePlace Suites Salt Lake City Layton","phone":"1 801-779-2422","id":"a621h0hhx85r","address":"1743 Woodland Park Blvd","lat":41.085844,"state":"UT"},"type":"Feature","geometry":{"type":"Point","coordinates":[-111.984373,41.085844]}},{"properties":{"city":"San Antonio","lon":-98.481444,"zip":78216,"hotel":"TownePlace Suites San Antonio Airport","phone":"1 210-308-5510","id":"a621h0ioacez","address":"214 N.E. Loop 410","lat":29.519849,"state":"TX"},"type":"Feature","geometry":{"type":"Point","coordinates":[-98.481444,29.519849]}},{"properties":{"city":"San Antonio","lon":-98.582632,"zip":78240,"hotel":"TownePlace Suites San Antonio Northwest","phone":"1 210-694-5100","id":"a621h0h7jkub","address":"5014 Prue Rd","lat":29.543542,"state":"TX"},"type":"Feature","geometry":{"type":"Point","coordinates":[-98.582632,29.543542]}},{"properties":{"city":"Campbell","lon":-121.937498,"zip":95008,"hotel":"TownePlace Suites San Jose Campbell","phone":"1 408-370-4510","id":"a621h0l1yphq","address":"700 E. Campbell Avenue","lat":37.286958,"state":"CA"},"type":"Feature","geometry":{"type":"Point","coordinates":[-121.937498,37.286958]}},{"properties":{"city":"San Jose","lon":-121.972853,"zip":95129,"hotel":"TownePlace Suites San Jose Cupertino","phone":"1 408-984-5903","id":"a621h0oo12b0","address":"440 Saratoga Avenue","lat":37.319438,"state":"CA"},"type":"Feature","geometry":{"type":"Point","coordinates":[-121.972853,37.319438]}},{"properties":{"city":"Savannah","lon":-81.233149,"zip":31408,"hotel":"TownePlace Suites Savannah Airport","phone":"1 912-629-7775","id":"a621h0q16ph8","address":"4 Jay R Turner Drive","lat":32.140325,"state":"GA"},"type":"Feature","geometry":{"type":"Point","coordinates":[-81.233149,32.140325]}},{"properties":{"city":"Savannah","lon":-81.14528,"zip":31419,"hotel":"TownePlace Suites Savannah Midtown","phone":"1 912-920-9080","id":"a621h0d1ymuj","address":"11309 Abercorn Street","lat":31.980325,"state":"GA"},"type":"Feature","geometry":{"type":"Point","coordinates":[-81.14528,31.980325]}},{"properties":{"city":"Scottsdale","lon":-111.88622,"zip":85260,"hotel":"TownePlace Suites Scottsdale","phone":"1 480-551-1100","id":"a621h0seegsr","address":"10740 North 90th Street","lat":33.583851,"state":"AZ"},"type":"Feature","geometry":{"type":"Point","coordinates":[-111.88622,33.583851]}},{"properties":{"city":"Mukilteo","lon":-122.299945,"zip":98275,"hotel":"TownePlace Suites Seattle North/Mukilteo","phone":"1 425-551-5900","id":"a621h0qhzr6t","address":"8521 Mukilteo Speedway","lat":47.920834,"state":"WA"},"type":"Feature","geometry":{"type":"Point","coordinates":[-122.299945,47.920834]}},{"properties":{"city":"Renton","lon":-122.221579,"zip":98057,"hotel":"TownePlace Suites Seattle South/Renton","phone":"1 425-917-2000","id":"a621h0qhepcq","address":"300 SW 19th Street","lat":47.46293,"state":"WA"},"type":"Feature","geometry":{"type":"Point","coordinates":[-122.221579,47.46293]}},{"properties":{"city":"Kent","lon":-122.243885,"zip":98032,"hotel":"TownePlace Suites Seattle Southcenter","phone":"1 253-796-6000","id":"a621h0sa6k16","address":"18123 72nd Avenue South","lat":47.439862,"state":"WA"},"type":"Feature","geometry":{"type":"Point","coordinates":[-122.243885,47.439862]}},{"properties":{"city":"Sierra Vista","lon":-110.265348,"zip":85635,"hotel":"TownePlace Suites Sierra Vista","phone":"1 520-515-9900","id":"a621h0ib8pkv","address":"3399 Rodeo Drive","lat":31.528741,"state":"AZ"},"type":"Feature","geometry":{"type":"Point","coordinates":[-110.265348,31.528741]}},{"properties":{"city":"Sioux Falls","lon":-96.78455,"zip":57106,"hotel":"TownePlace Suites Sioux Falls","phone":"1 605-361-2626","id":"a621h0ckcrig","address":"4545 W. Homefield Dr.","lat":43.529234,"state":"SD"},"type":"Feature","geometry":{"type":"Point","coordinates":[-96.78455,43.529234]}},{"properties":{"city":"Springfield","lon":-77.181694,"zip":22150,"hotel":"TownePlace Suites Springfield","phone":"1 703-569-8060","id":"a621h0rcm8kt","address":"6245 Brandon Avenue","lat":38.783755,"state":"VA"},"type":"Feature","geometry":{"type":"Point","coordinates":[-77.181694,38.783755]}},{"properties":{"city":"St. George","lon":-113.577931,"zip":84790,"hotel":"TownePlace Suites St. George","phone":"1 435-986-9955","id":"a621h0ojfp8j","address":"251 South 1470 East","lat":37.110069,"state":"UT"},"type":"Feature","geometry":{"type":"Point","coordinates":[-113.577931,37.110069]}},{"properties":{"city":"Fenton","lon":-90.446722,"zip":63026,"hotel":"TownePlace Suites St. Louis Fenton","phone":"1 636-305-7000","id":"a621h0lin2ee","address":"1662 Fenton Business Park Ct.","lat":38.541082,"state":"MO"},"type":"Feature","geometry":{"type":"Point","coordinates":[-90.446722,38.541082]}},{"properties":{"city":"St. Charles","lon":-90.527927,"zip":63303,"hotel":"TownePlace Suites St. Louis St. Charles","phone":"1 636-949-6800","id":"a621h0htmua4","address":"1800 Zumbehl Road","lat":38.776418,"state":"MO"},"type":"Feature","geometry":{"type":"Point","coordinates":[-90.527927,38.776418]}},{"properties":{"city":"Clearwater","lon":-82.700594,"zip":33762,"hotel":"TownePlace Suites St. Petersburg Clearwater","phone":"1 727-299-9229","id":"a621h0fm49u4","address":"13200 49th Street North","lat":27.892241,"state":"FL"},"type":"Feature","geometry":{"type":"Point","coordinates":[-82.700594,27.892241]}},{"properties":{"city":"Stafford","lon":-77.406007,"zip":22554,"hotel":"TownePlace Suites Stafford","phone":"1 540-6571990","id":"a621h0p6mv0u","address":"2772 Jefferson Davis Highway","lat":38.455415,"state":"VA"},"type":"Feature","geometry":{"type":"Point","coordinates":[-77.406007,38.455415]}},{"properties":{"city":"Sterling","lon":-77.396007,"zip":20165,"hotel":"TownePlace Suites Sterling","phone":"1 703-421-1090","id":"a621h0dsywai","address":"21123 Whitfield Place","lat":39.031757,"state":"VA"},"type":"Feature","geometry":{"type":"Point","coordinates":[-77.396007,39.031757]}},{"properties":{"city":"Suffolk","lon":-76.432649,"zip":23435,"hotel":"TownePlace Suites Suffolk Chesapeake","phone":"1 757-483-5177","id":"a621h0ijms3x","address":"8050 Harbour View Blvd","lat":36.894721,"state":"VA"},"type":"Feature","geometry":{"type":"Point","coordinates":[-76.432649,36.894721]}},{"properties":{"city":"Sunnyvale","lon":-122.056266,"zip":94087,"hotel":"TownePlace Suites Sunnyvale Mountain View","phone":"1 408-733-4200","id":"a621h0fugr1s","address":"606 South Bernardo Avenue","lat":37.373415,"state":"CA"},"type":"Feature","geometry":{"type":"Point","coordinates":[-122.056266,37.373415]}},{"properties":{"city":"Tallahassee","lon":-84.233426,"zip":32308,"hotel":"TownePlace Suites Tallahassee North/Capital Circle","phone":"1 850-219-0122","id":"a621h0joamt9","address":"1876 Capital Circle, NE","lat":30.472926,"state":"FL"},"type":"Feature","geometry":{"type":"Point","coordinates":[-84.233426,30.472926]}},{"properties":{"city":"Tampa","lon":-82.371477,"zip":33637,"hotel":"TownePlace Suites Tampa North/I-75 Fletcher","phone":"1 813-975-9777","id":"a621h0rlkftm","address":"6800 Woodstork Road","lat":28.067022,"state":"FL"},"type":"Feature","geometry":{"type":"Point","coordinates":[-82.371477,28.067022]}},{"properties":{"city":"Tampa","lon":-82.501234,"zip":33607,"hotel":"TownePlace Suites Tampa Westshore/Airport","phone":"1 813-282-1081","id":"a621h0puaxdz","address":"5302 Avion Park Drive","lat":27.9644,"state":"FL"},"type":"Feature","geometry":{"type":"Point","coordinates":[-82.501234,27.9644]}},{"properties":{"city":"Tempe","lon":-111.962999,"zip":85283,"hotel":"TownePlace Suites Tempe","phone":"1 480-345-7889","id":"a621h0r3c9e8","address":"5223 South Priest Drive","lat":33.377711,"state":"AZ"},"type":"Feature","geometry":{"type":"Point","coordinates":[-111.962999,33.377711]}},{"properties":{"city":"Texarkana","lon":-94.077924,"zip":75503,"hotel":"TownePlace Suites Texarkana","phone":"1 903-3348800","id":"a621h0ipdm2u","address":"5020 N Cowhorn Creek Loop Road","lat":33.463073,"state":"TX"},"type":"Feature","geometry":{"type":"Point","coordinates":[-94.077924,33.463073]}},{"properties":{"city":"The Villages","lon":-81.951674,"zip":32159,"hotel":"TownePlace Suites The Villages","phone":"1 352-753-8686","id":"a621h0j9ykqn","address":"1141 Alonzo Ave.","lat":28.941004,"state":"FL"},"type":"Feature","geometry":{"type":"Point","coordinates":[-81.951674,28.941004]}},{"properties":{"city":"Thousand Oaks","lon":-118.917109,"zip":91320,"hotel":"TownePlace Suites Thousand Oaks Ventura County","phone":"1 805-499-3111","id":"a621h0f5eme7","address":"1712 Newbury Road","lat":34.183808,"state":"CA"},"type":"Feature","geometry":{"type":"Point","coordinates":[-118.917109,34.183808]}},{"properties":{"city":"Tucson","lon":-110.97588,"zip":85704,"hotel":"TownePlace Suites Tucson","phone":"1 520-292-9697","id":"a621h0jvs17x","address":"405 West Rudasill Road","lat":32.315546,"state":"AZ"},"type":"Feature","geometry":{"type":"Point","coordinates":[-110.97588,32.315546]}},{"properties":{"city":"Broken Arrow","lon":-95.796167,"zip":74012,"hotel":"TownePlace Suites Tulsa Broken Arrow","phone":"1 918-355-9600","id":"a621h0mgmd5i","address":"2251 N. Stone Wood Circle","lat":36.073396,"state":"OK"},"type":"Feature","geometry":{"type":"Point","coordinates":[-95.796167,36.073396]}},{"properties":{"city":"Virginia Beach","lon":-76.178719,"zip":23462,"hotel":"TownePlace Suites Virginia Beach","phone":"1 757-490-9367","id":"a621h0ihd6ih","address":"5757 Cleveland Street","lat":36.84838,"state":"VA"},"type":"Feature","geometry":{"type":"Point","coordinates":[-76.178719,36.84838]}},{"properties":{"city":"Wichita","lon":-97.227879,"zip":67226,"hotel":"TownePlace Suites Wichita East","phone":"1 316-631-3773","id":"a621h0lubr7o","address":"9444 East 29th Street North","lat":37.737705,"state":"KS"},"type":"Feature","geometry":{"type":"Point","coordinates":[-97.227879,37.737705]}},{"properties":{"city":"Newark","lon":-75.668694,"zip":19702,"hotel":"TownePlace Suites Wilmington Newark","phone":"1 302-369-6212","id":"a621h0s6pubm","address":"410 Eagle Run Road","lat":39.673307,"state":"DE"},"type":"Feature","geometry":{"type":"Point","coordinates":[-75.668694,39.673307]}},{"properties":{"city":"Wilmington","lon":-77.862178,"zip":28403,"hotel":"TownePlace Suites Wilmington/Wrightsville Beach","phone":"1 910-332-3326","id":"a621h0mmqe64","address":"305 Eastwood Rd","lat":34.244583,"state":"NC"},"type":"Feature","geometry":{"type":"Point","coordinates":[-77.862178,34.244583]}},{"properties":{"city":"Yuma","lon":-114.603214,"zip":85365,"hotel":"TownePlace Suites Yuma","phone":"1 928-783-6900","id":"a621h0fcae24","address":"1726 S Sunridge Drive","lat":32.69601,"state":"AZ"},"type":"Feature","geometry":{"type":"Point","coordinates":[-114.603214,32.69601]}}],"is_temporal":false,"author":{"url":"http://www.marriott.com/corporateinfo/glance.mi#brand10 ","metadata":"http://www.marriott.com/search/default.mi?destinationAddress.city=&destinationAddress.stateProvince=&destinationAddress.country=&fromDate=&toDate=&roomCount=1&guestCount=1&marriottRewardsNumber=&corporateCode=&marriottBrands=all ","contact_name":"","contact_address":"","source":"Marriott International, Inc ","contact_phone":""},"source":"http://www.marriott.com/corporateinfo/glance.mi#brand10 ","pagination":{"sort":null,"start":0,"total":167,"limit":1000000},"state":"complete","tags":"hotels,lodging,marriott,resorts,tourism,travel,usa","published":"2008-11-16T12:00:00Z","id":7517}