{"type":"FeatureCollection","data_type":"Dataset","url_type":null,"permissions":[{"permissions":{"download":true,"view":true},"group_id":"everyone"}],"classification":null,"title":"GMH Ports of Import6","count":10,"stream_id":75338,"contributor":{"url":"http://geocommons.com/users/16052","name":"hpgenmotors"},"data_attributes":null,"calculation_params":null,"icon_link":null,"link":"http://geocommons.com/overlays/75338.json","extent":[114.933,-43.6,174.767,-12.4611],"geometry_types":["point"],"unique_name":null,"name":"GMH Ports of Import6","feature_count":10,"description":"","next_feature":null,"is_raster":false,"short_classification":"Y","stats":{"geo_score":{"max":1.0,"mean":0.9736,"variance":0.00110093333333333,"stdev":0.0331803154495754,"min":0.917,"median":1.0}},"features":[{"properties":{"city":"Auckland","name":"Port of Auckland","country":"New Zealand","geo_score":1.0,"id":"a6cqp82bzb9e","geo_precision":"zip","state":null},"type":"Feature","geometry":{"type":"Point","coordinates":[174.7666667,-36.8666667]}},{"properties":{"city":"Darwin","name":"Port Authority","country":"Australia","geo_score":1.0,"id":"a6cqp83iblgk","geo_precision":"zip","state":"Northern Territory"},"type":"Feature","geometry":{"type":"Point","coordinates":[130.841846466064,-12.4611336615902]}},{"properties":{"city":"Fisherman's Island","name":"Port of Brisbane","country":"Australia","geo_score":0.982,"id":"a6cqp8e3ijs3","geo_precision":"zip","state":"Queensland"},"type":"Feature","geometry":{"type":"Point","coordinates":[114.9333333,-30.1333333]}},{"properties":{"city":"Freemantle","name":"Fremantle Ports","country":"Australia","geo_score":0.929,"id":"a6cqp8de1832","geo_precision":"zip","state":"Western Australia"},"type":"Feature","geometry":{"type":"Point","coordinates":[115.7333333,-32.05]}},{"properties":{"city":"Lyttleton","name":"Port of Lyttleton","country":"New Zealand","geo_score":0.968,"id":"a6cqp86na3yl","geo_precision":"zip","state":null},"type":"Feature","geometry":{"type":"Point","coordinates":[172.7166667,-43.6]}},{"properties":{"city":"Melbourne","name":"Melbourne (Webb Dock)","country":"Australia","geo_score":1.0,"id":"a6cqp8d5f0va","geo_precision":"zip","state":"Victoria"},"type":"Feature","geometry":{"type":"Point","coordinates":[144.963322877884,-37.8139965641595]}},{"properties":{"city":"Outer Harbour","name":"Flinders port","country":"Australia","geo_score":0.917,"id":"a6cqp8eju095","geo_precision":"zip","state":"South Australia"},"type":"Feature","geometry":{"type":"Point","coordinates":[143.4666667,-21.6666667]}},{"properties":{"city":"Port Kembla","name":"Port of Port Kembla","country":"Australia","geo_score":0.94,"id":"a6cqp84mq21a","geo_precision":"zip","state":"New South Wales"},"type":"Feature","geometry":{"type":"Point","coordinates":[142.9833333,-38.6166667]}},{"properties":{"city":"Townsville","name":"Port of Townsville","country":"Australia","geo_score":1.0,"id":"a6cqp8317g7p","geo_precision":"zip","state":"Queensland"},"type":"Feature","geometry":{"type":"Point","coordinates":[146.8,-19.25]}},{"properties":{"city":"Wellington","name":"Port of Wellington","country":"New Zealand","geo_score":1.0,"id":"a6cqp8ftuqz9","geo_precision":"zip","state":null},"type":"Feature","geometry":{"type":"Point","coordinates":[174.7666667,-41.2833333]}}],"is_temporal":false,"author":{"url":"","metadata":"","contact_name":"","contact_address":"","source":"","contact_phone":""},"source":"","pagination":{"sort":null,"start":0,"total":10,"limit":1000000},"state":"complete","tags":"","published":"2014-08-10T18:34:29-04:00","id":75338}