{"type":"FeatureCollection","data_type":"Dataset","url_type":null,"permissions":[{"permissions":{"download":true,"view":true},"group_id":"everyone"}],"classification":null,"title":"Locations for SSA","count":447,"stream_id":76381,"contributor":{"url":"http://geocommons.com/users/18941","name":"pbhathena"},"data_attributes":null,"calculation_params":null,"icon_link":null,"link":"http://geocommons.com/overlays/76381.json","extent":[-84.8025,38.4116,-80.5822,41.8533],"geometry_types":["point"],"unique_name":null,"name":"Locations for SSA","feature_count":447,"description":"SSA Ohio Location","next_feature":null,"is_raster":false,"short_classification":"Y","stats":{"store #":{"max":9975,"mean":5637.77130044843,"variance":9926367.44420819,"stdev":3150.61382022745,"min":1001,"median":5235},"lat":{"max":41.85329883,"mean":40.2904606125843,"variance":0.72356807522596,"stdev":0.850628047518985,"min":38.41157048,"median":40.05418801},"long":{"max":-80.58219785,"mean":-82.977420695573,"variance":1.34088838535739,"stdev":1.15796735073032,"min":-84.80254193,"median":-83.01497305}},"features":[{"properties":{"city":null,"address2":null,"zip":null,"phone":null,"store #":null,"id":"a65lthh0y4jg","address":null,"lat":null,"state":null,"long":null},"type":"Feature","geometry":null},{"properties":{"city":"Urbana","address2":null,"zip":"43078","phone":"(937) 653-6840","store #":1001,"id":"a65lth8nojdx","address":"976 Scioto St","lat":40.10622451,"state":"OH","long":-83.72822536},"type":"Feature","geometry":{"type":"Point","coordinates":[-83.72822536,40.10622451]}},{"properties":{"city":"Springfield","address2":null,"zip":"45505","phone":"(937) 322-3766","store #":1005,"id":"a65lth90gr39","address":"405 S Burnett Rd","lat":39.91662791,"state":"OH","long":-83.77034356},"type":"Feature","geometry":{"type":"Point","coordinates":[-83.77034356,39.91662791]}},{"properties":{"city":"Lucasville","address2":null,"zip":"45648","phone":"(513) 683-7773","store #":1009,"id":"a65lthgb8gef","address":"10497 Us-23","lat":38.92359494,"state":"OH","long":-83.01497305},"type":"Feature","geometry":{"type":"Point","coordinates":[-83.01497305,38.92359494]}},{"properties":{"city":"Springfield","address2":null,"zip":"45503","phone":"(937) 322-0595","store #":1015,"id":"a65lthjauibv","address":"1147 N Limestone St","lat":39.93781975,"state":"OH","long":-83.805657},"type":"Feature","geometry":{"type":"Point","coordinates":[-83.805657,39.93781975]}},{"properties":{"city":"Springfield","address2":null,"zip":"45505","phone":"(937) 322-0593","store #":1025,"id":"a65lthdot6ro","address":"1840 S Limestone St","lat":39.90259063,"state":"OH","long":-83.81066264},"type":"Feature","geometry":{"type":"Point","coordinates":[-83.81066264,39.90259063]}},{"properties":{"city":"Cincinnati","address2":null,"zip":"45211","phone":"(513) 948-8070","store #":1026,"id":"a65lthgqwefj","address":"6537 Glenway Ave","lat":39.15533576,"state":"OH","long":-84.62895391},"type":"Feature","geometry":{"type":"Point","coordinates":[-84.62895391,39.15533576]}},{"properties":{"city":"Westerville","address2":null,"zip":"43081","phone":"(614) 523-0670","store #":1028,"id":"a65lthduywfp","address":"6007 Westerville Rd","lat":40.09434425,"state":"OH","long":-82.92552715},"type":"Feature","geometry":{"type":"Point","coordinates":[-82.92552715,40.09434425]}},{"properties":{"city":"Dayton","address2":null,"zip":"45414","phone":"(937) 252-0290","store #":1032,"id":"a65lth7ukb4m","address":"3901 N Dixie Dr","lat":39.80163342,"state":"OH","long":-84.19464391},"type":"Feature","geometry":{"type":"Point","coordinates":[-84.19464391,39.80163342]}},{"properties":{"city":"Fremont","address2":null,"zip":"43420","phone":"(937) 746-9241","store #":1033,"id":"a65lthg3vacb","address":"1721 W State St","lat":41.35500743,"state":"OH","long":-83.13243079},"type":"Feature","geometry":{"type":"Point","coordinates":[-83.13243079,41.35500743]}},{"properties":{"city":"Springfield","address2":null,"zip":"45503","phone":"(937) 323-5041","store #":1035,"id":"a65lth8nw1uc","address":"2996 Derr Rd","lat":39.96658698,"state":"OH","long":-83.78511023},"type":"Feature","geometry":{"type":"Point","coordinates":[-83.78511023,39.96658698]}},{"properties":{"city":"Kettering","address2":null,"zip":"45420","phone":"(937) 298-1642","store #":1036,"id":"a65lthg691pm","address":"2150 E Dorothy Ln","lat":39.70268395,"state":"OH","long":-84.12464579},"type":"Feature","geometry":{"type":"Point","coordinates":[-84.12464579,39.70268395]}},{"properties":{"city":"Hilliard","address2":null,"zip":"43026","phone":"(614) 876-0121","store #":1041,"id":"a65lthejumaa","address":"4232 Cemetery Rd","lat":40.03266851,"state":"OH","long":-83.13000285},"type":"Feature","geometry":{"type":"Point","coordinates":[-83.13000285,40.03266851]}},{"properties":{"city":"Toledo","address2":null,"zip":"43614","phone":"(419) 476-9393","store #":1070,"id":"a65lthjybj57","address":"2510 S Reynolds Rd","lat":41.59434602,"state":"OH","long":-83.66476873},"type":"Feature","geometry":{"type":"Point","coordinates":[-83.66476873,41.59434602]}},{"properties":{"city":"Columbus","address2":null,"zip":"43228","phone":"(614) 272-0063","store #":1076,"id":"a65lthb4l715","address":"4797 W Broad St","lat":39.95214231,"state":"OH","long":-83.12918947},"type":"Feature","geometry":{"type":"Point","coordinates":[-83.12918947,39.95214231]}},{"properties":{"city":"Cincinnati","address2":null,"zip":"45247","phone":"(513) 598-1585","store #":1083,"id":"a65lthi7rnc6","address":"5387 W North Bend Rd","lat":39.22175913,"state":"OH","long":-84.65154539},"type":"Feature","geometry":{"type":"Point","coordinates":[-84.65154539,39.22175913]}},{"properties":{"city":"Cincinnati","address2":null,"zip":"45239","phone":"(513) 481-0132","store #":1086,"id":"a65lthjib4o3","address":"5571 Colerain Ave","lat":39.19329135,"state":"OH","long":-84.57283839},"type":"Feature","geometry":{"type":"Point","coordinates":[-84.57283839,39.19329135]}},{"properties":{"city":"Dayton","address2":null,"zip":"45414","phone":"(937) 277-5813","store #":1091,"id":"a65lth9dyi37","address":"2232 Needmore Rd","lat":39.81961539,"state":"OH","long":-84.1932048},"type":"Feature","geometry":{"type":"Point","coordinates":[-84.1932048,39.81961539]}},{"properties":{"city":"Mansfield","address2":null,"zip":"44906","phone":"(419) 529-8040","store #":1099,"id":"a65lthcyoe7x","address":"2132 W 4th St","lat":40.77253957,"state":"OH","long":-82.59054029},"type":"Feature","geometry":{"type":"Point","coordinates":[-82.59054029,40.77253957]}},{"properties":{"city":"Newark","address2":null,"zip":"43055","phone":"(740) 349-7201","store #":1129,"id":"a65lthgwkoxu","address":"737 W Church St","lat":40.05788349,"state":"OH","long":-82.42949079},"type":"Feature","geometry":{"type":"Point","coordinates":[-82.42949079,40.05788349]}},{"properties":{"city":"Huber Heights","address2":null,"zip":"45424","phone":"(937) 236-7940","store #":1131,"id":"a65lthct3b3a","address":"6498 Old Troy Pike","lat":39.84823395,"state":"OH","long":-84.13926363},"type":"Feature","geometry":{"type":"Point","coordinates":[-84.13926363,39.84823395]}},{"properties":{"city":"North Canton","address2":null,"zip":"44720","phone":"(330) 544-5231","store #":1134,"id":"a65lthk9h1ri","address":"7960 Cleveland Ave","lat":40.90170556,"state":"OH","long":-81.40590229},"type":"Feature","geometry":{"type":"Point","coordinates":[-81.40590229,40.90170556]}},{"properties":{"city":"London","address2":null,"zip":"43140","phone":"(740) 852-2486","store #":1137,"id":"a65lth89dhho","address":"720 Us Hwy 42 Ne","lat":39.88557864,"state":"OH","long":-83.43114091},"type":"Feature","geometry":{"type":"Point","coordinates":[-83.43114091,39.88557864]}},{"properties":{"city":"Maumee","address2":null,"zip":"43537","phone":"(419) 891-0736","store #":1140,"id":"a65lth75v3fp","address":"1500 Reynolds Rd","lat":41.57483418,"state":"OH","long":-83.68889473},"type":"Feature","geometry":{"type":"Point","coordinates":[-83.68889473,41.57483418]}},{"properties":{"city":"Centerville","address2":null,"zip":"45458","phone":"(937) 438-8402","store #":1143,"id":"a65ltha781j0","address":"1488 Austin Pike","lat":39.59567061,"state":"OH","long":-84.20166705},"type":"Feature","geometry":{"type":"Point","coordinates":[-84.20166705,39.59567061]}},{"properties":{"city":"Marion","address2":null,"zip":"43302","phone":"(740) 383-6636","store #":1146,"id":"a65lthchj2r9","address":"800 Bellefontaine Ave","lat":40.57377707,"state":"OH","long":-83.14439882},"type":"Feature","geometry":{"type":"Point","coordinates":[-83.14439882,40.57377707]}},{"properties":{"city":"New Philadelphia","address2":null,"zip":"44663","phone":"(330) 339-2566","store #":1152,"id":"a65lthb3zjb0","address":"243 N Broadway","lat":40.49223885,"state":"OH","long":-81.4447093},"type":"Feature","geometry":{"type":"Point","coordinates":[-81.4447093,40.49223885]}},{"properties":{"city":"Canton","address2":null,"zip":"44718","phone":"(330) 455-0995","store #":1153,"id":"a65lth6stm7y","address":"5050 Fulton Rd Nw","lat":40.84879512,"state":"OH","long":-81.44346404},"type":"Feature","geometry":{"type":"Point","coordinates":[-81.44346404,40.84879512]}},{"properties":{"city":"Beavercreek","address2":null,"zip":"45431","phone":"(937) 429-4799","store #":1154,"id":"a65lth574elr","address":"2254 N Fairfield Rd","lat":39.75554682,"state":"OH","long":-84.05385038},"type":"Feature","geometry":{"type":"Point","coordinates":[-84.05385038,39.75554682]}},{"properties":{"city":"Springfield","address2":null,"zip":"45504","phone":"(937) 399-1896","store #":1156,"id":"a65lthhyf826","address":"1103 Upper Valley Pike","lat":39.94340336,"state":"OH","long":-83.85483302},"type":"Feature","geometry":{"type":"Point","coordinates":[-83.85483302,39.94340336]}},{"properties":{"city":"New Carlisle","address2":null,"zip":"45344","phone":"(937) 849-0255","store #":1157,"id":"a65lthappjj3","address":"319 N Main St","lat":39.94049745,"state":"OH","long":-84.02477409},"type":"Feature","geometry":{"type":"Point","coordinates":[-84.02477409,39.94049745]}},{"properties":{"city":"Grove City","address2":null,"zip":"43123","phone":"(614) 875-9321","store #":1158,"id":"a65lth9k2uz2","address":"1895 Stringtown Rd","lat":39.87820637,"state":"OH","long":-83.05328456},"type":"Feature","geometry":{"type":"Point","coordinates":[-83.05328456,39.87820637]}},{"properties":{"city":"Warren","address2":null,"zip":"44484","phone":"(330) 847-6454","store #":1163,"id":"a65lth89jjib","address":"4000 Market St E","lat":41.23702752,"state":"OH","long":-80.76654833},"type":"Feature","geometry":{"type":"Point","coordinates":[-80.76654833,41.23702752]}},{"properties":{"city":"West Carrollton","address2":null,"zip":"45449","phone":"(937) 866-0293","store #":1165,"id":"a65lthjfrt0u","address":"657 E Dixie Hwy","lat":39.67544368,"state":"OH","long":-84.24258423},"type":"Feature","geometry":{"type":"Point","coordinates":[-84.24258423,39.67544368]}},{"properties":{"city":"Vandalia","address2":null,"zip":"45377","phone":"(937) 890-4141","store #":1167,"id":"a65lthdvnint","address":"830 E National Rd","lat":39.89204539,"state":"OH","long":-84.1827121},"type":"Feature","geometry":{"type":"Point","coordinates":[-84.1827121,39.89204539]}},{"properties":{"city":"Medina","address2":null,"zip":"44256","phone":"(330) 722-8400","store #":1168,"id":"a65lth6hkstz","address":"3239 Medina Rd","lat":41.13631779,"state":"OH","long":-81.80655949},"type":"Feature","geometry":{"type":"Point","coordinates":[-81.80655949,41.13631779]}},{"properties":{"city":"Hebron","address2":null,"zip":"43025","phone":"(740) 522-6594","store #":1170,"id":"a65lthfdo5k1","address":"3521 Hebron Rd Se","lat":39.96504843,"state":"OH","long":-82.51636895},"type":"Feature","geometry":{"type":"Point","coordinates":[-82.51636895,39.96504843]}},{"properties":{"city":"Fairborn","address2":null,"zip":"45324","phone":"(937) 879-0551","store #":1172,"id":"a65lthekiqso","address":"2570 Colonel Glenn Hwy","lat":39.78828164,"state":"OH","long":-84.04396134},"type":"Feature","geometry":{"type":"Point","coordinates":[-84.04396134,39.78828164]}},{"properties":{"city":"Columbus","address2":null,"zip":"43220","phone":"(614) 878-5271","store #":1174,"id":"a65lthhewl31","address":"4494 Kenny Rd","lat":40.05127968,"state":"OH","long":-83.04964763},"type":"Feature","geometry":{"type":"Point","coordinates":[-83.04964763,40.05127968]}},{"properties":{"city":"Columbus","address2":null,"zip":"43230","phone":"(614) 451-8227","store #":1180,"id":"a65lthigwyqe","address":"4240 Morse Rd","lat":40.05679273,"state":"OH","long":-82.89182062},"type":"Feature","geometry":{"type":"Point","coordinates":[-82.89182062,40.05679273]}},{"properties":{"city":"Delaware","address2":null,"zip":"43015","phone":"(419) 782-3005","store #":1182,"id":"a65lthj0oouj","address":"131 London Rd","lat":40.29037372,"state":"OH","long":-83.0731462},"type":"Feature","geometry":{"type":"Point","coordinates":[-83.0731462,40.29037372]}},{"properties":{"city":"Amherst","address2":null,"zip":"44001","phone":"(513) 753-3038","store #":1183,"id":"a65lth872417","address":"712 N Leavitt Rd","lat":41.36593194,"state":"OH","long":-82.25931914},"type":"Feature","geometry":{"type":"Point","coordinates":[-82.25931914,41.36593194]}},{"properties":{"city":"Hillsboro","address2":null,"zip":"45133","phone":"(937) 393-1283","store #":1189,"id":"a65lthieoifi","address":"1459 N High St","lat":39.23562801,"state":"OH","long":-83.60954428},"type":"Feature","geometry":{"type":"Point","coordinates":[-83.60954428,39.23562801]}},{"properties":{"city":"Elida","address2":null,"zip":"45807","phone":"(937) 456-1068","store #":1190,"id":"a65lthg99ats","address":"4630 Elida Rd","lat":40.78152651,"state":"OH","long":-84.18822679},"type":"Feature","geometry":{"type":"Point","coordinates":[-84.18822679,40.78152651]}},{"properties":{"city":"Springboro","address2":null,"zip":"45066","phone":"(937) 746-9041","store #":1191,"id":"a65lth9bk58i","address":"5 W Central St","lat":39.55670643,"state":"OH","long":-84.23363212},"type":"Feature","geometry":{"type":"Point","coordinates":[-84.23363212,39.55670643]}},{"properties":{"city":"Sylvania","address2":null,"zip":"43560","phone":"(419) 825-3309","store #":1192,"id":"a65lth7ouu1m","address":"6601 Monroe St","lat":41.71551822,"state":"OH","long":-83.70309003},"type":"Feature","geometry":{"type":"Point","coordinates":[-83.70309003,41.71551822]}},{"properties":{"city":"Columbus","address2":null,"zip":"43232","phone":"(614) 471-0822","store #":1193,"id":"a65lth6z4csf","address":"3006 Noe Bixby Rd","lat":39.91520523,"state":"OH","long":-82.86335708},"type":"Feature","geometry":{"type":"Point","coordinates":[-82.86335708,39.91520523]}},{"properties":{"city":"Kettering","address2":null,"zip":"45419","phone":"(937) 294-1194","store #":1194,"id":"a65lthfzj2kc","address":"2920 Shroyer Rd","lat":39.70511709,"state":"OH","long":-84.16218019},"type":"Feature","geometry":{"type":"Point","coordinates":[-84.16218019,39.70511709]}},{"properties":{"city":"Lima","address2":null,"zip":"45801","phone":"(419) 222-4501","store #":1195,"id":"a65lthg12jk7","address":"7837 E Lincoln Hwy","lat":40.83336551,"state":"OH","long":-83.95666152},"type":"Feature","geometry":{"type":"Point","coordinates":[-83.95666152,40.83336551]}},{"properties":{"city":"West Chester","address2":null,"zip":"45069","phone":"(513) 779-1550","store #":1197,"id":"a65lthdvk2wk","address":"8350 Cincinnati Dayton Rd","lat":39.34304668,"state":"OH","long":-84.39592137},"type":"Feature","geometry":{"type":"Point","coordinates":[-84.39592137,39.34304668]}},{"properties":{"city":"Mason","address2":null,"zip":"45040","phone":"(513) 459-9793","store #":1199,"id":"a65lth8wdpj6","address":"2423 Kings Mill Rd","lat":39.35740523,"state":"OH","long":-84.26032932},"type":"Feature","geometry":{"type":"Point","coordinates":[-84.26032932,39.35740523]}},{"properties":{"city":"Wooster","address2":null,"zip":"44691","phone":"(330) 262-6741","store #":1200,"id":"a65lth9mpcft","address":"110 S Bever St","lat":40.79817362,"state":"OH","long":-81.93651253},"type":"Feature","geometry":{"type":"Point","coordinates":[-81.93651253,40.79817362]}},{"properties":{"city":"Xenia","address2":null,"zip":"45385","phone":"(937) 372-5852","store #":1201,"id":"a65lth4n0pc4","address":"333 W Main","lat":39.68438452,"state":"OH","long":-83.93442413},"type":"Feature","geometry":{"type":"Point","coordinates":[-83.93442413,39.68438452]}},{"properties":{"city":"Youngstown","address2":null,"zip":"44509","phone":"(937) 767-1953","store #":1202,"id":"a65lth93je8x","address":"1 N Meridian Rd","lat":41.10299868,"state":"OH","long":-80.71099601},"type":"Feature","geometry":{"type":"Point","coordinates":[-80.71099601,41.10299868]}},{"properties":{"city":"Bellville","address2":null,"zip":"44813","phone":"(937) 593-0261","store #":1203,"id":"a65lth6g8hwu","address":"838 State Rt 97 W","lat":40.60952274,"state":"OH","long":-82.48424718},"type":"Feature","geometry":{"type":"Point","coordinates":[-82.48424718,40.60952274]}},{"properties":{"city":"Canal Winchester","address2":null,"zip":"43110","phone":"(614) 834-8864","store #":1204,"id":"a65lthipb1rb","address":"290 Bowen Rd","lat":39.82704833,"state":"OH","long":-82.80045202},"type":"Feature","geometry":{"type":"Point","coordinates":[-82.80045202,39.82704833]}},{"properties":{"city":"Columbus","address2":null,"zip":"43232","phone":"(614) 837-1368","store #":1205,"id":"a65lthcz9emj","address":"6175 E Livingston Ave","lat":39.94199295,"state":"OH","long":-82.8303405},"type":"Feature","geometry":{"type":"Point","coordinates":[-82.8303405,39.94199295]}},{"properties":{"city":"Chillicothe","address2":null,"zip":"45601","phone":"(740) 773-5972","store #":1206,"id":"a65lth86phtq","address":"1136 E Main St","lat":39.33793111,"state":"OH","long":-82.95090542},"type":"Feature","geometry":{"type":"Point","coordinates":[-82.95090542,39.33793111]}},{"properties":{"city":"Canton","address2":null,"zip":"44730","phone":"(330) 497-0910","store #":1207,"id":"a65lth77h7o6","address":"4111 E Lincoln St","lat":40.78921151,"state":"OH","long":-81.31974307},"type":"Feature","geometry":{"type":"Point","coordinates":[-81.31974307,40.78921151]}},{"properties":{"city":"Upper Sandusky","address2":null,"zip":"43351","phone":"(614) 488-2934","store #":1215,"id":"a65lth8iz0ej","address":"1740 E Wyandot Ave","lat":40.83323765,"state":"OH","long":-83.24718507},"type":"Feature","geometry":{"type":"Point","coordinates":[-83.24718507,40.83323765]}},{"properties":{"city":"Columbus","address2":null,"zip":"43219","phone":"(614) 861-4139","store #":1216,"id":"a65lthfnfhxl","address":"2875 Stelzer Rd","lat":40.03212764,"state":"OH","long":-82.91047402},"type":"Feature","geometry":{"type":"Point","coordinates":[-82.91047402,40.03212764]}},{"properties":{"city":"Findlay","address2":null,"zip":"45840","phone":"(419) 422-4982","store #":1217,"id":"a65lthintx6v","address":"2001 Tiffin Ave","lat":41.05402877,"state":"OH","long":-83.60581326},"type":"Feature","geometry":{"type":"Point","coordinates":[-83.60581326,41.05402877]}},{"properties":{"city":"Middletown","address2":null,"zip":"45044","phone":"(513) 424-5853","store #":1218,"id":"a65lthcrc7k3","address":"3104 Roosevelt Blvd","lat":39.50136218,"state":"OH","long":-84.37473397},"type":"Feature","geometry":{"type":"Point","coordinates":[-84.37473397,39.50136218]}},{"properties":{"city":"Brunswick","address2":null,"zip":"44212","phone":"(937) 833-4680","store #":1219,"id":"a65lth5tana3","address":"1555 Pearl Rd","lat":41.22722668,"state":"OH","long":-81.84134016},"type":"Feature","geometry":{"type":"Point","coordinates":[-81.84134016,41.22722668]}},{"properties":{"city":"Massillon","address2":null,"zip":"44646","phone":"(513) 398-1548","store #":1224,"id":"a65lth5fmfiz","address":"3601 Lincolnway E","lat":40.79446575,"state":"OH","long":-81.46515088},"type":"Feature","geometry":{"type":"Point","coordinates":[-81.46515088,40.79446575]}},{"properties":{"city":"Grove City","address2":null,"zip":"43123","phone":"(614) 871-4227","store #":1231,"id":"a65lthf7op9l","address":"3135 Broadway","lat":39.90013689,"state":"OH","long":-83.07894916},"type":"Feature","geometry":{"type":"Point","coordinates":[-83.07894916,39.90013689]}},{"properties":{"city":"Parma","address2":null,"zip":"44134","phone":"(513) 523-3526","store #":1251,"id":"a65lthd31jsm","address":"5810 State Rd","lat":41.38499419,"state":"OH","long":-81.70462199},"type":"Feature","geometry":{"type":"Point","coordinates":[-81.70462199,41.38499419]}},{"properties":{"city":"Blue Ash","address2":null,"zip":"45236","phone":"(513) 489-1643","store #":1259,"id":"a65lthftzhl3","address":"9215 Plainfield Rd","lat":39.22707796,"state":"OH","long":-84.39437989},"type":"Feature","geometry":{"type":"Point","coordinates":[-84.39437989,39.22707796]}},{"properties":{"city":"Springfield","address2":null,"zip":"45502","phone":"(937) 322-0137","store #":1260,"id":"a65lth6lw285","address":"5050 Urbana Rd","lat":39.99787213,"state":"OH","long":-83.80050556},"type":"Feature","geometry":{"type":"Point","coordinates":[-83.80050556,39.99787213]}},{"properties":{"city":"Sidney","address2":null,"zip":"45365","phone":"(937) 498-2295","store #":1261,"id":"a65lthdmy4lf","address":"1515 N Main St","lat":40.30248821,"state":"OH","long":-84.1554654},"type":"Feature","geometry":{"type":"Point","coordinates":[-84.1554654,40.30248821]}},{"properties":{"city":"Fairborn","address2":null,"zip":"45324","phone":"(937) 427-2063","store #":1262,"id":"a65lth8ah8yw","address":"179 E Dayton Yellow Springs Rd","lat":39.7891085,"state":"OH","long":-84.01984209},"type":"Feature","geometry":{"type":"Point","coordinates":[-84.01984209,39.7891085]}},{"properties":{"city":"Toledo","address2":null,"zip":"43623","phone":"(419) 866-9876","store #":1264,"id":"a65lthebfxgb","address":"4305 Sylvania Ave","lat":41.69120329,"state":"OH","long":-83.64703211},"type":"Feature","geometry":{"type":"Point","coordinates":[-83.64703211,41.69120329]}},{"properties":{"city":"Northwood","address2":null,"zip":"43619","phone":"(330) 467-1684","store #":1400,"id":"a65lthfewqfp","address":"3402 Woodville Rd","lat":41.61238835,"state":"OH","long":-83.48026601},"type":"Feature","geometry":{"type":"Point","coordinates":[-83.48026601,41.61238835]}},{"properties":{"city":"Toledo","address2":null,"zip":"43623","phone":"(419) 475-1550","store #":1401,"id":"a65lthf8j5hz","address":"5430 Monroe St","lat":41.70539602,"state":"OH","long":-83.66246567},"type":"Feature","geometry":{"type":"Point","coordinates":[-83.66246567,41.70539602]}},{"properties":{"city":"Circleville","address2":null,"zip":"43113","phone":"(740) 474-1927","store #":1402,"id":"a65lth99rfxm","address":"1190 N Court St","lat":39.62131572,"state":"OH","long":-82.94045084},"type":"Feature","geometry":{"type":"Point","coordinates":[-82.94045084,39.62131572]}},{"properties":{"city":"Delaware","address2":null,"zip":"43015","phone":"(740) 363-0045","store #":1404,"id":"a65lth6ia7b6","address":"590 W Central Ave","lat":40.30647221,"state":"OH","long":-83.09000372},"type":"Feature","geometry":{"type":"Point","coordinates":[-83.09000372,40.30647221]}},{"properties":{"city":"Fremont","address2":null,"zip":"43420","phone":"(419) 334-9028","store #":1405,"id":"a65lthkya08k","address":"519-57 E State St","lat":41.34494153,"state":"OH","long":-83.10454127},"type":"Feature","geometry":{"type":"Point","coordinates":[-83.10454127,41.34494153]}},{"properties":{"city":"Wickliffe","address2":null,"zip":"44092","phone":"(614) 577-0642","store #":1502,"id":"a65lthff02p8","address":"29201 Euclid Ave","lat":41.60520733,"state":"OH","long":-81.47546207},"type":"Feature","geometry":{"type":"Point","coordinates":[-81.47546207,41.60520733]}},{"properties":{"city":"Nelsonville","address2":null,"zip":"45764","phone":"(419) 592-1926","store #":1505,"id":"a65lth67v6lc","address":"1012 E Canal St","lat":39.44837372,"state":"OH","long":-82.21844975},"type":"Feature","geometry":{"type":"Point","coordinates":[-82.21844975,39.44837372]}},{"properties":{"city":"Delphos","address2":null,"zip":"45833","phone":"(419) 695-5285","store #":1507,"id":"a65lth6tkyrx","address":"202 S Main St","lat":40.8416802,"state":"OH","long":-84.3395942},"type":"Feature","geometry":{"type":"Point","coordinates":[-84.3395942,40.8416802]}},{"properties":{"city":"Cincinnati","address2":null,"zip":"45249","phone":"(513) 681-1111","store #":1547,"id":"a65lthc8bmyn","address":"12184 Mason Rd","lat":39.28732211,"state":"OH","long":-84.31604654},"type":"Feature","geometry":{"type":"Point","coordinates":[-84.31604654,39.28732211]}},{"properties":{"city":"Macedonia","address2":null,"zip":"44056","phone":"(330) 468-3320","store #":1848,"id":"a65lthjsblqa","address":"317 Highland Rd E","lat":41.29925444,"state":"OH","long":-81.51375927},"type":"Feature","geometry":{"type":"Point","coordinates":[-81.51375927,41.29925444]}},{"properties":{"city":"Columbus","address2":null,"zip":"43219","phone":"(614) 418-9325","store #":2034,"id":"a65lthk22i8r","address":"1442 N Cassady Ave","lat":40.00829592,"state":"OH","long":-82.92221114},"type":"Feature","geometry":{"type":"Point","coordinates":[-82.92221114,40.00829592]}},{"properties":{"city":"Lancaster","address2":null,"zip":"43130","phone":"(740) 652-1066","store #":2356,"id":"a65lthhfq1hq","address":"1470 E Main St","lat":39.71403492,"state":"OH","long":-82.57312703},"type":"Feature","geometry":{"type":"Point","coordinates":[-82.57312703,39.71403492]}},{"properties":{"city":"Perrysburg","address2":null,"zip":"43551","phone":"(419) 874-1924","store #":2866,"id":"a65lthhotdla","address":"145 E Indiana Ave","lat":41.55755618,"state":"OH","long":-83.62690108},"type":"Feature","geometry":{"type":"Point","coordinates":[-83.62690108,41.55755618]}},{"properties":{"city":"Wilberforce","address2":null,"zip":"45384","phone":"(440) 943-0044","store #":3027,"id":"a65lthhzf219","address":"1455 Brush Row Rd","lat":39.70855165,"state":"OH","long":-83.88259761},"type":"Feature","geometry":{"type":"Point","coordinates":[-83.88259761,39.70855165]}},{"properties":{"city":"Wilmington","address2":null,"zip":"45177","phone":"(440) 944-7386","store #":3060,"id":"a65lthchu159","address":"900 S South St","lat":39.43436134,"state":"OH","long":-83.82991249},"type":"Feature","geometry":{"type":"Point","coordinates":[-83.82991249,39.43436134]}},{"properties":{"city":"Sheffield Lake","address2":null,"zip":"44054","phone":"(513) 563-1023","store #":3081,"id":"a65lthdv8o7w","address":"4208 E Lake Rd","lat":41.46373661,"state":"OH","long":-82.09199608},"type":"Feature","geometry":{"type":"Point","coordinates":[-82.09199608,41.46373661]}},{"properties":{"city":"Mentor","address2":null,"zip":"44060","phone":"(440) 257-5826","store #":3083,"id":"a65lth7uccpj","address":"6885 Center St","lat":41.68324088,"state":"OH","long":-81.33929361},"type":"Feature","geometry":{"type":"Point","coordinates":[-81.33929361,41.68324088]}},{"properties":{"city":"Gallipolis","address2":null,"zip":"45631","phone":"(419) 468-9773","store #":3187,"id":"a65lth5ty6c7","address":"601 Sr 7 N","lat":38.81325548,"state":"OH","long":-82.25706695},"type":"Feature","geometry":{"type":"Point","coordinates":[-82.25706695,38.81325548]}},{"properties":{"city":"North Olmsted","address2":null,"zip":"44070","phone":"(440) 777-6670","store #":3309,"id":"a65ltheeccsy","address":"24046 Lorain Rd","lat":41.42992959,"state":"OH","long":-81.88833592},"type":"Feature","geometry":{"type":"Point","coordinates":[-81.88833592,41.42992959]}},{"properties":{"city":"Cleveland","address2":null,"zip":"44109","phone":"(216) 531-1456","store #":3320,"id":"a65lth9erv91","address":"2202 Broadview Rd","lat":41.43832363,"state":"OH","long":-81.69962147},"type":"Feature","geometry":{"type":"Point","coordinates":[-81.69962147,41.43832363]}},{"properties":{"city":"Wooster","address2":null,"zip":"44691","phone":"(216) 831-9609","store #":3321,"id":"a65lthg1ivsx","address":"1970 Cleveland Rd","lat":40.82412951,"state":"OH","long":-81.93388039},"type":"Feature","geometry":{"type":"Point","coordinates":[-81.93388039,40.82412951]}},{"properties":{"city":"Columbus","address2":null,"zip":"43229","phone":"(614) 418-0042","store #":3323,"id":"a65ltha3h01y","address":"6861 Cleveland Ave","lat":40.08496496,"state":"OH","long":-82.95115411},"type":"Feature","geometry":{"type":"Point","coordinates":[-82.95115411,40.08496496]}},{"properties":{"city":"Wadsworth","address2":null,"zip":"44281","phone":"(440) 967-8258","store #":3326,"id":"a65lth68613m","address":"1160 Akron Rd","lat":41.05939672,"state":"OH","long":-81.73789548},"type":"Feature","geometry":{"type":"Point","coordinates":[-81.73789548,41.05939672]}},{"properties":{"city":"Newbury","address2":null,"zip":"44065","phone":"(216) 883-7359","store #":3328,"id":"a65lthicmr2w","address":"11044 Kinsman Rd","lat":41.46336885,"state":"OH","long":-81.24330884},"type":"Feature","geometry":{"type":"Point","coordinates":[-81.24330884,41.46336885]}},{"properties":{"city":"Bellefontaine","address2":null,"zip":"43311","phone":"(440) 439-0933","store #":3336,"id":"a65lthfjf73w","address":"329 S Main St","lat":40.35768459,"state":"OH","long":-83.7600051},"type":"Feature","geometry":{"type":"Point","coordinates":[-83.7600051,40.35768459]}},{"properties":{"city":"Cleveland","address2":null,"zip":"44135","phone":"(216) 398-8159","store #":3341,"id":"a65ltheqr39b","address":"4280 W 150th","lat":41.43818599,"state":"OH","long":-81.80134023},"type":"Feature","geometry":{"type":"Point","coordinates":[-81.80134023,41.43818599]}},{"properties":{"city":"Medina","address2":null,"zip":"44256","phone":"(440) 442-1139","store #":3345,"id":"a65lth8hline","address":"900 N Court St","lat":41.15240267,"state":"OH","long":-81.86298866},"type":"Feature","geometry":{"type":"Point","coordinates":[-81.86298866,41.15240267]}},{"properties":{"city":"Riverside","address2":null,"zip":"45431","phone":"(216) 731-0792","store #":3346,"id":"a65lth70zyes","address":"4950 Burkhardt Rd","lat":39.75934799,"state":"OH","long":-84.12115768},"type":"Feature","geometry":{"type":"Point","coordinates":[-84.12115768,39.75934799]}},{"properties":{"city":"Willoughby","address2":null,"zip":"44094","phone":"(440) 946-6935","store #":3350,"id":"a65lthf8dmyz","address":"34740 Euclid Ave","lat":41.62436759,"state":"OH","long":-81.4418941},"type":"Feature","geometry":{"type":"Point","coordinates":[-81.4418941,41.62436759]}},{"properties":{"city":"Canton","address2":null,"zip":"44705","phone":"(330) 488-2880","store #":3362,"id":"a65lth647ahp","address":"3315 Mahoning Rd Ne","lat":40.81829936,"state":"OH","long":-81.32787022},"type":"Feature","geometry":{"type":"Point","coordinates":[-81.32787022,40.81829936]}},{"properties":{"city":"Columbus","address2":null,"zip":"43085","phone":"(614) 899-2990","store #":3367,"id":"a65lthioitda","address":"825 Worthington Woods Blvd","lat":40.11937693,"state":"OH","long":-82.99216683},"type":"Feature","geometry":{"type":"Point","coordinates":[-82.99216683,40.11937693]}},{"properties":{"city":"Vandalia","address2":null,"zip":"45377","phone":"(937) 652-4880","store #":3368,"id":"a65lthcyyl9b","address":"229 E National Rd","lat":39.89115669,"state":"OH","long":-84.19559461},"type":"Feature","geometry":{"type":"Point","coordinates":[-84.19559461,39.89115669]}},{"properties":{"city":"Springfield","address2":null,"zip":"45504","phone":"(937) 342-0525","store #":3369,"id":"a65lthcod1x4","address":"2040 N Bechtle Avenue","lat":39.94746596,"state":"OH","long":-83.86397204},"type":"Feature","geometry":{"type":"Point","coordinates":[-83.86397204,39.94746596]}},{"properties":{"city":"Mentor","address2":null,"zip":"44060","phone":"(440) 974-9269","store #":3376,"id":"a65lthku6viw","address":"7745 Reynolds Rd","lat":41.6602875,"state":"OH","long":-81.3778966},"type":"Feature","geometry":{"type":"Point","coordinates":[-81.3778966,41.6602875]}},{"properties":{"city":"Huber Heights","address2":null,"zip":"45424","phone":"(330) 534-5200","store #":3377,"id":"a65lth5e7hhv","address":"6385 Chambersburg Rd","lat":39.84698879,"state":"OH","long":-84.11430217},"type":"Feature","geometry":{"type":"Point","coordinates":[-84.11430217,39.84698879]}},{"properties":{"city":"Elyria","address2":null,"zip":"44035","phone":"(440) 324-4915","store #":3379,"id":"a65lthk877q2","address":"5230 Detroit Rd","lat":41.42501339,"state":"OH","long":-82.0807067},"type":"Feature","geometry":{"type":"Point","coordinates":[-82.0807067,41.42501339]}},{"properties":{"city":"Columbus","address2":null,"zip":"43231","phone":"(614) 888-3340","store #":3384,"id":"a65lthczlxbz","address":"5657 Cleveland Ave","lat":40.08218312,"state":"OH","long":-82.95138419},"type":"Feature","geometry":{"type":"Point","coordinates":[-82.95138419,40.08218312]}},{"properties":{"city":"North Ridgeville","address2":null,"zip":"44039","phone":"(440) 327-2091","store #":3385,"id":"a65lth9tqpj6","address":"32760 Lorain Rd","lat":41.38206766,"state":"OH","long":-81.98099763},"type":"Feature","geometry":{"type":"Point","coordinates":[-81.98099763,41.38206766]}},{"properties":{"city":"Fairfield","address2":null,"zip":"45014","phone":"(513) 874-2428","store #":3389,"id":"a65lth7bngmt","address":"5161 Dixie Hwy","lat":39.33908002,"state":"OH","long":-84.53365917},"type":"Feature","geometry":{"type":"Point","coordinates":[-84.53365917,39.33908002]}},{"properties":{"city":"Strongsville","address2":null,"zip":"44149","phone":"(330) 626-5142","store #":3390,"id":"a65lthka6ncn","address":"21043 Royalton Rd","lat":41.31233751,"state":"OH","long":-81.85825169},"type":"Feature","geometry":{"type":"Point","coordinates":[-81.85825169,41.31233751]}},{"properties":{"city":"North Royalton","address2":null,"zip":"44133","phone":"(440) 327-1586","store #":3392,"id":"a65lthhxmr95","address":"9191 Royalton Rd","lat":41.31266347,"state":"OH","long":-81.75168519},"type":"Feature","geometry":{"type":"Point","coordinates":[-81.75168519,41.31266347]}},{"properties":{"city":"Centerville","address2":null,"zip":"45459","phone":"(937) 885-5327","store #":3401,"id":"a65lth9wxkwr","address":"113 N Main St","lat":39.64496469,"state":"OH","long":-84.16752691},"type":"Feature","geometry":{"type":"Point","coordinates":[-84.16752691,39.64496469]}},{"properties":{"city":"Heath","address2":null,"zip":"43056","phone":"(330) 877-1404","store #":3403,"id":"a65lthdkwgvc","address":"624 S 30th St","lat":40.03377005,"state":"OH","long":-82.44287556},"type":"Feature","geometry":{"type":"Point","coordinates":[-82.44287556,40.03377005]}},{"properties":{"city":"West Union","address2":null,"zip":"45693","phone":"(513) 759-1884","store #":3405,"id":"a65lthi6yo0g","address":"525 E Main St","lat":38.7943852,"state":"OH","long":-83.54083172},"type":"Feature","geometry":{"type":"Point","coordinates":[-83.54083172,38.7943852]}},{"properties":{"city":"Cridersville","address2":null,"zip":"45806","phone":"(330) 638-0931","store #":3407,"id":"a65lthfki5ns","address":"100 N Dixie Hwy","lat":40.67563367,"state":"OH","long":-84.12575321},"type":"Feature","geometry":{"type":"Point","coordinates":[-84.12575321,40.67563367]}},{"properties":{"city":"Northfield","address2":null,"zip":"44067","phone":"(440) 237-1212","store #":3408,"id":"a65lthgmxd8n","address":"9780 Olde Rt 8 Rd","lat":41.31458188,"state":"OH","long":-81.54761602},"type":"Feature","geometry":{"type":"Point","coordinates":[-81.54761602,41.31458188]}},{"properties":{"city":"Kent","address2":null,"zip":"44240","phone":"(440) 576-9595","store #":3409,"id":"a65lthjqvxxk","address":"1295 W Main St","lat":41.15250175,"state":"OH","long":-81.38949876},"type":"Feature","geometry":{"type":"Point","coordinates":[-81.38949876,41.15250175]}},{"properties":{"city":"Troy","address2":null,"zip":"45373","phone":"(937) 440-6830","store #":3424,"id":"a65lthcq8h33","address":"818 N Market","lat":40.04951999,"state":"OH","long":-84.19445379},"type":"Feature","geometry":{"type":"Point","coordinates":[-84.19445379,40.04951999]}},{"properties":{"city":"Hamilton","address2":null,"zip":"45011","phone":"(513) 892-1594","store #":3428,"id":"a65lth622372","address":"3450 Tylersville Rd","lat":39.36357053,"state":"OH","long":-84.50600434},"type":"Feature","geometry":{"type":"Point","coordinates":[-84.50600434,39.36357053]}},{"properties":{"city":"Green","address2":null,"zip":"44685","phone":"(330) 527-2666","store #":3505,"id":"a65lthikmpph","address":"3535 Massillon","lat":40.96593759,"state":"OH","long":-81.46490604},"type":"Feature","geometry":{"type":"Point","coordinates":[-81.46490604,40.96593759]}},{"properties":{"city":"Austintown","address2":null,"zip":"44515","phone":"(330) 562-1472","store #":3510,"id":"a65lthhztign","address":"4401 Kirk Rd","lat":41.06870671,"state":"OH","long":-80.73238636},"type":"Feature","geometry":{"type":"Point","coordinates":[-80.73238636,41.06870671]}},{"properties":{"city":"Newcomerstown","address2":null,"zip":"43832","phone":"(440) 564-9662","store #":3512,"id":"a65lth8z02xj","address":"100 Morris Crossing Rd","lat":40.27375826,"state":"OH","long":-81.58366212},"type":"Feature","geometry":{"type":"Point","coordinates":[-81.58366212,40.27375826]}},{"properties":{"city":"Ashville","address2":null,"zip":"43103","phone":"(440) 993-6117","store #":3521,"id":"a65lthk1kuwm","address":"5040 S Walnut St","lat":39.71584236,"state":"OH","long":-82.98677121},"type":"Feature","geometry":{"type":"Point","coordinates":[-82.98677121,39.71584236]}},{"properties":{"city":"Batavia","address2":null,"zip":"45103","phone":"(440) 933-9243","store #":3528,"id":"a65lth6h4kz5","address":"1269 Old State Rt 74","lat":39.08784442,"state":"OH","long":-84.23617041},"type":"Feature","geometry":{"type":"Point","coordinates":[-84.23617041,39.08784442]}},{"properties":{"city":"Willowick","address2":null,"zip":"44095","phone":"(440) 946-8339","store #":3529,"id":"a65lth72lbgu","address":"31000 Vine St","lat":41.64243095,"state":"OH","long":-81.47112829},"type":"Feature","geometry":{"type":"Point","coordinates":[-81.47112829,41.64243095]}},{"properties":{"city":"Parma","address2":null,"zip":"44130","phone":"(440) 845-0743","store #":3530,"id":"a65lthhxqspy","address":"10301 Brookpark Rd","lat":41.41840491,"state":"OH","long":-81.75780993},"type":"Feature","geometry":{"type":"Point","coordinates":[-81.75780993,41.41840491]}},{"properties":{"city":"Belpre","address2":null,"zip":"45714","phone":"(419) 886-4738","store #":3535,"id":"a65lth99p113","address":"807 Washington Blvd","lat":39.27300721,"state":"OH","long":-81.57869829},"type":"Feature","geometry":{"type":"Point","coordinates":[-81.57869829,39.27300721]}},{"properties":{"city":"Bolivar","address2":null,"zip":"44612","phone":"(330) 782-5506","store #":3540,"id":"a65lthgba3n9","address":"11099 Sr 212","lat":40.64061119,"state":"OH","long":-81.44402105},"type":"Feature","geometry":{"type":"Point","coordinates":[-81.44402105,40.64061119]}},{"properties":{"city":"Youngstown","address2":null,"zip":"44505","phone":"(330) 792-1250","store #":3542,"id":"a65lther6os0","address":"4210 Belmont Ave","lat":41.15699971,"state":"OH","long":-80.66499501},"type":"Feature","geometry":{"type":"Point","coordinates":[-80.66499501,41.15699971]}},{"properties":{"city":"Lima","address2":null,"zip":"45801","phone":"(419) 643-4465","store #":3547,"id":"a65lth6m2d0g","address":"2615 N West St","lat":40.77576064,"state":"OH","long":-84.10878556},"type":"Feature","geometry":{"type":"Point","coordinates":[-84.10878556,40.77576064]}},{"properties":{"city":"Lima","address2":null,"zip":"45805","phone":"(419) 227-1080","store #":3548,"id":"a65lthev2t0n","address":"631 N Cable Rd","lat":40.74766225,"state":"OH","long":-84.1470714},"type":"Feature","geometry":{"type":"Point","coordinates":[-84.1470714,40.74766225]}},{"properties":{"city":"Greenville","address2":null,"zip":"45331","phone":"(330) 896-4444","store #":3555,"id":"a65lth5s8cd4","address":"201 Wagner Ave","lat":40.11044932,"state":"OH","long":-84.62230255},"type":"Feature","geometry":{"type":"Point","coordinates":[-84.62230255,40.11044932]}},{"properties":{"city":"Toledo","address2":null,"zip":"43615","phone":"(419) 882-6669","store #":3556,"id":"a65lthgz7bl3","address":"5160 Dorr St","lat":41.65343791,"state":"OH","long":-83.66419449},"type":"Feature","geometry":{"type":"Point","coordinates":[-83.66419449,41.65343791]}},{"properties":{"city":"Dover","address2":null,"zip":"44622","phone":"(330) 364-1722","store #":3557,"id":"a65lth7r2su9","address":"225 S Wooster Ave","lat":40.51773399,"state":"OH","long":-81.47003241},"type":"Feature","geometry":{"type":"Point","coordinates":[-81.47003241,40.51773399]}},{"properties":{"city":"Toledo","address2":null,"zip":"43623","phone":"(419) 535-0861","store #":3602,"id":"a65lth9k6drf","address":"5010 Secor Rd","lat":41.70651071,"state":"OH","long":-83.62361814},"type":"Feature","geometry":{"type":"Point","coordinates":[-83.62361814,41.70651071]}},{"properties":{"city":"Northwood","address2":null,"zip":"43619","phone":"(419) 693-9518","store #":3604,"id":"a65lth77gr7t","address":"4661 Woodville Rd","lat":41.6010815,"state":"OH","long":-83.46292242},"type":"Feature","geometry":{"type":"Point","coordinates":[-83.46292242,41.6010815]}},{"properties":{"city":"Holland","address2":null,"zip":"43528","phone":"(419) 865-5962","store #":3605,"id":"a65lth9wogh5","address":"7155 Airport Hwy","lat":41.61020344,"state":"OH","long":-83.71159512},"type":"Feature","geometry":{"type":"Point","coordinates":[-83.71159512,41.61020344]}},{"properties":{"city":"Coal Grove","address2":null,"zip":"45638","phone":"(419) 547-6564","store #":3606,"id":"a65lthb5owib","address":"202 Marion Pike","lat":38.50116468,"state":"OH","long":-82.64865959},"type":"Feature","geometry":{"type":"Point","coordinates":[-82.64865959,38.50116468]}},{"properties":{"city":"Lima","address2":null,"zip":"45805","phone":"(419) 222-3218","store #":3609,"id":"a65lthcrmd0p","address":"1410 Elida Rd","lat":40.75346512,"state":"OH","long":-84.12952395},"type":"Feature","geometry":{"type":"Point","coordinates":[-84.12952395,40.75346512]}},{"properties":{"city":"Lima","address2":null,"zip":"45804","phone":"(419) 229-6921","store #":3610,"id":"a65lth69cqqd","address":"2995 St Johns Rd","lat":40.71391673,"state":"OH","long":-84.06665563},"type":"Feature","geometry":{"type":"Point","coordinates":[-84.06665563,40.71391673]}},{"properties":{"city":"Cuyahoga Falls","address2":null,"zip":"44221","phone":"(419) 645-5428","store #":3612,"id":"a65lth67eelz","address":"2026 Bailey Rd","lat":41.13391785,"state":"OH","long":-81.46717703},"type":"Feature","geometry":{"type":"Point","coordinates":[-81.46717703,41.13391785]}},{"properties":{"city":"Toledo","address2":null,"zip":"43615","phone":"(419) 473-0683","store #":3613,"id":"a65lthe2m36d","address":"5904 W Central","lat":41.67638109,"state":"OH","long":-83.68285263},"type":"Feature","geometry":{"type":"Point","coordinates":[-83.68285263,41.67638109]}},{"properties":{"city":"Perrysburg","address2":null,"zip":"43551","phone":"(419) 874-6067","store #":3614,"id":"a65lth90ilds","address":"26020 N Dixie Hwy","lat":41.52922565,"state":"OH","long":-83.63652177},"type":"Feature","geometry":{"type":"Point","coordinates":[-83.63652177,41.52922565]}},{"properties":{"city":"Toledo","address2":null,"zip":"43609","phone":"(419) 535-6609","store #":3615,"id":"a65lth5aw8ul","address":"2172 Arlington Ave","lat":41.62333818,"state":"OH","long":-83.59616289},"type":"Feature","geometry":{"type":"Point","coordinates":[-83.59616289,41.62333818]}},{"properties":{"city":"Elyria","address2":null,"zip":"44035","phone":"(419) 331-4285","store #":3617,"id":"a65lth87nslk","address":"710 Griswold Rd","lat":41.40032596,"state":"OH","long":-82.11983433},"type":"Feature","geometry":{"type":"Point","coordinates":[-82.11983433,41.40032596]}},{"properties":{"city":"Marion","address2":null,"zip":"43302","phone":"(740) 383-1003","store #":3619,"id":"a65lthixgz2m","address":"1351 Delaware Ave","lat":40.564427,"state":"OH","long":-83.120182},"type":"Feature","geometry":{"type":"Point","coordinates":[-83.120182,40.564427]}},{"properties":{"city":"Tipp City","address2":null,"zip":"45371","phone":"(419) 447-7110","store #":3620,"id":"a65lth7u1lbl","address":"1000 W Main St","lat":39.96074975,"state":"OH","long":-84.18746218},"type":"Feature","geometry":{"type":"Point","coordinates":[-84.18746218,39.96074975]}},{"properties":{"city":"Elyria","address2":null,"zip":"44035","phone":"(440) 365-3461","store #":3622,"id":"a65lth9d1mq6","address":"990 E Broad St","lat":41.36455983,"state":"OH","long":-82.07809537},"type":"Feature","geometry":{"type":"Point","coordinates":[-82.07809537,41.36455983]}},{"properties":{"city":"Lima","address2":null,"zip":"45804","phone":"(419) 884-3201","store #":3623,"id":"a65ltharvklx","address":"1875 Harding Hwy","lat":40.73081862,"state":"OH","long":-84.07110283},"type":"Feature","geometry":{"type":"Point","coordinates":[-84.07110283,40.73081862]}},{"properties":{"city":"Mansfield","address2":null,"zip":"44906","phone":"(419) 747-6382","store #":3624,"id":"a65lthfmwiub","address":"564 N Trimble Rd","lat":40.77444651,"state":"OH","long":-82.55157441},"type":"Feature","geometry":{"type":"Point","coordinates":[-82.55157441,40.77444651]}},{"properties":{"city":"Massillon","address2":null,"zip":"44646","phone":"(330) 477-5703","store #":3628,"id":"a65lthk7pd80","address":"8015 Hills And Dales Rd Nw","lat":40.82017656,"state":"OH","long":-81.5025512},"type":"Feature","geometry":{"type":"Point","coordinates":[-81.5025512,40.82017656]}},{"properties":{"city":"Brook Park","address2":null,"zip":"44135","phone":"(330) 673-3618","store #":3632,"id":"a65lth557evf","address":"17600 Brook Park Rd","lat":41.41874131,"state":"OH","long":-81.82221361},"type":"Feature","geometry":{"type":"Point","coordinates":[-81.82221361,41.41874131]}},{"properties":{"city":"Akron","address2":null,"zip":"44308","phone":"(330) 784-6513","store #":3633,"id":"a65lthej6xye","address":"293 E Market St","lat":41.0818113,"state":"OH","long":-81.50811117},"type":"Feature","geometry":{"type":"Point","coordinates":[-81.50811117,41.0818113]}},{"properties":{"city":"Akron","address2":null,"zip":"44333","phone":"(330) 535-1030","store #":3634,"id":"a65lthdc4v5m","address":"9 N Cleveland Massillon Rd","lat":41.13606604,"state":"OH","long":-81.63725705},"type":"Feature","geometry":{"type":"Point","coordinates":[-81.63725705,41.13606604]}},{"properties":{"city":"Monroe","address2":null,"zip":"45050","phone":"(330) 628-8162","store #":3635,"id":"a65lth4myuka","address":"1501 Roden Park Dr","lat":39.44621485,"state":"OH","long":-84.3661863},"type":"Feature","geometry":{"type":"Point","coordinates":[-84.3661863,39.44621485]}},{"properties":{"city":"Akron","address2":null,"zip":"44319","phone":"(330) 666-3886","store #":3636,"id":"a65lthdyk0im","address":"5211 Manchester Rd","lat":40.96089727,"state":"OH","long":-81.56593194},"type":"Feature","geometry":{"type":"Point","coordinates":[-81.56593194,40.96089727]}},{"properties":{"city":"Zanesville","address2":null,"zip":"43701","phone":"(330) 759-3289","store #":3637,"id":"a65lthf1mrph","address":"930 Blue Ave","lat":39.94981355,"state":"OH","long":-82.01745604},"type":"Feature","geometry":{"type":"Point","coordinates":[-82.01745604,39.94981355]}},{"properties":{"city":"Salem","address2":null,"zip":"44460","phone":"(419) 666-4255","store #":3642,"id":"a65lth7mmuj9","address":"175 W State St","lat":40.90086165,"state":"OH","long":-80.85772405},"type":"Feature","geometry":{"type":"Point","coordinates":[-80.85772405,40.90086165]}},{"properties":{"city":"Norwood","address2":null,"zip":"45212","phone":"(419) 693-1386","store #":3643,"id":"a65lthksyf7j","address":"4425 Montgomery Rd","lat":39.15783975,"state":"OH","long":-84.45805553},"type":"Feature","geometry":{"type":"Point","coordinates":[-84.45805553,39.15783975]}},{"properties":{"city":"Louisville","address2":null,"zip":"44641","phone":"(440) 324-6421","store #":3648,"id":"a65lth7ctx3t","address":"461 W Main St","lat":40.837267,"state":"OH","long":-81.26379664},"type":"Feature","geometry":{"type":"Point","coordinates":[-81.26379664,40.837267]}},{"properties":{"city":"Warren","address2":null,"zip":"44483","phone":"(330) 336-6711","store #":3650,"id":"a65lthblxpw3","address":"4504 Mahoning Ave N W","lat":41.2667236,"state":"OH","long":-80.82065324},"type":"Feature","geometry":{"type":"Point","coordinates":[-80.82065324,41.2667236]}},{"properties":{"city":"Mansfield","address2":null,"zip":"44906","phone":"(419) 747-5011","store #":3652,"id":"a65ltheltwow","address":"907 Springmill Rd","lat":40.78378689,"state":"OH","long":-82.54712726},"type":"Feature","geometry":{"type":"Point","coordinates":[-82.54712726,40.78378689]}},{"properties":{"city":"Canton","address2":null,"zip":"44706","phone":"(330) 452-2875","store #":3653,"id":"a65lthcl2ddv","address":"2331 Faircrest Rd Sw","lat":40.75100219,"state":"OH","long":-81.40142215},"type":"Feature","geometry":{"type":"Point","coordinates":[-81.40142215,40.75100219]}},{"properties":{"city":"Oxford","address2":null,"zip":"45056","phone":"(440) 235-6410","store #":3654,"id":"a65lthg4hrbg","address":"260 S Locust St","lat":39.50519487,"state":"OH","long":-84.74951716},"type":"Feature","geometry":{"type":"Point","coordinates":[-84.74951716,39.50519487]}},{"properties":{"city":"Mansfield","address2":null,"zip":"44906","phone":"(330) 467-6901","store #":3661,"id":"a65ltheb2396","address":"1321 Park Ave W","lat":40.75933798,"state":"OH","long":-82.56335469},"type":"Feature","geometry":{"type":"Point","coordinates":[-82.56335469,40.75933798]}},{"properties":{"city":"Pickerington","address2":null,"zip":"43147","phone":"(419) 874-1453","store #":3664,"id":"a65lthjhh9tq","address":"1711 Hill Rd N","lat":39.92392746,"state":"OH","long":-82.7851422},"type":"Feature","geometry":{"type":"Point","coordinates":[-82.7851422,39.92392746]}},{"properties":{"city":"Sharonville","address2":null,"zip":"45241","phone":"(419) 627-1345","store #":3667,"id":"a65lthgrv1b1","address":"11790 Lebanon Rd","lat":39.2872797,"state":"OH","long":-84.39644306},"type":"Feature","geometry":{"type":"Point","coordinates":[-84.39644306,39.2872797]}},{"properties":{"city":"Sylvania","address2":null,"zip":"43560","phone":"(419) 882-4534","store #":3670,"id":"a65lthdyjewk","address":"6700 Sylvania Ave","lat":41.69020984,"state":"OH","long":-83.70348546},"type":"Feature","geometry":{"type":"Point","coordinates":[-83.70348546,41.69020984]}},{"properties":{"city":"Tiffin","address2":null,"zip":"44883","phone":"(330) 630-2479","store #":3671,"id":"a65lthchfo6j","address":"243 N Sandusky St","lat":41.12578197,"state":"OH","long":-83.17852515},"type":"Feature","geometry":{"type":"Point","coordinates":[-83.17852515,41.12578197]}},{"properties":{"city":"Akron","address2":null,"zip":"44312","phone":"(330) 644-2730","store #":3672,"id":"a65lth8r7ypk","address":"3021 S Arlington St","lat":40.99040194,"state":"OH","long":-81.4922687},"type":"Feature","geometry":{"type":"Point","coordinates":[-81.4922687,40.99040194]}},{"properties":{"city":"Akron","address2":null,"zip":"44305","phone":"(330) 644-8516","store #":3673,"id":"a65lthd5i9ig","address":"765 Darrow Rd","lat":41.08452518,"state":"OH","long":-81.44145377},"type":"Feature","geometry":{"type":"Point","coordinates":[-81.44145377,41.08452518]}},{"properties":{"city":"Middleburg Heights","address2":null,"zip":"44130","phone":"(440) 234-3193","store #":3677,"id":"a65lthfa04h4","address":"7320 Pearl Rd","lat":41.36599611,"state":"OH","long":-81.80699596},"type":"Feature","geometry":{"type":"Point","coordinates":[-81.80699596,41.36599611]}},{"properties":{"city":"Stow","address2":null,"zip":"44224","phone":"(330) 923-7255","store #":3680,"id":"a65lth9h9w6v","address":"4969 Fishcreek Rd","lat":41.18517806,"state":"OH","long":-81.42314103},"type":"Feature","geometry":{"type":"Point","coordinates":[-81.42314103,41.18517806]}},{"properties":{"city":"Akron","address2":null,"zip":"44301","phone":"(330) 733-1463","store #":3681,"id":"a65lthgw6co1","address":"2129 S Main St","lat":41.02886588,"state":"OH","long":-81.5268878},"type":"Feature","geometry":{"type":"Point","coordinates":[-81.5268878,41.02886588]}},{"properties":{"city":"Mayfield Heights","address2":null,"zip":"44124","phone":"(419) 893-8222","store #":3683,"id":"a65lthdq97br","address":"6073 Mayfield Rd","lat":41.5201523,"state":"OH","long":-81.46016453},"type":"Feature","geometry":{"type":"Point","coordinates":[-81.46016453,41.5201523]}},{"properties":{"city":"Waverly","address2":null,"zip":"45690","phone":"(330) 856-2459","store #":3684,"id":"a65lthacxf8x","address":"219 E Emmitt St","lat":39.12792151,"state":"OH","long":-82.98396522},"type":"Feature","geometry":{"type":"Point","coordinates":[-82.98396522,39.12792151]}},{"properties":{"city":"Mentor","address2":null,"zip":"44060","phone":"(440) 946-3472","store #":3685,"id":"a65lthk81b61","address":"9369 Mentor Ave","lat":41.67835588,"state":"OH","long":-81.30672612},"type":"Feature","geometry":{"type":"Point","coordinates":[-81.30672612,41.67835588]}},{"properties":{"city":"Streetsboro","address2":null,"zip":"44241","phone":"(330) 688-4780","store #":3686,"id":"a65lthhkx4ht","address":"9254 St Rt 43","lat":41.24274261,"state":"OH","long":-81.34537451},"type":"Feature","geometry":{"type":"Point","coordinates":[-81.34537451,41.24274261]}},{"properties":{"city":"Massillon","address2":null,"zip":"44646","phone":"(330) 833-6735","store #":3687,"id":"a65lthc8yieu","address":"522 Erie St N","lat":40.80037557,"state":"OH","long":-81.52473208},"type":"Feature","geometry":{"type":"Point","coordinates":[-81.52473208,40.80037557]}},{"properties":{"city":"Sidney","address2":null,"zip":"45365","phone":"(440) 949-8524","store #":3690,"id":"a65lth9nyrjn","address":"1529 Michigan St","lat":40.28780716,"state":"OH","long":-84.17818156},"type":"Feature","geometry":{"type":"Point","coordinates":[-84.17818156,40.28780716]}},{"properties":{"city":"Bucyrus","address2":null,"zip":"44820","phone":"(330) 273-5866","store #":3691,"id":"a65lthfs6u1t","address":"400 N Sandusky","lat":40.81295417,"state":"OH","long":-82.97556789},"type":"Feature","geometry":{"type":"Point","coordinates":[-82.97556789,40.81295417]}},{"properties":{"city":"Sugarcreek","address2":null,"zip":"44681","phone":"(440) 238-0253","store #":3694,"id":"a65lth6kph78","address":"861 Dover Rd Ne","lat":40.50796322,"state":"OH","long":-81.62528968},"type":"Feature","geometry":{"type":"Point","coordinates":[-81.62528968,40.50796322]}},{"properties":{"city":"Avon Lake","address2":null,"zip":"44012","phone":"(330) 793-4263","store #":3696,"id":"a65lth6umu19","address":"32769 Walker Rd","lat":41.49303931,"state":"OH","long":-82.01705794},"type":"Feature","geometry":{"type":"Point","coordinates":[-82.01705794,41.49303931]}},{"properties":{"city":"Beavercreek","address2":null,"zip":"45440","phone":"(440) 892-0344","store #":3697,"id":"a65lthisoz8w","address":"3991 Indian Ripple Rd","lat":39.69501977,"state":"OH","long":-84.08471895},"type":"Feature","geometry":{"type":"Point","coordinates":[-84.08471895,39.69501977]}},{"properties":{"city":"Elyria","address2":null,"zip":"44035","phone":"(440) 365-9027","store #":3698,"id":"a65lth7e17ne","address":"895 Lorain Blvd","lat":41.38374705,"state":"OH","long":-82.1166978},"type":"Feature","geometry":{"type":"Point","coordinates":[-82.1166978,41.38374705]}},{"properties":{"city":"Ironton","address2":null,"zip":"45638","phone":"(740) 532-4104","store #":3718,"id":"a65lth5fsmo0","address":"808 Park Ave","lat":38.53724889,"state":"OH","long":-82.67963426},"type":"Feature","geometry":{"type":"Point","coordinates":[-82.67963426,38.53724889]}},{"properties":{"city":"Cleveland","address2":null,"zip":"44119","phone":"(740) 477-2965","store #":3737,"id":"a65lthfv2pdd","address":"18501 Nottingham Rd","lat":41.57533853,"state":"OH","long":-81.54938906},"type":"Feature","geometry":{"type":"Point","coordinates":[-81.54938906,41.57533853]}},{"properties":{"city":"Evendale","address2":null,"zip":"45241","phone":"(216) 531-4835","store #":4043,"id":"a65lthcj8bvu","address":"10760 Reading Rd","lat":39.26338194,"state":"OH","long":-84.41590656},"type":"Feature","geometry":{"type":"Point","coordinates":[-84.41590656,39.26338194]}},{"properties":{"city":"South Point","address2":null,"zip":"45680","phone":"(216) 382-4141","store #":4044,"id":"a65lthj4djny","address":"319 Solida Rd","lat":38.42052245,"state":"OH","long":-82.57955073},"type":"Feature","geometry":{"type":"Point","coordinates":[-82.57955073,38.42052245]}},{"properties":{"city":"Marietta","address2":null,"zip":"45750","phone":"(216) 663-2442","store #":4046,"id":"a65lthjr6bxt","address":"400 Muskingum Dr","lat":39.44285466,"state":"OH","long":-81.45948536},"type":"Feature","geometry":{"type":"Point","coordinates":[-81.45948536,39.44285466]}},{"properties":{"city":"Springfield","address2":null,"zip":"45504","phone":"(937) 390-6651","store #":4131,"id":"a65lthj9a1i3","address":"1241 W North St","lat":39.9282776,"state":"OH","long":-83.83061461},"type":"Feature","geometry":{"type":"Point","coordinates":[-83.83061461,39.9282776]}},{"properties":{"city":"Blue Ash","address2":null,"zip":"45241","phone":"(614) 863-4348","store #":4275,"id":"a65lthixafiy","address":"4775 Cornell Rd","lat":39.27015095,"state":"OH","long":-84.37617904},"type":"Feature","geometry":{"type":"Point","coordinates":[-84.37617904,39.27015095]}},{"properties":{"city":"Reynoldsburg","address2":null,"zip":"43068","phone":"(614) 861-6397","store #":4487,"id":"a65lth9kuid2","address":"6312 E Main St","lat":39.95488759,"state":"OH","long":-82.82960753},"type":"Feature","geometry":{"type":"Point","coordinates":[-82.82960753,39.95488759]}},{"properties":{"city":"Massillon","address2":null,"zip":"44646","phone":"(330) 833-6066","store #":4527,"id":"a65lthcpq66x","address":"906 Lincolnway E","lat":40.7995142,"state":"OH","long":-81.51283823},"type":"Feature","geometry":{"type":"Point","coordinates":[-81.51283823,40.7995142]}},{"properties":{"city":"Fairfield","address2":null,"zip":"45014","phone":"(513) 829-3223","store #":5010,"id":"a65lthkf5drb","address":"4511 Pleasant Ave","lat":39.35324303,"state":"OH","long":-84.55885429},"type":"Feature","geometry":{"type":"Point","coordinates":[-84.55885429,39.35324303]}},{"properties":{"city":"Kettering","address2":null,"zip":"45440","phone":"(937) 299-4640","store #":5064,"id":"a65lth8bfj1p","address":"5575 Bigger Rd","lat":39.66147632,"state":"OH","long":-84.1268239},"type":"Feature","geometry":{"type":"Point","coordinates":[-84.1268239,39.66147632]}},{"properties":{"city":"North Olmsted","address2":null,"zip":"44070","phone":"(513) 522-7408","store #":5071,"id":"a65lthk4dz2b","address":"26516 Lorain Rd","lat":41.41906205,"state":"OH","long":-81.91515235},"type":"Feature","geometry":{"type":"Point","coordinates":[-81.91515235,41.41906205]}},{"properties":{"city":"New Carlisle","address2":null,"zip":"45344","phone":"(937) 845-1106","store #":5073,"id":"a65lthk3jaw8","address":"324 N Main St","lat":39.9403885,"state":"OH","long":-84.02460306},"type":"Feature","geometry":{"type":"Point","coordinates":[-84.02460306,39.9403885]}},{"properties":{"city":"Milford","address2":null,"zip":"45150","phone":"(513) 831-3126","store #":5074,"id":"a65lth9mkz30","address":"716 Main St","lat":39.17705934,"state":"OH","long":-84.28645568},"type":"Feature","geometry":{"type":"Point","coordinates":[-84.28645568,39.17705934]}},{"properties":{"city":"Millersburg","address2":null,"zip":"44654","phone":"(513) 248-2939","store #":5075,"id":"a65lthb2daak","address":"1618 S Washington","lat":40.54507688,"state":"OH","long":-81.91724929},"type":"Feature","geometry":{"type":"Point","coordinates":[-81.91724929,40.54507688]}},{"properties":{"city":"Rossford","address2":null,"zip":"43460","phone":"(937) 254-0544","store #":5079,"id":"a65lthaod8aw","address":"939 Dixie Hwy","lat":41.60532778,"state":"OH","long":-83.562505},"type":"Feature","geometry":{"type":"Point","coordinates":[-83.562505,41.60532778]}},{"properties":{"city":"Huber Heights","address2":null,"zip":"45424","phone":"(937) 236-1066","store #":5081,"id":"a65lthfpvmvp","address":"8134 Old Troy Pike","lat":39.87028454,"state":"OH","long":-84.1374586},"type":"Feature","geometry":{"type":"Point","coordinates":[-84.1374586,39.87028454]}},{"properties":{"city":"Troy","address2":null,"zip":"45373","phone":"(937) 854-2791","store #":5089,"id":"a65lthk3otyy","address":"1475 W Market St","lat":40.05387354,"state":"OH","long":-84.18959151},"type":"Feature","geometry":{"type":"Point","coordinates":[-84.18959151,40.05387354]}},{"properties":{"city":"Kettering","address2":null,"zip":"45429","phone":"(937) 435-1762","store #":5091,"id":"a65lthfjo01r","address":"1224 E Stroop Rd","lat":39.68871159,"state":"OH","long":-84.14612106},"type":"Feature","geometry":{"type":"Point","coordinates":[-84.14612106,39.68871159]}},{"properties":{"city":"Mount Healthy","address2":null,"zip":"45231","phone":"(513) 528-9157","store #":5098,"id":"a65lthd3gqhv","address":"7300 Hamilton Rd","lat":39.22762535,"state":"OH","long":-84.5485259},"type":"Feature","geometry":{"type":"Point","coordinates":[-84.5485259,39.22762535]}},{"properties":{"city":"Lebanon","address2":null,"zip":"45036","phone":"(513) 934-5230","store #":5105,"id":"a65lthh2s3kd","address":"596 Columbus Ave","lat":39.44293395,"state":"OH","long":-84.1929368},"type":"Feature","geometry":{"type":"Point","coordinates":[-84.1929368,39.44293395]}},{"properties":{"city":"Newark","address2":null,"zip":"43023","phone":"(740) 344-9040","store #":5108,"id":"a65lthccouaq","address":"1000 Cherry Valley Rd Se","lat":40.04294734,"state":"OH","long":-82.46585925},"type":"Feature","geometry":{"type":"Point","coordinates":[-82.46585925,40.04294734]}},{"properties":{"city":"Cincinnati","address2":null,"zip":"45231","phone":"(513) 683-2034","store #":5110,"id":"a65lthgygxkw","address":"2691 Springdale Rd","lat":39.24536851,"state":"OH","long":-84.53768723},"type":"Feature","geometry":{"type":"Point","coordinates":[-84.53768723,39.24536851]}},{"properties":{"city":"Columbus","address2":null,"zip":"43207","phone":"(614) 882-1720","store #":5117,"id":"a65ltherutfl","address":"3860 S High St","lat":39.88220519,"state":"OH","long":-83.00072807},"type":"Feature","geometry":{"type":"Point","coordinates":[-83.00072807,39.88220519]}},{"properties":{"city":"Gahanna","address2":null,"zip":"43230","phone":"(614) 475-0208","store #":5118,"id":"a65lth6h63ge","address":"240 S Hamilton Rd","lat":40.01024404,"state":"OH","long":-82.86713342},"type":"Feature","geometry":{"type":"Point","coordinates":[-82.86713342,40.01024404]}},{"properties":{"city":"Canal Winchester","address2":null,"zip":"43110","phone":"(740) 439-5207","store #":5120,"id":"a65lthgtzjtf","address":"6399 Refugee Rd","lat":39.82704833,"state":"OH","long":-82.80045202},"type":"Feature","geometry":{"type":"Point","coordinates":[-82.80045202,39.82704833]}},{"properties":{"city":"Reynoldsburg","address2":null,"zip":"43068","phone":"(614) 864-6274","store #":5123,"id":"a65lth7pjh3h","address":"2775 Brice Rd","lat":39.92634031,"state":"OH","long":-82.83142604},"type":"Feature","geometry":{"type":"Point","coordinates":[-82.83142604,39.92634031]}},{"properties":{"city":"Columbus","address2":null,"zip":"43211","phone":"(614) 497-1173","store #":5128,"id":"a65lth7ddngz","address":"635 Weber Rd","lat":40.02405175,"state":"OH","long":-82.9958727},"type":"Feature","geometry":{"type":"Point","coordinates":[-82.9958727,40.02405175]}},{"properties":{"city":"Sidney","address2":null,"zip":"45365","phone":"(937) 498-9536","store #":5135,"id":"a65ltha0wodi","address":"525 E North St","lat":40.28682244,"state":"OH","long":-84.14921663},"type":"Feature","geometry":{"type":"Point","coordinates":[-84.14921663,40.28682244]}},{"properties":{"city":"Dayton","address2":null,"zip":"45415","phone":"(937) 276-2158","store #":5169,"id":"a65lth4uyo05","address":"5000 N Main St","lat":39.81335814,"state":"OH","long":-84.2277211},"type":"Feature","geometry":{"type":"Point","coordinates":[-84.2277211,39.81335814]}},{"properties":{"city":"Blacklick","address2":null,"zip":"43004","phone":"(614) 236-8666","store #":5194,"id":"a65lthi5hvpb","address":"7860 East Broad Street","lat":40.01452366,"state":"OH","long":-82.80172472},"type":"Feature","geometry":{"type":"Point","coordinates":[-82.80172472,40.01452366]}},{"properties":{"city":"Westlake","address2":null,"zip":"44145","phone":"(614) 890-0721","store #":5207,"id":"a65lth5z2wn5","address":"30805 Detroit Rd","lat":41.46089096,"state":"OH","long":-81.96065399},"type":"Feature","geometry":{"type":"Point","coordinates":[-81.96065399,41.46089096]}},{"properties":{"city":"Franklin","address2":null,"zip":"45005","phone":"(513) 825-0862","store #":5211,"id":"a65lthbo5z3v","address":"200 S Main St","lat":39.56202886,"state":"OH","long":-84.30253772},"type":"Feature","geometry":{"type":"Point","coordinates":[-84.30253772,39.56202886]}},{"properties":{"city":"South Zanesville","address2":null,"zip":"43701","phone":"(937) 568-4160","store #":5215,"id":"a65lthbusrml","address":"111 Maysville Pike","lat":39.8998578,"state":"OH","long":-82.0269655},"type":"Feature","geometry":{"type":"Point","coordinates":[-82.0269655,39.8998578]}},{"properties":{"city":"Cincinnati","address2":null,"zip":"45238","phone":"(513) 825-3090","store #":5218,"id":"a65lthhtrl3v","address":"595 Anderson Ferry Rd","lat":39.10384573,"state":"OH","long":-84.6173503},"type":"Feature","geometry":{"type":"Point","coordinates":[-84.6173503,39.10384573]}},{"properties":{"city":"Fairborn","address2":null,"zip":"45324","phone":"(937) 879-1870","store #":5222,"id":"a65lthiuqm7u","address":"1367 E Dayton Yellow Spgs Rd","lat":39.78320686,"state":"OH","long":-84.00350116},"type":"Feature","geometry":{"type":"Point","coordinates":[-84.00350116,39.78320686]}},{"properties":{"city":"Cincinnati","address2":null,"zip":"45216","phone":"(740) 773-7894","store #":5224,"id":"a65lth5v9wz0","address":"3 E North Bend Rd","lat":39.19669948,"state":"OH","long":-84.47672796},"type":"Feature","geometry":{"type":"Point","coordinates":[-84.47672796,39.19669948]}},{"properties":{"city":"Columbus","address2":null,"zip":"43204","phone":"(614) 263-5286","store #":5235,"id":"a65lthkfagxd","address":"799 N Wilson Rd","lat":39.96999083,"state":"OH","long":-83.09715526},"type":"Feature","geometry":{"type":"Point","coordinates":[-83.09715526,39.96999083]}},{"properties":{"city":"Logan","address2":null,"zip":"43138","phone":"(419) 221-2262","store #":5236,"id":"a65lthfdz11s","address":"175 S Mulberry St","lat":39.53867677,"state":"OH","long":-82.40712883},"type":"Feature","geometry":{"type":"Point","coordinates":[-82.40712883,39.53867677]}},{"properties":{"city":"Tipp City","address2":null,"zip":"45371","phone":"(937) 667-3551","store #":5237,"id":"a65lth541n8h","address":"4 Weller Dr","lat":39.96115329,"state":"OH","long":-84.19128868},"type":"Feature","geometry":{"type":"Point","coordinates":[-84.19128868,39.96115329]}},{"properties":{"city":"Enon","address2":null,"zip":"45323","phone":"(937) 832-2980","store #":5241,"id":"a65lthjvdg5i","address":"62 E Main St","lat":39.87879154,"state":"OH","long":-83.93643343},"type":"Feature","geometry":{"type":"Point","coordinates":[-83.93643343,39.87879154]}},{"properties":{"city":"Piqua","address2":null,"zip":"45356","phone":"(937) 773-3992","store #":5243,"id":"a65lth682u5k","address":"1551 Covington Ave","lat":40.14120445,"state":"OH","long":-84.26739572},"type":"Feature","geometry":{"type":"Point","coordinates":[-84.26739572,40.14120445]}},{"properties":{"city":"Troy","address2":null,"zip":"45373","phone":"(937) 335-5042","store #":5249,"id":"a65lth4p9mvn","address":"1894 W Main St","lat":40.05529094,"state":"OH","long":-84.23968704},"type":"Feature","geometry":{"type":"Point","coordinates":[-84.23968704,40.05529094]}},{"properties":{"city":"Brimfield","address2":null,"zip":"44240","phone":"(419) 354-4069","store #":5253,"id":"a65lthhcpjr1","address":"4261 St Rt 43","lat":41.10553854,"state":"OH","long":-81.34720317},"type":"Feature","geometry":{"type":"Point","coordinates":[-81.34720317,41.10553854]}},{"properties":{"city":"Galion","address2":null,"zip":"44833","phone":"(614) 337-2162","store #":5254,"id":"a65lthgjd22i","address":"746 Harding Way W","lat":40.73415726,"state":"OH","long":-82.8012139},"type":"Feature","geometry":{"type":"Point","coordinates":[-82.8012139,40.73415726]}},{"properties":{"city":"Miamisburg","address2":null,"zip":"45342","phone":"(937) 439-1344","store #":5259,"id":"a65lthcu9gcg","address":"1261 E Central Ave","lat":39.64040837,"state":"OH","long":-84.26560973},"type":"Feature","geometry":{"type":"Point","coordinates":[-84.26560973,39.64040837]}},{"properties":{"city":"Findlay","address2":null,"zip":"45840","phone":"(419) 425-0510","store #":5263,"id":"a65lth9fr3xk","address":"752 Trenton Ave","lat":41.05880298,"state":"OH","long":-83.66311975},"type":"Feature","geometry":{"type":"Point","coordinates":[-83.66311975,41.05880298]}},{"properties":{"city":"Toledo","address2":null,"zip":"43613","phone":"(419) 381-0602","store #":5264,"id":"a65lthj2p9eb","address":"1922 W Laskey Rd","lat":41.70691369,"state":"OH","long":-83.59076223},"type":"Feature","geometry":{"type":"Point","coordinates":[-83.59076223,41.70691369]}},{"properties":{"city":"Woodmere","address2":null,"zip":"44122","phone":"(513) 771-7044","store #":5265,"id":"a65lthkdnikt","address":"27939 Chagrin Blvd","lat":41.46242737,"state":"OH","long":-81.48096678},"type":"Feature","geometry":{"type":"Point","coordinates":[-81.48096678,41.46242737]}},{"properties":{"city":"Dayton","address2":null,"zip":"45403","phone":"(937) 279-0700","store #":5266,"id":"a65ltha0pxnd","address":"607 S Smithville Rd","lat":39.75751594,"state":"OH","long":-84.13868202},"type":"Feature","geometry":{"type":"Point","coordinates":[-84.13868202,39.75751594]}},{"properties":{"city":"Cincinnati","address2":null,"zip":"45238","phone":"(513) 451-4387","store #":5268,"id":"a65lthkmomld","address":"5695 Rapid Run","lat":39.10845714,"state":"OH","long":-84.61213069},"type":"Feature","geometry":{"type":"Point","coordinates":[-84.61213069,39.10845714]}},{"properties":{"city":"Toledo","address2":null,"zip":"43617","phone":"(419) 475-4616","store #":5269,"id":"a65lthd7bddr","address":"6500 Central Ave W","lat":41.67560526,"state":"OH","long":-83.69791317},"type":"Feature","geometry":{"type":"Point","coordinates":[-83.69791317,41.67560526]}},{"properties":{"city":"Hilliard","address2":null,"zip":"43026","phone":"(614) 876-4421","store #":5274,"id":"a65lthh5f984","address":"2567 Walcutt Rd","lat":39.99482779,"state":"OH","long":-83.13783212},"type":"Feature","geometry":{"type":"Point","coordinates":[-83.13783212,39.99482779]}},{"properties":{"city":"Middletown","address2":null,"zip":"45044","phone":"(513) 424-7630","store #":5276,"id":"a65lth5rzyuz","address":"461 Oxford State Rd","lat":39.48105417,"state":"OH","long":-84.42136224},"type":"Feature","geometry":{"type":"Point","coordinates":[-84.42136224,39.48105417]}},{"properties":{"city":"Findlay","address2":null,"zip":"45840","phone":"(419) 422-6311","store #":5282,"id":"a65lthj3tl5s","address":"3730 Speedway Dr","lat":41.02445261,"state":"OH","long":-83.65020522},"type":"Feature","geometry":{"type":"Point","coordinates":[-83.65020522,41.02445261]}},{"properties":{"city":"Columbus","address2":null,"zip":"43228","phone":"(614) 351-1900","store #":5284,"id":"a65lth99nqya","address":"3605 W Broad St","lat":39.95377019,"state":"OH","long":-83.09687271},"type":"Feature","geometry":{"type":"Point","coordinates":[-83.09687271,39.95377019]}},{"properties":{"city":"Dayton","address2":null,"zip":"45414","phone":"(937) 253-9870","store #":5286,"id":"a65lth7sd9tm","address":"6501 Miller Lane","lat":39.8416892,"state":"OH","long":-84.19227415},"type":"Feature","geometry":{"type":"Point","coordinates":[-84.19227415,39.8416892]}},{"properties":{"city":"Columbus","address2":null,"zip":"43230","phone":"(614) 276-5005","store #":5289,"id":"a65lthcbt236","address":"4830 N Hamilton Rd","lat":40.05545439,"state":"OH","long":-82.86359374},"type":"Feature","geometry":{"type":"Point","coordinates":[-82.86359374,40.05545439]}},{"properties":{"city":"University Heights","address2":null,"zip":"44121","phone":"(937) 339-6448","store #":5298,"id":"a65lthd0nwmp","address":"14458 Cedar Rd","lat":41.50126796,"state":"OH","long":-81.51979402},"type":"Feature","geometry":{"type":"Point","coordinates":[-81.51979402,41.50126796]}},{"properties":{"city":"Toledo","address2":null,"zip":"43613","phone":"(419) 841-4477","store #":5299,"id":"a65lthkxi1a5","address":"2502 W Alexis","lat":41.72126833,"state":"OH","long":-83.60526803},"type":"Feature","geometry":{"type":"Point","coordinates":[-83.60526803,41.72126833]}},{"properties":{"city":"Bedford Heights","address2":null,"zip":"44146","phone":"(937) 429-9067","store #":5332,"id":"a65lth4pfv49","address":"25300 Aurora Rd","lat":41.40961875,"state":"OH","long":-81.49956391},"type":"Feature","geometry":{"type":"Point","coordinates":[-81.49956391,41.40961875]}},{"properties":{"city":"Fairfax","address2":null,"zip":"45227","phone":"(937) 878-2020","store #":5333,"id":"a65lthkik7oa","address":"6203 Wooster Pike","lat":39.14300645,"state":"OH","long":-84.38816061},"type":"Feature","geometry":{"type":"Point","coordinates":[-84.38816061,39.14300645]}},{"properties":{"city":"Lorain","address2":null,"zip":"44055","phone":"(740) 852-5550","store #":5360,"id":"a65lthe60s7n","address":"1161 N Ridge Rd E","lat":41.41806896,"state":"OH","long":-82.15326957},"type":"Feature","geometry":{"type":"Point","coordinates":[-82.15326957,41.41806896]}},{"properties":{"city":"Port Clinton","address2":null,"zip":"43452","phone":"(937) 773-1950","store #":5401,"id":"a65lthbhb8qj","address":"31 Se Catawba Rd","lat":41.52340003,"state":"OH","long":-82.85864607},"type":"Feature","geometry":{"type":"Point","coordinates":[-82.85864607,41.52340003]}},{"properties":{"city":"Miamisburg","address2":null,"zip":"45342","phone":"(440) 255-8466","store #":5402,"id":"a65lthh7ne0f","address":"7999 Springboro Pike","lat":39.6353459,"state":"OH","long":-84.22549546},"type":"Feature","geometry":{"type":"Point","coordinates":[-84.22549546,39.6353459]}},{"properties":{"city":"Whitehall","address2":null,"zip":"43213","phone":"(440) 899-0179","store #":5404,"id":"a65lthf8ld4b","address":"4790 E Broad St","lat":39.97624784,"state":"OH","long":-82.87395626},"type":"Feature","geometry":{"type":"Point","coordinates":[-82.87395626,39.97624784]}},{"properties":{"city":"Middletown","address2":null,"zip":"45042","phone":"(513) 423-1827","store #":5405,"id":"a65lthbysusm","address":"6562 Manchester Rd","lat":39.54863401,"state":"OH","long":-84.44000202},"type":"Feature","geometry":{"type":"Point","coordinates":[-84.44000202,39.54863401]}},{"properties":{"city":"Cincinnati","address2":null,"zip":"45213","phone":"(513) 451-0673","store #":5409,"id":"a65lthjdvg76","address":"5234 Ridge Ave","lat":39.16772753,"state":"OH","long":-84.42362523},"type":"Feature","geometry":{"type":"Point","coordinates":[-84.42362523,39.16772753]}},{"properties":{"city":"Portsmouth","address2":null,"zip":"45662","phone":"(419) 732-0849","store #":5410,"id":"a65lth7y7he6","address":"2401 Gallia St","lat":38.73930521,"state":"OH","long":-82.96990752},"type":"Feature","geometry":{"type":"Point","coordinates":[-82.96990752,38.73930521]}},{"properties":{"city":"Holland","address2":null,"zip":"43528","phone":"(937) 393-3130","store #":5413,"id":"a65lth6oftoc","address":"6757 Airport Hwy","lat":41.61210521,"state":"OH","long":-83.70062265},"type":"Feature","geometry":{"type":"Point","coordinates":[-83.70062265,41.61210521]}},{"properties":{"city":"Cincinnati","address2":null,"zip":"45255","phone":"(513) 631-7854","store #":5415,"id":"a65lthh43h80","address":"8352 Beechmont","lat":39.07250601,"state":"OH","long":-84.3225034},"type":"Feature","geometry":{"type":"Point","coordinates":[-84.3225034,39.07250601]}},{"properties":{"city":"Cincinnati","address2":null,"zip":"45251","phone":"(513) 474-9485","store #":5416,"id":"a65lth5yvug1","address":"10270 Colerain Ave","lat":39.26339838,"state":"OH","long":-84.6043938},"type":"Feature","geometry":{"type":"Point","coordinates":[-84.6043938,39.26339838]}},{"properties":{"city":"Pataskala","address2":null,"zip":"43062","phone":"(216) 433-0886","store #":5417,"id":"a65lth546c0x","address":"9749 Hazelton Etna Rd","lat":39.95233307,"state":"OH","long":-82.68261074},"type":"Feature","geometry":{"type":"Point","coordinates":[-82.68261074,39.95233307]}},{"properties":{"city":"Dublin","address2":null,"zip":"43017","phone":"(614) 764-0332","store #":5480,"id":"a65lthbmmzgi","address":"5984 Sawmill Rd","lat":40.08928953,"state":"OH","long":-83.09178224},"type":"Feature","geometry":{"type":"Point","coordinates":[-83.09178224,40.08928953]}},{"properties":{"city":"Willoughby","address2":null,"zip":"44094","phone":"(937) 372-7129","store #":5839,"id":"a65lthjh6mru","address":"38700 Mentor Ave","lat":41.64395171,"state":"OH","long":-81.39436681},"type":"Feature","geometry":{"type":"Point","coordinates":[-81.39436681,41.64395171]}},{"properties":{"city":"Dayton","address2":null,"zip":"45426","phone":"(937) 264-1618","store #":6219,"id":"a65lth8b1owo","address":"2001 Shiloh Springs Rd","lat":39.81928272,"state":"OH","long":-84.27395009},"type":"Feature","geometry":{"type":"Point","coordinates":[-84.27395009,39.81928272]}},{"properties":{"city":"Canton","address2":null,"zip":"44706","phone":"(330) 484-7842","store #":6234,"id":"a65lth6ki1hs","address":"4985 Navarre Rd","lat":40.76678218,"state":"OH","long":-81.44694738},"type":"Feature","geometry":{"type":"Point","coordinates":[-81.44694738,40.76678218]}},{"properties":{"city":"Canton","address2":null,"zip":"44709","phone":"(330) 479-2989","store #":6236,"id":"a65lthfpllbr","address":"3980 Everhard","lat":40.84239408,"state":"OH","long":-81.38610245},"type":"Feature","geometry":{"type":"Point","coordinates":[-81.38610245,40.84239408]}},{"properties":{"city":"North Canton","address2":null,"zip":"44721","phone":"(330) 497-8391","store #":6237,"id":"a65lth9jdu88","address":"2570 Easton St","lat":40.87374316,"state":"OH","long":-81.33352676},"type":"Feature","geometry":{"type":"Point","coordinates":[-81.33352676,40.87374316]}},{"properties":{"city":"Swanton","address2":null,"zip":"43558","phone":"(330) 852-3178","store #":6238,"id":"a65lth54cy54","address":"14155 Airport Hwy","lat":41.58119579,"state":"OH","long":-83.87931906},"type":"Feature","geometry":{"type":"Point","coordinates":[-83.87931906,41.58119579]}},{"properties":{"city":"Wellston","address2":null,"zip":"45692","phone":"(330) 866-3211","store #":6239,"id":"a65lthhxwk33","address":"1219 Pennsylvania Ave","lat":39.11270159,"state":"OH","long":-82.53453716},"type":"Feature","geometry":{"type":"Point","coordinates":[-82.53453716,39.11270159]}},{"properties":{"city":"Niles","address2":null,"zip":"44446","phone":"(740) 492-0721","store #":6240,"id":"a65lthb7yihe","address":"120 Vienna Ave","lat":41.18461073,"state":"OH","long":-80.75817476},"type":"Feature","geometry":{"type":"Point","coordinates":[-80.75817476,41.18461073]}},{"properties":{"city":"Bowling Green","address2":null,"zip":"43402","phone":"(330) 874-4616","store #":6241,"id":"a65lth7gtmac","address":"1650 E Wooster St","lat":41.37441983,"state":"OH","long":-83.62083561},"type":"Feature","geometry":{"type":"Point","coordinates":[-83.62083561,41.37441983]}},{"properties":{"city":"New Philadelphia","address2":null,"zip":"44663","phone":"(330) 343-1911","store #":6242,"id":"a65lthbinmd3","address":"1260 W High Ave","lat":40.49327346,"state":"OH","long":-81.4732488},"type":"Feature","geometry":{"type":"Point","coordinates":[-81.4732488,40.49327346]}},{"properties":{"city":"Dover","address2":null,"zip":"44622","phone":"(330) 343-9469","store #":6243,"id":"a65lthjawzd6","address":"1042 N Tuscarawas Ave","lat":40.52657404,"state":"OH","long":-81.48881804},"type":"Feature","geometry":{"type":"Point","coordinates":[-81.48881804,40.52657404]}},{"properties":{"city":"Dublin","address2":null,"zip":"43017","phone":"(330) 364-2363","store #":6244,"id":"a65lthh617sl","address":"3750 W Dublin Granville Rd","lat":40.09725018,"state":"OH","long":-83.09182386},"type":"Feature","geometry":{"type":"Point","coordinates":[-83.09182386,40.09725018]}},{"properties":{"city":"Carrollton","address2":null,"zip":"44615","phone":"(330) 627-3606","store #":6245,"id":"a65lthl4ho4n","address":"44 Canton Rd Nw","lat":40.5675248,"state":"OH","long":-81.07358754},"type":"Feature","geometry":{"type":"Point","coordinates":[-81.07358754,40.5675248]}},{"properties":{"city":"New Richmond","address2":null,"zip":"45157","phone":"(330) 339-7770","store #":6246,"id":"a65lthfgvsk6","address":"520 Sycamore Ct","lat":38.95544553,"state":"OH","long":-84.28079314},"type":"Feature","geometry":{"type":"Point","coordinates":[-84.28079314,38.95544553]}},{"properties":{"city":"Mogadore","address2":null,"zip":"44260","phone":"(330) 674-7344","store #":6247,"id":"a65lthfov72v","address":"3903 Mogadore Rd","lat":41.05117113,"state":"OH","long":-81.39952673},"type":"Feature","geometry":{"type":"Point","coordinates":[-81.39952673,41.05117113]}},{"properties":{"city":"Greenville","address2":null,"zip":"45331","phone":"(937) 547-1039","store #":6327,"id":"a65lthcrcf69","address":"1350 Sweitzer St","lat":40.08066219,"state":"OH","long":-84.63389934},"type":"Feature","geometry":{"type":"Point","coordinates":[-84.63389934,40.08066219]}},{"properties":{"city":"Milford","address2":null,"zip":"45150","phone":"(513) 424-1910","store #":6336,"id":"a65lth9xacag","address":"1143 S R 131","lat":39.16850209,"state":"OH","long":-84.2273745},"type":"Feature","geometry":{"type":"Point","coordinates":[-84.2273745,39.16850209]}},{"properties":{"city":"Delta","address2":null,"zip":"43515","phone":"(419) 695-6302","store #":6345,"id":"a65lthkdlnjq","address":"420 Main St","lat":41.57355161,"state":"OH","long":-84.013467},"type":"Feature","geometry":{"type":"Point","coordinates":[-84.013467,41.57355161]}},{"properties":{"city":"South Euclid","address2":null,"zip":"44121","phone":"(937) 492-1093","store #":6346,"id":"a65lthjw20fh","address":"4549 Mayfield Rd","lat":41.519739,"state":"OH","long":-81.51549909},"type":"Feature","geometry":{"type":"Point","coordinates":[-81.51549909,41.519739]}},{"properties":{"city":"Monroe","address2":null,"zip":"45050","phone":"(513) 539-4541","store #":7048,"id":"a65lthgk81eh","address":"23 New Garver Rd","lat":39.44135194,"state":"OH","long":-84.34080666},"type":"Feature","geometry":{"type":"Point","coordinates":[-84.34080666,39.44135194]}},{"properties":{"city":"Hartville","address2":null,"zip":"44632","phone":"(513) 367-5445","store #":7560,"id":"a65lthhd5unj","address":"1100 W Maple","lat":40.96804081,"state":"OH","long":-81.34760195},"type":"Feature","geometry":{"type":"Point","coordinates":[-81.34760195,40.96804081]}},{"properties":{"city":"Huber Heights","address2":null,"zip":"45424","phone":"(937) 233-1320","store #":8241,"id":"a65lthdi5cnu","address":"6000 Brandt Pike","lat":39.839776,"state":"OH","long":-84.11767007},"type":"Feature","geometry":{"type":"Point","coordinates":[-84.11767007,39.839776]}},{"properties":{"city":"Lancaster","address2":null,"zip":"43130","phone":"(216) 228-8141","store #":8339,"id":"a65lthl1tsir","address":"2735 Columbus Lancaster Rd","lat":39.69949438,"state":"OH","long":-82.60888238},"type":"Feature","geometry":{"type":"Point","coordinates":[-82.60888238,39.69949438]}},{"properties":{"city":"Columbus","address2":null,"zip":"43220","phone":"(614) 855-8194","store #":8345,"id":"a65lth5hjz1m","address":"1434 Bethel Rd","lat":40.0638355,"state":"OH","long":-83.05778878},"type":"Feature","geometry":{"type":"Point","coordinates":[-83.05778878,40.0638355]}},{"properties":{"city":"Cambridge","address2":null,"zip":"43725","phone":"(419) 563-9990","store #":8493,"id":"a65lth6qgshu","address":"2340 E Wheeling Ave","lat":40.02763221,"state":"OH","long":-81.56915199},"type":"Feature","geometry":{"type":"Point","coordinates":[-81.56915199,40.02763221]}},{"properties":{"city":"Forest Park","address2":null,"zip":"45240","phone":"(419) 425-9542","store #":8502,"id":"a65lthazityj","address":"625 Northland Blvd","lat":39.28067382,"state":"OH","long":-84.50011828},"type":"Feature","geometry":{"type":"Point","coordinates":[-84.50011828,39.28067382]}},{"properties":{"city":"Englewood","address2":null,"zip":"45322","phone":"(440) 323-6660","store #":8556,"id":"a65lth8qccv7","address":"711 S Main St","lat":39.86770075,"state":"OH","long":-84.29106878},"type":"Feature","geometry":{"type":"Point","coordinates":[-84.29106878,39.86770075]}},{"properties":{"city":"Euclid","address2":null,"zip":"44117","phone":"(937) 864-5132","store #":8574,"id":"a65lth9ponk9","address":"22251 Euclid Ave","lat":41.57225919,"state":"OH","long":-81.52658751},"type":"Feature","geometry":{"type":"Point","coordinates":[-81.52658751,41.57225919]}},{"properties":{"city":"Yellow Springs","address2":null,"zip":"45387","phone":"(937) 374-0815","store #":8584,"id":"a65lth9fl4n6","address":"301 Xenia Ave","lat":39.80495262,"state":"OH","long":-83.8893361},"type":"Feature","geometry":{"type":"Point","coordinates":[-83.8893361,39.80495262]}},{"properties":{"city":"Tallmadge","address2":null,"zip":"44278","phone":"(419) 882-1986","store #":8594,"id":"a65lthd9zdfn","address":"103 East Ave","lat":41.10144063,"state":"OH","long":-81.436749},"type":"Feature","geometry":{"type":"Point","coordinates":[-81.436749,41.10144063]}},{"properties":{"city":"Perrysburg","address2":null,"zip":"43551","phone":"(740) 964-2341","store #":8600,"id":"a65lth8rm1lm","address":"11141 Fremont Pike","lat":41.55210418,"state":"OH","long":-83.60833891},"type":"Feature","geometry":{"type":"Point","coordinates":[-83.60833891,41.55210418]}},{"properties":{"city":"Garrettsville","address2":null,"zip":"44231","phone":"(216) 587-4309","store #":8605,"id":"a65lthc276f6","address":"10769 North St","lat":41.28539669,"state":"OH","long":-81.09870992},"type":"Feature","geometry":{"type":"Point","coordinates":[-81.09870992,41.28539669]}},{"properties":{"city":"Toledo","address2":null,"zip":"43612","phone":"(419) 472-9975","store #":8610,"id":"a65lthky36g5","address":"1525 W Alexis Rd","lat":41.72122085,"state":"OH","long":-83.58224288},"type":"Feature","geometry":{"type":"Point","coordinates":[-83.58224288,41.72122085]}},{"properties":{"city":"Lewis Center","address2":null,"zip":"43035","phone":"(513) 932-4290","store #":8626,"id":"a65lthdqjd4j","address":"5619 Columbus Pike","lat":40.21461078,"state":"OH","long":-83.0329428},"type":"Feature","geometry":{"type":"Point","coordinates":[-83.0329428,40.21461078]}},{"properties":{"city":"Newark","address2":null,"zip":"43055","phone":"(740) 522-2873","store #":8640,"id":"a65lthgwtptx","address":"1280 N 21st St","lat":40.08204168,"state":"OH","long":-82.42777106},"type":"Feature","geometry":{"type":"Point","coordinates":[-82.42777106,40.08204168]}},{"properties":{"city":"Cleveland","address2":null,"zip":"44129","phone":"(216) 671-5943","store #":8641,"id":"a65lth514e4h","address":"7250 Brookpark Rd","lat":41.41873595,"state":"OH","long":-81.73358166},"type":"Feature","geometry":{"type":"Point","coordinates":[-81.73358166,41.41873595]}},{"properties":{"city":"Steubenville","address2":null,"zip":"43952","phone":"(937) 325-6071","store #":8916,"id":"a65lthe63ezt","address":"201 N Third St","lat":40.36133084,"state":"OH","long":-80.61288576},"type":"Feature","geometry":{"type":"Point","coordinates":[-80.61288576,40.36133084]}},{"properties":{"city":"South Point","address2":null,"zip":"45680","phone":"(740) 377-2023","store #":9043,"id":"a65lthgg82xp","address":"439 County Rd 406","lat":38.4176973,"state":"OH","long":-82.51043227},"type":"Feature","geometry":{"type":"Point","coordinates":[-82.51043227,38.4176973]}},{"properties":{"city":"Loveland","address2":null,"zip":"45140","phone":"(330) 875-5472","store #":9053,"id":"a65lth6h37f7","address":"10440 Loveland-Madeira Rd","lat":39.27801632,"state":"OH","long":-84.24838076},"type":"Feature","geometry":{"type":"Point","coordinates":[-84.24838076,39.27801632]}},{"properties":{"city":"North Ridgeville","address2":null,"zip":"44039","phone":"(440) 779-1638","store #":9084,"id":"a65ltheeoix2","address":"35066 Center Ridge Rd","lat":41.39346899,"state":"OH","long":-82.00787971},"type":"Feature","geometry":{"type":"Point","coordinates":[-82.00787971,41.39346899]}},{"properties":{"city":"Columbus","address2":null,"zip":"43213","phone":"(614) 451-0054","store #":9147,"id":"a65lthctibhh","address":"4901 E Main St","lat":39.97021694,"state":"OH","long":-82.86876163},"type":"Feature","geometry":{"type":"Point","coordinates":[-82.86876163,39.97021694]}},{"properties":{"city":"North Canton","address2":null,"zip":"44720","phone":"(330) 492-4707","store #":9148,"id":"a65ltha8wjwd","address":"4967 Portage St","lat":40.87946568,"state":"OH","long":-81.44047689},"type":"Feature","geometry":{"type":"Point","coordinates":[-81.44047689,40.87946568]}},{"properties":{"city":"Columbus","address2":null,"zip":"43220","phone":"(614) 863-6864","store #":9151,"id":"a65lthiiybm5","address":"1790 Henderson Rd","lat":40.05418801,"state":"OH","long":-83.06725229},"type":"Feature","geometry":{"type":"Point","coordinates":[-83.06725229,40.05418801]}},{"properties":{"city":"Zanesville","address2":null,"zip":"43701","phone":"(740) 453-0289","store #":9153,"id":"a65lthbo6aco","address":"3170 N Maple Ave","lat":39.97953502,"state":"OH","long":-82.01693218},"type":"Feature","geometry":{"type":"Point","coordinates":[-82.01693218,39.97953502]}},{"properties":{"city":"Akron","address2":null,"zip":"44304","phone":"(330) 724-7749","store #":9155,"id":"a65lth8gskyx","address":"390 E Exchange St","lat":41.07152448,"state":"OH","long":-81.50975767},"type":"Feature","geometry":{"type":"Point","coordinates":[-81.50975767,41.07152448]}},{"properties":{"city":"Columbus","address2":null,"zip":"43232","phone":"(614) 451-0263","store #":9159,"id":"a65lthi7v6iy","address":"3233 Refugee Rd","lat":39.91736868,"state":"OH","long":-82.9153848},"type":"Feature","geometry":{"type":"Point","coordinates":[-82.9153848,39.91736868]}},{"properties":{"city":"Canton","address2":null,"zip":"44707","phone":"(330) 497-9070","store #":9161,"id":"a65lthg0fih4","address":"2619 Cleveland Ave Sw","lat":40.76881893,"state":"OH","long":-81.38446944},"type":"Feature","geometry":{"type":"Point","coordinates":[-81.38446944,40.76881893]}},{"properties":{"city":"Centerville","address2":null,"zip":"45458","phone":"(330) 627-2636","store #":9162,"id":"a65lthl1tgsx","address":"901 S Main St","lat":39.61954266,"state":"OH","long":-84.15978592},"type":"Feature","geometry":{"type":"Point","coordinates":[-84.15978592,39.61954266]}},{"properties":{"city":"Columbus","address2":null,"zip":"43224","phone":"(614) 236-1712","store #":9165,"id":"a65lth70sx41","address":"3974 Cleveland Ave","lat":40.05011696,"state":"OH","long":-82.95366321},"type":"Feature","geometry":{"type":"Point","coordinates":[-82.95366321,40.05011696]}},{"properties":{"city":"Steubenville","address2":null,"zip":"43952","phone":"(740) 283-4491","store #":9167,"id":"a65lth742e5b","address":"4455 Sunset Blvd","lat":40.37281599,"state":"OH","long":-80.68204993},"type":"Feature","geometry":{"type":"Point","coordinates":[-80.68204993,40.37281599]}},{"properties":{"city":"Gallipolis","address2":null,"zip":"45631","phone":"(740) 446-2083","store #":9168,"id":"a65lthdryxbg","address":"1026 Jackson Pike","lat":38.84288719,"state":"OH","long":-82.25347122},"type":"Feature","geometry":{"type":"Point","coordinates":[-82.25347122,38.84288719]}},{"properties":{"city":"Lewis Center","address2":null,"zip":"43035","phone":"(740) 548-4501","store #":9171,"id":"a65lthhdy1gy","address":"10330 N High St","lat":40.18664066,"state":"OH","long":-82.99732284},"type":"Feature","geometry":{"type":"Point","coordinates":[-82.99732284,40.18664066]}},{"properties":{"city":"Cleveland","address2":null,"zip":"44111","phone":"(216) 398-4445","store #":9172,"id":"a65lth8huwxs","address":"15520 Munn Rd","lat":41.4589127,"state":"OH","long":-81.80539513},"type":"Feature","geometry":{"type":"Point","coordinates":[-81.80539513,41.4589127]}},{"properties":{"city":"Reynoldsburg","address2":null,"zip":"43068","phone":"(330) 325-9073","store #":9175,"id":"a65lthj42zwe","address":"7881 E Main St","lat":39.95543493,"state":"OH","long":-82.79064619},"type":"Feature","geometry":{"type":"Point","coordinates":[-82.79064619,39.95543493]}},{"properties":{"city":"Dayton","address2":null,"zip":"45431","phone":"(330) 928-7922","store #":9178,"id":"a65lth90gv8o","address":"5500 Airway Rd","lat":39.77155224,"state":"OH","long":-84.11115602},"type":"Feature","geometry":{"type":"Point","coordinates":[-84.11115602,39.77155224]}},{"properties":{"city":"Lancaster","address2":null,"zip":"43130","phone":"(740) 654-3792","store #":9179,"id":"a65lthiq48q9","address":"508 N Memorial Dr","lat":39.71892849,"state":"OH","long":-82.6068103},"type":"Feature","geometry":{"type":"Point","coordinates":[-82.6068103,39.71892849]}},{"properties":{"city":"Mansfield","address2":null,"zip":"44905","phone":"(419) 747-1892","store #":9183,"id":"a65lthkrp1k3","address":"1394 E Ashland Rd","lat":40.78319823,"state":"OH","long":-82.46317881},"type":"Feature","geometry":{"type":"Point","coordinates":[-82.46317881,40.78319823]}},{"properties":{"city":"Marietta","address2":null,"zip":"45750","phone":"(740) 373-3878","store #":9185,"id":"a65lth4uuv7p","address":"100 Seventh St","lat":39.4274915,"state":"OH","long":-81.43451294},"type":"Feature","geometry":{"type":"Point","coordinates":[-81.43451294,39.4274915]}},{"properties":{"city":"Logan","address2":null,"zip":"43138","phone":"(740) 385-2626","store #":9186,"id":"a65lth5be551","address":"1298 W Hunter St","lat":39.5435177,"state":"OH","long":-82.42712407},"type":"Feature","geometry":{"type":"Point","coordinates":[-82.42712407,39.5435177]}},{"properties":{"city":"Delphos","address2":null,"zip":"45833","phone":"(740) 369-1752","store #":9189,"id":"a65lthepvkuo","address":"238 W 5th St","lat":40.84721193,"state":"OH","long":-84.3417307},"type":"Feature","geometry":{"type":"Point","coordinates":[-84.3417307,40.84721193]}},{"properties":{"city":"Maple Heights","address2":null,"zip":"44137","phone":"(419) 589-8331","store #":9190,"id":"a65lth9w3w46","address":"16400 Rockside Rd","lat":41.40209296,"state":"OH","long":-81.5663894},"type":"Feature","geometry":{"type":"Point","coordinates":[-81.5663894,41.40209296]}},{"properties":{"city":"Napoleon","address2":null,"zip":"43545","phone":"(740) 393-2138","store #":9193,"id":"a65lthjbga3p","address":"904 Scott St","lat":41.39357595,"state":"OH","long":-84.12856243},"type":"Feature","geometry":{"type":"Point","coordinates":[-84.12856243,41.39357595]}},{"properties":{"city":"Newark","address2":null,"zip":"43055","phone":"(740) 366-7092","store #":9194,"id":"a65lth631f7s","address":"117 E Main St","lat":40.05916303,"state":"OH","long":-82.39714085},"type":"Feature","geometry":{"type":"Point","coordinates":[-82.39714085,40.05916303]}},{"properties":{"city":"Middleport","address2":null,"zip":"45760","phone":"(440) 234-1622","store #":9196,"id":"a65lth5ypkuk","address":"497 General Hartinger Pkwy","lat":38.9967156,"state":"OH","long":-82.05498214},"type":"Feature","geometry":{"type":"Point","coordinates":[-82.05498214,38.9967156]}},{"properties":{"city":"South Point","address2":null,"zip":"45680","phone":"(740) 894-5007","store #":9213,"id":"a65lthhgd0be","address":"296 County Rd 410","lat":38.41157048,"state":"OH","long":-82.52201764},"type":"Feature","geometry":{"type":"Point","coordinates":[-82.52201764,38.41157048]}},{"properties":{"city":"Xenia","address2":null,"zip":"45385","phone":"(330) 262-0176","store #":9219,"id":"a65lth5cgg4t","address":"738 N Detroit St","lat":39.69617786,"state":"OH","long":-83.93216162},"type":"Feature","geometry":{"type":"Point","coordinates":[-83.93216162,39.69617786]}},{"properties":{"city":"New Carlisle","address2":null,"zip":"45344","phone":"(740) 753-3410","store #":9224,"id":"a65lthhcb5v0","address":"1625 S Dayton Lakeview Rd","lat":39.89749793,"state":"OH","long":-84.04754177},"type":"Feature","geometry":{"type":"Point","coordinates":[-84.04754177,39.89749793]}},{"properties":{"city":"Carrollton","address2":null,"zip":"44615","phone":"(740) 756-4086","store #":9226,"id":"a65lthjl3jg7","address":"1120 Canton Rd Nw","lat":40.58881711,"state":"OH","long":-81.09190278},"type":"Feature","geometry":{"type":"Point","coordinates":[-81.09190278,40.58881711]}},{"properties":{"city":"Brook Park","address2":null,"zip":"44142","phone":"(216) 676-5341","store #":9230,"id":"a65lth97f1tz","address":"5764 W 130th St","lat":41.40536031,"state":"OH","long":-81.78426203},"type":"Feature","geometry":{"type":"Point","coordinates":[-81.78426203,41.40536031]}},{"properties":{"city":"Gallipolis","address2":null,"zip":"45631","phone":"(740) 446-6745","store #":9232,"id":"a65lth91j8w7","address":"801 2nd Ave","lat":38.81318884,"state":"OH","long":-82.19702584},"type":"Feature","geometry":{"type":"Point","coordinates":[-82.19702584,38.81318884]}},{"properties":{"city":"Athens","address2":null,"zip":"45701","phone":"(740) 592-3451","store #":9235,"id":"a65lth95i9yb","address":"414 Richland Ave","lat":39.3126035,"state":"OH","long":-82.10354564},"type":"Feature","geometry":{"type":"Point","coordinates":[-82.10354564,39.3126035]}},{"properties":{"city":"Marietta","address2":null,"zip":"45750","phone":"(740) 374-5217","store #":9236,"id":"a65lth67gwrv","address":"433 Second St","lat":39.41788756,"state":"OH","long":-81.45740774},"type":"Feature","geometry":{"type":"Point","coordinates":[-81.45740774,39.41788756]}},{"properties":{"city":"Marion","address2":null,"zip":"43302","phone":"(740) 374-8087","store #":9237,"id":"a65lthb8cuxs","address":"1603 Harding Hwy E","lat":40.59263888,"state":"OH","long":-83.08722249},"type":"Feature","geometry":{"type":"Point","coordinates":[-83.08722249,40.59263888]}},{"properties":{"city":"Waynesburg","address2":null,"zip":"44688","phone":"(740) 947-5921","store #":9238,"id":"a65lthatyy1y","address":"8720 Waynesburg Dr Ne","lat":40.67597811,"state":"OH","long":-81.26092389},"type":"Feature","geometry":{"type":"Point","coordinates":[-81.26092389,40.67597811]}},{"properties":{"city":"Jefferson","address2":null,"zip":"44047","phone":"(740) 286-5158","store #":9239,"id":"a65lthdu35z7","address":"149 N Chestnut St","lat":41.74135993,"state":"OH","long":-80.76955594},"type":"Feature","geometry":{"type":"Point","coordinates":[-80.76955594,41.74135993]}},{"properties":{"city":"Garfield Heights","address2":null,"zip":"44125","phone":"(740) 446-4324","store #":9241,"id":"a65lth8vuqpa","address":"5122 Turney Rd","lat":41.42223743,"state":"OH","long":-81.6099241},"type":"Feature","geometry":{"type":"Point","coordinates":[-81.6099241,41.42223743]}},{"properties":{"city":"Aurora","address2":null,"zip":"44202","phone":"(740) 593-7389","store #":9242,"id":"a65lthih86c4","address":"7353 N Aurora Rd","lat":41.34909757,"state":"OH","long":-81.37952205},"type":"Feature","geometry":{"type":"Point","coordinates":[-81.37952205,41.34909757]}},{"properties":{"city":"Lewis Center","address2":null,"zip":"43035","phone":"(614) 888-5224","store #":9247,"id":"a65lthd4l0tx","address":"770 Polaris Parkway","lat":40.15412916,"state":"OH","long":-83.00145556},"type":"Feature","geometry":{"type":"Point","coordinates":[-83.00145556,40.15412916]}},{"properties":{"city":"Steubenville","address2":null,"zip":"43952","phone":"(740) 264-3386","store #":9248,"id":"a65lthb3lt8e","address":"2619 Sunset Blvd","lat":40.37357597,"state":"OH","long":-80.64944448},"type":"Feature","geometry":{"type":"Point","coordinates":[-80.64944448,40.37357597]}},{"properties":{"city":"Columbus","address2":null,"zip":"43213","phone":"(614) 478-7909","store #":9249,"id":"a65lth4zv7kl","address":"6425 E Broad St","lat":39.98076759,"state":"OH","long":-82.83073797},"type":"Feature","geometry":{"type":"Point","coordinates":[-82.83073797,39.98076759]}},{"properties":{"city":"Belpre","address2":null,"zip":"45714","phone":"(740) 423-4134","store #":9260,"id":"a65lthht4gzq","address":"814 Farson Ave","lat":39.28322662,"state":"OH","long":-81.61076242},"type":"Feature","geometry":{"type":"Point","coordinates":[-81.61076242,39.28322662]}},{"properties":{"city":"Columbus","address2":null,"zip":"43223","phone":"(614) 868-6840","store #":9263,"id":"a65lth5izxuw","address":"1505 Harrisburg Pike","lat":39.92727858,"state":"OH","long":-83.05643088},"type":"Feature","geometry":{"type":"Point","coordinates":[-83.05643088,39.92727858]}},{"properties":{"city":"Hillsboro","address2":null,"zip":"45133","phone":"(614) 527-9807","store #":9265,"id":"a65lthg7jms8","address":"247 W Main St","lat":39.20266606,"state":"OH","long":-83.61539992},"type":"Feature","geometry":{"type":"Point","coordinates":[-83.61539992,39.20266606]}},{"properties":{"city":"Columbus","address2":null,"zip":"43223","phone":"(740) 532-0811","store #":9266,"id":"a65lth9mutzi","address":"715 Brown Rd","lat":39.94226199,"state":"OH","long":-83.03734674},"type":"Feature","geometry":{"type":"Point","coordinates":[-83.03734674,39.94226199]}},{"properties":{"city":"Columbus","address2":null,"zip":"43202","phone":"(614) 351-0550","store #":9268,"id":"a65lthb3kaue","address":"2510 N High St","lat":40.01327695,"state":"OH","long":-83.01093923},"type":"Feature","geometry":{"type":"Point","coordinates":[-83.01093923,40.01327695]}},{"properties":{"city":"Canton","address2":null,"zip":"44708","phone":"(614) 833-4774","store #":9269,"id":"a65lthasd27w","address":"2920 12th St N W","lat":40.81728639,"state":"OH","long":-81.43499246},"type":"Feature","geometry":{"type":"Point","coordinates":[-81.43499246,40.81728639]}},{"properties":{"city":"Richmond Heights","address2":null,"zip":"44143","phone":"(614) 866-2962","store #":9270,"id":"a65lthiroyze","address":"230 Richmond Rd","lat":41.57570322,"state":"OH","long":-81.49642832},"type":"Feature","geometry":{"type":"Point","coordinates":[-81.49642832,41.57570322]}},{"properties":{"city":"Piqua","address2":null,"zip":"45356","phone":"(614) 575-2076","store #":9271,"id":"a65lthiya2zg","address":"900 Scott Dr","lat":40.1512529,"state":"OH","long":-84.22395703},"type":"Feature","geometry":{"type":"Point","coordinates":[-84.22395703,40.1512529]}},{"properties":{"city":"Springboro","address2":null,"zip":"45066","phone":"(740) 453-1925","store #":9279,"id":"a65lth8rimc2","address":"595 W Central Ave","lat":39.55953534,"state":"OH","long":-84.24333729},"type":"Feature","geometry":{"type":"Point","coordinates":[-84.24333729,39.55953534]}},{"properties":{"city":"Columbus","address2":null,"zip":"43026","phone":"(614) 267-0306","store #":9281,"id":"a65lth7p8r53","address":"1700 Hilliard Rome Rd","lat":39.98543301,"state":"OH","long":-83.15081358},"type":"Feature","geometry":{"type":"Point","coordinates":[-83.15081358,39.98543301]}},{"properties":{"city":"Eaton","address2":null,"zip":"45320","phone":"(614) 766-0556","store #":9283,"id":"a65lthh4s2qj","address":"1301 N Barron St","lat":39.75921146,"state":"OH","long":-84.6365648},"type":"Feature","geometry":{"type":"Point","coordinates":[-84.6365648,39.75921146]}},{"properties":{"city":"South VIenna","address2":null,"zip":"45369","phone":"(740) 894-6104","store #":9284,"id":"a65lth8e5vfb","address":"Po Box 9","lat":39.95707912,"state":"OH","long":-83.60876876},"type":"Feature","geometry":{"type":"Point","coordinates":[-83.60876876,39.95707912]}},{"properties":{"city":"Ravenna","address2":null,"zip":"44266","phone":"(740) 886-9782","store #":9286,"id":"a65lth814lqk","address":"4162 Lynn Rd","lat":41.11102515,"state":"OH","long":-81.24219734},"type":"Feature","geometry":{"type":"Point","coordinates":[-81.24219734,41.11102515]}},{"properties":{"city":"Massillon","address2":null,"zip":"44646","phone":"(330) 830-8830","store #":9290,"id":"a65lth4mjfw2","address":"4230 Erie Ave Sw","lat":40.81101766,"state":"OH","long":-81.49812988},"type":"Feature","geometry":{"type":"Point","coordinates":[-81.49812988,40.81101766]}},{"properties":{"city":"Mentor","address2":null,"zip":"44060","phone":"(330) 723-2291","store #":9294,"id":"a65lth6u0s0j","address":"7340 Lakeshore Blvd","lat":41.70062418,"state":"OH","long":-81.37788748},"type":"Feature","geometry":{"type":"Point","coordinates":[-81.37788748,41.70062418]}},{"properties":{"city":"Brookville","address2":null,"zip":"45309","phone":"(216) 265-8600","store #":9297,"id":"a65lthitj7p0","address":"799 Arlington Rd","lat":39.84259446,"state":"OH","long":-84.42480753},"type":"Feature","geometry":{"type":"Point","coordinates":[-84.42480753,39.84259446]}},{"properties":{"city":"Columbus","address2":null,"zip":"43221","phone":"(614) 771-8990","store #":9298,"id":"a65lthba41zr","address":"3616 Riverside Dr","lat":40.02699094,"state":"OH","long":-83.09112067},"type":"Feature","geometry":{"type":"Point","coordinates":[-83.09112067,40.02699094]}},{"properties":{"city":"Hubbard","address2":null,"zip":"44425","phone":"(419) 868-9040","store #":9299,"id":"a65lth8i99gq","address":"806 W Liberty St","lat":41.156456,"state":"OH","long":-80.58219785},"type":"Feature","geometry":{"type":"Point","coordinates":[-80.58219785,41.156456]}},{"properties":{"city":"Dayton","address2":null,"zip":"45409","phone":"(937) 854-5134","store #":9300,"id":"a65lthghmtwu","address":"121 E Stewart St","lat":39.74079981,"state":"OH","long":-84.18373555},"type":"Feature","geometry":{"type":"Point","coordinates":[-84.18373555,39.74079981]}},{"properties":{"city":"Kettering","address2":null,"zip":"45429","phone":"(330) 677-5550","store #":9303,"id":"a65lthhi35tk","address":"3201 Wilmington Pike","lat":39.69973445,"state":"OH","long":-84.14153898},"type":"Feature","geometry":{"type":"Point","coordinates":[-84.14153898,39.69973445]}},{"properties":{"city":"Newburgh Heights","address2":null,"zip":"44105","phone":"(740) 345-0755","store #":9312,"id":"a65lth4sho9h","address":"2609 Harvard Ave","lat":41.44778313,"state":"OH","long":-81.6707373},"type":"Feature","geometry":{"type":"Point","coordinates":[-81.6707373,41.44778313]}},{"properties":{"city":"Columbus","address2":null,"zip":"43209","phone":"(614) 459-1516","store #":9313,"id":"a65lthcp2bxb","address":"2965 E Main St","lat":39.95661283,"state":"OH","long":-82.91921778},"type":"Feature","geometry":{"type":"Point","coordinates":[-82.91921778,39.95661283]}},{"properties":{"city":"Maumee","address2":null,"zip":"43537","phone":"(330) 879-2744","store #":9314,"id":"a65lthah9azk","address":"502 Conant St","lat":41.56386916,"state":"OH","long":-83.6543434},"type":"Feature","geometry":{"type":"Point","coordinates":[-83.6543434,41.56386916]}},{"properties":{"city":"Canton","address2":null,"zip":"44706","phone":"(330) 484-3844","store #":9319,"id":"a65lthag1i0o","address":"2122 Navarre Rd","lat":40.78602349,"state":"OH","long":-81.39754805},"type":"Feature","geometry":{"type":"Point","coordinates":[-81.39754805,40.78602349]}},{"properties":{"city":"West Carrollton","address2":null,"zip":"45449","phone":"(740) 384-2622","store #":9335,"id":"a65lthibkoby","address":"747 E Central Ave","lat":39.67653113,"state":"OH","long":-84.24181127},"type":"Feature","geometry":{"type":"Point","coordinates":[-84.24181127,39.67653113]}},{"properties":{"city":"Cincinnati","address2":null,"zip":"45246","phone":"(513) 741-8134","store #":9336,"id":"a65lth7l9pwb","address":"9738 Princeton Glendale Rd","lat":39.31365615,"state":"OH","long":-84.46450962},"type":"Feature","geometry":{"type":"Point","coordinates":[-84.46450962,39.31365615]}},{"properties":{"city":"Clyde","address2":null,"zip":"43410","phone":"(216) 251-6075","store #":9338,"id":"a65lthj78fds","address":"108 Mc Pherson St","lat":41.30408132,"state":"OH","long":-82.96016863},"type":"Feature","geometry":{"type":"Point","coordinates":[-82.96016863,41.30408132]}},{"properties":{"city":"Columbus","address2":null,"zip":"43229","phone":"(614) 236-2065","store #":9339,"id":"a65lthkxqdxu","address":"5735 Maple Canyon Ave","lat":40.08632553,"state":"OH","long":-82.9603935},"type":"Feature","geometry":{"type":"Point","coordinates":[-82.9603935,40.08632553]}},{"properties":{"city":"Columbus","address2":null,"zip":"43228","phone":"(614) 781-0358","store #":9340,"id":"a65lthe4uc02","address":"4555 W Broad St","lat":39.95252889,"state":"OH","long":-83.12146063},"type":"Feature","geometry":{"type":"Point","coordinates":[-83.12146063,39.95252889]}},{"properties":{"city":"Columbus","address2":null,"zip":"43026","phone":"(614) 878-2792","store #":9341,"id":"a65lthje5qnj","address":"3611 Fishinger Blvd","lat":40.03053277,"state":"OH","long":-83.11630948},"type":"Feature","geometry":{"type":"Point","coordinates":[-83.11630948,40.03053277]}},{"properties":{"city":"Kettering","address2":null,"zip":"45419","phone":"(937) 643-1653","store #":9342,"id":"a65lthkjv5ba","address":"1020 E Dorothy Ln","lat":39.70375569,"state":"OH","long":-84.15005857},"type":"Feature","geometry":{"type":"Point","coordinates":[-84.15005857,39.70375569]}},{"properties":{"city":"Upper Arlington","address2":null,"zip":"43221","phone":"(216) 691-3382","store #":9344,"id":"a65lthjuhkx5","address":"1430 W Lane","lat":40.02260816,"state":"OH","long":-83.07651191},"type":"Feature","geometry":{"type":"Point","coordinates":[-83.07651191,40.02260816]}},{"properties":{"city":"Hamilton","address2":null,"zip":"45011","phone":"(614) 539-4422","store #":9347,"id":"a65lthcs87gg","address":"3088 Creekside Drive","lat":39.407333,"state":"OH","long":-84.50726888},"type":"Feature","geometry":{"type":"Point","coordinates":[-84.50726888,39.407333]}},{"properties":{"city":"Columbus","address2":null,"zip":"43212","phone":"(614) 527-1101","store #":9356,"id":"a65lthiw2ji3","address":"1626 W Fifth Ave","lat":39.98689277,"state":"OH","long":-83.04175614},"type":"Feature","geometry":{"type":"Point","coordinates":[-83.04175614,39.98689277]}},{"properties":{"city":"Urbana","address2":null,"zip":"43078","phone":"(419) 294-9891","store #":9361,"id":"a65ltheufg7t","address":"731 N Main St","lat":40.11631409,"state":"OH","long":-83.75099925},"type":"Feature","geometry":{"type":"Point","coordinates":[-83.75099925,40.11631409]}},{"properties":{"city":"Dayton","address2":null,"zip":"45424","phone":"(937) 443-0328","store #":9365,"id":"a65lth9ylxch","address":"3201 Valley St","lat":39.79817843,"state":"OH","long":-84.12931673},"type":"Feature","geometry":{"type":"Point","coordinates":[-84.12931673,39.79817843]}},{"properties":{"city":"Toledo","address2":null,"zip":"43613","phone":"(937) 667-8881","store #":9366,"id":"a65lth5oahnl","address":"1708 Tremainsville Rd","lat":41.6925752,"state":"OH","long":-83.58499206},"type":"Feature","geometry":{"type":"Point","coordinates":[-83.58499206,41.6925752]}},{"properties":{"city":"Cincinnati","address2":null,"zip":"45251","phone":"(513) 874-1425","store #":9367,"id":"a65lthceyaay","address":"9251 Colerain Ave","lat":39.23956113,"state":"OH","long":-84.59349054},"type":"Feature","geometry":{"type":"Point","coordinates":[-84.59349054,39.23956113]}},{"properties":{"city":"Columbus","address2":null,"zip":"43227","phone":"(614) 481-3411","store #":9371,"id":"a65lthjn56c9","address":"1055 Hamilton Rd","lat":39.95460139,"state":"OH","long":-82.87708341},"type":"Feature","geometry":{"type":"Point","coordinates":[-82.87708341,39.95460139]}},{"properties":{"city":"Lexington","address2":null,"zip":"44904","phone":"(614) 844-5300","store #":9376,"id":"a65lthi3oooo","address":"2827 Lexington Ave","lat":40.68232427,"state":"OH","long":-82.56768369},"type":"Feature","geometry":{"type":"Point","coordinates":[-82.56768369,40.68232427]}},{"properties":{"city":"North College Hill","address2":null,"zip":"45239","phone":"(330) 966-2707","store #":9379,"id":"a65lth9h6kry","address":"8210 Pippin Rd","lat":39.21945138,"state":"OH","long":-84.57300904},"type":"Feature","geometry":{"type":"Point","coordinates":[-84.57300904,39.21945138]}},{"properties":{"city":"Mount Carmel","address2":null,"zip":"45244","phone":"(513) 539-4433","store #":9383,"id":"a65lthbmv3lr","address":"621 Cinci-Batavia Pike","lat":39.12048826,"state":"OH","long":-84.3254265},"type":"Feature","geometry":{"type":"Point","coordinates":[-84.3254265,39.12048826]}},{"properties":{"city":"Hilliard","address2":null,"zip":"43026","phone":"(740) 928-9501","store #":9385,"id":"a65lth8x9lcf","address":"3760 Main St","lat":40.02794632,"state":"OH","long":-83.16090497},"type":"Feature","geometry":{"type":"Point","coordinates":[-83.16090497,40.02794632]}},{"properties":{"city":"Hamilton","address2":null,"zip":"45013","phone":"(513) 892-0754","store #":9390,"id":"a65lthkesosx","address":"1095 Eaton Ave","lat":39.42347617,"state":"OH","long":-84.57682903},"type":"Feature","geometry":{"type":"Point","coordinates":[-84.57682903,39.42347617]}},{"properties":{"city":"Canton","address2":null,"zip":"44706","phone":"(330) 452-0311","store #":9399,"id":"a65lthfbgsb3","address":"3825 Southway St Sw","lat":40.78117018,"state":"OH","long":-81.41968221},"type":"Feature","geometry":{"type":"Point","coordinates":[-81.41968221,40.78117018]}},{"properties":{"city":"Canton","address2":null,"zip":"44708","phone":"(330) 477-2981","store #":9400,"id":"a65lthanf4cp","address":"3131 W Tuscarawas Ave","lat":40.79836526,"state":"OH","long":-81.41014841},"type":"Feature","geometry":{"type":"Point","coordinates":[-81.41014841,40.79836526]}},{"properties":{"city":"Sandusky","address2":null,"zip":"44870","phone":"(330) 332-1507","store #":9401,"id":"a65lthdlugpr","address":"5902 Milan","lat":41.39179929,"state":"OH","long":-82.64973072},"type":"Feature","geometry":{"type":"Point","coordinates":[-82.64973072,41.39179929]}},{"properties":{"city":"Stow","address2":null,"zip":"44224","phone":"(740) 264-9261","store #":9403,"id":"a65lthiui5pv","address":"1045 Graham Rd","lat":41.16344252,"state":"OH","long":-81.47606027},"type":"Feature","geometry":{"type":"Point","coordinates":[-81.47606027,41.16344252]}},{"properties":{"city":"New Philadelphia","address2":null,"zip":"44663","phone":"(937) 687-2786","store #":9560,"id":"a65lthchbhp9","address":"264 W High Ave","lat":40.49012439,"state":"OH","long":-81.44928735},"type":"Feature","geometry":{"type":"Point","coordinates":[-81.44928735,40.49012439]}},{"properties":{"city":"Lakewood","address2":null,"zip":"44107","phone":"(937) 294-8108","store #":9565,"id":"a65lthfhmfpf","address":"1511 Warren Rd","lat":41.48190863,"state":"OH","long":-81.7997572},"type":"Feature","geometry":{"type":"Point","coordinates":[-81.7997572,41.48190863]}},{"properties":{"city":"Cincinnati","address2":null,"zip":"45204","phone":"(513) 385-3971","store #":9573,"id":"a65lthkhq9cg","address":"2857 River Rd","lat":39.08911848,"state":"OH","long":-84.56486656},"type":"Feature","geometry":{"type":"Point","coordinates":[-84.56486656,39.08911848]}},{"properties":{"city":"Cincinnati","address2":null,"zip":"45249","phone":"(513) 921-3841","store #":9574,"id":"a65lthkzcbcy","address":"12006 Montgomery Rd","lat":39.28756115,"state":"OH","long":-84.30477603},"type":"Feature","geometry":{"type":"Point","coordinates":[-84.30477603,39.28756115]}},{"properties":{"city":"Cincinnati","address2":null,"zip":"45216","phone":"(513) 683-2753","store #":9575,"id":"a65lth9dnwhp","address":"124 E Galbraith Rd","lat":39.2123793,"state":"OH","long":-84.46867357},"type":"Feature","geometry":{"type":"Point","coordinates":[-84.46867357,39.2123793]}},{"properties":{"city":"Olmsted Falls","address2":null,"zip":"44138","phone":"(513) 531-4403","store #":9576,"id":"a65lthascyp8","address":"8231 Columbia Rd","lat":41.37203584,"state":"OH","long":-81.90183849},"type":"Feature","geometry":{"type":"Point","coordinates":[-81.90183849,41.37203584]}},{"properties":{"city":"Woodlawn","address2":null,"zip":"45215","phone":"(513) 753-4418","store #":9579,"id":"a65lthilwnt6","address":"10270 Springfield Pike","lat":39.25347483,"state":"OH","long":-84.47008592},"type":"Feature","geometry":{"type":"Point","coordinates":[-84.47008592,39.25347483]}},{"properties":{"city":"Cincinnati","address2":null,"zip":"45209","phone":"(513) 761-3374","store #":9581,"id":"a65lthgsarmw","address":"2713 Williams Ave","lat":39.15220957,"state":"OH","long":-84.44330206},"type":"Feature","geometry":{"type":"Point","coordinates":[-84.44330206,39.15220957]}},{"properties":{"city":"Cincinnati","address2":null,"zip":"45231","phone":"(513) 731-6027","store #":9582,"id":"a65lthew7fp1","address":"8378 Winton Rd","lat":39.21960468,"state":"OH","long":-84.51783185},"type":"Feature","geometry":{"type":"Point","coordinates":[-84.51783185,39.21960468]}},{"properties":{"city":"Mount Vernon","address2":null,"zip":"43050","phone":"(513) 521-1404","store #":9585,"id":"a65lthhoyfpr","address":"1 Columbus Rd","lat":40.3864962,"state":"OH","long":-82.48785963},"type":"Feature","geometry":{"type":"Point","coordinates":[-82.48785963,40.3864962]}},{"properties":{"city":"Newark","address2":null,"zip":"43055","phone":"(513) 553-2284","store #":9595,"id":"a65lthf2q42o","address":"364 E Main St","lat":40.05945554,"state":"OH","long":-82.38660193},"type":"Feature","geometry":{"type":"Point","coordinates":[-82.38660193,40.05945554]}},{"properties":{"city":"Westerville","address2":null,"zip":"43081","phone":"(937) 544-5988","store #":9597,"id":"a65lth9xg32u","address":"360 S State St","lat":40.11649982,"state":"OH","long":-82.92802572},"type":"Feature","geometry":{"type":"Point","coordinates":[-82.92802572,40.11649982]}},{"properties":{"city":"Springfield","address2":null,"zip":"45503","phone":"(937) 748-1981","store #":9598,"id":"a65lthbssx7b","address":"1314 E Main St","lat":39.92344255,"state":"OH","long":-83.78815172},"type":"Feature","geometry":{"type":"Point","coordinates":[-83.78815172,39.92344255]}},{"properties":{"city":"Withamsville","address2":null,"zip":"45245","phone":"(937) 382-6307","store #":9599,"id":"a65lth5b938w","address":"735 Ohio Pike","lat":39.06515529,"state":"OH","long":-84.28911078},"type":"Feature","geometry":{"type":"Point","coordinates":[-84.28911078,39.06515529]}},{"properties":{"city":"Dayton","address2":null,"zip":"45449","phone":"(937) 236-1168","store #":9605,"id":"a65lthawtn8b","address":"3000 W Alex Bell Rd","lat":39.6737565,"state":"OH","long":-84.23323351},"type":"Feature","geometry":{"type":"Point","coordinates":[-84.23323351,39.6737565]}},{"properties":{"city":"West Chester","address2":null,"zip":"45069","phone":"(937) 866-5126","store #":9607,"id":"a65lth5n3e29","address":"7397 Tylersville Rd","lat":39.35476919,"state":"OH","long":-84.37531388},"type":"Feature","geometry":{"type":"Point","coordinates":[-84.37531388,39.35476919]}},{"properties":{"city":"Harrison","address2":null,"zip":"45030","phone":"(513) 896-5298","store #":9608,"id":"a65lthew6xut","address":"10915 New Haven Rd","lat":39.25821014,"state":"OH","long":-84.80254193},"type":"Feature","geometry":{"type":"Point","coordinates":[-84.80254193,39.25821014]}},{"properties":{"city":"Findlay","address2":null,"zip":"45840","phone":"(513) 896-5513","store #":9609,"id":"a65lthcfla70","address":"1415 S Main St","lat":41.02147566,"state":"OH","long":-83.65022955},"type":"Feature","geometry":{"type":"Point","coordinates":[-83.65022955,41.02147566]}},{"properties":{"city":"Cincinnati","address2":null,"zip":"45255","phone":"(513) 522-0025","store #":9610,"id":"a65lth9njc53","address":"570 Ohio Pike","lat":39.0705022,"state":"OH","long":-84.30363631},"type":"Feature","geometry":{"type":"Point","coordinates":[-84.30363631,39.0705022]}},{"properties":{"city":"Vermilion","address2":null,"zip":"44089","phone":"(937) 890-6070","store #":9616,"id":"a65lthgtlbk2","address":"4815 Liberty Ave","lat":41.42433357,"state":"OH","long":-82.35218555},"type":"Feature","geometry":{"type":"Point","coordinates":[-82.35218555,41.42433357]}},{"properties":{"city":"New Lebanon","address2":null,"zip":"45345","phone":"(937) 845-8917","store #":9617,"id":"a65lth9xui6q","address":"74 W Main St","lat":39.74555627,"state":"OH","long":-84.38424496},"type":"Feature","geometry":{"type":"Point","coordinates":[-84.38424496,39.74555627]}},{"properties":{"city":"Dayton","address2":null,"zip":"45459","phone":"(937) 439-4158","store #":9630,"id":"a65lthczp7k8","address":"360 Miamisburg Centerville Rd","lat":39.62792478,"state":"OH","long":-84.16941699},"type":"Feature","geometry":{"type":"Point","coordinates":[-84.16941699,39.62792478]}},{"properties":{"city":"Bexley","address2":null,"zip":"43209","phone":"(513) 734-4330","store #":9631,"id":"a65lth59nz2x","address":"2240 Livingston Ave","lat":39.94816822,"state":"OH","long":-82.93759983},"type":"Feature","geometry":{"type":"Point","coordinates":[-82.93759983,39.94816822]}},{"properties":{"city":"Centerville","address2":null,"zip":"45440","phone":"(937) 434-6157","store #":9632,"id":"a65lthid09ao","address":"5495 Wilmington Pike","lat":39.67474726,"state":"OH","long":-84.09800389},"type":"Feature","geometry":{"type":"Point","coordinates":[-84.09800389,39.67474726]}},{"properties":{"city":"Fairborn","address2":null,"zip":"45324","phone":"(513) 563-5526","store #":9633,"id":"a65lthbtn82d","address":"1171 N Broad St","lat":39.83384948,"state":"OH","long":-84.01502529},"type":"Feature","geometry":{"type":"Point","coordinates":[-84.01502529,39.83384948]}},{"properties":{"city":"Cincinnati","address2":null,"zip":"45244","phone":"(513) 528-2204","store #":9641,"id":"a65lth79jthd","address":"5030 Batavia Pike","lat":39.10831975,"state":"OH","long":-84.40001393},"type":"Feature","geometry":{"type":"Point","coordinates":[-84.40001393,39.10831975]}},{"properties":{"city":"Boardman","address2":null,"zip":"44502","phone":"(513) 791-4858","store #":9649,"id":"a65lth7munoc","address":"649 E Midlothian Blvd","lat":41.06070425,"state":"OH","long":-80.64306687},"type":"Feature","geometry":{"type":"Point","coordinates":[-80.64306687,41.06070425]}},{"properties":{"city":"Grove City","address2":null,"zip":"43123","phone":"(937) 548-9893","store #":9654,"id":"a65lthjpzizj","address":"3612 Broadway St","lat":39.88941029,"state":"OH","long":-83.08723784},"type":"Feature","geometry":{"type":"Point","coordinates":[-83.08723784,39.88941029]}},{"properties":{"city":"Cincinnati","address2":null,"zip":"45231","phone":"(513) 232-4242","store #":9659,"id":"a65lth7ehkku","address":"11620 Hamilton Ave","lat":39.29381584,"state":"OH","long":-84.56415327},"type":"Feature","geometry":{"type":"Point","coordinates":[-84.56415327,39.29381584]}},{"properties":{"city":"Bay VIllage","address2":null,"zip":"44140","phone":"(513) 752-3421","store #":9674,"id":"a65lthe880zf","address":"630 Columbia Rd","lat":41.47752123,"state":"OH","long":-81.90161854},"type":"Feature","geometry":{"type":"Point","coordinates":[-81.90161854,41.47752123]}},{"properties":{"city":"Fairfield","address2":null,"zip":"45014","phone":"(513) 527-4200","store #":9682,"id":"a65lth6mrcw4","address":"7300 Dixie Hwy","lat":39.30702336,"state":"OH","long":-84.48678728},"type":"Feature","geometry":{"type":"Point","coordinates":[-84.48678728,39.30702336]}},{"properties":{"city":"Trotwood","address2":null,"zip":"45426","phone":"(419) 478-3313","store #":9688,"id":"a65lth9enw33","address":"5010 Olive Rd","lat":39.81916271,"state":"OH","long":-84.29289369},"type":"Feature","geometry":{"type":"Point","coordinates":[-84.29289369,39.81916271]}},{"properties":{"city":"Dover","address2":null,"zip":"44622","phone":"(419) 822-9828","store #":9690,"id":"a65lth8tk0ii","address":"1127 N Tuscarawas Rd","lat":40.52716232,"state":"OH","long":-81.49070994},"type":"Feature","geometry":{"type":"Point","coordinates":[-81.49070994,40.52716232]}},{"properties":{"city":"Gahanna","address2":null,"zip":"43230","phone":"(419) 332-0640","store #":9691,"id":"a65lth6eu8io","address":"376 Agler Rd","lat":40.01943662,"state":"OH","long":-82.89094223},"type":"Feature","geometry":{"type":"Point","coordinates":[-82.89094223,40.01943662]}},{"properties":{"city":"Cincinnati","address2":null,"zip":"45226","phone":"(513) 742-4040","store #":9693,"id":"a65lth7nc2jf","address":"3601 Columbia Pkwy","lat":39.11514922,"state":"OH","long":-84.43626416},"type":"Feature","geometry":{"type":"Point","coordinates":[-84.43626416,39.11514922]}},{"properties":{"city":"Middleburg Heights","address2":null,"zip":"44130","phone":"(937) 847-8866","store #":9697,"id":"a65lthgcid8h","address":"17650 Bagley Rd","lat":41.37195906,"state":"OH","long":-81.82388511},"type":"Feature","geometry":{"type":"Point","coordinates":[-81.82388511,41.37195906]}},{"properties":{"city":"Cincinnati","address2":null,"zip":"45241","phone":"(513) 871-5206","store #":9707,"id":"a65lthk9fytq","address":"9850-62 Cinn-Col Rd","lat":39.27805892,"state":"OH","long":-84.40287119},"type":"Feature","geometry":{"type":"Point","coordinates":[-84.40287119,39.27805892]}},{"properties":{"city":"Amelia","address2":null,"zip":"45102","phone":"(330) 376-5216","store #":9715,"id":"a65lthhjlp1p","address":"51 W Main St","lat":39.02853731,"state":"OH","long":-84.21829013},"type":"Feature","geometry":{"type":"Point","coordinates":[-84.21829013,39.02853731]}},{"properties":{"city":"Chillicothe","address2":null,"zip":"45601","phone":"(937) 436-9616","store #":9726,"id":"a65lthc3t6va","address":"10 N Bridge St","lat":39.33475069,"state":"OH","long":-82.97451594},"type":"Feature","geometry":{"type":"Point","coordinates":[-82.97451594,39.33475069]}},{"properties":{"city":"Defiance","address2":null,"zip":"43512","phone":"(937) 291-9552","store #":9731,"id":"a65lth8cyw4i","address":"1802 N Clinton St","lat":41.3019256,"state":"OH","long":-84.36097104},"type":"Feature","geometry":{"type":"Point","coordinates":[-84.36097104,41.3019256]}},{"properties":{"city":"Mason","address2":null,"zip":"45040","phone":"(740) 389-5136","store #":9733,"id":"a65lth9nitvt","address":"711 Reading Rd","lat":39.35157427,"state":"OH","long":-84.32210309},"type":"Feature","geometry":{"type":"Point","coordinates":[-84.32210309,39.35157427]}},{"properties":{"city":"Macedonia","address2":null,"zip":"44056","phone":"(740) 259-2202","store #":9734,"id":"a65lthbo1ci8","address":"755 E Aurora Rd","lat":41.31395238,"state":"OH","long":-81.51215365},"type":"Feature","geometry":{"type":"Point","coordinates":[-81.51215365,41.31395238]}},{"properties":{"city":"Bethel","address2":null,"zip":"45106","phone":"(740) 423-5677","store #":9743,"id":"a65lthaj1ohz","address":"595 W Plane St","lat":38.96380895,"state":"OH","long":-84.08567776},"type":"Feature","geometry":{"type":"Point","coordinates":[-84.08567776,38.96380895]}},{"properties":{"city":"Columbus","address2":null,"zip":"43206","phone":"(614) 236-8853","store #":9744,"id":"a65lthj4s8u7","address":"1165 S High St","lat":39.93837925,"state":"OH","long":-82.99622878},"type":"Feature","geometry":{"type":"Point","coordinates":[-82.99622878,39.93837925]}},{"properties":{"city":"Proctorville","address2":null,"zip":"45669","phone":"(740) 354-6252","store #":9747,"id":"a65lthkvtldz","address":"119 S R 7 &amp; Lawrence","lat":38.49624792,"state":"OH","long":-82.35813091},"type":"Feature","geometry":{"type":"Point","coordinates":[-82.35813091,38.49624792]}},{"properties":{"city":"Columbus","address2":null,"zip":"43229","phone":"(614) 444-5026","store #":9751,"id":"a65lth556vtb","address":"1103 Morse Rd","lat":40.0860144,"state":"OH","long":-82.97624317},"type":"Feature","geometry":{"type":"Point","coordinates":[-82.97624317,40.0860144]}},{"properties":{"city":"Athens","address2":null,"zip":"45701","phone":"(740) 983-2563","store #":9756,"id":"a65lthb78am4","address":"319 E State St","lat":39.33733761,"state":"OH","long":-82.08823275},"type":"Feature","geometry":{"type":"Point","coordinates":[-82.08823275,39.33733761]}},{"properties":{"city":"Carroll","address2":null,"zip":"43112","phone":"(330) 456-0250","store #":9758,"id":"a65lthckxh3i","address":"6005 Winchester Rd","lat":39.79975753,"state":"OH","long":-82.70845257},"type":"Feature","geometry":{"type":"Point","coordinates":[-82.70845257,39.79975753]}},{"properties":{"city":"Jackson","address2":null,"zip":"45640","phone":"(740) 533-9202","store #":9760,"id":"a65lth4n064l","address":"449 E Main St","lat":39.04547072,"state":"OH","long":-82.63061132},"type":"Feature","geometry":{"type":"Point","coordinates":[-82.63061132,39.04547072]}},{"properties":{"city":"Middletown","address2":null,"zip":"45044","phone":"(740) 992-7149","store #":9769,"id":"a65lthjnztsb","address":"4320 Roosevelt Blvd","lat":39.49933642,"state":"OH","long":-84.35697315},"type":"Feature","geometry":{"type":"Point","coordinates":[-84.35697315,39.49933642]}},{"properties":{"city":"Columbus","address2":null,"zip":"43229","phone":"(614) 267-5090","store #":9770,"id":"a65lthb28txl","address":"821 E Dublin Granville Rd","lat":40.08787159,"state":"OH","long":-82.99655597},"type":"Feature","geometry":{"type":"Point","coordinates":[-82.99655597,40.08787159]}},{"properties":{"city":"Lebanon","address2":null,"zip":"45036","phone":"(740) 654-3989","store #":9773,"id":"a65lth5xn42i","address":"722 E Main St","lat":39.43238074,"state":"OH","long":-84.1929717},"type":"Feature","geometry":{"type":"Point","coordinates":[-84.1929717,39.43238074]}},{"properties":{"city":"Cortland","address2":null,"zip":"44410","phone":"(614) 436-1439","store #":9775,"id":"a65lthkbc8tk","address":"548 S Mecca St","lat":41.31990953,"state":"OH","long":-80.73121804},"type":"Feature","geometry":{"type":"Point","coordinates":[-80.73121804,41.31990953]}},{"properties":{"city":"Circleville","address2":null,"zip":"43113","phone":"(513) 777-6924","store #":9781,"id":"a65lthkmcbw7","address":"225 Lancaster Pike","lat":39.59929514,"state":"OH","long":-82.93118552},"type":"Feature","geometry":{"type":"Point","coordinates":[-82.93118552,39.59929514]}},{"properties":{"city":null,"address2":null,"zip":null,"phone":"(740) 454-7668","store #":9795,"id":"a65lth6vrhky","address":null,"lat":null,"state":null,"long":null},"type":"Feature","geometry":null},{"properties":{"city":"Ironton","address2":null,"zip":"45638","phone":"(937) 236-3711","store #":9903,"id":"a65lthb6jv15","address":"1717 Liberty Ave","lat":38.52640165,"state":"OH","long":-82.66626672},"type":"Feature","geometry":{"type":"Point","coordinates":[-82.66626672,38.52640165]}},{"properties":{"city":"London","address2":null,"zip":"43140","phone":"(740) 385-9528","store #":9925,"id":"a65lthdt62mh","address":"102 W High St","lat":39.88353744,"state":"OH","long":-83.4525419},"type":"Feature","geometry":{"type":"Point","coordinates":[-83.4525419,39.88353744]}},{"properties":{"city":"Ashtabula","address2":null,"zip":"44004","phone":"(440) 988-8014","store #":9975,"id":"a65lthkrh8zw","address":"2309 N Ridge E","lat":41.85329883,"state":"OH","long":-80.78873596},"type":"Feature","geometry":{"type":"Point","coordinates":[-80.78873596,41.85329883]}}],"is_temporal":false,"author":{"url":"","metadata":"","contact_name":"","contact_address":"","source":"","contact_phone":""},"source":"","pagination":{"sort":null,"start":0,"total":447,"limit":1000000},"state":"complete","tags":"","published":"2010-11-23T16:01:54Z","id":76381}