{"type":"FeatureCollection","data_type":"Dataset","url_type":null,"permissions":[{"permissions":{"download":true,"view":true},"group_id":"everyone"}],"classification":null,"title":"Marriott Franchise Hotels, Seattle WA, 11.2008","count":28,"stream_id":7657,"contributor":{"url":"http://geocommons.com/users/139","name":"Burkey"},"data_attributes":null,"calculation_params":null,"icon_link":null,"link":"http://geocommons.com/overlays/7657.json","extent":[-122.438,47.249,-122.122,47.9207],"geometry_types":["point"],"unique_name":null,"name":"Marriott Franchise Hotels, Seattle WA, 11.2008","feature_count":28,"description":"This dataset locates all hotels that are franchised under Marriott International, Inc. in the Seattle, Washington area as of 11.2008. These Franchise hotels include: Marriott Hotels &amp; Resorts, JW Marriott Hotels &amp; Resorts, Renaissance Hotels &amp; Resorts, Courtyard by Marriott, Residence Inn by Marriott, Fairfield Inn by Marriott, Marriott Conference Centers, TownePlace Suites by Marriott, SpringHill Suites by Marriott, Marriott Vacation Club International, and The Ritz-Carlton Hotel Company, LLC. These are only hotels and do not include long term lodging franchises.\nThe data includes: Hotel Name, Address, City, State, Zip, Phone, Brand, and lat/lon position. The lat/lon position was obtained by geocoding the street address of the hotel at gpsvisualizer.com/geocoder. \nData for Ritz Carlton comes from Ritz Carltonâ€™s own site at http://www.ritzcarlton.com/en/Locations/Default.htm.\nAlso individual datasets are available for each Franchise Brand Hotel on Finder! These datasets provide locations as this dataset does but only for the one specific brand that is covered.\n\n","next_feature":null,"is_raster":false,"short_classification":"Y","stats":{"lon":{"max":-122.12153,"mean":-122.246659071429,"variance":0.0063499147711059,"stdev":0.079686352477108,"min":-122.438388,"median":-122.244159},"zip":{"max":98402,"mean":98092.2142857143,"variance":9361.95238095237,"stdev":96.7571825806869,"min":98003,"median":98057},"lat":{"max":47.920705,"mean":47.5913411785714,"variance":0.0249612109923741,"stdev":0.157991173779975,"min":47.249037,"median":47.617582}},"features":[{"properties":{"city":"Bellevue","lon":-122.192894,"brand":"Courtyard by Marriott","zip":98004,"hotel":"Courtyard Seattle Bellevue/Downtown","phone":"1 425-454-5888","id":"a62qucbv5evi","address":"11010 NE 8th Street","lat":47.617385,"state":"WA"},"type":"Feature","geometry":{"type":"Point","coordinates":[-122.192894,47.617385]}},{"properties":{"city":"Bellevue","lon":-122.144487,"brand":"Fairfield Inn by Marriott","zip":98007,"hotel":"Courtyard Seattle Bellevue/Redmond","phone":"1 425-869-5300","id":"a62qucfykme5","address":"14615 NE 29th Place","lat":47.634723,"state":"WA"},"type":"Feature","geometry":{"type":"Point","coordinates":[-122.144487,47.634723]}},{"properties":{"city":"Seattle","lon":-122.339943,"brand":"Renaissance Hotels and Resorts","zip":98109,"hotel":"Courtyard Seattle Downtown/Lake Union","phone":"1 206-213-0100","id":"a62quc37tfqn","address":"925 Westlake Avenue North","lat":47.627563,"state":"WA"},"type":"Feature","geometry":{"type":"Point","coordinates":[-122.339943,47.627563]}},{"properties":{"city":"Federal Way","lon":-122.301168,"brand":"Courtyard by Marriott","zip":98003,"hotel":"Courtyard Seattle Federal Way","phone":"1 253-529-0200","id":"a62quc5uye2z","address":"31910 Gateway Center Blvd South","lat":47.31592,"state":"WA"},"type":"Feature","geometry":{"type":"Point","coordinates":[-122.301168,47.31592]}},{"properties":{"city":"Kirkland","lon":-122.191609,"brand":"Residence Inn by Marriott","zip":98034,"hotel":"Courtyard Seattle Kirkland","phone":"1 425-602-3200","id":"a62qucgjsyfv","address":"11215 NE 124th Street","lat":47.711182,"state":"WA"},"type":"Feature","geometry":{"type":"Point","coordinates":[-122.191609,47.711182]}},{"properties":{"city":"Lynnwood","lon":-122.289957,"brand":"TownPlace Suites by Marriott","zip":98036,"hotel":"Courtyard Seattle North/Lynnwood Everett","phone":"1 425-670-0500","id":"a62quceu3xb7","address":"4220 Alderwood Mall Blvd","lat":47.817311,"state":"WA"},"type":"Feature","geometry":{"type":"Point","coordinates":[-122.289957,47.817311]}},{"properties":{"city":"Tukwila","lon":-122.244469,"brand":"Residence Inn by Marriott","zip":98188,"hotel":"Courtyard Seattle Sea-Tac Area","phone":"1 425-255-0300","id":"a62qucabqxfk","address":"16038 West Valley Highway","lat":47.459352,"state":"WA"},"type":"Feature","geometry":{"type":"Point","coordinates":[-122.244469,47.459352]}},{"properties":{"city":"Tukwila","lon":-122.254374,"brand":"Residence Inn by Marriott","zip":98188,"hotel":"Courtyard Seattle Southcenter","phone":"1 206-575-2500","id":"a62quc5nripq","address":"400 Andover Park West","lat":47.452452,"state":"WA"},"type":"Feature","geometry":{"type":"Point","coordinates":[-122.254374,47.452452]}},{"properties":{"city":"Tacoma","lon":-122.438388,"brand":"Fairfield Inn by Marriott","zip":98402,"hotel":"Courtyard Tacoma Downtown","phone":"1 253-591-9100","id":"a62quci0rg6r","address":"1515 Commerce Street","lat":47.249037,"state":"WA"},"type":"Feature","geometry":{"type":"Point","coordinates":[-122.438388,47.249037]}},{"properties":{"city":"Bellevue","lon":-122.144768,"brand":"Residence Inn by Marriott","zip":98007,"hotel":"Fairfield Inn Seattle Bellevue","phone":"1 425-869-6548","id":"a62quc4w3lw6","address":"14595 NE 29th Place","lat":47.634579,"state":"WA"},"type":"Feature","geometry":{"type":"Point","coordinates":[-122.144768,47.634579]}},{"properties":{"city":"Seattle","lon":-122.295894,"brand":"SpringHill Suites by Marriott","zip":98188,"hotel":"Fairfield Inn Seattle Sea-Tac Airport","phone":"1 206-824-9909","id":"a62quc8lx438","address":"19631 International Blvd","lat":47.426614,"state":"WA"},"type":"Feature","geometry":{"type":"Point","coordinates":[-122.295894,47.426614]}},{"properties":{"city":"Redmond","lon":-122.12153,"brand":"Fairfield Inn by Marriott","zip":98052,"hotel":"Redmond Marriott Town Center","phone":"1 425-498-4000","id":"a62quc2tk9nc","address":"7401 164th Avenue NE","lat":47.670743,"state":"WA"},"type":"Feature","geometry":{"type":"Point","coordinates":[-122.12153,47.670743]}},{"properties":{"city":"Seattle","lon":-122.331653,"brand":"Courtyard by Marriott","zip":98104,"hotel":"Renaissance Seattle Hotel","phone":"1 206-583-0300","id":"a62quc67xox9","address":"515 Madison Street","lat":47.606607,"state":"WA"},"type":"Feature","geometry":{"type":"Point","coordinates":[-122.331653,47.606607]}},{"properties":{"city":"Bellevue","lon":-122.146292,"brand":"Courtyard by Marriott","zip":98007,"hotel":"Residence Inn Seattle Bellevue","phone":"1 425-882-1222","id":"a62quc5jxgtx","address":"14455 NE 29th Place","lat":47.633526,"state":"WA"},"type":"Feature","geometry":{"type":"Point","coordinates":[-122.146292,47.633526]}},{"properties":{"city":"Bellevue","lon":-122.185967,"brand":"SpringHill Suites by Marriott","zip":98004,"hotel":"Residence Inn Seattle Bellevue/Downtown","phone":"1 425-637-8500","id":"a62quc8oge1t","address":"605 114th Ave SE","lat":47.604538,"state":"WA"},"type":"Feature","geometry":{"type":"Point","coordinates":[-122.185967,47.604538]}},{"properties":{"city":"Seattle","lon":-122.33399,"brand":"Courtyard by Marriott","zip":98109,"hotel":"Residence Inn Seattle Downtown/Lake Union","phone":"1 206-624-6000","id":"a62qucga0q9d","address":"800 Fairview Avenue North","lat":47.626248,"state":"WA"},"type":"Feature","geometry":{"type":"Point","coordinates":[-122.33399,47.626248]}},{"properties":{"city":"Redmond","lon":-122.121929,"brand":"SpringHill Suites by Marriott","zip":98052,"hotel":"Residence Inn Seattle East/Redmond","phone":"1 425-497-9226","id":"a62quc3hwxnl","address":"7575 164th Ave NE","lat":47.671816,"state":"WA"},"type":"Feature","geometry":{"type":"Point","coordinates":[-122.121929,47.671816]}},{"properties":{"city":"Lynnwood","lon":-122.269381,"brand":"SpringHill Suites by Marriott","zip":98037,"hotel":"Residence Inn Seattle North/Lynnwood Everett","phone":"1 425-771-1100","id":"a62quc3vc9d3","address":"18200 Alderwood Mall Parkway","lat":47.83401,"state":"WA"},"type":"Feature","geometry":{"type":"Point","coordinates":[-122.269381,47.83401]}},{"properties":{"city":"Bothell","lon":-122.180773,"brand":"Residence Inn by Marriott","zip":98011,"hotel":"Residence Inn Seattle Northeast/Bothell","phone":"1 425-485-3030","id":"a62quciguc0x","address":"11920 NE 195th Street","lat":47.769041,"state":"WA"},"type":"Feature","geometry":{"type":"Point","coordinates":[-122.180773,47.769041]}},{"properties":{"city":"Seattle","lon":-122.244159,"brand":"Courtyard by Marriott","zip":98188,"hotel":"Residence Inn Seattle South/Tukwila","phone":"1 425-226-5500","id":"a62quc210kc5","address":"16201 West Valley Highway","lat":47.458143,"state":"WA"},"type":"Feature","geometry":{"type":"Point","coordinates":[-122.244159,47.458143]}},{"properties":{"city":"Seattle","lon":-122.291883,"brand":"Courtyard by Marriott","zip":98188,"hotel":"Seattle Airport Marriott","phone":"1 206-241-2000","id":"a62qucgr0bp6","address":"3201 South 176th Street","lat":47.44527,"state":"WA"},"type":"Feature","geometry":{"type":"Point","coordinates":[-122.291883,47.44527]}},{"properties":{"city":"Seattle","lon":-122.34629,"brand":"Courtyard by Marriott","zip":98121,"hotel":"Seattle Marriott Waterfront","phone":"1 206-443-5000","id":"a62quc2msabq","address":"2100 Alaskan Way","lat":47.609998,"state":"WA"},"type":"Feature","geometry":{"type":"Point","coordinates":[-122.34629,47.609998]}},{"properties":{"city":"Bothell","lon":-122.180955,"brand":"Fairfield Inn by Marriott","zip":98021,"hotel":"SpringHill Suites Seattle Bothell","phone":"1 425-398-9700","id":"a62quceld0bd","address":"3850 Monte Villa Parkway","lat":47.777632,"state":"WA"},"type":"Feature","geometry":{"type":"Point","coordinates":[-122.180955,47.777632]}},{"properties":{"city":"Seattle","lon":-122.329667,"brand":"Marriott Hotels and Resorts","zip":98101,"hotel":"SpringHill Suites Seattle Downtown","phone":"1 206-254-0500","id":"a62qucdi9nov","address":"1800 Yale Avenue","lat":47.617582,"state":"WA"},"type":"Feature","geometry":{"type":"Point","coordinates":[-122.329667,47.617582]}},{"properties":{"city":"Renton","lon":-122.220023,"brand":"Marriott Hotels and Resorts","zip":98057,"hotel":"SpringHill Suites Seattle South/Renton","phone":"1 425-226-4100","id":"a62qucemkv4m","address":"200 SW 19th Street","lat":47.46287,"state":"WA"},"type":"Feature","geometry":{"type":"Point","coordinates":[-122.220023,47.46287]}},{"properties":{"city":"Mukilteo","lon":-122.298648,"brand":"Residence Inn by Marriott","zip":98275,"hotel":"TownePlace Suites Seattle North/Mukilteo","phone":"1 425-551-5900","id":"a62qucf4ukyq","address":"8521 Mukilteo Speedway","lat":47.920705,"state":"WA"},"type":"Feature","geometry":{"type":"Point","coordinates":[-122.298648,47.920705]}},{"properties":{"city":"Renton","lon":-122.221697,"brand":"TownPlace Suites by Marriott","zip":98057,"hotel":"TownePlace Suites Seattle South/Renton","phone":"1 425-917-2000","id":"a62quc906706","address":"300 SW 19th Street","lat":47.462791,"state":"WA"},"type":"Feature","geometry":{"type":"Point","coordinates":[-122.221697,47.462791]}},{"properties":{"city":"Kent","lon":-122.243666,"brand":"Courtyard by Marriott","zip":98032,"hotel":"TownePlace Suites Seattle Southcenter","phone":"1 253-796-6000","id":"a62qucemy016","address":"18123 72nd Avenue South","lat":47.439915,"state":"WA"},"type":"Feature","geometry":{"type":"Point","coordinates":[-122.243666,47.439915]}}],"is_temporal":false,"author":{"url":"http://www.marriott.com/corporateinfo/glance.mi#brand10 ","metadata":"http://www.marriott.com/search/default.mi?destinationAddress.city=&destinationAddress.stateProvince=&destinationAddress.country=&fromDate=&toDate=&roomCount=1&guestCount=1&marriottRewardsNumber=&corporateCode=&marriottBrands=all ","contact_name":"","contact_address":"","source":"Marriott International, Inc ","contact_phone":""},"source":"http://www.marriott.com/corporateinfo/glance.mi#brand10 ","pagination":{"sort":null,"start":0,"total":28,"limit":1000000},"state":"complete","tags":"hotels,lodging,marriott,resorts,retail,seattle,tourism,travel","published":"2008-11-15T12:00:00Z","id":7657}