{"type":"FeatureCollection","data_type":"Dataset","url_type":null,"permissions":[{"permissions":{"download":true,"view":true},"group_id":"everyone"}],"classification":null,"title":"afg area","count":34,"stream_id":76986,"contributor":{"url":"http://geocommons.com/users/19036","name":"oana"},"data_attributes":null,"calculation_params":null,"icon_link":null,"link":"http://geocommons.com/overlays/76986.json","extent":[62.2315,30.818,72.4398,36.9659],"geometry_types":["point"],"unique_name":null,"name":"afg area","feature_count":34,"description":"","next_feature":null,"is_raster":false,"short_classification":"Y","stats":{"latitude":{"max":36.96593033,"mean":34.4355639405882,"variance":2.81698927010456,"stdev":1.6783888912003,"min":30.81796889,"median":34.69546109},"id":{"max":34,"mean":17.5,"variance":99.1666666666667,"stdev":9.9582461641931,"min":1,"median":18},"area":{"max":58584,"mean":19023.3529411765,"variance":275234260.538324,"stdev":16590.1856691938,"min":1842,"median":14175},"longitude":{"max":72.43977379,"mean":67.5947939497059,"variance":6.87708674428003,"stdev":2.62242001675552,"min":62.23146879,"median":68.09211071}},"features":[{"properties":{"latitude":34.23766407,"id":"a6jko8k35ewq","area":54778,"longitude":62.4773487,"province":"Hirat"},"type":"Feature","geometry":{"type":"Point","coordinates":[62.4773487,34.23766407]}},{"properties":{"latitude":32.48698201,"id":"a6jko8k4656p","area":48471,"longitude":62.66458178,"province":"Farah"},"type":"Feature","geometry":{"type":"Point","coordinates":[62.66458178,32.48698201]}},{"properties":{"latitude":30.81796889,"id":"a6jko8da7q12","area":41005,"longitude":62.23146879,"province":"Nimruz"},"type":"Feature","geometry":{"type":"Point","coordinates":[62.23146879,30.81796889]}},{"properties":{"latitude":35.27484849,"id":"a6jko8dt3crn","area":20591,"longitude":63.86815473,"province":"Badghis"},"type":"Feature","geometry":{"type":"Point","coordinates":[63.86815473,35.27484849]}},{"properties":{"latitude":36.2072774,"id":"a6jko885oczi","area":20293,"longitude":64.85106466,"province":"Faryab"},"type":"Feature","geometry":{"type":"Point","coordinates":[64.85106466,36.2072774]}},{"properties":{"latitude":34.20198825,"id":"a6jko8ftvqzw","area":36479,"longitude":64.96352244,"province":"Ghor"},"type":"Feature","geometry":{"type":"Point","coordinates":[64.96352244,34.20198825]}},{"properties":{"latitude":31.37540267,"id":"a6jko8myz68h","area":58584,"longitude":63.96430686,"province":"Helmand"},"type":"Feature","geometry":{"type":"Point","coordinates":[63.96430686,31.37540267]}},{"properties":{"latitude":36.72824065,"id":"a6jko8a95dyh","area":11789,"longitude":65.86850101,"province":"Jowzjan"},"type":"Feature","geometry":{"type":"Point","coordinates":[65.86850101,36.72824065]}},{"properties":{"latitude":35.71863223,"id":"a6jko8bo7e7t","area":15999,"longitude":66.20765385,"province":"Sar-e Pol"},"type":"Feature","geometry":{"type":"Point","coordinates":[66.20765385,35.71863223]}},{"properties":{"latitude":33.64718747,"id":"a6jko8d6pomy","area":8088,"longitude":66.32376025,"province":"Daykundi"},"type":"Feature","geometry":{"type":"Point","coordinates":[66.32376025,33.64718747]}},{"properties":{"latitude":32.80043859,"id":"a6jko8gjz1fk","area":22696,"longitude":66.09891349,"province":"Uruzgan"},"type":"Feature","geometry":{"type":"Point","coordinates":[66.09891349,32.80043859]}},{"properties":{"latitude":31.06074075,"id":"a6jko8i98y46","area":54022,"longitude":66.14965698,"province":"Kandahar"},"type":"Feature","geometry":{"type":"Point","coordinates":[66.14965698,31.06074075]}},{"properties":{"latitude":36.53387977,"id":"a6jko894tf03","area":17249,"longitude":67.22835613,"province":"Balkh"},"type":"Feature","geometry":{"type":"Point","coordinates":[67.22835613,36.53387977]}},{"properties":{"latitude":35.99422862,"id":"a6jko8lbvzpm","area":11262,"longitude":67.72182849,"province":"Samangan"},"type":"Feature","geometry":{"type":"Point","coordinates":[67.72182849,35.99422862]}},{"properties":{"latitude":34.69546109,"id":"a6jko8duc3hv","area":14175,"longitude":67.27457999,"province":"Bamiyan"},"type":"Feature","geometry":{"type":"Point","coordinates":[67.27457999,34.69546109]}},{"properties":{"latitude":33.15417641,"id":"a6jko8dltsxl","area":22915,"longitude":67.82404895,"province":"Ghazni"},"type":"Feature","geometry":{"type":"Point","coordinates":[67.82404895,33.15417641]}},{"properties":{"latitude":32.28667693,"id":"a6jko8dp43oe","area":17343,"longitude":67.14917367,"province":"Zabul"},"type":"Feature","geometry":{"type":"Point","coordinates":[67.14917367,32.28667693]}},{"properties":{"latitude":36.81922614,"id":"a6jko8esqvvp","area":8040,"longitude":68.68439582,"province":"Kunduz"},"type":"Feature","geometry":{"type":"Point","coordinates":[68.68439582,36.81922614]}},{"properties":{"latitude":35.78923267,"id":"a6jko8gcq08d","area":21118,"longitude":68.98666252,"province":"Baghlan"},"type":"Feature","geometry":{"type":"Point","coordinates":[68.98666252,35.78923267]}},{"properties":{"latitude":35.00590115,"id":"a6jko8mhnoa9","area":5974,"longitude":68.90639434,"province":"Parwan"},"type":"Feature","geometry":{"type":"Point","coordinates":[68.90639434,35.00590115]}},{"properties":{"latitude":34.2397142,"id":"a6jko8mfqq50","area":9934,"longitude":68.09211071,"province":"Wardak"},"type":"Feature","geometry":{"type":"Point","coordinates":[68.09211071,34.2397142]}},{"properties":{"latitude":34.5259161,"id":"a6jko8fgm9hl","area":4462,"longitude":69.38916149,"province":"Kabul"},"type":"Feature","geometry":{"type":"Point","coordinates":[69.38916149,34.5259161]}},{"properties":{"latitude":33.98198597,"id":"a6jko8f24yjl","area":3880,"longitude":69.29859695,"province":"Logar"},"type":"Feature","geometry":{"type":"Point","coordinates":[69.29859695,33.98198597]}},{"properties":{"latitude":33.61870873,"id":"a6jko8ke4cwk","area":6432,"longitude":69.38911959,"province":"Paktia"},"type":"Feature","geometry":{"type":"Point","coordinates":[69.38911959,33.61870873]}},{"properties":{"latitude":32.50517793,"id":"a6jko88c632f","area":19482,"longitude":68.67966022,"province":"Paktika"},"type":"Feature","geometry":{"type":"Point","coordinates":[68.67966022,32.50517793]}},{"properties":{"latitude":33.37691113,"id":"a6jko8kasg7a","area":4152,"longitude":69.83716672,"province":"Khost"},"type":"Feature","geometry":{"type":"Point","coordinates":[69.83716672,33.37691113]}},{"properties":{"latitude":36.70354362,"id":"a6jko8hhmilz","area":12333,"longitude":69.83883526,"province":"Takhar"},"type":"Feature","geometry":{"type":"Point","coordinates":[69.83883526,36.70354362]}},{"properties":{"latitude":35.48986504,"id":"a6jko8cgk45s","area":3610,"longitude":69.77380816,"province":"Panjshir"},"type":"Feature","geometry":{"type":"Point","coordinates":[69.77380816,35.48986504]}},{"properties":{"latitude":34.90993674,"id":"a6jko8cp5n8y","area":1842,"longitude":69.60051504,"province":"Kapisa"},"type":"Feature","geometry":{"type":"Point","coordinates":[69.60051504,34.90993674]}},{"properties":{"latitude":36.96593033,"id":"a6jko88b0j9f","area":44059,"longitude":72.43977379,"province":"Badakhshan"},"type":"Feature","geometry":{"type":"Point","coordinates":[72.43977379,36.96593033]}},{"properties":{"latitude":35.4720012,"id":"a6jko89spihe","area":9225,"longitude":70.76775427,"province":"Nurestan"},"type":"Feature","geometry":{"type":"Point","coordinates":[70.76775427,35.4720012]}},{"properties":{"latitude":34.80710686,"id":"a6jko88zprwn","area":3843,"longitude":70.21639712,"province":"Laghman"},"type":"Feature","geometry":{"type":"Point","coordinates":[70.21639712,34.80710686]}},{"properties":{"latitude":34.37257547,"id":"a6jko8h1wljs","area":7727,"longitude":70.32747181,"province":"Nangarhar"},"type":"Feature","geometry":{"type":"Point","coordinates":[70.32747181,34.37257547]}},{"properties":{"latitude":35.00364641,"id":"a6jko8is7lra","area":4942,"longitude":71.12824971,"province":"Kunar"},"type":"Feature","geometry":{"type":"Point","coordinates":[71.12824971,35.00364641]}}],"is_temporal":false,"author":{"url":"","metadata":"","contact_name":"","contact_address":"","source":"","contact_phone":""},"source":"","pagination":{"sort":null,"start":0,"total":34,"limit":1000000},"state":"complete","tags":"","published":"2014-08-10T20:50:56-04:00","id":76986}