{"type":"FeatureCollection","data_type":"Dataset","url_type":null,"permissions":[{"permissions":{"download":true,"view":true},"group_id":"everyone"}],"classification":null,"title":"Cleaned up school yards","count":19,"stream_id":77423,"contributor":{"url":"http://geocommons.com/users/14526","name":"spogburn"},"data_attributes":null,"calculation_params":null,"icon_link":null,"link":"http://geocommons.com/overlays/77423.json","extent":[-120.695,46.5816,-119.517,48.4168],"geometry_types":["point"],"unique_name":null,"name":"Cleaned up school yards","feature_count":19,"description":"Data on cleaned up schoolyards from the Washington dept of ecology","next_feature":null,"is_raster":false,"short_classification":"Y","stats":{},"features":[{"properties":{"city":"Brewster","id":"a63co8he8d3a","address":"502 S 7th Street","school":"Brewster Elementary School"},"type":"Feature","geometry":{"type":"Point","coordinates":[-119.786796,48.096152]}},{"properties":{"city":"Bridgeport","id":"a63co8oq9xyh","address":"1400 Tacoma Avenue","school":"Bridgeport Elementary School"},"type":"Feature","geometry":{"type":"Point","coordinates":[-119.674471,48.006265]}},{"properties":{"city":"East Wenatchee","id":"a63co8m63fxo","address":"1455 N Baker Avenue","school":"Lee Elementary School"},"type":"Feature","geometry":{"type":"Point","coordinates":[-120.292372,47.426999]}},{"properties":{"city":"Manson","id":"a63co8jjphpk","address":"950 Totem Pole Road","school":"Manson Elementary School"},"type":"Feature","geometry":{"type":"Point","coordinates":[-120.153545,47.890592]}},{"properties":{"city":"Naches","id":"a63co8mshkp4","address":"101 Shafe Avenue","school":"Naches Intermediate School"},"type":"Feature","geometry":{"type":"Point","coordinates":[-120.694753,46.729609]}},{"properties":{"city":"Omak","id":"a63co8d1xl4f","address":"615 Oak Street","school":"North Omak Elementary School"},"type":"Feature","geometry":{"type":"Point","coordinates":[-119.516781,48.416837]}},{"properties":{"city":"Orondo","id":"a63co8dl8t86","address":"100 Orondo School Road","school":"Orondo Elementary School"},"type":"Feature","geometry":{"type":"Point","coordinates":[-120.298991,47.358975]}},{"properties":{"city":"Wenatchee","id":"a63co8pndw0n","address":"1224 Methow Street","school":"Lincoln Elementary School"},"type":"Feature","geometry":{"type":"Point","coordinates":[-120.308427,47.406771]}},{"properties":{"city":"Wenatchee","id":"a63co8dy0gey","address":"1130 Princeton Avenue","school":"Lewis &amp; Clark Elementary School"},"type":"Feature","geometry":{"type":"Point","coordinates":[-120.329709,47.437474]}},{"properties":{"city":"Wenatchee","id":"a63co8h4nogg","address":"1401 Washington Street","school":"Washington Elementary School"},"type":"Feature","geometry":{"type":"Point","coordinates":[-120.335563,47.422537]}},{"properties":{"city":"Wenatchee","id":"a63co8b04r7e","address":"1024 Orchard Avenue","school":"Orchard Elementary School"},"type":"Feature","geometry":{"type":"Point","coordinates":[-120.335248,47.426244]}},{"properties":{"city":"Wenatchee","id":"a63co8agfd0k","address":"3109 School Street","school":"Sunnyslope Elementary School"},"type":"Feature","geometry":{"type":"Point","coordinates":[-120.34607,47.472802]}},{"properties":{"city":"Wenatchee","id":"a63co8gq3blv","address":"1521 9th Street","school":"Westside High School with preschool"},"type":"Feature","geometry":{"type":"Point","coordinates":[-120.337663,47.43268]}},{"properties":{"city":"Yakima","id":"a63co8kc2ajp","address":"621 S 13th Avenue","school":"McKinley Elementary School"},"type":"Feature","geometry":{"type":"Point","coordinates":[-120.526407,46.591408]}},{"properties":{"city":"Yakima","id":"a63co8f0mhw0","address":"400 W Viola Avenue","school":"Hoover Elementary School"},"type":"Feature","geometry":{"type":"Point","coordinates":[-120.51083,46.581576]}},{"properties":{"city":"Yakima","id":"a63co8p05dmc","address":"2807 W Lincoln Avenue","school":"Robertson Elementary School"},"type":"Feature","geometry":{"type":"Point","coordinates":[-120.546309,46.603504]}},{"properties":{"city":"Yakima","id":"a63co8hubokq","address":"4400 Douglas Drive","school":"Gilbert Elementary School"},"type":"Feature","geometry":{"type":"Point","coordinates":[-120.567258,46.605312]}},{"properties":{"city":"Yakima","id":"a63co8dqff6n","address":"612 N 6th Avenue","school":"Garfield Elementary School"},"type":"Feature","geometry":{"type":"Point","coordinates":[-120.519925,46.607864]}},{"properties":{"city":"Yakima","id":"a63co8mubkdu","address":"219 East I Street","school":"Barge Lincoln Elementary School"},"type":"Feature","geometry":{"type":"Point","coordinates":[-120.50912,46.614336]}}],"is_temporal":false,"author":{"url":"","metadata":"","contact_name":"","contact_address":"","source":"From the state of Washington Dept of Ecology, e-mailed to me","contact_phone":""},"source":"","pagination":{"sort":null,"start":0,"total":19,"limit":1000000},"state":"complete","tags":"agriculture,cleanup,pollution,schoolyard,washington","published":"2014-08-10T21:17:40-04:00","id":77423}