{"type":"FeatureCollection","data_type":"Dataset","url_type":null,"permissions":[{"permissions":{"download":true,"view":true},"group_id":"everyone"}],"classification":null,"title":"WITS, Terrorist Incidents in India, 2005-2008","count":333,"stream_id":7758,"contributor":{"url":"http://geocommons.com/users/142","name":"tom"},"data_attributes":null,"calculation_params":null,"icon_link":null,"link":"http://geocommons.com/overlays/7758.json","extent":[71.2381,9.92544,96.5872,34.68],"geometry_types":["point"],"unique_name":null,"name":"WITS, Terrorist Incidents in India, 2005-2008","feature_count":333,"description":"The data was extracted from the xml data dump from the WITS website.\n\nIncidents were geocoded (GPSVisualizer) and summed to nearest major city or region.\n\n","next_feature":null,"is_raster":false,"short_classification":"Y","stats":{"latitude":{"max":34.679989,"mean":23.9300109129129,"variance":24.3798301848339,"stdev":4.93759356213469,"min":9.92544,"median":24.205231},"incidents":{"max":681,"mean":26.5225225225225,"variance":5805.64181048518,"stdev":76.194762355986,"min":1,"median":6},"longitude":{"max":96.587181,"mean":83.9530077267267,"variance":42.4129545123823,"stdev":6.51252289918295,"min":71.23811,"median":82.794762}},"features":[{"properties":{"city":"Madurai","latitude":9.92544,"incidents":1,"geocodedto":"Madurai, India","longitude":78.1192,"id":"a62ita5r58e1"},"type":"Feature","geometry":{"type":"Point","coordinates":[78.1192,9.92544]}},{"properties":{"city":"Kannur","latitude":11.87023,"incidents":1,"geocodedto":"Kannur, India","longitude":75.380211,"id":"a62ita3w762g"},"type":"Feature","geometry":{"type":"Point","coordinates":[75.380211,11.87023]}},{"properties":{"city":"Kuderu","latitude":12.03889,"incidents":5,"geocodedto":"Kuderu, India","longitude":76.935799,"id":"a62ita018fmf"},"type":"Feature","geometry":{"type":"Point","coordinates":[76.935799,12.03889]}},{"properties":{"city":"Karimnagar","latitude":12.96489,"incidents":45,"geocodedto":"Karimnagar, India","longitude":80.25602,"id":"a62ita8el471"},"type":"Feature","geometry":{"type":"Point","coordinates":[80.25602,12.96489]}},{"properties":{"city":"Bangalore","latitude":12.97092,"incidents":5,"geocodedto":"Bangalore, India","longitude":77.60482,"id":"a62ita5ki47l"},"type":"Feature","geometry":{"type":"Point","coordinates":[77.60482,12.97092]}},{"properties":{"city":"Kotturu","latitude":13.00153,"incidents":5,"geocodedto":"Kotturu, India","longitude":77.67413,"id":"a62ita208nsz"},"type":"Feature","geometry":{"type":"Point","coordinates":[77.67413,13.00153]}},{"properties":{"city":"Tiruvallur","latitude":13.13088,"incidents":5,"geocodedto":"Tiruvallur, India","longitude":80.13569,"id":"a62ita675kdv"},"type":"Feature","geometry":{"type":"Point","coordinates":[80.13569,13.13088]}},{"properties":{"city":"Madhavaram","latitude":13.14461,"incidents":5,"geocodedto":"Madhavaram, India","longitude":80.227867,"id":"a62ita3phsi7"},"type":"Feature","geometry":{"type":"Point","coordinates":[80.227867,13.14461]}},{"properties":{"city":"Chikmagalur","latitude":13.33069,"incidents":8,"geocodedto":"Chikmagalur, India","longitude":75.774963,"id":"a62it9wf4bbw"},"type":"Feature","geometry":{"type":"Point","coordinates":[75.774963,13.33069]}},{"properties":{"city":"Udipi","latitude":13.34155,"incidents":12,"geocodedto":"Udipi, India","longitude":74.757957,"id":"a62itablex7e"},"type":"Feature","geometry":{"type":"Point","coordinates":[74.757957,13.34155]}},{"properties":{"city":"Turpupundla","latitude":14.20758,"incidents":1,"geocodedto":"Turpupundla, India","longitude":79.774017,"id":"a62ita1k3mrq"},"type":"Feature","geometry":{"type":"Point","coordinates":[79.774017,14.20758]}},{"properties":{"city":"Cuddapah","latitude":14.49572,"incidents":14,"geocodedto":"Cuddapah, India","longitude":78.839996,"id":"a62ita2fb79i"},"type":"Feature","geometry":{"type":"Point","coordinates":[78.839996,14.49572]}},{"properties":{"city":"Anantapur","latitude":14.68496,"incidents":27,"geocodedto":"Anantapur, India","longitude":77.59523,"id":"a62ita3cfufu"},"type":"Feature","geometry":{"type":"Point","coordinates":[77.59523,14.68496]}},{"properties":{"city":"Karnataka","latitude":15.02591,"incidents":1,"geocodedto":"Karnataka, India","longitude":76.336891,"id":"a62ita2wsphf"},"type":"Feature","geometry":{"type":"Point","coordinates":[76.336891,15.02591]}},{"properties":{"city":"Giddalur","latitude":15.35985,"incidents":8,"geocodedto":"Giddalur, India","longitude":78.93087,"id":"a62ita9j7gf9"},"type":"Feature","geometry":{"type":"Point","coordinates":[78.93087,15.35985]}},{"properties":{"city":"Ongole","latitude":15.49038,"incidents":2,"geocodedto":"Ongole, India","longitude":80.032722,"id":"a62ita3i46sd"},"type":"Feature","geometry":{"type":"Point","coordinates":[80.032722,15.49038]}},{"properties":{"city":"Prakasam","latitude":15.63924,"incidents":79,"geocodedto":"Prakasam, India","longitude":79.624161,"id":"a62it9wwr1o9"},"type":"Feature","geometry":{"type":"Point","coordinates":[79.624161,15.63924]}},{"properties":{"city":"Garladinne","latitude":15.64817,"incidents":5,"geocodedto":"Garladinne, India","longitude":79.359459,"id":"a62it9yt4lhu"},"type":"Feature","geometry":{"type":"Point","coordinates":[79.359459,15.64817]}},{"properties":{"city":"Kurnool","latitude":15.81274,"incidents":14,"geocodedto":"Kurnool, India","longitude":78.069489,"id":"a62it9vmpubm"},"type":"Feature","geometry":{"type":"Point","coordinates":[78.069489,15.81274]}},{"properties":{"city":"Andhra Pradesh","latitude":16.270981,"incidents":15,"geocodedto":"Andhra Pradesh, India","longitude":80.763641,"id":"a62ita94wqyt"},"type":"Feature","geometry":{"type":"Point","coordinates":[80.763641,16.270981]}},{"properties":{"city":"Guntur","latitude":16.305429,"incidents":100,"geocodedto":"Guntur, India","longitude":80.421959,"id":"a62ita0j2fk4"},"type":"Feature","geometry":{"type":"Point","coordinates":[80.421959,16.305429]}},{"properties":{"city":"Durgi","latitude":16.40539,"incidents":6,"geocodedto":"Durgi, India","longitude":79.530968,"id":"a62ita61x2hm"},"type":"Feature","geometry":{"type":"Point","coordinates":[79.530968,16.40539]}},{"properties":{"city":"Karempudi","latitude":16.42618,"incidents":7,"geocodedto":"Karempudi, India","longitude":79.704979,"id":"a62ita6xza2e"},"type":"Feature","geometry":{"type":"Point","coordinates":[79.704979,16.42618]}},{"properties":{"city":"Chandampet","latitude":16.5798,"incidents":10,"geocodedto":"Chandampet, India","longitude":78.880676,"id":"a62it9wzafwb"},"type":"Feature","geometry":{"type":"Point","coordinates":[78.880676,16.5798]}},{"properties":{"city":"Eluru","latitude":16.708771,"incidents":5,"geocodedto":"Eluru, India","longitude":81.108429,"id":"a62ita2gm8oc"},"type":"Feature","geometry":{"type":"Point","coordinates":[81.108429,16.708771]}},{"properties":{"city":"Mahbubnagar","latitude":16.735491,"incidents":85,"geocodedto":"Mahbubnagar, India","longitude":77.976738,"id":"a62ita8kcyd5"},"type":"Feature","geometry":{"type":"Point","coordinates":[77.976738,16.735491]}},{"properties":{"city":"Bijapur","latitude":16.829,"incidents":35,"geocodedto":"Bijapur, India","longitude":75.726509,"id":"a62ita2zl1hx"},"type":"Feature","geometry":{"type":"Point","coordinates":[75.726509,16.829]}},{"properties":{"city":"Kakinada","latitude":16.95986,"incidents":9,"geocodedto":"Kakinada, India","longitude":82.221252,"id":"a62it9xsb5qn"},"type":"Feature","geometry":{"type":"Point","coordinates":[82.221252,16.95986]}},{"properties":{"city":"Narayanpur","latitude":17.157021,"incidents":4,"geocodedto":"Narayanpur, India","longitude":78.87719,"id":"a62ita5gws9o"},"type":"Feature","geometry":{"type":"Point","coordinates":[78.87719,17.157021]}},{"properties":{"city":"Khammam","latitude":17.241301,"incidents":71,"geocodedto":"Khammam, India","longitude":80.155693,"id":"a62it9vknmkm"},"type":"Feature","geometry":{"type":"Point","coordinates":[80.155693,17.241301]}},{"properties":{"city":"Rampur","latitude":17.36483,"incidents":1,"geocodedto":"Rampur, India","longitude":78.44805,"id":"a62it9w5dgkl"},"type":"Feature","geometry":{"type":"Point","coordinates":[78.44805,17.36483]}},{"properties":{"city":"Nalgonda","latitude":17.36925,"incidents":89,"geocodedto":"Nalgonda, India","longitude":78.50098,"id":"a62itabq1y1z"},"type":"Feature","geometry":{"type":"Point","coordinates":[78.50098,17.36925]}},{"properties":{"city":"Ranga Reddy","latitude":17.39391,"incidents":5,"geocodedto":"Ranga Reddy, India","longitude":78.48012,"id":"a62it9zqjokl"},"type":"Feature","geometry":{"type":"Point","coordinates":[78.48012,17.39391]}},{"properties":{"city":"Hyderabad","latitude":17.4376,"incidents":10,"geocodedto":"Hyderabad, India","longitude":78.4706,"id":"a62ita5uqsiq"},"type":"Feature","geometry":{"type":"Point","coordinates":[78.4706,17.4376]}},{"properties":{"city":"Yellandu","latitude":17.647779,"incidents":6,"geocodedto":"Yellandu, India","longitude":80.304169,"id":"a62ita3dft0r"},"type":"Feature","geometry":{"type":"Point","coordinates":[80.304169,17.647779]}},{"properties":{"city":"Vishakhapatnam","latitude":17.70853,"incidents":82,"geocodedto":"Vishakhapatnam, India","longitude":83.23568,"id":"a62ita96a80f"},"type":"Feature","geometry":{"type":"Point","coordinates":[83.23568,17.70853]}},{"properties":{"city":"Warangal","latitude":17.98256,"incidents":58,"geocodedto":"Warangal, India","longitude":79.57926,"id":"a62ita2qzttf"},"type":"Feature","geometry":{"type":"Point","coordinates":[79.57926,17.98256]}},{"properties":{"city":"Medak","latitude":18.041821,"incidents":28,"geocodedto":"Medak, India","longitude":78.258133,"id":"a62ita0uwpsb"},"type":"Feature","geometry":{"type":"Point","coordinates":[78.258133,18.041821]}},{"properties":{"city":"Sileru","latitude":18.050211,"incidents":12,"geocodedto":"Sileru, India","longitude":82.042191,"id":"a62it9zgposi"},"type":"Feature","geometry":{"type":"Point","coordinates":[82.042191,18.050211]}},{"properties":{"city":"Aurangabad","latitude":18.08021,"incidents":15,"geocodedto":"Aurangabad, India","longitude":78.2734,"id":"a62ita08alw1"},"type":"Feature","geometry":{"type":"Point","coordinates":[78.2734,18.08021]}},{"properties":{"city":"Mangapet","latitude":18.262541,"incidents":5,"geocodedto":"Mangapet, India","longitude":80.506081,"id":"a62itaawio1u"},"type":"Feature","geometry":{"type":"Point","coordinates":[80.506081,18.262541]}},{"properties":{"city":"Srikakulam","latitude":18.297911,"incidents":6,"geocodedto":"Srikakulam, India","longitude":83.89846,"id":"a62ita36gxxi"},"type":"Feature","geometry":{"type":"Point","coordinates":[83.89846,18.297911]}},{"properties":{"city":"Malkangiri","latitude":18.354719,"incidents":26,"geocodedto":"Malkangiri, India","longitude":81.902008,"id":"a62itab6g428"},"type":"Feature","geometry":{"type":"Point","coordinates":[81.902008,18.354719]}},{"properties":{"city":"Sonari","latitude":18.364229,"incidents":6,"geocodedto":"Sonari, India","longitude":75.41877,"id":"a62it9vouzvh"},"type":"Feature","geometry":{"type":"Point","coordinates":[75.41877,18.364229]}},{"properties":{"city":"Gul","latitude":18.50861,"incidents":6,"geocodedto":"Gul, India","longitude":73.86506,"id":"a62ita1mncy6"},"type":"Feature","geometry":{"type":"Point","coordinates":[73.86506,18.50861]}},{"properties":{"city":"Nagaon","latitude":18.60754,"incidents":15,"geocodedto":"Nagaon, India","longitude":72.906929,"id":"a62it9x8ve60"},"type":"Feature","geometry":{"type":"Point","coordinates":[72.906929,18.60754]}},{"properties":{"city":"Nizamabad","latitude":18.659031,"incidents":3,"geocodedto":"Nizamabad, India","longitude":78.076958,"id":"a62ita8q2vc8"},"type":"Feature","geometry":{"type":"Point","coordinates":[78.076958,18.659031]}},{"properties":{"city":"Gangalur","latitude":18.774811,"incidents":1,"geocodedto":"Gangalur, India","longitude":81.025284,"id":"a62ita481gcm"},"type":"Feature","geometry":{"type":"Point","coordinates":[81.025284,18.774811]}},{"properties":{"city":"Koraput","latitude":18.800619,"incidents":6,"geocodedto":"Koraput, India","longitude":82.736259,"id":"a62ita4bm078"},"type":"Feature","geometry":{"type":"Point","coordinates":[82.736259,18.800619]}},{"properties":{"city":"Maharashtra","latitude":18.821159,"incidents":10,"geocodedto":"Maharashtra, India","longitude":76.766159,"id":"a62ita0tu57z"},"type":"Feature","geometry":{"type":"Point","coordinates":[76.766159,18.821159]}},{"properties":{"city":"Dantewara","latitude":18.874201,"incidents":240,"geocodedto":"Dantewara, India","longitude":81.37928,"id":"a62ita9sbqdt"},"type":"Feature","geometry":{"type":"Point","coordinates":[81.37928,18.874201]}},{"properties":{"city":"Ibrahimpatan","latitude":18.90951,"incidents":1,"geocodedto":"Ibrahimpatan, India","longitude":78.592529,"id":"a62ita9se30b"},"type":"Feature","geometry":{"type":"Point","coordinates":[78.592529,18.90951]}},{"properties":{"city":"Bhairamgarh","latitude":18.99254,"incidents":1,"geocodedto":"Bhairamgarh, India","longitude":80.96946,"id":"a62ita8a8ouh"},"type":"Feature","geometry":{"type":"Point","coordinates":[80.96946,18.99254]}},{"properties":{"city":"Jimidipeta","latitude":19.03896,"incidents":2,"geocodedto":"Jimidipeta, India","longitude":83.424347,"id":"a62ita72sfy7"},"type":"Feature","geometry":{"type":"Point","coordinates":[83.424347,19.03896]}},{"properties":{"city":"Mumbai","latitude":19.076191,"incidents":8,"geocodedto":"Mumbai, India","longitude":72.875877,"id":"a62ita7nizs1"},"type":"Feature","geometry":{"type":"Point","coordinates":[72.875877,19.076191]}},{"properties":{"city":"Tanwa","latitude":19.09367,"incidents":1,"geocodedto":"Tanwa, India","longitude":72.8453,"id":"a62itab6uzqy"},"type":"Feature","geometry":{"type":"Point","coordinates":[72.8453,19.09367]}},{"properties":{"city":"Madhuban","latitude":19.14556,"incidents":34,"geocodedto":"Madhuban, India","longitude":72.99809,"id":"a62it9z0gjci"},"type":"Feature","geometry":{"type":"Point","coordinates":[72.99809,19.14556]}},{"properties":{"city":"Sonapur","latitude":19.16344,"incidents":8,"geocodedto":"Sonapur, India","longitude":72.93353,"id":"a62ita4rw6r3"},"type":"Feature","geometry":{"type":"Point","coordinates":[72.93353,19.16344]}},{"properties":{"city":"Rayagada","latitude":19.170879,"incidents":7,"geocodedto":"Rayagada, India","longitude":83.401192,"id":"a62itabpkygr"},"type":"Feature","geometry":{"type":"Point","coordinates":[83.401192,19.170879]}},{"properties":{"city":"Gajapati","latitude":19.201269,"incidents":2,"geocodedto":"Gajapati, India","longitude":84.122177,"id":"a62ita2ue8fo"},"type":"Feature","geometry":{"type":"Point","coordinates":[84.122177,19.201269]}},{"properties":{"city":"Thane","latitude":19.25008,"incidents":5,"geocodedto":"Thane, India","longitude":72.9152,"id":"a62ita2d3lg3"},"type":"Feature","geometry":{"type":"Point","coordinates":[72.9152,19.25008]}},{"properties":{"city":"Pungai Village","latitude":19.28843,"incidents":6,"geocodedto":"Pungai Village, India","longitude":72.80255,"id":"a62itaatiwa3"},"type":"Feature","geometry":{"type":"Point","coordinates":[72.80255,19.28843]}},{"properties":{"city":"Bastar","latitude":19.457291,"incidents":53,"geocodedto":"Bastar, India","longitude":81.451653,"id":"a62ita1kry96"},"type":"Feature","geometry":{"type":"Point","coordinates":[81.451653,19.457291]}},{"properties":{"city":"Etapalli","latitude":19.605511,"incidents":5,"geocodedto":"Etapalli, India","longitude":80.236168,"id":"a62itaaqs5bt"},"type":"Feature","geometry":{"type":"Point","coordinates":[80.236168,19.605511]}},{"properties":{"city":"Adilabad","latitude":19.673771,"incidents":28,"geocodedto":"Adilabad, India","longitude":78.538261,"id":"a62it9zdcfxc"},"type":"Feature","geometry":{"type":"Point","coordinates":[78.538261,19.673771]}},{"properties":{"city":"Nayagarh","latitude":20.144421,"incidents":1,"geocodedto":"Nayagarh, India","longitude":85.090622,"id":"a62ita4u90kp"},"type":"Feature","geometry":{"type":"Point","coordinates":[85.090622,20.144421]}},{"properties":{"city":"Gadchiroli","latitude":20.18737,"incidents":45,"geocodedto":"Gadchiroli, India","longitude":80.003677,"id":"a62ita1vx86h"},"type":"Feature","geometry":{"type":"Point","coordinates":[80.003677,20.18737]}},{"properties":{"city":"Orissa","latitude":20.190479,"incidents":4,"geocodedto":"Orissa, India","longitude":84.439972,"id":"a62ita4pflcj"},"type":"Feature","geometry":{"type":"Point","coordinates":[84.439972,20.190479]}},{"properties":{"city":"Kanker","latitude":20.273199,"incidents":27,"geocodedto":"Kanker, India","longitude":81.484749,"id":"a62it9zejph7"},"type":"Feature","geometry":{"type":"Point","coordinates":[81.484749,20.273199]}},{"properties":{"city":"Dhenkanal","latitude":20.648399,"incidents":6,"geocodedto":"Dhenkanal, India","longitude":85.586372,"id":"a62it9zszajy"},"type":"Feature","geometry":{"type":"Point","coordinates":[85.586372,20.648399]}},{"properties":{"city":"Mendhar","latitude":20.749769,"incidents":38,"geocodedto":"Mendhar, India","longitude":72.863182,"id":"a62ita8wkvx4"},"type":"Feature","geometry":{"type":"Point","coordinates":[72.863182,20.749769]}},{"properties":{"city":"Angul","latitude":20.84724,"incidents":1,"geocodedto":"Angul, India","longitude":85.085297,"id":"a62ita2yvprk"},"type":"Feature","geometry":{"type":"Point","coordinates":[85.085297,20.84724]}},{"properties":{"city":"Chhattisgarh","latitude":20.945259,"incidents":53,"geocodedto":"Chhattisgarh, India","longitude":82.31987,"id":"a62ita08dvjd"},"type":"Feature","geometry":{"type":"Point","coordinates":[82.31987,20.945259]}},{"properties":{"city":"Raj Nandgaon","latitude":21.093599,"incidents":17,"geocodedto":"Raj Nandgaon, India","longitude":81.031731,"id":"a62it9z8t9so"},"type":"Feature","geometry":{"type":"Point","coordinates":[81.031731,21.093599]}},{"properties":{"city":"Durg","latitude":21.19245,"incidents":1,"geocodedto":"Durg, India","longitude":81.284027,"id":"a62it9yxp994"},"type":"Feature","geometry":{"type":"Point","coordinates":[81.284027,21.19245]}},{"properties":{"city":"Gondia","latitude":21.453621,"incidents":2,"geocodedto":"Gondia, India","longitude":80.216339,"id":"a62it9vqttsj"},"type":"Feature","geometry":{"type":"Point","coordinates":[80.216339,21.453621]}},{"properties":{"city":"Sambalpur","latitude":21.4925,"incidents":36,"geocodedto":"Sambalpur, India","longitude":83.9618,"id":"a62ita9lta66"},"type":"Feature","geometry":{"type":"Point","coordinates":[83.9618,21.4925]}},{"properties":{"city":"Keonjhar","latitude":21.661909,"incidents":1,"geocodedto":"Keonjhar, India","longitude":85.585732,"id":"a62itaa9tdkb"},"type":"Feature","geometry":{"type":"Point","coordinates":[85.585732,21.661909]}},{"properties":{"city":"Dalaigaon","latitude":21.7866,"incidents":5,"geocodedto":"Dalaigaon, India","longitude":82.794762,"id":"a62it9y5cchu"},"type":"Feature","geometry":{"type":"Point","coordinates":[82.794762,21.7866]}},{"properties":{"city":"Taichamapara","latitude":21.7866,"incidents":6,"geocodedto":"Taichamapara, India","longitude":82.794762,"id":"a62ita4t9g6h"},"type":"Feature","geometry":{"type":"Point","coordinates":[82.794762,21.7866]}},{"properties":{"city":"Tailbal","latitude":21.7866,"incidents":1,"geocodedto":"Tailbal, India","longitude":82.794762,"id":"a62ita21x0sx"},"type":"Feature","geometry":{"type":"Point","coordinates":[82.794762,21.7866]}},{"properties":{"city":"Mahabubnagar","latitude":21.7866,"incidents":6,"geocodedto":"Mahabubnagar, India","longitude":82.794762,"id":"a62itabioylx"},"type":"Feature","geometry":{"type":"Point","coordinates":[82.794762,21.7866]}},{"properties":{"city":"East Singhbhum","latitude":21.7866,"incidents":1,"geocodedto":"East Singhbhum, India","longitude":82.794762,"id":"a62ita89iqa9"},"type":"Feature","geometry":{"type":"Point","coordinates":[82.794762,21.7866]}},{"properties":{"city":"Deulahland","latitude":21.7866,"incidents":5,"geocodedto":"Deulahland, India","longitude":82.794762,"id":"a62it9xsl6k5"},"type":"Feature","geometry":{"type":"Point","coordinates":[82.794762,21.7866]}},{"properties":{"city":"Mainpat","latitude":21.7866,"incidents":1,"geocodedto":"Mainpat, India","longitude":82.794762,"id":"a62ita85pwu5"},"type":"Feature","geometry":{"type":"Point","coordinates":[82.794762,21.7866]}},{"properties":{"city":"Khamti Mohang","latitude":21.7866,"incidents":5,"geocodedto":"Khamti Mohang, India","longitude":82.794762,"id":"a62it9vbgxl1"},"type":"Feature","geometry":{"type":"Point","coordinates":[82.794762,21.7866]}},{"properties":{"city":"Farahabad","latitude":21.7866,"incidents":5,"geocodedto":"Farahabad, India","longitude":82.794762,"id":"a62ita6bqn38"},"type":"Feature","geometry":{"type":"Point","coordinates":[82.794762,21.7866]}},{"properties":{"city":"Drangbal","latitude":21.7866,"incidents":6,"geocodedto":"Drangbal, India","longitude":82.794762,"id":"a62ita6wygjd"},"type":"Feature","geometry":{"type":"Point","coordinates":[82.794762,21.7866]}},{"properties":{"city":"Chota","latitude":21.7866,"incidents":5,"geocodedto":"Chota, India","longitude":82.794762,"id":"a62itabb5a3m"},"type":"Feature","geometry":{"type":"Point","coordinates":[82.794762,21.7866]}},{"properties":{"city":"Chirang","latitude":21.7866,"incidents":2,"geocodedto":"Chirang, India","longitude":82.794762,"id":"a62itabgiy3r"},"type":"Feature","geometry":{"type":"Point","coordinates":[82.794762,21.7866]}},{"properties":{"city":"Mandolpora Lolab","latitude":21.7866,"incidents":5,"geocodedto":"Mandolpora Lolab, India","longitude":82.794762,"id":"a62it9xd8kwz"},"type":"Feature","geometry":{"type":"Point","coordinates":[82.794762,21.7866]}},{"properties":{"city":"Sidli","latitude":21.7866,"incidents":10,"geocodedto":"Sidli, India","longitude":82.794762,"id":"a62it9y4f0k7"},"type":"Feature","geometry":{"type":"Point","coordinates":[82.794762,21.7866]}},{"properties":{"city":"Leishoi Leikai","latitude":21.7866,"incidents":5,"geocodedto":"Leishoi Leikai, India","longitude":82.794762,"id":"a62ita28blnx"},"type":"Feature","geometry":{"type":"Point","coordinates":[82.794762,21.7866]}},{"properties":{"city":"Unknown","latitude":21.7866,"incidents":7,"geocodedto":"Unknown, India","longitude":82.794762,"id":"a62ita36l0pd"},"type":"Feature","geometry":{"type":"Point","coordinates":[82.794762,21.7866]}},{"properties":{"city":"Khanduli","latitude":21.7866,"incidents":1,"geocodedto":"Khanduli, India","longitude":82.794762,"id":"a62ita6khipu"},"type":"Feature","geometry":{"type":"Point","coordinates":[82.794762,21.7866]}},{"properties":{"city":"Lawaypora","latitude":21.7866,"incidents":8,"geocodedto":"Lawaypora, India","longitude":82.794762,"id":"a62ita9sxved"},"type":"Feature","geometry":{"type":"Point","coordinates":[82.794762,21.7866]}},{"properties":{"city":"Laribal","latitude":21.7866,"incidents":5,"geocodedto":"Laribal, India","longitude":82.794762,"id":"a62ita75wr3s"},"type":"Feature","geometry":{"type":"Point","coordinates":[82.794762,21.7866]}},{"properties":{"city":"Peren","latitude":21.7866,"incidents":9,"geocodedto":"Peren, India","longitude":82.794762,"id":"a62ita6w67ai"},"type":"Feature","geometry":{"type":"Point","coordinates":[82.794762,21.7866]}},{"properties":{"city":"Moosylem","latitude":21.7866,"incidents":1,"geocodedto":"Moosylem, India","longitude":82.794762,"id":"a62ita9qu4lm"},"type":"Feature","geometry":{"type":"Point","coordinates":[82.794762,21.7866]}},{"properties":{"city":"Vizianagarm","latitude":21.7866,"incidents":10,"geocodedto":"Vizianagarm, India","longitude":82.794762,"id":"a62ita775sd1"},"type":"Feature","geometry":{"type":"Point","coordinates":[82.794762,21.7866]}},{"properties":{"city":"Sonebhadra","latitude":21.7866,"incidents":5,"geocodedto":"Sonebhadra, India","longitude":82.794762,"id":"a62it9zqgfto"},"type":"Feature","geometry":{"type":"Point","coordinates":[82.794762,21.7866]}},{"properties":{"city":"Keibul Lamjao","latitude":21.7866,"incidents":1,"geocodedto":"Keibul Lamjao, India","longitude":82.794762,"id":"a62it9yuuzmm"},"type":"Feature","geometry":{"type":"Point","coordinates":[82.794762,21.7866]}},{"properties":{"city":"Morigaon Town","latitude":21.7866,"incidents":1,"geocodedto":"Morigaon Town, India","longitude":82.794762,"id":"a62it9ytqib9"},"type":"Feature","geometry":{"type":"Point","coordinates":[82.794762,21.7866]}},{"properties":{"city":"Salekasa","latitude":21.7866,"incidents":1,"geocodedto":"Salekasa, India","longitude":82.794762,"id":"a62it9zhwvh2"},"type":"Feature","geometry":{"type":"Point","coordinates":[82.794762,21.7866]}},{"properties":{"city":"Mukkidigundam","latitude":21.7866,"incidents":5,"geocodedto":"Mukkidigundam, India","longitude":82.794762,"id":"a62it9wr01j2"},"type":"Feature","geometry":{"type":"Point","coordinates":[82.794762,21.7866]}},{"properties":{"city":"Partabpora","latitude":21.7866,"incidents":5,"geocodedto":"Partabpora, India","longitude":82.794762,"id":"a62ita2op7k5"},"type":"Feature","geometry":{"type":"Point","coordinates":[82.794762,21.7866]}},{"properties":{"city":"Nongbram","latitude":21.7866,"incidents":1,"geocodedto":"Nongbram, India","longitude":82.794762,"id":"a62ita02yxl4"},"type":"Feature","geometry":{"type":"Point","coordinates":[82.794762,21.7866]}},{"properties":{"city":"West Medhnapur","latitude":21.7866,"incidents":5,"geocodedto":"West Medhnapur, India","longitude":82.794762,"id":"a62ita0m8svy"},"type":"Feature","geometry":{"type":"Point","coordinates":[82.794762,21.7866]}},{"properties":{"city":"West Singhbhum","latitude":21.7866,"incidents":2,"geocodedto":"West Singhbhum, India","longitude":82.794762,"id":"a62ita6d4l1z"},"type":"Feature","geometry":{"type":"Point","coordinates":[82.794762,21.7866]}},{"properties":{"city":"Kremshora Village","latitude":21.7866,"incidents":6,"geocodedto":"Kremshora Village, India","longitude":82.794762,"id":"a62ita641m94"},"type":"Feature","geometry":{"type":"Point","coordinates":[82.794762,21.7866]}},{"properties":{"city":"Harpalganj","latitude":21.7866,"incidents":5,"geocodedto":"Harpalganj, India","longitude":82.794762,"id":"a62it9zgqn6r"},"type":"Feature","geometry":{"type":"Point","coordinates":[82.794762,21.7866]}},{"properties":{"city":"Nowshera","latitude":21.7866,"incidents":7,"geocodedto":"Nowshera, India","longitude":82.794762,"id":"a62ita0dd8un"},"type":"Feature","geometry":{"type":"Point","coordinates":[82.794762,21.7866]}},{"properties":{"city":"Hildi","latitude":21.7866,"incidents":1,"geocodedto":"Hildi, India","longitude":82.794762,"id":"a62ita5k1zaz"},"type":"Feature","geometry":{"type":"Point","coordinates":[82.794762,21.7866]}},{"properties":{"city":"Wusan","latitude":21.7866,"incidents":5,"geocodedto":"Wusan, India","longitude":82.794762,"id":"a62ita3ayi52"},"type":"Feature","geometry":{"type":"Point","coordinates":[82.794762,21.7866]}},{"properties":{"city":"Nunmati","latitude":21.7866,"incidents":6,"geocodedto":"Nunmati, India","longitude":82.794762,"id":"a62ita3ve7aj"},"type":"Feature","geometry":{"type":"Point","coordinates":[82.794762,21.7866]}},{"properties":{"city":"Zainapora","latitude":21.7866,"incidents":1,"geocodedto":"Zainapora, India","longitude":82.794762,"id":"a62ita4e2tqi"},"type":"Feature","geometry":{"type":"Point","coordinates":[82.794762,21.7866]}},{"properties":{"city":"Singhbhum","latitude":21.7866,"incidents":9,"geocodedto":"Singhbhum, India","longitude":82.794762,"id":"a62ita48p6ap"},"type":"Feature","geometry":{"type":"Point","coordinates":[82.794762,21.7866]}},{"properties":{"city":"Sadiya","latitude":21.7866,"incidents":1,"geocodedto":"Sadiya, India","longitude":82.794762,"id":"a62it9wqc4hk"},"type":"Feature","geometry":{"type":"Point","coordinates":[82.794762,21.7866]}},{"properties":{"city":"Khasi Hills","latitude":21.7866,"incidents":10,"geocodedto":"Khasi Hills, India","longitude":82.794762,"id":"a62ita4s00vp"},"type":"Feature","geometry":{"type":"Point","coordinates":[82.794762,21.7866]}},{"properties":{"city":"Karapora Village","latitude":21.7866,"incidents":5,"geocodedto":"Karapora Village, India","longitude":82.794762,"id":"a62itabcdyeq"},"type":"Feature","geometry":{"type":"Point","coordinates":[82.794762,21.7866]}},{"properties":{"city":"Mayurbhanj","latitude":21.929001,"incidents":4,"geocodedto":"Mayurbhanj, India","longitude":86.734032,"id":"a62ita2gacsh"},"type":"Feature","geometry":{"type":"Point","coordinates":[86.734032,21.929001]}},{"properties":{"city":"Palamau","latitude":21.96624,"incidents":12,"geocodedto":"Palamau, India","longitude":78.888748,"id":"a62ita2iy3vc"},"type":"Feature","geometry":{"type":"Point","coordinates":[78.888748,21.96624]}},{"properties":{"city":"Sundargarh","latitude":22.11552,"incidents":4,"geocodedto":"Sundargarh, India","longitude":84.035988,"id":"a62ita2hfjw1"},"type":"Feature","geometry":{"type":"Point","coordinates":[84.035988,22.11552]}},{"properties":{"city":"Rourkela","latitude":22.221809,"incidents":1,"geocodedto":"Rourkela, India","longitude":84.847343,"id":"a62ita09gnpj"},"type":"Feature","geometry":{"type":"Point","coordinates":[84.847343,22.221809]}},{"properties":{"city":"Ajmer","latitude":22.25533,"incidents":1,"geocodedto":"Ajmer, India","longitude":71.23811,"id":"a62ita3hlcl3"},"type":"Feature","geometry":{"type":"Point","coordinates":[71.23811,22.25533]}},{"properties":{"city":"Medinipur","latitude":22.42104,"incidents":5,"geocodedto":"Medinipur, India","longitude":87.323517,"id":"a62it9ykl0vm"},"type":"Feature","geometry":{"type":"Point","coordinates":[87.323517,22.42104]}},{"properties":{"city":"Baska","latitude":22.46801,"incidents":24,"geocodedto":"Baska, India","longitude":73.449211,"id":"a62ita5rmu8d"},"type":"Feature","geometry":{"type":"Point","coordinates":[73.449211,22.46801]}},{"properties":{"city":"Simdega","latitude":22.613041,"incidents":4,"geocodedto":"Simdega, India","longitude":84.485657,"id":"a62it9vbf2ie"},"type":"Feature","geometry":{"type":"Point","coordinates":[84.485657,22.613041]}},{"properties":{"city":"Belpahari","latitude":22.637699,"incidents":2,"geocodedto":"Belpahari, India","longitude":86.763512,"id":"a62itab1t4j4"},"type":"Feature","geometry":{"type":"Point","coordinates":[86.763512,22.637699]}},{"properties":{"city":"Bandwan","latitude":22.78857,"incidents":8,"geocodedto":"Bandwan, India","longitude":86.504501,"id":"a62ita0nsh6f"},"type":"Feature","geometry":{"type":"Point","coordinates":[86.504501,22.78857]}},{"properties":{"city":"Jamshedpur","latitude":22.7944,"incidents":1,"geocodedto":"Jamshedpur, India","longitude":86.19053,"id":"a62ita029chv"},"type":"Feature","geometry":{"type":"Point","coordinates":[86.19053,22.7944]}},{"properties":{"city":"Jashpurnagar","latitude":22.878611,"incidents":10,"geocodedto":"Jashpurnagar, India","longitude":84.136108,"id":"a62it9vckiac"},"type":"Feature","geometry":{"type":"Point","coordinates":[84.136108,22.878611]}},{"properties":{"city":"Gumla","latitude":23.04674,"incidents":12,"geocodedto":"Gumla, India","longitude":84.544289,"id":"a62ita2ubsyg"},"type":"Feature","geometry":{"type":"Point","coordinates":[84.544289,23.04674]}},{"properties":{"city":"Bishnupur","latitude":23.06251,"incidents":84,"geocodedto":"Bishnupur, India","longitude":87.31929,"id":"a62it9yh7hra"},"type":"Feature","geometry":{"type":"Point","coordinates":[87.31929,23.06251]}},{"properties":{"city":"Surguja","latitude":23.129089,"incidents":9,"geocodedto":"Surguja, India","longitude":83.200638,"id":"a62ita61lu8t"},"type":"Feature","geometry":{"type":"Point","coordinates":[83.200638,23.129089]}},{"properties":{"city":"Jabalpur","latitude":23.16065,"incidents":6,"geocodedto":"Jabalpur, India","longitude":79.938637,"id":"a62itaafm604"},"type":"Feature","geometry":{"type":"Point","coordinates":[79.938637,23.16065]}},{"properties":{"city":"Baksa","latitude":23.18931,"incidents":2,"geocodedto":"Baksa, India","longitude":88.909637,"id":"a62ita4yl6nq"},"type":"Feature","geometry":{"type":"Point","coordinates":[88.909637,23.18931]}},{"properties":{"city":"Bankura","latitude":23.23019,"incidents":7,"geocodedto":"Bankura, India","longitude":87.061378,"id":"a62ita5xaalp"},"type":"Feature","geometry":{"type":"Point","coordinates":[87.061378,23.23019]}},{"properties":{"city":"Barddhaman","latitude":23.24181,"incidents":1,"geocodedto":"Barddhaman, India","longitude":87.847038,"id":"a62ita8fjtbg"},"type":"Feature","geometry":{"type":"Point","coordinates":[87.847038,23.24181]}},{"properties":{"city":"Santipur","latitude":23.24534,"incidents":1,"geocodedto":"Santipur, India","longitude":88.430092,"id":"a62ita1ftp2g"},"type":"Feature","geometry":{"type":"Point","coordinates":[88.430092,23.24534]}},{"properties":{"city":"Mizoram","latitude":23.247271,"incidents":1,"geocodedto":"Mizoram, India","longitude":92.839569,"id":"a62ita9oeh8j"},"type":"Feature","geometry":{"type":"Point","coordinates":[92.839569,23.247271]}},{"properties":{"city":"Puruliya","latitude":23.327459,"incidents":19,"geocodedto":"Puruliya, India","longitude":86.367592,"id":"a62ita30s5y4"},"type":"Feature","geometry":{"type":"Point","coordinates":[86.367592,23.327459]}},{"properties":{"city":"South Tripura","latitude":23.33876,"incidents":7,"geocodedto":"South Tripura, India","longitude":91.600212,"id":"a62itabcdqc3"},"type":"Feature","geometry":{"type":"Point","coordinates":[91.600212,23.33876]}},{"properties":{"city":"Ranchi","latitude":23.34059,"incidents":5,"geocodedto":"Ranchi, India","longitude":85.3175,"id":"a62ita5n0fkl"},"type":"Feature","geometry":{"type":"Point","coordinates":[85.3175,23.34059]}},{"properties":{"city":"Nadia","latitude":23.40097,"incidents":3,"geocodedto":"Nadia, India","longitude":88.356056,"id":"a62itaarc2xi"},"type":"Feature","geometry":{"type":"Point","coordinates":[88.356056,23.40097]}},{"properties":{"city":"Lohardaga","latitude":23.433821,"incidents":10,"geocodedto":"Lohardaga, India","longitude":84.684441,"id":"a62ita6gu14m"},"type":"Feature","geometry":{"type":"Point","coordinates":[84.684441,23.433821]}},{"properties":{"city":"Raghunathpur","latitude":23.52993,"incidents":10,"geocodedto":"Raghunathpur, India","longitude":86.682579,"id":"a62ita0ph67w"},"type":"Feature","geometry":{"type":"Point","coordinates":[86.682579,23.52993]}},{"properties":{"city":"Jharkhand","latitude":23.657169,"incidents":13,"geocodedto":"Jharkhand, India","longitude":85.62162,"id":"a62it9vlanzy"},"type":"Feature","geometry":{"type":"Point","coordinates":[85.62162,23.657169]}},{"properties":{"city":"Tripura","latitude":23.721251,"incidents":21,"geocodedto":"Tripura, India","longitude":91.744583,"id":"a62ita5mtgbw"},"type":"Feature","geometry":{"type":"Point","coordinates":[91.744583,23.721251]}},{"properties":{"city":"West Tripura","latitude":23.73531,"incidents":37,"geocodedto":"West Tripura, India","longitude":91.478508,"id":"a62it9wzcnch"},"type":"Feature","geometry":{"type":"Point","coordinates":[91.478508,23.73531]}},{"properties":{"city":"Latehar","latitude":23.742451,"incidents":34,"geocodedto":"Latehar, India","longitude":84.491592,"id":"a62ita6z257e"},"type":"Feature","geometry":{"type":"Point","coordinates":[84.491592,23.742451]}},{"properties":{"city":"Aizawl","latitude":23.74675,"incidents":6,"geocodedto":"Aizawl, India","longitude":92.718559,"id":"a62ita14f52h"},"type":"Feature","geometry":{"type":"Point","coordinates":[92.718559,23.74675]}},{"properties":{"city":"Bokaro","latitude":23.788401,"incidents":11,"geocodedto":"Bokaro, India","longitude":85.886032,"id":"a62ita03r6mh"},"type":"Feature","geometry":{"type":"Point","coordinates":[85.886032,23.788401]}},{"properties":{"city":"Dhalai","latitude":23.834141,"incidents":72,"geocodedto":"Dhalai, India","longitude":91.958618,"id":"a62it9z1ps15"},"type":"Feature","geometry":{"type":"Point","coordinates":[91.958618,23.834141]}},{"properties":{"city":"Mamit","latitude":23.938311,"incidents":6,"geocodedto":"Mamit, India","longitude":92.49192,"id":"a62ita41bllc"},"type":"Feature","geometry":{"type":"Point","coordinates":[92.49192,23.938311]}},{"properties":{"city":"Kandi","latitude":23.952971,"incidents":12,"geocodedto":"Kandi, India","longitude":88.047638,"id":"a62ita4pc1wy"},"type":"Feature","geometry":{"type":"Point","coordinates":[88.047638,23.952971]}},{"properties":{"city":"Madhya Pradesh","latitude":23.970791,"incidents":1,"geocodedto":"Madhya Pradesh, India","longitude":78.428879,"id":"a62it9ygupw4"},"type":"Feature","geometry":{"type":"Point","coordinates":[78.428879,23.970791]}},{"properties":{"city":"Santinagar","latitude":23.97789,"incidents":1,"geocodedto":"Santinagar, India","longitude":91.66066,"id":"a62it9vhxmz4"},"type":"Feature","geometry":{"type":"Point","coordinates":[91.66066,23.97789]}},{"properties":{"city":"Palamu","latitude":23.984079,"incidents":18,"geocodedto":"Palamu, India","longitude":84.388046,"id":"a62it9xwmuoz"},"type":"Feature","geometry":{"type":"Point","coordinates":[84.388046,23.984079]}},{"properties":{"city":"Hazaribag","latitude":23.98852,"incidents":16,"geocodedto":"Hazaribag, India","longitude":85.368248,"id":"a62ita8sfvi1"},"type":"Feature","geometry":{"type":"Point","coordinates":[85.368248,23.98852]}},{"properties":{"city":"Birbhum","latitude":24.065029,"incidents":1,"geocodedto":"Birbhum, India","longitude":87.552948,"id":"a62ita5ca2v5"},"type":"Feature","geometry":{"type":"Point","coordinates":[87.552948,24.065029]}},{"properties":{"city":"Khowai","latitude":24.06871,"incidents":8,"geocodedto":"Khowai, India","longitude":91.644363,"id":"a62ita9xt75b"},"type":"Feature","geometry":{"type":"Point","coordinates":[91.644363,24.06871]}},{"properties":{"city":"North Tripura","latitude":24.094219,"incidents":4,"geocodedto":"North Tripura, India","longitude":92.116699,"id":"a62ita1eztqg"},"type":"Feature","geometry":{"type":"Point","coordinates":[92.116699,24.094219]}},{"properties":{"city":"Garhwa","latitude":24.16799,"incidents":2,"geocodedto":"Garhwa, India","longitude":83.805023,"id":"a62ita3fyh6i"},"type":"Feature","geometry":{"type":"Point","coordinates":[83.805023,24.16799]}},{"properties":{"city":"Murshidabad","latitude":24.18726,"incidents":1,"geocodedto":"Murshidabad, India","longitude":88.279312,"id":"a62ita7u6eoe"},"type":"Feature","geometry":{"type":"Point","coordinates":[88.279312,24.18726]}},{"properties":{"city":"Giridih","latitude":24.194679,"incidents":25,"geocodedto":"Giridih, India","longitude":86.288597,"id":"a62it9ypl0cu"},"type":"Feature","geometry":{"type":"Point","coordinates":[86.288597,24.194679]}},{"properties":{"city":"Chatra","latitude":24.205231,"incidents":31,"geocodedto":"Chatra, India","longitude":84.87912,"id":"a62it9vp0i4x"},"type":"Feature","geometry":{"type":"Point","coordinates":[84.87912,24.205231]}},{"properties":{"city":"Kolosib","latitude":24.241489,"incidents":6,"geocodedto":"Kolosib, India","longitude":92.673409,"id":"a62ita1oul50"},"type":"Feature","geometry":{"type":"Point","coordinates":[92.673409,24.241489]}},{"properties":{"city":"Tolbol","latitude":24.26782,"incidents":10,"geocodedto":"Tolbol, India","longitude":93.289619,"id":"a62ita9iqsfy"},"type":"Feature","geometry":{"type":"Point","coordinates":[93.289619,24.26782]}},{"properties":{"city":"Dumka","latitude":24.268749,"incidents":1,"geocodedto":"Dumka, India","longitude":87.247047,"id":"a62ita5pk3n9"},"type":"Feature","geometry":{"type":"Point","coordinates":[87.247047,24.268749]}},{"properties":{"city":"Chandel","latitude":24.297501,"incidents":41,"geocodedto":"Chandel, India","longitude":93.935501,"id":"a62ita9vkyvw"},"type":"Feature","geometry":{"type":"Point","coordinates":[93.935501,24.297501]}},{"properties":{"city":"Kailashahar","latitude":24.30615,"incidents":6,"geocodedto":"Kailashahar, India","longitude":91.996819,"id":"a62ita74j7lw"},"type":"Feature","geometry":{"type":"Point","coordinates":[91.996819,24.30615]}},{"properties":{"city":"Churachandpur","latitude":24.32942,"incidents":81,"geocodedto":"Churachandpur, India","longitude":93.652748,"id":"a62it9xyfo14"},"type":"Feature","geometry":{"type":"Point","coordinates":[93.652748,24.32942]}},{"properties":{"city":"West Bengal","latitude":24.399509,"incidents":7,"geocodedto":"West Bengal, India","longitude":87.85347,"id":"a62it9z7a4w4"},"type":"Feature","geometry":{"type":"Point","coordinates":[87.85347,24.399509]}},{"properties":{"city":"Pallel","latitude":24.44928,"incidents":1,"geocodedto":"Pallel, India","longitude":94.012589,"id":"a62ita2q1fj0"},"type":"Feature","geometry":{"type":"Point","coordinates":[94.012589,24.44928]}},{"properties":{"city":"Moirang","latitude":24.491541,"incidents":2,"geocodedto":"Moirang, India","longitude":93.74514,"id":"a62it9yxvcbs"},"type":"Feature","geometry":{"type":"Point","coordinates":[93.74514,24.491541]}},{"properties":{"city":"Deogarh","latitude":24.4918,"incidents":1,"geocodedto":"Deogarh, India","longitude":86.696899,"id":"a62ita6qby59"},"type":"Feature","geometry":{"type":"Point","coordinates":[86.696899,24.4918]}},{"properties":{"city":"Kakching","latitude":24.49917,"incidents":1,"geocodedto":"Kakching, India","longitude":93.992844,"id":"a62it9x7l3ym"},"type":"Feature","geometry":{"type":"Point","coordinates":[93.992844,24.49917]}},{"properties":{"city":"Thoubal","latitude":24.628269,"incidents":126,"geocodedto":"Thoubal, India","longitude":94.018967,"id":"a62itabqdm68"},"type":"Feature","geometry":{"type":"Point","coordinates":[94.018967,24.628269]}},{"properties":{"city":"Sisi Bargaon","latitude":24.6343,"incidents":5,"geocodedto":"Sisi Bargaon, India","longitude":73.678574,"id":"a62ita56cote"},"type":"Feature","geometry":{"type":"Point","coordinates":[73.678574,24.6343]}},{"properties":{"city":"Yairipok","latitude":24.6446,"incidents":2,"geocodedto":"Yairipok, India","longitude":94.064667,"id":"a62ita896we0"},"type":"Feature","geometry":{"type":"Point","coordinates":[94.064667,24.6446]}},{"properties":{"city":"Hailakandi","latitude":24.68668,"incidents":9,"geocodedto":"Hailakandi, India","longitude":92.557968,"id":"a62ita8mjrp5"},"type":"Feature","geometry":{"type":"Point","coordinates":[92.557968,24.68668]}},{"properties":{"city":"Nambol","latitude":24.71146,"incidents":5,"geocodedto":"Nambol, India","longitude":93.836632,"id":"a62it9vdl2ae"},"type":"Feature","geometry":{"type":"Point","coordinates":[93.836632,24.71146]}},{"properties":{"city":"New Delhi","latitude":24.7338,"incidents":13,"geocodedto":"New Delhi, India","longitude":81.33463,"id":"a62it9xrq3v4"},"type":"Feature","geometry":{"type":"Point","coordinates":[81.33463,24.7338]}},{"properties":{"city":"Nungba","latitude":24.75485,"incidents":1,"geocodedto":"Nungba, India","longitude":93.424889,"id":"a62ita3axtmf"},"type":"Feature","geometry":{"type":"Point","coordinates":[93.424889,24.75485]}},{"properties":{"city":"Imphal West","latitude":24.75897,"incidents":103,"geocodedto":"Imphal West, India","longitude":93.853889,"id":"a62it9xgjy22"},"type":"Feature","geometry":{"type":"Point","coordinates":[93.853889,24.75897]}},{"properties":{"city":"Manipur","latitude":24.76383,"incidents":35,"geocodedto":"Manipur, India","longitude":93.855728,"id":"a62it9zqnlnr"},"type":"Feature","geometry":{"type":"Point","coordinates":[93.855728,24.76383]}},{"properties":{"city":"Cachar","latitude":24.764629,"incidents":36,"geocodedto":"Cachar, India","longitude":92.838112,"id":"a62it9wksoit"},"type":"Feature","geometry":{"type":"Point","coordinates":[92.838112,24.764629]}},{"properties":{"city":"Gaya","latitude":24.792061,"incidents":57,"geocodedto":"Gaya, India","longitude":84.990532,"id":"a62itabqpusu"},"type":"Feature","geometry":{"type":"Point","coordinates":[84.990532,24.792061]}},{"properties":{"city":"Wazirganj","latitude":24.79348,"incidents":6,"geocodedto":"Wazirganj, India","longitude":85.204651,"id":"a62ita6l5d6m"},"type":"Feature","geometry":{"type":"Point","coordinates":[85.204651,24.79348]}},{"properties":{"city":"Imphal","latitude":24.808741,"incidents":179,"geocodedto":"Imphal, India","longitude":93.943069,"id":"a62itaazphy8"},"type":"Feature","geometry":{"type":"Point","coordinates":[93.943069,24.808741]}},{"properties":{"city":"Imphal East","latitude":24.84738,"incidents":102,"geocodedto":"Imphal East, India","longitude":94.020317,"id":"a62ita56osay"},"type":"Feature","geometry":{"type":"Point","coordinates":[94.020317,24.84738]}},{"properties":{"city":"Chakand","latitude":24.88065,"incidents":1,"geocodedto":"Chakand, India","longitude":84.971809,"id":"a62ita5v3ibt"},"type":"Feature","geometry":{"type":"Point","coordinates":[84.971809,24.88065]}},{"properties":{"city":"Nawada","latitude":24.88237,"incidents":2,"geocodedto":"Nawada, India","longitude":85.547791,"id":"a62ita0oy88w"},"type":"Feature","geometry":{"type":"Point","coordinates":[85.547791,24.88237]}},{"properties":{"city":"Banka","latitude":24.894251,"incidents":5,"geocodedto":"Banka, India","longitude":86.909973,"id":"a62ita1ksmez"},"type":"Feature","geometry":{"type":"Point","coordinates":[86.909973,24.894251]}},{"properties":{"city":"Jamui","latitude":24.921869,"incidents":17,"geocodedto":"Jamui, India","longitude":86.23246,"id":"a62ita2zq6uh"},"type":"Feature","geometry":{"type":"Point","coordinates":[86.23246,24.921869]}},{"properties":{"city":"Rohtas","latitude":24.93985,"incidents":30,"geocodedto":"Rohtas, India","longitude":83.982628,"id":"a62ita8tpo3u"},"type":"Feature","geometry":{"type":"Point","coordinates":[83.982628,24.93985]}},{"properties":{"city":"Sasaram","latitude":24.951611,"incidents":7,"geocodedto":"Sasaram, India","longitude":84.015602,"id":"a62ita1i13gs"},"type":"Feature","geometry":{"type":"Point","coordinates":[84.015602,24.951611]}},{"properties":{"city":"Kaimur","latitude":24.974939,"incidents":1,"geocodedto":"Kaimur, India","longitude":83.611366,"id":"a62ita555cdx"},"type":"Feature","geometry":{"type":"Point","coordinates":[83.611366,24.974939]}},{"properties":{"city":"Tamenglong","latitude":25.04043,"incidents":22,"geocodedto":"Tamenglong, India","longitude":93.484581,"id":"a62itabamqin"},"type":"Feature","geometry":{"type":"Point","coordinates":[93.484581,25.04043]}},{"properties":{"city":"Ukhrul","latitude":25.125271,"incidents":10,"geocodedto":"Ukhrul, India","longitude":94.356171,"id":"a62ita0m9g2p"},"type":"Feature","geometry":{"type":"Point","coordinates":[94.356171,25.125271]}},{"properties":{"city":"Luckeesarai","latitude":25.173389,"incidents":4,"geocodedto":"Luckeesarai, India","longitude":86.081223,"id":"a62itaaza8yz"},"type":"Feature","geometry":{"type":"Point","coordinates":[86.081223,25.173389]}},{"properties":{"city":"Jehanabad","latitude":25.20475,"incidents":14,"geocodedto":"Jehanabad, India","longitude":84.986359,"id":"a62ita2ex2qi"},"type":"Feature","geometry":{"type":"Point","coordinates":[84.986359,25.20475]}},{"properties":{"city":"Jahanabad","latitude":25.20475,"incidents":1,"geocodedto":"Jahanabad, India","longitude":84.986359,"id":"a62ita4qzoa2"},"type":"Feature","geometry":{"type":"Point","coordinates":[84.986359,25.20475]}},{"properties":{"city":"Nalanda","latitude":25.211411,"incidents":14,"geocodedto":"Nalanda, India","longitude":85.528511,"id":"a62ita4flkvm"},"type":"Feature","geometry":{"type":"Point","coordinates":[85.528511,25.211411]}},{"properties":{"city":"Bhagalpur","latitude":25.24856,"incidents":1,"geocodedto":"Bhagalpur, India","longitude":86.967888,"id":"a62it9wqysoi"},"type":"Feature","geometry":{"type":"Point","coordinates":[86.967888,25.24856]}},{"properties":{"city":"Chandauli","latitude":25.25671,"incidents":1,"geocodedto":"Chandauli, India","longitude":83.266472,"id":"a62ita1n548l"},"type":"Feature","geometry":{"type":"Point","coordinates":[83.266472,25.25671]}},{"properties":{"city":"Senapati","latitude":25.265301,"incidents":41,"geocodedto":"Senapati, India","longitude":94.030251,"id":"a62ita4xcogd"},"type":"Feature","geometry":{"type":"Point","coordinates":[94.030251,25.265301]}},{"properties":{"city":"Ahmadabad","latitude":25.28287,"incidents":7,"geocodedto":"Ahmadabad, India","longitude":87.80413,"id":"a62it9zxkznk"},"type":"Feature","geometry":{"type":"Point","coordinates":[87.80413,25.28287]}},{"properties":{"city":"Varanasi","latitude":25.31584,"incidents":2,"geocodedto":"Varanasi, India","longitude":82.98838,"id":"a62ita9p5kie"},"type":"Feature","geometry":{"type":"Point","coordinates":[82.98838,25.31584]}},{"properties":{"city":"South Garo Hills","latitude":25.34985,"incidents":15,"geocodedto":"South Garo Hills, India","longitude":90.608147,"id":"a62ita38chlp"},"type":"Feature","geometry":{"type":"Point","coordinates":[90.608147,25.34985]}},{"properties":{"city":"Chang-Chari","latitude":25.354401,"incidents":6,"geocodedto":"Chang-Chari, India","longitude":75.943748,"id":"a62ita9lks0v"},"type":"Feature","geometry":{"type":"Point","coordinates":[75.943748,25.354401]}},{"properties":{"city":"Nagpur","latitude":25.36439,"incidents":1,"geocodedto":"Nagpur, India","longitude":83.81787,"id":"a62ita9xy3ix"},"type":"Feature","geometry":{"type":"Point","coordinates":[83.81787,25.36439]}},{"properties":{"city":"Munger","latitude":25.36718,"incidents":9,"geocodedto":"Munger, India","longitude":86.477448,"id":"a62itaa2kevn"},"type":"Feature","geometry":{"type":"Point","coordinates":[86.477448,25.36718]}},{"properties":{"city":"Jaintia Hills","latitude":25.39168,"incidents":1,"geocodedto":"Jaintia Hills, India","longitude":92.380501,"id":"a62ita9mzzys"},"type":"Feature","geometry":{"type":"Point","coordinates":[92.380501,25.39168]}},{"properties":{"city":"North Cachar Hills","latitude":25.394621,"incidents":31,"geocodedto":"North Cachar Hills, India","longitude":92.994232,"id":"a62ita4zgo9v"},"type":"Feature","geometry":{"type":"Point","coordinates":[92.994232,25.394621]}},{"properties":{"city":"East Khasi Hills","latitude":25.407249,"incidents":7,"geocodedto":"East Khasi Hills, India","longitude":91.746353,"id":"a62ita7vy0x9"},"type":"Feature","geometry":{"type":"Point","coordinates":[91.746353,25.407249]}},{"properties":{"city":"Begusarai","latitude":25.42012,"incidents":3,"geocodedto":"Begusarai, India","longitude":86.128952,"id":"a62it9vz6s58"},"type":"Feature","geometry":{"type":"Point","coordinates":[86.128952,25.42012]}},{"properties":{"city":"Bhojpur","latitude":25.462339,"incidents":2,"geocodedto":"Bhojpur, India","longitude":84.564262,"id":"a62ita0sxxmh"},"type":"Feature","geometry":{"type":"Point","coordinates":[84.564262,25.462339]}},{"properties":{"city":"Khagaria","latitude":25.507429,"incidents":18,"geocodedto":"Khagaria, India","longitude":86.47023,"id":"a62itaag5v26"},"type":"Feature","geometry":{"type":"Point","coordinates":[86.47023,25.507429]}},{"properties":{"city":"West Khasi Hills","latitude":25.514111,"incidents":5,"geocodedto":"West Khasi Hills, India","longitude":91.272652,"id":"a62ita6g17kj"},"type":"Feature","geometry":{"type":"Point","coordinates":[91.272652,25.514111]}},{"properties":{"city":"Ghazipur","latitude":25.564779,"incidents":2,"geocodedto":"Ghazipur, India","longitude":83.557953,"id":"a62itaa9x9wa"},"type":"Feature","geometry":{"type":"Point","coordinates":[83.557953,25.564779]}},{"properties":{"city":"Buxar","latitude":25.571119,"incidents":2,"geocodedto":"Buxar, India","longitude":83.972862,"id":"a62it9xh8a3t"},"type":"Feature","geometry":{"type":"Point","coordinates":[83.972862,25.571119]}},{"properties":{"city":"Meghalaya","latitude":25.57193,"incidents":3,"geocodedto":"Meghalaya, India","longitude":91.300438,"id":"a62ita0v7jo9"},"type":"Feature","geometry":{"type":"Point","coordinates":[91.300438,25.57193]}},{"properties":{"city":"Gorakhpur","latitude":25.59444,"incidents":1,"geocodedto":"Gorakhpur, India","longitude":87.8733,"id":"a62ita9hzibb"},"type":"Feature","geometry":{"type":"Point","coordinates":[87.8733,25.59444]}},{"properties":{"city":"Patna","latitude":25.60476,"incidents":12,"geocodedto":"Patna, India","longitude":85.12417,"id":"a62ita85r4t4"},"type":"Feature","geometry":{"type":"Point","coordinates":[85.12417,25.60476]}},{"properties":{"city":"Kohima","latitude":25.665239,"incidents":24,"geocodedto":"Kohima, India","longitude":94.111221,"id":"a62ita71xybm"},"type":"Feature","geometry":{"type":"Point","coordinates":[94.111221,25.665239]}},{"properties":{"city":"Phek","latitude":25.70013,"incidents":11,"geocodedto":"Phek, India","longitude":94.463142,"id":"a62it9vgt0d8"},"type":"Feature","geometry":{"type":"Point","coordinates":[94.463142,25.70013]}},{"properties":{"city":"Saran","latitude":25.74123,"incidents":2,"geocodedto":"Saran, India","longitude":73.826042,"id":"a62ita0vlowx"},"type":"Feature","geometry":{"type":"Point","coordinates":[73.826042,25.74123]}},{"properties":{"city":"Betauna","latitude":25.84021,"incidents":5,"geocodedto":"Betauna, India","longitude":87.471336,"id":"a62ita3wevii"},"type":"Feature","geometry":{"type":"Point","coordinates":[87.471336,25.84021]}},{"properties":{"city":"Samastipur","latitude":25.8608,"incidents":1,"geocodedto":"Samastipur, India","longitude":85.782249,"id":"a62ita9kdojn"},"type":"Feature","geometry":{"type":"Point","coordinates":[85.782249,25.8608]}},{"properties":{"city":"Diphu","latitude":25.86422,"incidents":11,"geocodedto":"Diphu, India","longitude":93.436272,"id":"a62ita8eucjh"},"type":"Feature","geometry":{"type":"Point","coordinates":[93.436272,25.86422]}},{"properties":{"city":"Dimapur","latitude":25.88336,"incidents":5,"geocodedto":"Dimapur, India","longitude":93.729218,"id":"a62it9znj2rn"},"type":"Feature","geometry":{"type":"Point","coordinates":[93.729218,25.88336]}},{"properties":{"city":"Bihar","latitude":25.90313,"incidents":10,"geocodedto":"Bihar, India","longitude":85.801071,"id":"a62it9zhdmho"},"type":"Feature","geometry":{"type":"Point","coordinates":[85.801071,25.90313]}},{"properties":{"city":"Zunheboto","latitude":26.00877,"incidents":1,"geocodedto":"Zunheboto, India","longitude":94.512947,"id":"a62it9vt9ze9"},"type":"Feature","geometry":{"type":"Point","coordinates":[94.512947,26.00877]}},{"properties":{"city":"Dhuburi","latitude":26.011589,"incidents":18,"geocodedto":"Dhuburi, India","longitude":89.965141,"id":"a62it9xw9059"},"type":"Feature","geometry":{"type":"Point","coordinates":[89.965141,26.011589]}},{"properties":{"city":"Bokajan","latitude":26.0389,"incidents":11,"geocodedto":"Bokajan, India","longitude":93.755737,"id":"a62ita3q39s7"},"type":"Feature","geometry":{"type":"Point","coordinates":[93.755737,26.0389]}},{"properties":{"city":"Chainpur","latitude":26.051769,"incidents":1,"geocodedto":"Chainpur, India","longitude":85.423592,"id":"a62it9w2y8fq"},"type":"Feature","geometry":{"type":"Point","coordinates":[85.423592,26.051769]}},{"properties":{"city":"Assam","latitude":26.055731,"incidents":57,"geocodedto":"Assam, India","longitude":92.854477,"id":"a62itaapepau"},"type":"Feature","geometry":{"type":"Point","coordinates":[92.854477,26.055731]}},{"properties":{"city":"Karbi Anglong","latitude":26.066931,"incidents":82,"geocodedto":"Karbi Anglong, India","longitude":93.343819,"id":"a62it9w5ii4m"},"type":"Feature","geometry":{"type":"Point","coordinates":[93.343819,26.066931]}},{"properties":{"city":"Wokha","latitude":26.09086,"incidents":1,"geocodedto":"Wokha, India","longitude":94.271301,"id":"a62itaaogg0s"},"type":"Feature","geometry":{"type":"Point","coordinates":[94.271301,26.09086]}},{"properties":{"city":"Dispur","latitude":26.106001,"incidents":13,"geocodedto":"Dispur, India","longitude":91.844803,"id":"a62ita4au88n"},"type":"Feature","geometry":{"type":"Point","coordinates":[91.844803,26.106001]}},{"properties":{"city":"Nagaland","latitude":26.116899,"incidents":4,"geocodedto":"Nagaland, India","longitude":94.284218,"id":"a62ita5mzq6p"},"type":"Feature","geometry":{"type":"Point","coordinates":[94.284218,26.116899]}},{"properties":{"city":"Darbhanga","latitude":26.136471,"incidents":1,"geocodedto":"Darbhanga, India","longitude":85.89138,"id":"a62ita4w9q8v"},"type":"Feature","geometry":{"type":"Point","coordinates":[85.89138,26.136471]}},{"properties":{"city":"Gauhati","latitude":26.174681,"incidents":5,"geocodedto":"Gauhati, India","longitude":91.744614,"id":"a62ita1fx93u"},"type":"Feature","geometry":{"type":"Point","coordinates":[91.744614,26.174681]}},{"properties":{"city":"Goalpara","latitude":26.176041,"incidents":2,"geocodedto":"Goalpara, India","longitude":90.620811,"id":"a62ita6nr1v9"},"type":"Feature","geometry":{"type":"Point","coordinates":[90.620811,26.176041]}},{"properties":{"city":"Kamrup","latitude":26.177361,"incidents":148,"geocodedto":"Kamrup, India","longitude":91.556938,"id":"a62ita0nrf5j"},"type":"Feature","geometry":{"type":"Point","coordinates":[91.556938,26.177361]}},{"properties":{"city":"Tuensang","latitude":26.227119,"incidents":3,"geocodedto":"Tuensang, India","longitude":94.80262,"id":"a62itaarf4y7"},"type":"Feature","geometry":{"type":"Point","coordinates":[94.80262,26.227119]}},{"properties":{"city":"Merapani","latitude":26.295679,"incidents":5,"geocodedto":"Merapani, India","longitude":94.089188,"id":"a62ita9lskhe"},"type":"Feature","geometry":{"type":"Point","coordinates":[94.089188,26.295679]}},{"properties":{"city":"Barpeta","latitude":26.31781,"incidents":9,"geocodedto":"Barpeta, India","longitude":91.008598,"id":"a62ita9j0rse"},"type":"Feature","geometry":{"type":"Point","coordinates":[91.008598,26.31781]}},{"properties":{"city":"Mokokchung","latitude":26.323669,"incidents":3,"geocodedto":"Mokokchung, India","longitude":94.545547,"id":"a62ita4xv67u"},"type":"Feature","geometry":{"type":"Point","coordinates":[94.545547,26.323669]}},{"properties":{"city":"Kokrajhar","latitude":26.413771,"incidents":10,"geocodedto":"Kokrajhar, India","longitude":90.268288,"id":"a62it9vndans"},"type":"Feature","geometry":{"type":"Point","coordinates":[90.268288,26.413771]}},{"properties":{"city":"Mangaldai","latitude":26.43116,"incidents":16,"geocodedto":"Mangaldai, India","longitude":92.035217,"id":"a62ita5mlwpo"},"type":"Feature","geometry":{"type":"Point","coordinates":[92.035217,26.43116]}},{"properties":{"city":"Gossaigaon","latitude":26.4431,"incidents":1,"geocodedto":"Gossaigaon, India","longitude":89.993011,"id":"a62itaahan27"},"type":"Feature","geometry":{"type":"Point","coordinates":[89.993011,26.4431]}},{"properties":{"city":"Nalbari","latitude":26.44311,"incidents":46,"geocodedto":"Nalbari, India","longitude":91.436188,"id":"a62it9xossyp"},"type":"Feature","geometry":{"type":"Point","coordinates":[91.436188,26.44311]}},{"properties":{"city":"Arwal","latitude":26.4506,"incidents":6,"geocodedto":"Arwal, India","longitude":81.850197,"id":"a62ita9wia6l"},"type":"Feature","geometry":{"type":"Point","coordinates":[81.850197,26.4506]}},{"properties":{"city":"Bongaigaon","latitude":26.47617,"incidents":20,"geocodedto":"Bongaigaon, India","longitude":90.561691,"id":"a62it9zp53zt"},"type":"Feature","geometry":{"type":"Point","coordinates":[90.561691,26.47617]}},{"properties":{"city":"Nilibari","latitude":26.485849,"incidents":1,"geocodedto":"Nilibari, India","longitude":90.509529,"id":"a62ita4vnplr"},"type":"Feature","geometry":{"type":"Point","coordinates":[90.509529,26.485849]}},{"properties":{"city":"Raipur","latitude":26.49069,"incidents":1,"geocodedto":"Raipur, India","longitude":91.19889,"id":"a62ita4p65zd"},"type":"Feature","geometry":{"type":"Point","coordinates":[91.19889,26.49069]}},{"properties":{"city":"Barama","latitude":26.501789,"incidents":5,"geocodedto":"Barama, India","longitude":91.326759,"id":"a62ita9g3lhy"},"type":"Feature","geometry":{"type":"Point","coordinates":[91.326759,26.501789]}},{"properties":{"city":"Golaghat","latitude":26.50449,"incidents":17,"geocodedto":"Golaghat, India","longitude":93.970551,"id":"a62it9z2pb1r"},"type":"Feature","geometry":{"type":"Point","coordinates":[93.970551,26.50449]}},{"properties":{"city":"Jalpaiguri","latitude":26.53256,"incidents":1,"geocodedto":"Jalpaiguri, India","longitude":88.727142,"id":"a62it9zsqgjv"},"type":"Feature","geometry":{"type":"Point","coordinates":[88.727142,26.53256]}},{"properties":{"city":"Darrang","latitude":26.569651,"incidents":14,"geocodedto":"Darrang, India","longitude":92.039978,"id":"a62itabmm2xy"},"type":"Feature","geometry":{"type":"Point","coordinates":[92.039978,26.569651]}},{"properties":{"city":"Sitamarhi","latitude":26.586531,"incidents":3,"geocodedto":"Sitamarhi, India","longitude":85.495453,"id":"a62ita4tr0w7"},"type":"Feature","geometry":{"type":"Point","coordinates":[85.495453,26.586531]}},{"properties":{"city":"Bokakhat","latitude":26.634251,"incidents":5,"geocodedto":"Bokakhat, India","longitude":93.590691,"id":"a62ita2fn89o"},"type":"Feature","geometry":{"type":"Point","coordinates":[93.590691,26.634251]}},{"properties":{"city":"Purba Champaran","latitude":26.63916,"incidents":1,"geocodedto":"Purba Champaran, India","longitude":84.901169,"id":"a62ita4fheaf"},"type":"Feature","geometry":{"type":"Point","coordinates":[84.901169,26.63916]}},{"properties":{"city":"Mon","latitude":26.7206,"incidents":13,"geocodedto":"Mon, India","longitude":95.01783,"id":"a62it9yvwg6z"},"type":"Feature","geometry":{"type":"Point","coordinates":[95.01783,26.7206]}},{"properties":{"city":"Jorhat","latitude":26.76189,"incidents":34,"geocodedto":"Jorhat, India","longitude":94.214577,"id":"a62ita7roktj"},"type":"Feature","geometry":{"type":"Point","coordinates":[94.214577,26.76189]}},{"properties":{"city":"Udalguri","latitude":26.76746,"incidents":9,"geocodedto":"Udalguri, India","longitude":92.111214,"id":"a62ita2qwwe9"},"type":"Feature","geometry":{"type":"Point","coordinates":[92.111214,26.76746]}},{"properties":{"city":"Faizabad","latitude":26.78554,"incidents":10,"geocodedto":"Faizabad, India","longitude":82.139763,"id":"a62itabtx9h5"},"type":"Feature","geometry":{"type":"Point","coordinates":[82.139763,26.78554]}},{"properties":{"city":"Lucknow","latitude":26.83906,"incidents":2,"geocodedto":"Lucknow, India","longitude":80.93326,"id":"a62itaaj03mw"},"type":"Feature","geometry":{"type":"Point","coordinates":[80.93326,26.83906]}},{"properties":{"city":"Tirap","latitude":26.95256,"incidents":1,"geocodedto":"Tirap, India","longitude":95.425598,"id":"a62ita6a1fm6"},"type":"Feature","geometry":{"type":"Point","coordinates":[95.425598,26.95256]}},{"properties":{"city":"Sibsagar","latitude":26.974581,"incidents":81,"geocodedto":"Sibsagar, India","longitude":94.627113,"id":"a62ita04gswz"},"type":"Feature","geometry":{"type":"Point","coordinates":[94.627113,26.974581]}},{"properties":{"city":"Raxaul","latitude":26.99052,"incidents":7,"geocodedto":"Raxaul, India","longitude":84.852707,"id":"a62ita63b9uw"},"type":"Feature","geometry":{"type":"Point","coordinates":[84.852707,26.99052]}},{"properties":{"city":"Jonai","latitude":27.024269,"incidents":5,"geocodedto":"Jonai, India","longitude":77.943123,"id":"a62it9w2qt86"},"type":"Feature","geometry":{"type":"Point","coordinates":[77.943123,27.024269]}},{"properties":{"city":"Pashchim Champaran","latitude":27.051109,"incidents":2,"geocodedto":"Pashchim Champaran, India","longitude":84.299561,"id":"a62it9zug0c3"},"type":"Feature","geometry":{"type":"Point","coordinates":[84.299561,27.051109]}},{"properties":{"city":"Changlang","latitude":27.11931,"incidents":1,"geocodedto":"Changlang, India","longitude":95.709251,"id":"a62ita15apbs"},"type":"Feature","geometry":{"type":"Point","coordinates":[95.709251,27.11931]}},{"properties":{"city":"Uttar Pradesh","latitude":27.138439,"incidents":4,"geocodedto":"Uttar Pradesh, India","longitude":80.86235,"id":"a62it9xmwogw"},"type":"Feature","geometry":{"type":"Point","coordinates":[80.86235,27.138439]}},{"properties":{"city":"Firozabad","latitude":27.14793,"incidents":1,"geocodedto":"Firozabad, India","longitude":78.385933,"id":"a62ita7tzgwh"},"type":"Feature","geometry":{"type":"Point","coordinates":[78.385933,27.14793]}},{"properties":{"city":"Digboi","latitude":27.388941,"incidents":6,"geocodedto":"Digboi, India","longitude":95.605148,"id":"a62it9wpnae8"},"type":"Feature","geometry":{"type":"Point","coordinates":[95.605148,27.388941]}},{"properties":{"city":"Chabua","latitude":27.47171,"incidents":1,"geocodedto":"Chabua, India","longitude":95.173981,"id":"a62ita57k273"},"type":"Feature","geometry":{"type":"Point","coordinates":[95.173981,27.47171]}},{"properties":{"city":"Dhemaji","latitude":27.4737,"incidents":20,"geocodedto":"Dhemaji, India","longitude":94.584641,"id":"a62ita1es6p0"},"type":"Feature","geometry":{"type":"Point","coordinates":[94.584641,27.4737]}},{"properties":{"city":"Dibrugarh","latitude":27.484461,"incidents":46,"geocodedto":"Dibrugarh, India","longitude":94.928162,"id":"a62ita7f4605"},"type":"Feature","geometry":{"type":"Point","coordinates":[94.928162,27.484461]}},{"properties":{"city":"Panitola","latitude":27.48572,"incidents":5,"geocodedto":"Panitola, India","longitude":95.26429,"id":"a62it9wtma83"},"type":"Feature","geometry":{"type":"Point","coordinates":[95.26429,27.48572]}},{"properties":{"city":"Tinsukia","latitude":27.48789,"incidents":134,"geocodedto":"Tinsukia, India","longitude":95.36547,"id":"a62ita4dcvzt"},"type":"Feature","geometry":{"type":"Point","coordinates":[95.36547,27.48789]}},{"properties":{"city":"Dinjaygaon","latitude":27.50709,"incidents":1,"geocodedto":"Dinjaygaon, India","longitude":95.174057,"id":"a62ita59da2p"},"type":"Feature","geometry":{"type":"Point","coordinates":[95.174057,27.50709]}},{"properties":{"city":"Rafiabad","latitude":27.70208,"incidents":1,"geocodedto":"Rafiabad, India","longitude":79.446274,"id":"a62ita8ofxcy"},"type":"Feature","geometry":{"type":"Point","coordinates":[79.446274,27.70208]}},{"properties":{"city":"Aligarh","latitude":27.897739,"incidents":1,"geocodedto":"Aligarh, India","longitude":78.075668,"id":"a62it9yvcm6p"},"type":"Feature","geometry":{"type":"Point","coordinates":[78.075668,27.897739]}},{"properties":{"city":"Habibpur","latitude":27.94718,"incidents":5,"geocodedto":"Habibpur, India","longitude":78.409737,"id":"a62it9x4ihks"},"type":"Feature","geometry":{"type":"Point","coordinates":[78.409737,27.94718]}},{"properties":{"city":"Lakhimpur","latitude":27.947781,"incidents":13,"geocodedto":"Lakhimpur, India","longitude":80.782967,"id":"a62ita1pln5p"},"type":"Feature","geometry":{"type":"Point","coordinates":[80.782967,27.947781]}},{"properties":{"city":"Lohit","latitude":27.984261,"incidents":1,"geocodedto":"Lohit, India","longitude":96.587181,"id":"a62ita2mxcal"},"type":"Feature","geometry":{"type":"Point","coordinates":[96.587181,27.984261]}},{"properties":{"city":"Arunachal Pradesh","latitude":28.044319,"incidents":1,"geocodedto":"Arunachal Pradesh, India","longitude":94.485168,"id":"a62ita5tmek1"},"type":"Feature","geometry":{"type":"Point","coordinates":[94.485168,28.044319]}},{"properties":{"city":"Kisanpur","latitude":28.6363,"incidents":6,"geocodedto":"Kisanpur, India","longitude":77.08015,"id":"a62it9wdnqt2"},"type":"Feature","geometry":{"type":"Point","coordinates":[77.08015,28.6363]}},{"properties":{"city":"Vaishali","latitude":28.70016,"incidents":1,"geocodedto":"Vaishali, India","longitude":77.13847,"id":"a62it9wztksv"},"type":"Feature","geometry":{"type":"Point","coordinates":[77.13847,28.70016]}},{"properties":{"city":"Bijnor","latitude":29.36997,"incidents":1,"geocodedto":"Bijnor, India","longitude":78.129082,"id":"a62ita32msgf"},"type":"Feature","geometry":{"type":"Point","coordinates":[78.129082,29.36997]}},{"properties":{"city":"Panipat","latitude":29.38616,"incidents":1,"geocodedto":"Panipat, India","longitude":76.96981,"id":"a62ita7tv07i"},"type":"Feature","geometry":{"type":"Point","coordinates":[76.96981,29.38616]}},{"properties":{"city":"Ludhiana","latitude":30.89314,"incidents":1,"geocodedto":"Ludhiana, India","longitude":75.86938,"id":"a62itabhchhh"},"type":"Feature","geometry":{"type":"Point","coordinates":[75.86938,30.89314]}},{"properties":{"city":"Punjab","latitude":31.02375,"incidents":5,"geocodedto":"Punjab, India","longitude":75.404572,"id":"a62ita8wwd31"},"type":"Feature","geometry":{"type":"Point","coordinates":[75.404572,31.02375]}},{"properties":{"city":"Prem Nagar","latitude":31.64699,"incidents":5,"geocodedto":"Prem Nagar, India","longitude":74.89453,"id":"a62ita5o7cmq"},"type":"Feature","geometry":{"type":"Point","coordinates":[74.89453,31.64699]}},{"properties":{"city":"Mandi","latitude":31.70627,"incidents":2,"geocodedto":"Mandi, India","longitude":76.930168,"id":"a62ita4tste0"},"type":"Feature","geometry":{"type":"Point","coordinates":[76.930168,31.70627]}},{"properties":{"city":"Kathua","latitude":32.395168,"incidents":19,"geocodedto":"Kathua, India","longitude":75.528053,"id":"a62ita3caq5h"},"type":"Feature","geometry":{"type":"Point","coordinates":[75.528053,32.395168]}},{"properties":{"city":"Jammu","latitude":32.744148,"incidents":21,"geocodedto":"Jammu, India","longitude":74.839569,"id":"a62ita092cm6"},"type":"Feature","geometry":{"type":"Point","coordinates":[74.839569,32.744148]}},{"properties":{"city":"Udhampur","latitude":32.944698,"incidents":317,"geocodedto":"Udhampur, India","longitude":75.116547,"id":"a62ita6pph5w"},"type":"Feature","geometry":{"type":"Point","coordinates":[75.116547,32.944698]}},{"properties":{"city":"Reasi","latitude":33.075321,"incidents":2,"geocodedto":"Reasi, India","longitude":74.832909,"id":"a62ita7yyp8j"},"type":"Feature","geometry":{"type":"Point","coordinates":[74.832909,33.075321]}},{"properties":{"city":"Doda","latitude":33.171741,"incidents":553,"geocodedto":"Doda, India","longitude":75.516144,"id":"a62it9yei930"},"type":"Feature","geometry":{"type":"Point","coordinates":[75.516144,33.171741]}},{"properties":{"city":"Ramban","latitude":33.294811,"incidents":6,"geocodedto":"Ramban, India","longitude":75.178886,"id":"a62ita0i2l31"},"type":"Feature","geometry":{"type":"Point","coordinates":[75.178886,33.294811]}},{"properties":{"city":"Kishtwar","latitude":33.333038,"incidents":82,"geocodedto":"Kishtwar, India","longitude":75.768478,"id":"a62ita3dglbh"},"type":"Feature","geometry":{"type":"Point","coordinates":[75.768478,33.333038]}},{"properties":{"city":"Rajauri","latitude":33.393108,"incidents":243,"geocodedto":"Rajauri, India","longitude":74.325233,"id":"a62itaa5j8yn"},"type":"Feature","geometry":{"type":"Point","coordinates":[74.325233,33.393108]}},{"properties":{"city":"Banihal","latitude":33.440048,"incidents":16,"geocodedto":"Banihal, India","longitude":75.212982,"id":"a62it9z3xtnj"},"type":"Feature","geometry":{"type":"Point","coordinates":[75.212982,33.440048]}},{"properties":{"city":"Thanna Mandi","latitude":33.53619,"incidents":1,"geocodedto":"Thanna Mandi, India","longitude":74.369751,"id":"a62itabfb3f4"},"type":"Feature","geometry":{"type":"Point","coordinates":[74.369751,33.53619]}},{"properties":{"city":"Doru","latitude":33.581532,"incidents":1,"geocodedto":"Doru, India","longitude":75.231087,"id":"a62ita1upqrl"},"type":"Feature","geometry":{"type":"Point","coordinates":[75.231087,33.581532]}},{"properties":{"city":"Kulgam","latitude":33.67329,"incidents":126,"geocodedto":"Kulgam, India","longitude":75.013519,"id":"a62it9yi6bqm"},"type":"Feature","geometry":{"type":"Point","coordinates":[75.013519,33.67329]}},{"properties":{"city":"Khanetar","latitude":33.738411,"incidents":1,"geocodedto":"Khanetar, India","longitude":74.114616,"id":"a62ita7yha0o"},"type":"Feature","geometry":{"type":"Point","coordinates":[74.114616,33.738411]}},{"properties":{"city":"Anantnag","latitude":33.743462,"incidents":380,"geocodedto":"Anantnag, India","longitude":75.148087,"id":"a62it9z1axib"},"type":"Feature","geometry":{"type":"Point","coordinates":[75.148087,33.743462]}},{"properties":{"city":"Punch","latitude":33.802212,"incidents":216,"geocodedto":"Punch, India","longitude":74.071548,"id":"a62itaakb22l"},"type":"Feature","geometry":{"type":"Point","coordinates":[74.071548,33.802212]}},{"properties":{"city":"Pulwama","latitude":33.894779,"incidents":512,"geocodedto":"Pulwama, India","longitude":74.883308,"id":"a62it9w27edv"},"type":"Feature","geometry":{"type":"Point","coordinates":[74.883308,33.894779]}},{"properties":{"city":"Pampur","latitude":34.050259,"incidents":27,"geocodedto":"Pampur, India","longitude":74.886864,"id":"a62ita0la3z9"},"type":"Feature","geometry":{"type":"Point","coordinates":[74.886864,34.050259]}},{"properties":{"city":"Pahalgam","latitude":34.050838,"incidents":3,"geocodedto":"Pahalgam, India","longitude":75.308144,"id":"a62ita6x4zhp"},"type":"Feature","geometry":{"type":"Point","coordinates":[75.308144,34.050838]}},{"properties":{"city":"Badgom","latitude":34.052071,"incidents":121,"geocodedto":"Badgom, India","longitude":74.79673,"id":"a62it9vln7og"},"type":"Feature","geometry":{"type":"Point","coordinates":[74.79673,34.052071]}},{"properties":{"city":"Tangmarg","latitude":34.05798,"incidents":14,"geocodedto":"Tangmarg, India","longitude":74.423332,"id":"a62it9wf2ruh"},"type":"Feature","geometry":{"type":"Point","coordinates":[74.423332,34.05798]}},{"properties":{"city":"Khrew Shalshari","latitude":34.060108,"incidents":5,"geocodedto":"Khrew Shalshari, India","longitude":74.9907,"id":"a62it9yaluu5"},"type":"Feature","geometry":{"type":"Point","coordinates":[74.9907,34.060108]}},{"properties":{"city":"Magam","latitude":34.091282,"incidents":7,"geocodedto":"Magam, India","longitude":74.591019,"id":"a62ita9sn6qb"},"type":"Feature","geometry":{"type":"Point","coordinates":[74.591019,34.091282]}},{"properties":{"city":"Srinagar","latitude":34.11998,"incidents":629,"geocodedto":"Srinagar, India","longitude":74.82122,"id":"a62ita5l4hvw"},"type":"Feature","geometry":{"type":"Point","coordinates":[74.82122,34.11998]}},{"properties":{"city":"Palhalan","latitude":34.198872,"incidents":5,"geocodedto":"Palhalan, India","longitude":74.524757,"id":"a62it9yw5qau"},"type":"Feature","geometry":{"type":"Point","coordinates":[74.524757,34.198872]}},{"properties":{"city":"Baramula","latitude":34.217541,"incidents":681,"geocodedto":"Baramula, India","longitude":74.3479,"id":"a62it9zqqkiw"},"type":"Feature","geometry":{"type":"Point","coordinates":[74.3479,34.217541]}},{"properties":{"city":"Gandarbal","latitude":34.236488,"incidents":12,"geocodedto":"Gandarbal, India","longitude":74.783241,"id":"a62it9wvp7ad"},"type":"Feature","geometry":{"type":"Point","coordinates":[74.783241,34.236488]}},{"properties":{"city":"Sumbal","latitude":34.248001,"incidents":5,"geocodedto":"Sumbal, India","longitude":74.625443,"id":"a62it9xndx6m"},"type":"Feature","geometry":{"type":"Point","coordinates":[74.625443,34.248001]}},{"properties":{"city":"Kangan","latitude":34.285809,"incidents":11,"geocodedto":"Kangan, India","longitude":74.880386,"id":"a62ita4jmfho"},"type":"Feature","geometry":{"type":"Point","coordinates":[74.880386,34.285809]}},{"properties":{"city":"Hajan","latitude":34.312061,"incidents":1,"geocodedto":"Hajan, India","longitude":74.599777,"id":"a62itabjy6ch"},"type":"Feature","geometry":{"type":"Point","coordinates":[74.599777,34.312061]}},{"properties":{"city":"Sogam","latitude":34.487671,"incidents":5,"geocodedto":"Sogam, India","longitude":74.351646,"id":"a62it9vmjer7"},"type":"Feature","geometry":{"type":"Point","coordinates":[74.351646,34.487671]}},{"properties":{"city":"Kupwara","latitude":34.54108,"incidents":162,"geocodedto":"Kupwara, India","longitude":74.242561,"id":"a62ita5bzi2k"},"type":"Feature","geometry":{"type":"Point","coordinates":[74.242561,34.54108]}},{"properties":{"city":"Kargil","latitude":34.639729,"incidents":5,"geocodedto":"Kargil, India","longitude":76.178497,"id":"a62it9yrj3tk"},"type":"Feature","geometry":{"type":"Point","coordinates":[76.178497,34.639729]}},{"properties":{"city":"Jammu and Kashmir","latitude":34.679989,"incidents":125,"geocodedto":"Jammu and Kashmir, India","longitude":76.4244,"id":"a62ita4bofbb"},"type":"Feature","geometry":{"type":"Point","coordinates":[76.4244,34.679989]}}],"is_temporal":false,"author":{"url":"http://wits.nctc.gov/","metadata":"","contact_name":"","contact_address":"","source":"WITS","contact_phone":""},"source":"http://wits.nctc.gov/","pagination":{"sort":null,"start":0,"total":333,"limit":1000000},"state":"complete","tags":"india,mumbai,terrorism,wits","published":"2008-05-16T12:00:00Z","id":7758}