{"type":"FeatureCollection","data_type":"Dataset","url_type":null,"permissions":[{"permissions":{"download":true,"view":true},"group_id":"everyone"}],"classification":null,"title":"Discussions &quot;facilités linguistiques&quot; wikipedia Fr","count":38,"stream_id":7801,"contributor":{"url":"http://geocommons.com/users/1713","name":"alexcyclo"},"data_attributes":null,"calculation_params":null,"icon_link":null,"link":"http://geocommons.com/overlays/7801.json","extent":[-3.2333,3.1667,101.7,51.9833],"geometry_types":["point"],"unique_name":null,"name":"Discussions \"facilités linguistiques\" wikipedia Fr","feature_count":38,"description":"","next_feature":null,"is_raster":false,"short_classification":"Y","stats":{"nl":{"max":14,"mean":1.39473684210526,"variance":4.51564722617355,"stdev":2.12500522968146,"min":1,"median":1},"lat":{"max":51.983299,"mean":48.8617692631579,"variance":61.815545252665,"stdev":7.86228626117524,"min":3.1667,"median":50.833302},"long":{"max":101.699997,"mean":6.88775518421053,"variance":254.054536000013,"stdev":15.9390883051702,"min":-3.2333,"median":4.3333}},"features":[{"properties":{"city":"Brussels","adress ip":"134.184.30.60","nl":1,"id":"a66zb791my4v","lat":50.833302,"long":4.3333},"type":"Feature","geometry":{"type":"Point","coordinates":[4.3333,50.833302]}},{"properties":{"city":"Munich","adress ip":"141.84.69.20","nl":1,"id":"a66zb76ntnrs","lat":48.150002,"long":11.5833},"type":"Feature","geometry":{"type":"Point","coordinates":[11.5833,48.150002]}},{"properties":{"city":"Viersen","adress ip":"145.254.117.40","nl":1,"id":"a66zb78san60","lat":51.25,"long":6.3833},"type":"Feature","geometry":{"type":"Point","coordinates":[6.3833,51.25]}},{"properties":{"city":"Brussels","adress ip":"193.190.196.70","nl":1,"id":"a66zb7e9r12q","lat":50.833302,"long":4.3333},"type":"Feature","geometry":{"type":"Point","coordinates":[4.3333,50.833302]}},{"properties":{"city":"Brussels","adress ip":"193.190.63.56","nl":1,"id":"a66zb7ca040n","lat":50.833302,"long":4.3333},"type":"Feature","geometry":{"type":"Point","coordinates":[4.3333,50.833302]}},{"properties":{"city":"Limoges","adress ip":"193.250.32.245","nl":1,"id":"a66zb79nwrhz","lat":45.849998,"long":1.25},"type":"Feature","geometry":{"type":"Point","coordinates":[1.25,45.849998]}},{"properties":{"city":"Antwerpen","adress ip":"195.207.101.112","nl":1,"id":"a66zb7azw69a","lat":51.216702,"long":4.4167},"type":"Feature","geometry":{"type":"Point","coordinates":[4.4167,51.216702]}},{"properties":{"city":"Machelen","adress ip":"205.223.232.64","nl":1,"id":"a66zb7f9s0dn","lat":50.916698,"long":4.4333},"type":"Feature","geometry":{"type":"Point","coordinates":[4.4333,50.916698]}},{"properties":{"city":"Kuala Lumpur","adress ip":"210.187.74.140","nl":1,"id":"a66zb745uu3b","lat":3.1667,"long":101.699997},"type":"Feature","geometry":{"type":"Point","coordinates":[101.699997,3.1667]}},{"properties":{"city":"Brussels","adress ip":"212.221.53.254","nl":1,"id":"a66zb7hh5m70","lat":50.833302,"long":4.3333},"type":"Feature","geometry":{"type":"Point","coordinates":[4.3333,50.833302]}},{"properties":{"city":"Brussels","adress ip":"213.49.132.67","nl":1,"id":"a66zb788sb66","lat":50.833302,"long":4.3333},"type":"Feature","geometry":{"type":"Point","coordinates":[4.3333,50.833302]}},{"properties":{"city":"Brussels","adress ip":"213.49.232.25","nl":1,"id":"a66zb73ooz40","lat":50.833302,"long":4.3333},"type":"Feature","geometry":{"type":"Point","coordinates":[4.3333,50.833302]}},{"properties":{"city":"Paris","adress ip":"217.128.218.221","nl":1,"id":"a66zb7e7zsl1","lat":48.866699,"long":2.3333},"type":"Feature","geometry":{"type":"Point","coordinates":[2.3333,48.866699]}},{"properties":{"city":"Bierbeek","adress ip":"217.136.104.148","nl":1,"id":"a66zb7fvqmb6","lat":50.833302,"long":4.7667},"type":"Feature","geometry":{"type":"Point","coordinates":[4.7667,50.833302]}},{"properties":{"city":"Leuven","adress ip":"217.136.107.212","nl":1,"id":"a66zb74wjpqk","lat":50.883301,"long":4.7},"type":"Feature","geometry":{"type":"Point","coordinates":[4.7,50.883301]}},{"properties":{"city":"Braine-l'alleud","adress ip":"217.136.167.212","nl":1,"id":"a66zb73lwnxc","lat":50.6833,"long":4.3667},"type":"Feature","geometry":{"type":"Point","coordinates":[4.3667,50.6833]}},{"properties":{"city":"Hoeilaart","adress ip":"217.136.20.130","nl":1,"id":"a66zb7ep86y9","lat":50.766701,"long":4.4667},"type":"Feature","geometry":{"type":"Point","coordinates":[4.4667,50.766701]}},{"properties":{"city":"Brussels","adress ip":"80.200.126.206","nl":14,"id":"a66zb77smdug","lat":50.833302,"long":4.3333},"type":"Feature","geometry":{"type":"Point","coordinates":[4.3333,50.833302]}},{"properties":{"city":"Lubbeek","adress ip":"80.200.89.25","nl":1,"id":"a66zb77kwn3b","lat":50.883301,"long":4.8333},"type":"Feature","geometry":{"type":"Point","coordinates":[4.8333,50.883301]}},{"properties":{"city":"Rotselaar","adress ip":"80.200.95.29","nl":1,"id":"a66zb730rcr3","lat":50.950001,"long":4.7167},"type":"Feature","geometry":{"type":"Point","coordinates":[4.7167,50.950001]}},{"properties":{"city":"Brussels","adress ip":"81.240.24.231","nl":1,"id":"a66zb7b7qkdb","lat":50.833302,"long":4.3333},"type":"Feature","geometry":{"type":"Point","coordinates":[4.3333,50.833302]}},{"properties":{"city":"Brussels","adress ip":"81.241.149.222","nl":1,"id":"a66zb7eqvozg","lat":50.833302,"long":4.3333},"type":"Feature","geometry":{"type":"Point","coordinates":[4.3333,50.833302]}},{"properties":{"city":"Brussels","adress ip":"81.242.180.58","nl":1,"id":"a66zb78n8ge8","lat":50.833302,"long":4.3333},"type":"Feature","geometry":{"type":"Point","coordinates":[4.3333,50.833302]}},{"properties":{"city":"Brussels","adress ip":"81.242.184.177","nl":1,"id":"a66zb7cl3r7l","lat":50.833302,"long":4.3333},"type":"Feature","geometry":{"type":"Point","coordinates":[4.3333,50.833302]}},{"properties":{"city":"Brussels","adress ip":"81.242.185.139","nl":1,"id":"a66zb737yqq3","lat":50.833302,"long":4.3333},"type":"Feature","geometry":{"type":"Point","coordinates":[4.3333,50.833302]}},{"properties":{"city":"Brussels","adress ip":"81.242.189.221","nl":1,"id":"a66zb7a64x2i","lat":50.833302,"long":4.3333},"type":"Feature","geometry":{"type":"Point","coordinates":[4.3333,50.833302]}},{"properties":{"city":"Neufchateau","adress ip":"81.243.211.221","nl":1,"id":"a66zb72f9vqv","lat":49.833302,"long":5.4333},"type":"Feature","geometry":{"type":"Point","coordinates":[5.4333,49.833302]}},{"properties":{"city":"Brussels","adress ip":"81.247.252.233","nl":1,"id":"a66zb7dakiul","lat":50.833302,"long":4.3333},"type":"Feature","geometry":{"type":"Point","coordinates":[4.3333,50.833302]}},{"properties":{"city":"Paris","adress ip":"81.65.20.216","nl":1,"id":"a66zb763sikk","lat":48.866699,"long":2.3333},"type":"Feature","geometry":{"type":"Point","coordinates":[2.3333,48.866699]}},{"properties":{"city":"Vilvoorde","adress ip":"83.134.242.148","nl":1,"id":"a66zb76nkhys","lat":50.9333,"long":4.4333},"type":"Feature","geometry":{"type":"Point","coordinates":[4.4333,50.9333]}},{"properties":{"city":"Brussels","adress ip":"83.182.25.10","nl":1,"id":"a66zb75hrcwo","lat":50.833302,"long":4.3333},"type":"Feature","geometry":{"type":"Point","coordinates":[4.3333,50.833302]}},{"properties":{"city":"Cabanillas Del Campo","adress ip":"83.46.99.223","nl":1,"id":"a66zb72et4we","lat":40.633301,"long":-3.2333},"type":"Feature","geometry":{"type":"Point","coordinates":[-3.2333,40.633301]}},{"properties":{"city":"Maastricht","adress ip":"84.30.103.119","nl":1,"id":"a66zb73uq87c","lat":50.849998,"long":5.6833},"type":"Feature","geometry":{"type":"Point","coordinates":[5.6833,50.849998]}},{"properties":{"city":"Arnhem","adress ip":"84.41.129.187","nl":1,"id":"a66zb71ycxx8","lat":51.983299,"long":5.9167},"type":"Feature","geometry":{"type":"Point","coordinates":[5.9167,51.983299]}},{"properties":{"city":"Ludwigshafen","adress ip":"84.56.241.72","nl":1,"id":"a66zb76w7z2n","lat":49.481098,"long":8.4353},"type":"Feature","geometry":{"type":"Point","coordinates":[8.4353,49.481098]}},{"properties":{"city":"Gooik","adress ip":"86.39.108.11","nl":1,"id":"a66zb72h5v14","lat":50.799999,"long":4.1167},"type":"Feature","geometry":{"type":"Point","coordinates":[4.1167,50.799999]}},{"properties":{"city":"Blois","adress ip":"90.19.22.15","nl":1,"id":"a66zb79qllrc","lat":47.583302,"long":1.3333},"type":"Feature","geometry":{"type":"Point","coordinates":[1.3333,47.583302]}},{"properties":{"city":"Paris","adress ip":"90.24.208.184","nl":3,"id":"a66zb73wg429","lat":48.866699,"long":2.3333},"type":"Feature","geometry":{"type":"Point","coordinates":[2.3333,48.866699]}}],"is_temporal":false,"author":{"url":"","metadata":"","contact_name":"","contact_address":"","source":"","contact_phone":""},"source":"","pagination":{"sort":null,"start":0,"total":38,"limit":1000000},"state":"complete","tags":"","published":"2014-08-11T08:55:35-04:00","id":7801}