{"type":"FeatureCollection","data_type":"Dataset","url_type":null,"permissions":[{"permissions":{"download":true,"view":true},"group_id":"everyone"}],"classification":null,"title":"layer2 guarantee","count":6,"stream_id":78646,"contributor":{"url":"http://geocommons.com/users/19013","name":"Morriesen"},"data_attributes":null,"calculation_params":null,"icon_link":null,"link":"http://geocommons.com/overlays/78646.json","extent":[-48.6256,-27.5717,-34.9,-8.05],"geometry_types":["point"],"unique_name":null,"name":"layer2 guarantee","feature_count":6,"description":"","next_feature":null,"is_raster":false,"short_classification":"Y","stats":{"lon":{"max":-34.9,"mean":-41.6040445,"variance":31.1020941333571,"stdev":5.57692515041731,"min":-48.6256,"median":-38.476667},"guarantee fund year":{"max":2008,"mean":2005.0,"variance":2.8,"stdev":1.67332005306815,"min":2003,"median":2005},"value":{"max":1,"mean":1.0,"variance":0.0,"stdev":0.0,"min":1,"median":1},"lat":{"max":-8.05,"mean":-17.1637091666667,"variance":59.2671552162938,"stdev":7.69851642956575,"min":-27.5717,"median":-12.974722}},"features":[{"properties":{"city":"Belo Horizonte","lon":-43.938667,"country":"Brazil","guarantee fund year":2003,"value":1,"id":"a6xwp170wd07","lat":-19.919133,"state":"Minas Gerais"},"type":"Feature","geometry":{"type":"Point","coordinates":[-43.938667,-19.919133]}},{"properties":{"city":"Sao Paulo","lon":-46.633333,"country":"Brazil","guarantee fund year":2004,"value":1,"id":"a6xwp174irgg","lat":-23.55,"state":"Sao Paulo"},"type":"Feature","geometry":{"type":"Point","coordinates":[-46.633333,-23.55]}},{"properties":{"city":"Florianopolis","lon":-48.6256,"country":"Brazil","guarantee fund year":2005,"value":1,"id":"a6xwp0u62tak","lat":-27.5717,"state":"Santa Catarina"},"type":"Feature","geometry":{"type":"Point","coordinates":[-48.6256,-27.5717]}},{"properties":{"city":"Recife","lon":-34.9,"country":"Brazil","guarantee fund year":2005,"value":1,"id":"a6xwp13g4fuo","lat":-8.05,"state":"Pernambuco"},"type":"Feature","geometry":{"type":"Point","coordinates":[-34.9,-8.05]}},{"properties":{"city":"Salvador","lon":-38.476667,"country":"Brazil","guarantee fund year":2005,"value":1,"id":"a6xwp16zspbj","lat":-12.974722,"state":"Bahia"},"type":"Feature","geometry":{"type":"Point","coordinates":[-38.476667,-12.974722]}},{"properties":{"city":"Aracaju","lon":-37.05,"country":"Brazil","guarantee fund year":2008,"value":1,"id":"a6xwp13cw0kj","lat":-10.9167,"state":"Sergipe"},"type":"Feature","geometry":{"type":"Point","coordinates":[-37.05,-10.9167]}}],"is_temporal":false,"author":{"url":"","metadata":"","contact_name":"","contact_address":"","source":"","contact_phone":""},"source":"","pagination":{"sort":null,"start":0,"total":6,"limit":1000000},"state":"complete","tags":"","published":"2014-08-10T22:34:27-04:00","id":78646}