{"type":"FeatureCollection","data_type":"Dataset","url_type":null,"permissions":[{"permissions":{"download":true,"view":true},"group_id":"everyone"}],"classification":null,"title":"Bay Area Cities, cleaned up ","count":98,"stream_id":78715,"contributor":{"url":"http://geocommons.com/users/13001","name":"tabbas82"},"data_attributes":null,"calculation_params":null,"icon_link":null,"link":"http://geocommons.com/overlays/78715.json","extent":[-122.705,37.3653,-121.594,38.5082],"geometry_types":["point"],"unique_name":null,"name":"Bay Area Cities, cleaned up ","feature_count":98,"description":"","next_feature":null,"is_raster":false,"short_classification":"Y","stats":{"latitude":{"max":38.50824601,"mean":37.8235674172449,"variance":0.067191249568306,"stdev":0.259212749625295,"min":37.36528849,"median":37.88954149},"area__":{"max":13507565508.0,"mean":1117236986.3958,"variance":4.02406700905617e+18,"stdev":2006007729.06192,"min":7986573.708,"median":433871904.5},"length__":{"max":967568.8523,"mean":184747.554171224,"variance":23951138423.9588,"stdev":154761.553442574,"min":14075.48631,"median":156517.969},"longitude":{"max":-121.5938105,"mean":-122.211785443878,"variance":0.0741147431886954,"stdev":0.272240230657953,"min":-122.7048455,"median":-122.22869}},"features":[{"properties":{"city":"Alameda","latitude":37.77335349,"area__":223107077.6,"length__":101310.6749,"longitude":-122.278545,"id":"a6645ceoyx7i"},"type":"Feature","geometry":{"type":"Point","coordinates":[-122.278545,37.77335349]}},{"properties":{"city":"Alamo","latitude":37.8527,"area__":397900176.0,"length__":157732.8097,"longitude":-121.990061,"id":"a6645cpfz23i"},"type":"Feature","geometry":{"type":"Point","coordinates":[-121.990061,37.8527]}},{"properties":{"city":"Albany","latitude":37.88954149,"area__":37048839.86,"length__":29800.7597,"longitude":-122.2949095,"id":"a6645cqlauqi"},"type":"Feature","geometry":{"type":"Point","coordinates":[-122.2949095,37.88954149]}},{"properties":{"city":"Alviso","latitude":37.441149,"area__":124021474.9,"length__":62725.60001,"longitude":-121.990517,"id":"a6645cjvtzs3"},"type":"Feature","geometry":{"type":"Point","coordinates":[-121.990517,37.441149]}},{"properties":{"city":"American Canyon","latitude":38.1882325,"area__":693134066.7,"length__":136394.738,"longitude":-122.2351525,"id":"a6645crooxy0"},"type":"Feature","geometry":{"type":"Point","coordinates":[-122.2351525,38.1882325]}},{"properties":{"city":"Antioch","latitude":37.97384199,"area__":969733758.1,"length__":156517.969,"longitude":-121.804045,"id":"a6645cg3ez0t"},"type":"Feature","geometry":{"type":"Point","coordinates":[-121.804045,37.97384199]}},{"properties":{"city":"Atherton","latitude":37.45012749,"area__":140097664.2,"length__":81316.28649,"longitude":-122.20033,"id":"a6645ctdfvq6"},"type":"Feature","geometry":{"type":"Point","coordinates":[-122.20033,37.45012749]}},{"properties":{"city":"Belmont","latitude":37.513795,"area__":163210046.4,"length__":86346.46895,"longitude":-122.2963495,"id":"a6645coeew8q"},"type":"Feature","geometry":{"type":"Point","coordinates":[-122.2963495,37.513795]}},{"properties":{"city":"Belvedere Tiburon","latitude":37.891428,"area__":153762924.5,"length__":79181.76257,"longitude":-122.472451,"id":"a6645clt4ibs"},"type":"Feature","geometry":{"type":"Point","coordinates":[-122.472451,37.891428]}},{"properties":{"city":"Benicia","latitude":38.10008199,"area__":856794148.4,"length__":180958.7565,"longitude":-122.1324375,"id":"a6645crl5pgr"},"type":"Feature","geometry":{"type":"Point","coordinates":[-122.1324375,38.10008199]}},{"properties":{"city":"Berkeley","latitude":37.88308099,"area__":441268859.0,"length__":173350.2237,"longitude":-122.272277,"id":"a6645cinurbx"},"type":"Feature","geometry":{"type":"Point","coordinates":[-122.272277,37.88308099]}},{"properties":{"city":"Birds Landing","latitude":38.1548205,"area__":255902590.7,"length__":94434.96869,"longitude":-121.8568355,"id":"a6645cle4k10"},"type":"Feature","geometry":{"type":"Point","coordinates":[-121.8568355,38.1548205]}},{"properties":{"city":"Brentwood","latitude":37.89544599,"area__":3255395693.0,"length__":483845.8886,"longitude":-121.7355995,"id":"a6645cml2imh"},"type":"Feature","geometry":{"type":"Point","coordinates":[-121.7355995,37.89544599]}},{"properties":{"city":"Brisbane","latitude":37.6874715,"area__":132303111.7,"length__":67711.08203,"longitude":-122.411536,"id":"a6645crd2a8v"},"type":"Feature","geometry":{"type":"Point","coordinates":[-122.411536,37.6874715]}},{"properties":{"city":"Burlingame","latitude":37.56704901,"area__":359016186.8,"length__":141377.6735,"longitude":-122.369405,"id":"a6645cixbg1x"},"type":"Feature","geometry":{"type":"Point","coordinates":[-122.369405,37.56704901]}},{"properties":{"city":"Byron","latitude":37.8305655,"area__":2167869892.0,"length__":285863.8449,"longitude":-121.643134,"id":"a6645cgybono"},"type":"Feature","geometry":{"type":"Point","coordinates":[-121.643134,37.8305655]}},{"properties":{"city":"Castro Valley","latitude":37.704298,"area__":1992960092.0,"length__":358818.5585,"longitude":-122.0369505,"id":"a6645ck4rtyb"},"type":"Feature","geometry":{"type":"Point","coordinates":[-122.0369505,37.704298]}},{"properties":{"city":"Clayton","latitude":37.89487,"area__":1500554131.0,"length__":249312.3492,"longitude":-121.880772,"id":"a6645cs4v0lm"},"type":"Feature","geometry":{"type":"Point","coordinates":[-121.880772,37.89487]}},{"properties":{"city":"Concord","latitude":37.986645,"area__":1464537282.0,"length__":248617.9118,"longitude":-121.994684,"id":"a6645cjlegc9"},"type":"Feature","geometry":{"type":"Point","coordinates":[-121.994684,37.986645]}},{"properties":{"city":"Corte Madera","latitude":37.9224905,"area__":92439217.7,"length__":62252.93695,"longitude":-122.5124645,"id":"a6645cn367jg"},"type":"Feature","geometry":{"type":"Point","coordinates":[-122.5124645,37.9224905]}},{"properties":{"city":"Crockett","latitude":38.04618699,"area__":60697255.91,"length__":46562.49873,"longitude":-122.2299235,"id":"a6645cqdhyhu"},"type":"Feature","geometry":{"type":"Point","coordinates":[-122.2299235,38.04618699]}},{"properties":{"city":"Daly City","latitude":37.67919,"area__":341038789.4,"length__":121003.8285,"longitude":-122.453731,"id":"a6645csnae3x"},"type":"Feature","geometry":{"type":"Point","coordinates":[-122.453731,37.67919]}},{"properties":{"city":"Danville","latitude":37.788655,"area__":1154186311.0,"length__":218564.7015,"longitude":-121.9513075,"id":"a6645clje61s"},"type":"Feature","geometry":{"type":"Point","coordinates":[-121.9513075,37.788655]}},{"properties":{"city":"Diablo","latitude":37.841233,"area__":22750200.0,"length__":22467.6101,"longitude":-121.9623995,"id":"a6645cseh5im"},"type":"Feature","geometry":{"type":"Point","coordinates":[-121.9623995,37.841233]}},{"properties":{"city":"Dixon","latitude":38.386143,"area__":7236949541.0,"length__":441860.2323,"longitude":-121.765925,"id":"a6645cdxnn77"},"type":"Feature","geometry":{"type":"Point","coordinates":[-121.765925,38.386143]}},{"properties":{"city":"Dublin","latitude":37.71612001,"area__":219804746.7,"length__":84093.26178,"longitude":-121.9264025,"id":"a6645ceu3q92"},"type":"Feature","geometry":{"type":"Point","coordinates":[-121.9264025,37.71612001]}},{"properties":{"city":"El Cerrito","latitude":37.92074699,"area__":169161043.5,"length__":81669.93002,"longitude":-122.2898855,"id":"a6645cm8li4x"},"type":"Feature","geometry":{"type":"Point","coordinates":[-122.2898855,37.92074699]}},{"properties":{"city":"El Sobrante","latitude":37.96270049,"area__":325420702.0,"length__":98079.11273,"longitude":-122.28153,"id":"a6645cszpfur"},"type":"Feature","geometry":{"type":"Point","coordinates":[-122.28153,37.96270049]}},{"properties":{"city":"Emeryville","latitude":37.834457,"area__":76433732.42,"length__":60472.2529,"longitude":-122.2919295,"id":"a6645ct78ws2"},"type":"Feature","geometry":{"type":"Point","coordinates":[-122.2919295,37.834457]}},{"properties":{"city":"Fairfax","latitude":37.96587051,"area__":795486999.1,"length__":176280.0447,"longitude":-122.645417,"id":"a6645ceg4ss1"},"type":"Feature","geometry":{"type":"Point","coordinates":[-122.645417,37.96587051]}},{"properties":{"city":"Fairfield","latitude":38.28635249,"area__":991785956.9,"length__":200772.589,"longitude":-122.022221,"id":"a6645cpo8iy7"},"type":"Feature","geometry":{"type":"Point","coordinates":[-122.022221,38.28635249]}},{"properties":{"city":"Forest Knolls","latitude":38.008539,"area__":28993199.35,"length__":24932.12897,"longitude":-122.691528,"id":"a6645ck8zrdy"},"type":"Feature","geometry":{"type":"Point","coordinates":[-122.691528,38.008539]}},{"properties":{"city":"Fremont","latitude":37.52929549,"area__":2193276737.0,"length__":363022.204,"longitude":-121.99443,"id":"a6645cdnxwmi"},"type":"Feature","geometry":{"type":"Point","coordinates":[-121.99443,37.52929549]}},{"properties":{"city":"Greenbrae","latitude":37.94986851,"area__":121655043.7,"length__":81164.4213,"longitude":-122.5428055,"id":"a6645cgymfq5"},"type":"Feature","geometry":{"type":"Point","coordinates":[-122.5428055,37.94986851]}},{"properties":{"city":"Half Moon Bay","latitude":37.48925301,"area__":2041953730.0,"length__":318646.5979,"longitude":-122.41178,"id":"a6645csm35po"},"type":"Feature","geometry":{"type":"Point","coordinates":[-122.41178,37.48925301]}},{"properties":{"city":"Hayward","latitude":37.64742451,"area__":1042789423.0,"length__":220423.6796,"longitude":-122.0721845,"id":"a6645cpkmcw5"},"type":"Feature","geometry":{"type":"Point","coordinates":[-122.0721845,37.64742451]}},{"properties":{"city":"Hercules","latitude":38.00850351,"area__":160751640.1,"length__":68087.34701,"longitude":-122.259416,"id":"a6645ci7oncf"},"type":"Feature","geometry":{"type":"Point","coordinates":[-122.259416,38.00850351]}},{"properties":{"city":"Lafayette","latitude":37.8900195,"area__":715541187.3,"length__":209032.2159,"longitude":-122.106003,"id":"a6645cky8f06"},"type":"Feature","geometry":{"type":"Point","coordinates":[-122.106003,37.8900195]}},{"properties":{"city":"Lagunitas","latitude":38.01080149,"area__":36082458.82,"length__":44317.79309,"longitude":-122.7048455,"id":"a6645clm5ogc"},"type":"Feature","geometry":{"type":"Point","coordinates":[-122.7048455,38.01080149]}},{"properties":{"city":"Larkspur","latitude":37.9378445,"area__":49306005.29,"length__":45171.82451,"longitude":-122.5346175,"id":"a6645crkd6a1"},"type":"Feature","geometry":{"type":"Point","coordinates":[-122.5346175,37.9378445]}},{"properties":{"city":"Larkspur","latitude":37.947449,"area__":7986573.708,"length__":14075.48631,"longitude":-122.5075735,"id":"a6645cg0iqwk"},"type":"Feature","geometry":{"type":"Point","coordinates":[-122.5075735,37.947449]}},{"properties":{"city":"Livermore","latitude":37.599031,"area__":10415769977.0,"length__":661470.7579,"longitude":-121.6619225,"id":"a6645cpuzq3h"},"type":"Feature","geometry":{"type":"Point","coordinates":[-121.6619225,37.599031]}},{"properties":{"city":"Los Altos","latitude":37.36528849,"area__":717833866.0,"length__":175622.8793,"longitude":-122.1311405,"id":"a6645cmv9ivx"},"type":"Feature","geometry":{"type":"Point","coordinates":[-122.1311405,37.36528849]}},{"properties":{"city":"Martinez","latitude":37.975193,"area__":1875386029.0,"length__":280291.7065,"longitude":-122.1651355,"id":"a6645ceb01wk"},"type":"Feature","geometry":{"type":"Point","coordinates":[-122.1651355,37.975193]}},{"properties":{"city":"Menlo Park","latitude":37.45920999,"area__":336079275.4,"length__":182065.9891,"longitude":-122.186025,"id":"a6645cotmz6k"},"type":"Feature","geometry":{"type":"Point","coordinates":[-122.186025,37.45920999]}},{"properties":{"city":"Mill Valley","latitude":37.8917345,"area__":737837364.0,"length__":187101.655,"longitude":-122.5670975,"id":"a6645cqkcvxz"},"type":"Feature","geometry":{"type":"Point","coordinates":[-122.5670975,37.8917345]}},{"properties":{"city":"Millbrae","latitude":37.5985545,"area__":95661197.57,"length__":54644.59313,"longitude":-122.4047015,"id":"a6645ce1k6d6"},"type":"Feature","geometry":{"type":"Point","coordinates":[-122.4047015,37.5985545]}},{"properties":{"city":"Milpitas","latitude":37.42253051,"area__":1364207131.0,"length__":238038.0977,"longitude":-121.816814,"id":"a6645ctvn49w"},"type":"Feature","geometry":{"type":"Point","coordinates":[-121.816814,37.42253051]}},{"properties":{"city":"Moraga","latitude":37.83820899,"area__":426346678.3,"length__":120707.9795,"longitude":-122.103851,"id":"a6645ckhprcp"},"type":"Feature","geometry":{"type":"Point","coordinates":[-122.103851,37.83820899]}},{"properties":{"city":"Moss Beach","latitude":37.53724201,"area__":194126778.0,"length__":87098.69588,"longitude":-122.490538,"id":"a6645ct0jent"},"type":"Feature","geometry":{"type":"Point","coordinates":[-122.490538,37.53724201]}},{"properties":{"city":"Mount Hamilton","latitude":37.3681085,"area__":4411080489.0,"length__":475929.7452,"longitude":-121.5938105,"id":"a6645co4oh0n"},"type":"Feature","geometry":{"type":"Point","coordinates":[-121.5938105,37.3681085]}},{"properties":{"city":"Mountain View","latitude":37.4044965,"area__":417017794.0,"length__":165553.5597,"longitude":-122.0760985,"id":"a6645cse4bc2"},"type":"Feature","geometry":{"type":"Point","coordinates":[-122.0760985,37.4044965]}},{"properties":{"city":"Napa","latitude":38.50824601,"area__":13507565508.0,"length__":967568.8523,"longitude":-122.2917365,"id":"a6645cfz8zp2"},"type":"Feature","geometry":{"type":"Point","coordinates":[-122.2917365,38.50824601]}},{"properties":{"city":"Newark","latitude":37.52061299,"area__":548993771.0,"length__":115655.0062,"longitude":-122.049028,"id":"a6645ck4yqb5"},"type":"Feature","geometry":{"type":"Point","coordinates":[-122.049028,37.52061299]}},{"properties":{"city":"Nicasio","latitude":38.036924,"area__":1745903830.0,"length__":255832.2805,"longitude":-122.701725,"id":"a6645cq4e16r"},"type":"Feature","geometry":{"type":"Point","coordinates":[-122.701725,38.036924]}},{"properties":{"city":"Novato","latitude":38.11375799,"area__":1711608407.0,"length__":247689.9466,"longitude":-122.591601,"id":"a6645cex0sdg"},"type":"Feature","geometry":{"type":"Point","coordinates":[-122.591601,38.11375799]}},{"properties":{"city":"Oakland","latitude":37.7834515,"area__":1528672704.0,"length__":348527.8666,"longitude":-122.22869,"id":"a6645cme2u67"},"type":"Feature","geometry":{"type":"Point","coordinates":[-122.22869,37.7834515]}},{"properties":{"city":"Oakley","latitude":38.035689,"area__":1765427024.0,"length__":254803.5688,"longitude":-121.6579005,"id":"a6645cjzlccy"},"type":"Feature","geometry":{"type":"Point","coordinates":[-121.6579005,38.035689]}},{"properties":{"city":"Orinda","latitude":37.8632085,"area__":620751289.5,"length__":170414.4208,"longitude":-122.194341,"id":"a6645ctk6r2l"},"type":"Feature","geometry":{"type":"Point","coordinates":[-122.194341,37.8632085]}},{"properties":{"city":"Pacifica","latitude":37.61446451,"area__":402788997.6,"length__":123465.9003,"longitude":-122.481952,"id":"a6645cp582r5"},"type":"Feature","geometry":{"type":"Point","coordinates":[-122.481952,37.61446451]}},{"properties":{"city":"Palo Alto","latitude":37.4305005,"area__":647250700.5,"length__":245927.6076,"longitude":-122.146065,"id":"a6645csbdtr6"},"type":"Feature","geometry":{"type":"Point","coordinates":[-122.146065,37.4305005]}},{"properties":{"city":"Petaluma","latitude":38.22236549,"area__":2006544465.0,"length__":267474.4283,"longitude":-122.5600445,"id":"a6645ce7evxw"},"type":"Feature","geometry":{"type":"Point","coordinates":[-122.5600445,38.22236549]}},{"properties":{"city":"Pinole","latitude":37.99565299,"area__":125212194.6,"length__":75741.67189,"longitude":-122.281402,"id":"a6645cmhw2po"},"type":"Feature","geometry":{"type":"Point","coordinates":[-122.281402,37.99565299]}},{"properties":{"city":"Pittsburg","latitude":38.0097645,"area__":927254497.7,"length__":219041.5384,"longitude":-121.9294015,"id":"a6645cdo4xm9"},"type":"Feature","geometry":{"type":"Point","coordinates":[-121.9294015,38.0097645]}},{"properties":{"city":"Pleasant Hill","latitude":37.953772,"area__":202070428.2,"length__":83822.01958,"longitude":-122.077689,"id":"a6645ckilo2z"},"type":"Feature","geometry":{"type":"Point","coordinates":[-122.077689,37.953772]}},{"properties":{"city":"Pleasanton","latitude":37.67364201,"area__":1426367309.0,"length__":217399.6117,"longitude":-121.8781645,"id":"a6645cqqhgo7"},"type":"Feature","geometry":{"type":"Point","coordinates":[-121.8781645,37.67364201]}},{"properties":{"city":"Port Costa","latitude":38.0452565,"area__":20082209.08,"length__":29591.7863,"longitude":-122.19017,"id":"a6645cf1ygir"},"type":"Feature","geometry":{"type":"Point","coordinates":[-122.19017,38.0452565]}},{"properties":{"city":"Portola Valley","latitude":37.36827,"area__":373196240.5,"length__":125210.2986,"longitude":-122.2144445,"id":"a6645clonjqb"},"type":"Feature","geometry":{"type":"Point","coordinates":[-122.2144445,37.36827]}},{"properties":{"city":"Redwood City","latitude":37.4246915,"area__":2808384824.0,"length__":510465.1393,"longitude":-122.2840265,"id":"a6645cep862p"},"type":"Feature","geometry":{"type":"Point","coordinates":[-122.2840265,37.4246915]}},{"properties":{"city":"Richmond","latitude":37.95397849,"area__":555279572.4,"length__":258335.0826,"longitude":-122.359426,"id":"a6645cg2rrbv"},"type":"Feature","geometry":{"type":"Point","coordinates":[-122.359426,37.95397849]}},{"properties":{"city":"Rio Vista","latitude":38.1658745,"area__":4454445546.0,"length__":492056.8232,"longitude":-121.7540755,"id":"a6645cp5j0cq"},"type":"Feature","geometry":{"type":"Point","coordinates":[-121.7540755,38.1658745]}},{"properties":{"city":"Rodeo","latitude":38.03092251,"area__":127308946.6,"length__":74714.52575,"longitude":-122.252726,"id":"a6645csh4r3w"},"type":"Feature","geometry":{"type":"Point","coordinates":[-122.252726,38.03092251]}},{"properties":{"city":"San Anselmo","latitude":37.9920365,"area__":191600416.1,"length__":91510.01863,"longitude":-122.581534,"id":"a6645cqipnnm"},"type":"Feature","geometry":{"type":"Point","coordinates":[-122.581534,37.9920365]}},{"properties":{"city":"San Bruno","latitude":37.618276,"area__":198460916.0,"length__":88744.80427,"longitude":-122.4346305,"id":"a6645ckgtedi"},"type":"Feature","geometry":{"type":"Point","coordinates":[-122.4346305,37.618276]}},{"properties":{"city":"San Carlos","latitude":37.494935,"area__":191633807.5,"length__":99300.26979,"longitude":-122.2676625,"id":"a6645ck1c3j4"},"type":"Feature","geometry":{"type":"Point","coordinates":[-122.2676625,37.494935]}},{"properties":{"city":"San Francisco","latitude":37.7596515,"area__":1287808718.0,"length__":288196.059,"longitude":-122.435968,"id":"a6645cdp94n8"},"type":"Feature","geometry":{"type":"Point","coordinates":[-122.435968,37.7596515]}},{"properties":{"city":"San Geronimo","latitude":38.00432799,"area__":165024901.6,"length__":86061.22498,"longitude":-122.67723,"id":"a6645cg38blq"},"type":"Feature","geometry":{"type":"Point","coordinates":[-122.67723,38.00432799]}},{"properties":{"city":"San Jose","latitude":37.42488199,"area__":310894492.3,"length__":121395.2359,"longitude":-121.945825,"id":"a6645crwvpm2"},"type":"Feature","geometry":{"type":"Point","coordinates":[-121.945825,37.42488199]}},{"properties":{"city":"San Leandro","latitude":37.70593399,"area__":433871904.5,"length__":141993.3794,"longitude":-122.1491655,"id":"a6645ctg0lfz"},"type":"Feature","geometry":{"type":"Point","coordinates":[-122.1491655,37.70593399]}},{"properties":{"city":"San Lorenzo","latitude":37.678101,"area__":110040251.8,"length__":69329.42332,"longitude":-122.1354365,"id":"a6645cozba5m"},"type":"Feature","geometry":{"type":"Point","coordinates":[-122.1354365,37.678101]}},{"properties":{"city":"San Mateo","latitude":37.54931549,"area__":515051830.9,"length__":171162.3386,"longitude":-122.303182,"id":"a6645cqruk0b"},"type":"Feature","geometry":{"type":"Point","coordinates":[-122.303182,37.54931549]}},{"properties":{"city":"San Pablo","latitude":37.98001001,"area__":225301989.4,"length__":81845.48417,"longitude":-122.3332685,"id":"a6645cn8xljb"},"type":"Feature","geometry":{"type":"Point","coordinates":[-122.3332685,37.98001001]}},{"properties":{"city":"San Quentin","latitude":37.9419575,"area__":13271261.23,"length__":18224.4948,"longitude":-122.489981,"id":"a6645cdqzq5j"},"type":"Feature","geometry":{"type":"Point","coordinates":[-122.489981,37.9419575]}},{"properties":{"city":"San Rafael","latitude":38.001638,"area__":917709380.9,"length__":223389.8692,"longitude":-122.535485,"id":"a6645cn9x1e8"},"type":"Feature","geometry":{"type":"Point","coordinates":[-122.535485,38.001638]}},{"properties":{"city":"San Ramon","latitude":37.7699225,"area__":735599579.6,"length__":177252.5544,"longitude":-121.996236,"id":"a6645cp0s9du"},"type":"Feature","geometry":{"type":"Point","coordinates":[-121.996236,37.7699225]}},{"properties":{"city":"Sausalito","latitude":37.8481005,"area__":318186632.8,"length__":144932.1908,"longitude":-122.5315875,"id":"a6645coik93c"},"type":"Feature","geometry":{"type":"Point","coordinates":[-122.5315875,37.8481005]}},{"properties":{"city":"Sonoma","latitude":38.24456499,"area__":3001414147.0,"length__":311318.5596,"longitude":-122.4621885,"id":"a6645cl1vdxv"},"type":"Feature","geometry":{"type":"Point","coordinates":[-122.4621885,38.24456499]}},{"properties":{"city":"South San Francisco","latitude":37.657846,"area__":272821887.4,"length__":124966.8965,"longitude":-122.4231585,"id":"a6645cntwa2u"},"type":"Feature","geometry":{"type":"Point","coordinates":[-122.4231585,37.657846]}},{"properties":{"city":"Stanford","latitude":37.4241935,"area__":66724175.87,"length__":39866.88716,"longitude":-122.167647,"id":"a6645cs9hy3c"},"type":"Feature","geometry":{"type":"Point","coordinates":[-122.167647,37.4241935]}},{"properties":{"city":"Stinson Beach","latitude":37.898945,"area__":32653839.35,"length__":51082.99459,"longitude":-122.6537885,"id":"a6645chu0pup"},"type":"Feature","geometry":{"type":"Point","coordinates":[-122.6537885,37.898945]}},{"properties":{"city":"Suisun City","latitude":38.2135885,"area__":6138414106.0,"length__":673352.5916,"longitude":-122.0111145,"id":"a6645cn2lr20"},"type":"Feature","geometry":{"type":"Point","coordinates":[-122.0111145,38.2135885]}},{"properties":{"city":"Sunnyvale","latitude":37.39696151,"area__":744044946.1,"length__":186036.6957,"longitude":-122.0198795,"id":"a6645ct9xax0"},"type":"Feature","geometry":{"type":"Point","coordinates":[-122.0198795,37.39696151]}},{"properties":{"city":"Sunol","latitude":37.5666525,"area__":694082226.6,"length__":243362.3045,"longitude":-121.88205,"id":"a6645cdvdw49"},"type":"Feature","geometry":{"type":"Point","coordinates":[-121.88205,37.5666525]}},{"properties":{"city":"Travis AFB","latitude":38.2730385,"area__":302939762.2,"length__":95232.01788,"longitude":-121.933624,"id":"a6645cogl4i5"},"type":"Feature","geometry":{"type":"Point","coordinates":[-121.933624,38.2730385]}},{"properties":{"city":"Union City","latitude":37.6022095,"area__":794418079.3,"length__":217359.3139,"longitude":-122.043956,"id":"a6645cpp6qe2"},"type":"Feature","geometry":{"type":"Point","coordinates":[-122.043956,37.6022095]}},{"properties":{"city":"Vallejo","latitude":38.113047,"area__":1307820036.0,"length__":234547.4174,"longitude":-122.283567,"id":"a6645cj03123"},"type":"Feature","geometry":{"type":"Point","coordinates":[-122.283567,38.113047]}},{"properties":{"city":"Walnut Creek","latitude":37.892484,"area__":712285472.0,"length__":182563.5841,"longitude":-122.0385435,"id":"a6645co7bpw6"},"type":"Feature","geometry":{"type":"Point","coordinates":[-122.0385435,37.892484]}},{"properties":{"city":"Woodacre","latitude":37.9987025,"area__":97586353.63,"length__":51398.63982,"longitude":-122.6422095,"id":"a6645cp0wgyh"},"type":"Feature","geometry":{"type":"Point","coordinates":[-122.6422095,37.9987025]}}],"is_temporal":false,"author":{"url":"","metadata":"","contact_name":"","contact_address":"","source":"","contact_phone":""},"source":"","pagination":{"sort":null,"start":0,"total":98,"limit":1000000},"state":"complete","tags":"","published":"2014-08-10T22:40:52-04:00","id":78715}