{"type":"FeatureCollection","data_type":"Dataset","url_type":null,"permissions":[{"permissions":{"download":true,"view":true},"group_id":"everyone"}],"classification":null,"title":"var-count-real","count":676,"stream_id":79228,"contributor":{"url":"http://geocommons.com/users/19539","name":"travis@moonblink.com"},"data_attributes":null,"calculation_params":null,"icon_link":null,"link":"http://geocommons.com/overlays/79228.json","extent":[-157.943,19.8186,-67.4797,64.8601],"geometry_types":["point"],"unique_name":null,"name":"var-count-real","feature_count":676,"description":"","next_feature":null,"is_raster":false,"short_classification":"Y","stats":{"geo_score":{"max":0.714,"mean":0.704494082840235,"variance":0.00670678366863903,"stdev":0.0818949550866171,"min":0.0,"median":0.714},"var":{"max":4,"mean":1.09319526627219,"variance":0.114264738110893,"stdev":0.338030676286772,"min":1,"median":1}},"features":[{"properties":{"zip":"01460","geo_score":0.714,"var":1,"id":"a62yjcmewvh1","geo_precision":"zip"},"type":"Feature","geometry":{"type":"Point","coordinates":[-71.536455,42.551758]}},{"properties":{"zip":"01473","geo_score":0.714,"var":1,"id":"a62yjcu7jvd8","geo_precision":"zip"},"type":"Feature","geometry":{"type":"Point","coordinates":[-71.877297,42.52509]}},{"properties":{"zip":"01801","geo_score":0.714,"var":1,"id":"a62yjcrdshmz","geo_precision":"zip"},"type":"Feature","geometry":{"type":"Point","coordinates":[-71.128665,42.495928]}},{"properties":{"zip":"01810","geo_score":0.714,"var":1,"id":"a62yjcsk643y","geo_precision":"zip"},"type":"Feature","geometry":{"type":"Point","coordinates":[-71.158391,42.661203]}},{"properties":{"zip":"01824","geo_score":0.714,"var":1,"id":"a62yjcqw2rho","geo_precision":"zip"},"type":"Feature","geometry":{"type":"Point","coordinates":[-71.341172,42.615369]}},{"properties":{"zip":"02050","geo_score":0.714,"var":1,"id":"a62yjcmn8y0v","geo_precision":"zip"},"type":"Feature","geometry":{"type":"Point","coordinates":[-70.75504,42.107046]}},{"properties":{"zip":"02110","geo_score":0.714,"var":1,"id":"a62yjcnzxoos","geo_precision":"zip"},"type":"Feature","geometry":{"type":"Point","coordinates":[-71.051466,42.352847]}},{"properties":{"zip":"02116","geo_score":0.714,"var":1,"id":"a62yjcuqkigf","geo_precision":"zip"},"type":"Feature","geometry":{"type":"Point","coordinates":[-71.086095,42.347207]}},{"properties":{"zip":"02559","geo_score":0.714,"var":1,"id":"a62yjczum7r7","geo_precision":"zip"},"type":"Feature","geometry":{"type":"Point","coordinates":[-70.620309,41.700106]}},{"properties":{"zip":"02852","geo_score":0.714,"var":1,"id":"a62yjcnjls8y","geo_precision":"zip"},"type":"Feature","geometry":{"type":"Point","coordinates":[-71.461447,41.57399]}},{"properties":{"zip":"02905","geo_score":0.714,"var":1,"id":"a62yjcmheyqg","geo_precision":"zip"},"type":"Feature","geometry":{"type":"Point","coordinates":[-71.397556,41.78149]}},{"properties":{"zip":"03101","geo_score":0.714,"var":1,"id":"a62yjd0vkilq","geo_precision":"zip"},"type":"Feature","geometry":{"type":"Point","coordinates":[-71.462111,42.988483]}},{"properties":{"zip":"03109","geo_score":0.714,"var":1,"id":"a62yjcv83ecg","geo_precision":"zip"},"type":"Feature","geometry":{"type":"Point","coordinates":[-71.405283,42.970084]}},{"properties":{"zip":"03782","geo_score":0.714,"var":1,"id":"a62yjcm4oeyf","geo_precision":"zip"},"type":"Feature","geometry":{"type":"Point","coordinates":[-72.070919,43.37563]}},{"properties":{"zip":"03809","geo_score":0.714,"var":1,"id":"a62yjcqaj9n2","geo_precision":"zip"},"type":"Feature","geometry":{"type":"Point","coordinates":[-71.19979,43.518135]}},{"properties":{"zip":"04654","geo_score":0.714,"var":1,"id":"a62yjd0hztbu","geo_precision":"zip"},"type":"Feature","geometry":{"type":"Point","coordinates":[-67.479713,44.612856]}},{"properties":{"zip":"04856","geo_score":0.714,"var":1,"id":"a62yjcnvpayt","geo_precision":"zip"},"type":"Feature","geometry":{"type":"Point","coordinates":[-69.03416,44.132144]}},{"properties":{"zip":"06026","geo_score":0.714,"var":1,"id":"a62yjcsgnpni","geo_precision":"zip"},"type":"Feature","geometry":{"type":"Point","coordinates":[-72.740538,41.939096]}},{"properties":{"zip":"06040","geo_score":0.714,"var":1,"id":"a62yjcr7kwe4","geo_precision":"zip"},"type":"Feature","geometry":{"type":"Point","coordinates":[-72.421195,41.864542]}},{"properties":{"zip":"06437","geo_score":0.714,"var":1,"id":"a62yjcurwy31","geo_precision":"zip"},"type":"Feature","geometry":{"type":"Point","coordinates":[-72.703707,41.245931]}},{"properties":{"zip":"06457","geo_score":0.714,"var":1,"id":"a62yjcvir1yt","geo_precision":"zip"},"type":"Feature","geometry":{"type":"Point","coordinates":[-72.700651,41.584821]}},{"properties":{"zip":"06516","geo_score":0.714,"var":1,"id":"a62yjco56gmh","geo_precision":"zip"},"type":"Feature","geometry":{"type":"Point","coordinates":[-72.970659,41.242319]}},{"properties":{"zip":"06831","geo_score":0.714,"var":1,"id":"a62yjcpmk2bt","geo_precision":"zip"},"type":"Feature","geometry":{"type":"Point","coordinates":[-73.65985,41.035375]}},{"properties":{"zip":"07004","geo_score":0.714,"var":1,"id":"a62yjcos6wfz","geo_precision":"zip"},"type":"Feature","geometry":{"type":"Point","coordinates":[-74.29681,40.875948]}},{"properties":{"zip":"07054","geo_score":0.714,"var":1,"id":"a62yjcpwa9k5","geo_precision":"zip"},"type":"Feature","geometry":{"type":"Point","coordinates":[-74.392096,40.852877]}},{"properties":{"zip":"07062","geo_score":0.714,"var":1,"id":"a62yjcombm17","geo_precision":"zip"},"type":"Feature","geometry":{"type":"Point","coordinates":[-74.412096,40.630658]}},{"properties":{"zip":"07072","geo_score":0.714,"var":1,"id":"a62yjcr1a8jh","geo_precision":"zip"},"type":"Feature","geometry":{"type":"Point","coordinates":[-74.076055,40.828399]}},{"properties":{"zip":"07410","geo_score":0.714,"var":1,"id":"a62yjcojsqx9","geo_precision":"zip"},"type":"Feature","geometry":{"type":"Point","coordinates":[-74.116531,40.942598]}},{"properties":{"zip":"07731","geo_score":0.714,"var":1,"id":"a62yjcsuk5v4","geo_precision":"zip"},"type":"Feature","geometry":{"type":"Point","coordinates":[-74.19678,40.258361]}},{"properties":{"zip":"08002","geo_score":0.714,"var":2,"id":"a62yjcwld17e","geo_precision":"zip"},"type":"Feature","geometry":{"type":"Point","coordinates":[-74.981834,39.880669]}},{"properties":{"zip":"08057","geo_score":0.714,"var":1,"id":"a62yjcnwefi4","geo_precision":"zip"},"type":"Feature","geometry":{"type":"Point","coordinates":[-74.982391,39.962335]}},{"properties":{"zip":"08510","geo_score":0.714,"var":1,"id":"a62yjcnamknw","geo_precision":"zip"},"type":"Feature","geometry":{"type":"Point","coordinates":[-74.442803,40.193311]}},{"properties":{"zip":"08742","geo_score":0.714,"var":1,"id":"a62yjcm7lzuk","geo_precision":"zip"},"type":"Feature","geometry":{"type":"Point","coordinates":[-74.060693,40.090671]}},{"properties":{"zip":"08836","geo_score":0.714,"var":1,"id":"a62yjcw9hqbt","geo_precision":"zip"},"type":"Feature","geometry":{"type":"Point","coordinates":[-74.5538,40.604352]}},{"properties":{"zip":"08854","geo_score":0.714,"var":1,"id":"a62yjcvw24li","geo_precision":"zip"},"type":"Feature","geometry":{"type":"Point","coordinates":[-74.474598,40.515382]}},{"properties":{"zip":"08901","geo_score":0.714,"var":1,"id":"a62yjcxngr3z","geo_precision":"zip"},"type":"Feature","geometry":{"type":"Point","coordinates":[-74.403206,40.484827]}},{"properties":{"zip":"10016","geo_score":0.714,"var":1,"id":"a62yjctqy7wl","geo_precision":"zip"},"type":"Feature","geometry":{"type":"Point","coordinates":[-73.978449,40.745527]}},{"properties":{"zip":"10036","geo_score":0.714,"var":2,"id":"a62yjcol85ei","geo_precision":"zip"},"type":"Feature","geometry":{"type":"Point","coordinates":[-73.989847,40.75953]}},{"properties":{"zip":"10458","geo_score":0.714,"var":1,"id":"a62yjcytfe50","geo_precision":"zip"},"type":"Feature","geometry":{"type":"Point","coordinates":[-73.898469,40.859267]}},{"properties":{"zip":"10512","geo_score":0.714,"var":1,"id":"a62yjcvjlyqt","geo_precision":"zip"},"type":"Feature","geometry":{"type":"Point","coordinates":[-73.670963,41.461483]}},{"properties":{"zip":"10601","geo_score":0.714,"var":1,"id":"a62yjcwoep5f","geo_precision":"zip"},"type":"Feature","geometry":{"type":"Point","coordinates":[-73.769626,41.031397]}},{"properties":{"zip":"10952","geo_score":0.714,"var":1,"id":"a62yjcpf1rsj","geo_precision":"zip"},"type":"Feature","geometry":{"type":"Point","coordinates":[-74.082365,41.136484]}},{"properties":{"zip":"11229","geo_score":0.714,"var":1,"id":"a62yjcoip42b","geo_precision":"zip"},"type":"Feature","geometry":{"type":"Point","coordinates":[-73.939998,40.600988]}},{"properties":{"zip":"11231","geo_score":0.714,"var":1,"id":"a62yjcswjsub","geo_precision":"zip"},"type":"Feature","geometry":{"type":"Point","coordinates":[-74.009584,40.675103]}},{"properties":{"zip":"11726","geo_score":0.714,"var":1,"id":"a62yjcp39p7f","geo_precision":"zip"},"type":"Feature","geometry":{"type":"Point","coordinates":[-73.394762,40.68022]}},{"properties":{"zip":"11746","geo_score":0.714,"var":1,"id":"a62yjcpy37ap","geo_precision":"zip"},"type":"Feature","geometry":{"type":"Point","coordinates":[-73.398731,40.82371]}},{"properties":{"zip":"11788","geo_score":0.714,"var":1,"id":"a62yjcwfu3wm","geo_precision":"zip"},"type":"Feature","geometry":{"type":"Point","coordinates":[-73.200669,40.855931]}},{"properties":{"zip":"12033","geo_score":0.714,"var":1,"id":"a62yjcvz1ojk","geo_precision":"zip"},"type":"Feature","geometry":{"type":"Point","coordinates":[-73.676507,42.554525]}},{"properties":{"zip":"12092","geo_score":0.714,"var":1,"id":"a62yjcyykcrn","geo_precision":"zip"},"type":"Feature","geometry":{"type":"Point","coordinates":[-74.401248,42.686186]}},{"properties":{"zip":"12583","geo_score":0.714,"var":1,"id":"a62yjcycfzpy","geo_precision":"zip"},"type":"Feature","geometry":{"type":"Point","coordinates":[-73.842909,42.060646]}},{"properties":{"zip":"13323","geo_score":0.714,"var":1,"id":"a62yjcys0dnq","geo_precision":"zip"},"type":"Feature","geometry":{"type":"Point","coordinates":[-75.431562,43.079792]}},{"properties":{"zip":"14132","geo_score":0.714,"var":1,"id":"a62yjcr82cey","geo_precision":"zip"},"type":"Feature","geometry":{"type":"Point","coordinates":[-78.837815,43.128112]}},{"properties":{"zip":"14606","geo_score":0.714,"var":1,"id":"a62yjclhtc9b","geo_precision":"zip"},"type":"Feature","geometry":{"type":"Point","coordinates":[-77.691577,43.173612]}},{"properties":{"zip":"14623","geo_score":0.714,"var":1,"id":"a62yjcmu15t2","geo_precision":"zip"},"type":"Feature","geometry":{"type":"Point","coordinates":[-77.649074,43.082184]}},{"properties":{"zip":"14843","geo_score":0.714,"var":1,"id":"a62yjcn6jocg","geo_precision":"zip"},"type":"Feature","geometry":{"type":"Point","coordinates":[-77.655824,42.302015]}},{"properties":{"zip":"14850","geo_score":0.714,"var":1,"id":"a62yjcplxqyk","geo_precision":"zip"},"type":"Feature","geometry":{"type":"Point","coordinates":[-76.437994,42.455073]}},{"properties":{"zip":"15203","geo_score":0.714,"var":1,"id":"a62yjcvk6dn7","geo_precision":"zip"},"type":"Feature","geometry":{"type":"Point","coordinates":[-79.979914,40.425369]}},{"properties":{"zip":"15218","geo_score":0.714,"var":1,"id":"a62yjd02vmba","geo_precision":"zip"},"type":"Feature","geometry":{"type":"Point","coordinates":[-79.881439,40.432013]}},{"properties":{"zip":"15853","geo_score":0.714,"var":1,"id":"a62yjcx6nm1m","geo_precision":"zip"},"type":"Feature","geometry":{"type":"Point","coordinates":[-78.740306,41.498395]}},{"properties":{"zip":"17036","geo_score":0.714,"var":1,"id":"a62yjcyzwwsr","geo_precision":"zip"},"type":"Feature","geometry":{"type":"Point","coordinates":[-76.68247,40.240369]}},{"properties":{"zip":"17540","geo_score":0.714,"var":1,"id":"a62yjcw1rt89","geo_precision":"zip"},"type":"Feature","geometry":{"type":"Point","coordinates":[-76.244958,40.000099]}},{"properties":{"zip":"18049","geo_score":0.714,"var":1,"id":"a62yjcpfw2ab","geo_precision":"zip"},"type":"Feature","geometry":{"type":"Point","coordinates":[-75.496572,40.505654]}},{"properties":{"zip":"18326","geo_score":0.714,"var":1,"id":"a62yjcvgs2gd","geo_precision":"zip"},"type":"Feature","geometry":{"type":"Point","coordinates":[-75.280738,41.122035]}},{"properties":{"zip":"18507","geo_score":0.714,"var":1,"id":"a62yjd0nk36o","geo_precision":"zip"},"type":"Feature","geometry":{"type":"Point","coordinates":[-75.73547,41.348691]}},{"properties":{"zip":"18612","geo_score":0.714,"var":1,"id":"a62yjcte98z5","geo_precision":"zip"},"type":"Feature","geometry":{"type":"Point","coordinates":[-76.060203,41.339247]}},{"properties":{"zip":"19001","geo_score":0.714,"var":1,"id":"a62yjcvwqn4a","geo_precision":"zip"},"type":"Feature","geometry":{"type":"Point","coordinates":[-75.137674,40.131777]}},{"properties":{"zip":"19030","geo_score":0.714,"var":1,"id":"a62yjcwxosp5","geo_precision":"zip"},"type":"Feature","geometry":{"type":"Point","coordinates":[-74.829107,40.177087]}},{"properties":{"zip":"19040","geo_score":0.714,"var":1,"id":"a62yjd0n8up1","geo_precision":"zip"},"type":"Feature","geometry":{"type":"Point","coordinates":[-75.106265,40.182406]}},{"properties":{"zip":"19090","geo_score":0.714,"var":1,"id":"a62yjcpitg9e","geo_precision":"zip"},"type":"Feature","geometry":{"type":"Point","coordinates":[-75.127951,40.135665]}},{"properties":{"zip":"19428","geo_score":0.714,"var":1,"id":"a62yjcwpl1n2","geo_precision":"zip"},"type":"Feature","geometry":{"type":"Point","coordinates":[-75.280181,40.075666]}},{"properties":{"zip":"19446","geo_score":0.714,"var":1,"id":"a62yjcmh0ij7","geo_precision":"zip"},"type":"Feature","geometry":{"type":"Point","coordinates":[-75.302953,40.245106]}},{"properties":{"zip":"19901","geo_score":0.714,"var":1,"id":"a62yjcl2w8dz","geo_precision":"zip"},"type":"Feature","geometry":{"type":"Point","coordinates":[-75.541313,39.173723]}},{"properties":{"zip":"20001","geo_score":0.714,"var":1,"id":"a62yjd0428k3","geo_precision":"zip"},"type":"Feature","geometry":{"type":"Point","coordinates":[-77.011365,38.916778]}},{"properties":{"zip":"20045","geo_score":0.714,"var":1,"id":"a62yjcqddcuf","geo_precision":"zip"},"type":"Feature","geometry":{"type":"Point","coordinates":[-77.0319,38.896599]}},{"properties":{"zip":"20120","geo_score":0.714,"var":1,"id":"a62yjcob2wys","geo_precision":"zip"},"type":"Feature","geometry":{"type":"Point","coordinates":[-77.46701,38.84479]}},{"properties":{"zip":"20137","geo_score":0.714,"var":1,"id":"a62yjcoul0ev","geo_precision":"zip"},"type":"Feature","geometry":{"type":"Point","coordinates":[-77.736814,38.819464]}},{"properties":{"zip":"20166","geo_score":0.714,"var":2,"id":"a62yjckyatpn","geo_precision":"zip"},"type":"Feature","geometry":{"type":"Point","coordinates":[-77.472333,38.981387]}},{"properties":{"zip":"20723","geo_score":0.714,"var":2,"id":"a62yjcvm62dw","geo_precision":"zip"},"type":"Feature","geometry":{"type":"Point","coordinates":[-76.86931,39.136535]}},{"properties":{"zip":"20770","geo_score":0.714,"var":1,"id":"a62yjczxj25j","geo_precision":"zip"},"type":"Feature","geometry":{"type":"Point","coordinates":[-76.903029,39.002054]}},{"properties":{"zip":"20771","geo_score":0.714,"var":1,"id":"a62yjcz22aov","geo_precision":"zip"},"type":"Feature","geometry":{"type":"Point","coordinates":[-76.877743,38.833563]}},{"properties":{"zip":"20785","geo_score":0.714,"var":1,"id":"a62yjcva8t4z","geo_precision":"zip"},"type":"Feature","geometry":{"type":"Point","coordinates":[-76.910807,38.912334]}},{"properties":{"zip":"20852","geo_score":0.714,"var":1,"id":"a62yjcqyo2nt","geo_precision":"zip"},"type":"Feature","geometry":{"type":"Point","coordinates":[-77.108034,39.037331]}},{"properties":{"zip":"20895","geo_score":0.714,"var":1,"id":"a62yjcx3fruz","geo_precision":"zip"},"type":"Feature","geometry":{"type":"Point","coordinates":[-77.079978,39.018999]}},{"properties":{"zip":"21045","geo_score":0.714,"var":1,"id":"a62yjcpv701x","geo_precision":"zip"},"type":"Feature","geometry":{"type":"Point","coordinates":[-76.843863,39.218718]}},{"properties":{"zip":"21050","geo_score":0.714,"var":1,"id":"a62yjczd7hab","geo_precision":"zip"},"type":"Feature","geometry":{"type":"Point","coordinates":[-76.460242,39.565384]}},{"properties":{"zip":"21113","geo_score":0.714,"var":1,"id":"a62yjcutohos","geo_precision":"zip"},"type":"Feature","geometry":{"type":"Point","coordinates":[-76.73608,39.054832]}},{"properties":{"zip":"21144","geo_score":0.714,"var":1,"id":"a62yjcmcm50w","geo_precision":"zip"},"type":"Feature","geometry":{"type":"Point","coordinates":[-76.683579,39.114831]}},{"properties":{"zip":"21146","geo_score":0.714,"var":1,"id":"a62yjcspnu2j","geo_precision":"zip"},"type":"Feature","geometry":{"type":"Point","coordinates":[-76.55913,39.073999]}},{"properties":{"zip":"21221","geo_score":0.714,"var":1,"id":"a62yjcyp949y","geo_precision":"zip"},"type":"Feature","geometry":{"type":"Point","coordinates":[-76.479685,39.338441]}},{"properties":{"zip":"21222","geo_score":0.714,"var":1,"id":"a62yjcm750yh","geo_precision":"zip"},"type":"Feature","geometry":{"type":"Point","coordinates":[-76.514685,39.24483]}},{"properties":{"zip":"21224","geo_score":0.714,"var":1,"id":"a62yjcvbt3f8","geo_precision":"zip"},"type":"Feature","geometry":{"type":"Point","coordinates":[-76.514963,39.284552]}},{"properties":{"zip":"21401","geo_score":0.714,"var":1,"id":"a62yjcm3zean","geo_precision":"zip"},"type":"Feature","geometry":{"type":"Point","coordinates":[-76.462738,39.020945]}},{"properties":{"zip":"22033","geo_score":0.714,"var":2,"id":"a62yjcrvbj17","geo_precision":"zip"},"type":"Feature","geometry":{"type":"Point","coordinates":[-77.378858,38.879466]}},{"properties":{"zip":"22079","geo_score":0.714,"var":1,"id":"a62yjcl0j51y","geo_precision":"zip"},"type":"Feature","geometry":{"type":"Point","coordinates":[-77.20276,38.717337]}},{"properties":{"zip":"22124","geo_score":0.714,"var":1,"id":"a62yjcljhu2e","geo_precision":"zip"},"type":"Feature","geometry":{"type":"Point","coordinates":[-77.348319,38.890945]}},{"properties":{"zip":"22150","geo_score":0.714,"var":1,"id":"a62yjcoe8mm2","geo_precision":"zip"},"type":"Feature","geometry":{"type":"Point","coordinates":[-77.214983,38.776502]}},{"properties":{"zip":"22306","geo_score":0.714,"var":1,"id":"a62yjcnfwqb9","geo_precision":"zip"},"type":"Feature","geometry":{"type":"Point","coordinates":[-77.081367,38.757336]}},{"properties":{"zip":"22315","geo_score":0.714,"var":1,"id":"a62yjcxq01at","geo_precision":"zip"},"type":"Feature","geometry":{"type":"Point","coordinates":[-77.147646,38.756466]}},{"properties":{"zip":"22812","geo_score":0.714,"var":1,"id":"a62yjcwtzdr4","geo_precision":"zip"},"type":"Feature","geometry":{"type":"Point","coordinates":[-79.034198,38.400959]}},{"properties":{"zip":"23061","geo_score":0.714,"var":1,"id":"a62yjd10syxp","geo_precision":"zip"},"type":"Feature","geometry":{"type":"Point","coordinates":[-76.644956,37.443754]}},{"properties":{"zip":"23233","geo_score":0.714,"var":1,"id":"a62yjcpgnrv4","geo_precision":"zip"},"type":"Feature","geometry":{"type":"Point","coordinates":[-77.662213,37.577369]}},{"properties":{"zip":"23452","geo_score":0.714,"var":1,"id":"a62yjcpjle6s","geo_precision":"zip"},"type":"Feature","geometry":{"type":"Point","coordinates":[-76.100489,36.829593]}},{"properties":{"zip":"23919","geo_score":0.714,"var":1,"id":"a62yjcm4zrxx","geo_precision":"zip"},"type":"Feature","geometry":{"type":"Point","coordinates":[-78.242218,36.632087]}},{"properties":{"zip":"24228","geo_score":0.714,"var":1,"id":"a62yjcrdumgf","geo_precision":"zip"},"type":"Feature","geometry":{"type":"Point","coordinates":[-82.351257,37.185942]}},{"properties":{"zip":"24614","geo_score":0.714,"var":1,"id":"a62yjcktthy1","geo_precision":"zip"},"type":"Feature","geometry":{"type":"Point","coordinates":[-82.176248,37.329832]}},{"properties":{"zip":"24701","geo_score":0.714,"var":1,"id":"a62yjcpsgizi","geo_precision":"zip"},"type":"Feature","geometry":{"type":"Point","coordinates":[-81.218153,37.257895]}},{"properties":{"zip":"24901","geo_score":0.714,"var":1,"id":"a62yjcqxew18","geo_precision":"zip"},"type":"Feature","geometry":{"type":"Point","coordinates":[-80.440352,37.770677]}},{"properties":{"zip":"25545","geo_score":0.714,"var":1,"id":"a62yjcn6kvw5","geo_precision":"zip"},"type":"Feature","geometry":{"type":"Point","coordinates":[-82.21959,38.441753]}},{"properties":{"zip":"27012","geo_score":0.714,"var":1,"id":"a62yjcmrm537","geo_precision":"zip"},"type":"Feature","geometry":{"type":"Point","coordinates":[-80.416722,36.054304]}},{"properties":{"zip":"27295","geo_score":0.714,"var":1,"id":"a62yjcpn22b2","geo_precision":"zip"},"type":"Feature","geometry":{"type":"Point","coordinates":[-80.277877,35.813292]}},{"properties":{"zip":"27501","geo_score":0.714,"var":1,"id":"a62yjd0mp2qb","geo_precision":"zip"},"type":"Feature","geometry":{"type":"Point","coordinates":[-78.694181,35.468772]}},{"properties":{"zip":"27701","geo_score":0.714,"var":1,"id":"a62yjcm3gcrc","geo_precision":"zip"},"type":"Feature","geometry":{"type":"Point","coordinates":[-78.875467,36.004307]}},{"properties":{"zip":"28079","geo_score":0.714,"var":1,"id":"a62yjcqx8krc","geo_precision":"zip"},"type":"Feature","geometry":{"type":"Point","coordinates":[-80.630346,35.118757]}},{"properties":{"zip":"28345","geo_score":0.714,"var":1,"id":"a62yjcu7tjcw","geo_precision":"zip"},"type":"Feature","geometry":{"type":"Point","coordinates":[-79.653109,34.871267]}},{"properties":{"zip":"28405","geo_score":0.714,"var":1,"id":"a62yjd0xi8wi","geo_precision":"zip"},"type":"Feature","geometry":{"type":"Point","coordinates":[-77.818594,34.272392]}},{"properties":{"zip":"28412","geo_score":0.714,"var":1,"id":"a62yjcl26qg2","geo_precision":"zip"},"type":"Feature","geometry":{"type":"Point","coordinates":[-77.91859,34.127458]}},{"properties":{"zip":"28625","geo_score":0.714,"var":1,"id":"a62yjcnfb8vj","geo_precision":"zip"},"type":"Feature","geometry":{"type":"Point","coordinates":[-80.89757,35.790866]}},{"properties":{"zip":"28714","geo_score":0.714,"var":1,"id":"a62yjcu3ln9b","geo_precision":"zip"},"type":"Feature","geometry":{"type":"Point","coordinates":[-82.254848,35.91817]}},{"properties":{"zip":"29020","geo_score":0.714,"var":1,"id":"a62yjcl0jyfb","geo_precision":"zip"},"type":"Feature","geometry":{"type":"Point","coordinates":[-80.603133,34.325707]}},{"properties":{"zip":"29170","geo_score":0.714,"var":1,"id":"a62yjcy4vvwt","geo_precision":"zip"},"type":"Feature","geometry":{"type":"Point","coordinates":[-81.15429,33.932043]}},{"properties":{"zip":"29403","geo_score":0.714,"var":1,"id":"a62yjcqsuvrw","geo_precision":"zip"},"type":"Feature","geometry":{"type":"Point","coordinates":[-79.965464,32.822391]}},{"properties":{"zip":"29412","geo_score":0.714,"var":1,"id":"a62yjcy2xr8i","geo_precision":"zip"},"type":"Feature","geometry":{"type":"Point","coordinates":[-79.98009,32.77601]}},{"properties":{"zip":"29440","geo_score":0.714,"var":1,"id":"a62yjcuhpb5o","geo_precision":"zip"},"type":"Feature","geometry":{"type":"Point","coordinates":[-79.178101,33.419612]}},{"properties":{"zip":"29505","geo_score":0.714,"var":1,"id":"a62yjcqjhg7j","geo_precision":"zip"},"type":"Feature","geometry":{"type":"Point","coordinates":[-79.693907,34.049881]}},{"properties":{"zip":"29650","geo_score":0.714,"var":1,"id":"a62yjcv6q6sm","geo_precision":"zip"},"type":"Feature","geometry":{"type":"Point","coordinates":[-82.368415,34.948738]}},{"properties":{"zip":"29710","geo_score":0.714,"var":1,"id":"a62yjcrh4esj","geo_precision":"zip"},"type":"Feature","geometry":{"type":"Point","coordinates":[-81.042854,35.108476]}},{"properties":{"zip":"30014","geo_score":0.714,"var":1,"id":"a62yjcyi42cl","geo_precision":"zip"},"type":"Feature","geometry":{"type":"Point","coordinates":[-83.849622,33.529341]}},{"properties":{"zip":"30022","geo_score":0.714,"var":1,"id":"a62yjcppka0w","geo_precision":"zip"},"type":"Feature","geometry":{"type":"Point","coordinates":[-84.242235,34.02679]}},{"properties":{"zip":"30043","geo_score":0.714,"var":1,"id":"a62yjcye7vo3","geo_precision":"zip"},"type":"Feature","geometry":{"type":"Point","coordinates":[-84.012608,34.00309]}},{"properties":{"zip":"30092","geo_score":0.714,"var":1,"id":"a62yjcqoxyia","geo_precision":"zip"},"type":"Feature","geometry":{"type":"Point","coordinates":[-84.138468,33.910725]}},{"properties":{"zip":"30096","geo_score":0.714,"var":1,"id":"a62yjcp689p3","geo_precision":"zip"},"type":"Feature","geometry":{"type":"Point","coordinates":[-84.152915,33.984534]}},{"properties":{"zip":"30107","geo_score":0.714,"var":1,"id":"a62yjcsay9y1","geo_precision":"zip"},"type":"Feature","geometry":{"type":"Point","coordinates":[-84.26492,34.329538]}},{"properties":{"zip":"30241","geo_score":0.714,"var":1,"id":"a62yjctdgxlp","geo_precision":"zip"},"type":"Feature","geometry":{"type":"Point","coordinates":[-84.957664,33.024935]}},{"properties":{"zip":"30342","geo_score":0.714,"var":1,"id":"a62yjcwsbunb","geo_precision":"zip"},"type":"Feature","geometry":{"type":"Point","coordinates":[-84.379476,33.881052]}},{"properties":{"zip":"30701","geo_score":0.714,"var":2,"id":"a62yjcrwdyq1","geo_precision":"zip"},"type":"Feature","geometry":{"type":"Point","coordinates":[-84.808827,34.448145]}},{"properties":{"zip":"30901","geo_score":0.714,"var":1,"id":"a62yjcy7xwc6","geo_precision":"zip"},"type":"Feature","geometry":{"type":"Point","coordinates":[-81.969184,33.456687]}},{"properties":{"zip":"31401","geo_score":0.714,"var":1,"id":"a62yjcufgrma","geo_precision":"zip"},"type":"Feature","geometry":{"type":"Point","coordinates":[-81.14539,32.091873]}},{"properties":{"zip":"31410","geo_score":0.714,"var":1,"id":"a62yjco9x8gl","geo_precision":"zip"},"type":"Feature","geometry":{"type":"Point","coordinates":[-80.973723,32.003548]}},{"properties":{"zip":"32043","geo_score":0.714,"var":1,"id":"a62yjcvj2kvh","geo_precision":"zip"},"type":"Feature","geometry":{"type":"Point","coordinates":[-81.617308,29.850244]}},{"properties":{"zip":"32080","geo_score":0.714,"var":1,"id":"a62yjcm5b27o","geo_precision":"zip"},"type":"Feature","geometry":{"type":"Point","coordinates":[-81.468125,29.199146]}},{"properties":{"zip":"32124","geo_score":0.714,"var":1,"id":"a62yjcw1q1hw","geo_precision":"zip"},"type":"Feature","geometry":{"type":"Point","coordinates":[-81.140241,29.14192]}},{"properties":{"zip":"32190","geo_score":0.714,"var":1,"id":"a62yjckrf1m6","geo_precision":"zip"},"type":"Feature","geometry":{"type":"Point","coordinates":[-81.503244,29.28926]}},{"properties":{"zip":"32204","geo_score":0.714,"var":1,"id":"a62yjcuht8mq","geo_precision":"zip"},"type":"Feature","geometry":{"type":"Point","coordinates":[-81.684263,30.312184]}},{"properties":{"zip":"32210","geo_score":0.714,"var":1,"id":"a62yjcvybvzk","geo_precision":"zip"},"type":"Feature","geometry":{"type":"Point","coordinates":[-81.715375,30.283851]}},{"properties":{"zip":"32224","geo_score":0.714,"var":1,"id":"a62yjd095312","geo_precision":"zip"},"type":"Feature","geometry":{"type":"Point","coordinates":[-81.54481,30.171908]}},{"properties":{"zip":"32550","geo_score":0.714,"var":1,"id":"a62yjcnn7a9n","geo_precision":"zip"},"type":"Feature","geometry":{"type":"Point","coordinates":[-86.344604,30.385269]}},{"properties":{"zip":"32817","geo_score":0.714,"var":1,"id":"a62yjcwijuhh","geo_precision":"zip"},"type":"Feature","geometry":{"type":"Point","coordinates":[-81.286179,28.568056]}},{"properties":{"zip":"32903","geo_score":0.714,"var":1,"id":"a62yjclvx5va","geo_precision":"zip"},"type":"Feature","geometry":{"type":"Point","coordinates":[-80.579625,28.107943]}},{"properties":{"zip":"32962","geo_score":0.714,"var":2,"id":"a62yjcwfz82q","geo_precision":"zip"},"type":"Feature","geometry":{"type":"Point","coordinates":[-80.615886,28.164457]}},{"properties":{"zip":"33012","geo_score":0.714,"var":1,"id":"a62yjd0nsqpk","geo_precision":"zip"},"type":"Feature","geometry":{"type":"Point","coordinates":[-80.302659,25.866021]}},{"properties":{"zip":"33021","geo_score":0.714,"var":1,"id":"a62yjcucbvg6","geo_precision":"zip"},"type":"Feature","geometry":{"type":"Point","coordinates":[-80.211942,26.023267]}},{"properties":{"zip":"33026","geo_score":0.714,"var":1,"id":"a62yjcmmdn34","geo_precision":"zip"},"type":"Feature","geometry":{"type":"Point","coordinates":[-80.25357,26.153819]}},{"properties":{"zip":"33029","geo_score":0.714,"var":1,"id":"a62yjcscey5e","geo_precision":"zip"},"type":"Feature","geometry":{"type":"Point","coordinates":[-80.319019,26.097815]}},{"properties":{"zip":"33037","geo_score":0.714,"var":1,"id":"a62yjcusvz2k","geo_precision":"zip"},"type":"Feature","geometry":{"type":"Point","coordinates":[-80.431168,25.104014]}},{"properties":{"zip":"33101","geo_score":0.714,"var":1,"id":"a62yjcqvzcmg","geo_precision":"zip"},"type":"Feature","geometry":{"type":"Point","coordinates":[-80.193659,25.774266]}},{"properties":{"zip":"33102","geo_score":0.714,"var":1,"id":"a62yjckru6za","geo_precision":"zip"},"type":"Feature","geometry":{"type":"Point","coordinates":[-80.193659,25.774266]}},{"properties":{"zip":"33122","geo_score":0.714,"var":2,"id":"a62yjcn4xmd3","geo_precision":"zip"},"type":"Feature","geometry":{"type":"Point","coordinates":[-80.319002,25.799306]}},{"properties":{"zip":"33166","geo_score":0.714,"var":2,"id":"a62yjcvkpwhr","geo_precision":"zip"},"type":"Feature","geometry":{"type":"Point","coordinates":[-80.193659,25.774266]}},{"properties":{"zip":"33178","geo_score":0.714,"var":1,"id":"a62yjcusmcdm","geo_precision":"zip"},"type":"Feature","geometry":{"type":"Point","coordinates":[-80.381857,25.859963]}},{"properties":{"zip":"33185","geo_score":0.714,"var":1,"id":"a62yjcsnzv90","geo_precision":"zip"},"type":"Feature","geometry":{"type":"Point","coordinates":[-80.462518,25.738535]}},{"properties":{"zip":"33186","geo_score":0.714,"var":2,"id":"a62yjcs2ph4h","geo_precision":"zip"},"type":"Feature","geometry":{"type":"Point","coordinates":[-80.410144,25.656462]}},{"properties":{"zip":"33196","geo_score":0.714,"var":1,"id":"a62yjcshim4m","geo_precision":"zip"},"type":"Feature","geometry":{"type":"Point","coordinates":[-80.586802,25.622896]}},{"properties":{"zip":"33309","geo_score":0.714,"var":1,"id":"a62yjct3q7qc","geo_precision":"zip"},"type":"Feature","geometry":{"type":"Point","coordinates":[-80.249771,26.212861]}},{"properties":{"zip":"33324","geo_score":0.714,"var":1,"id":"a62yjd13d6qy","geo_precision":"zip"},"type":"Feature","geometry":{"type":"Point","coordinates":[-80.264371,26.125463]}},{"properties":{"zip":"33414","geo_score":0.714,"var":1,"id":"a62yjcnnl3hc","geo_precision":"zip"},"type":"Feature","geometry":{"type":"Point","coordinates":[-80.25144,26.645659]}},{"properties":{"zip":"33431","geo_score":0.714,"var":1,"id":"a62yjctaxing","geo_precision":"zip"},"type":"Feature","geometry":{"type":"Point","coordinates":[-80.104343,26.378704]}},{"properties":{"zip":"33442","geo_score":0.714,"var":1,"id":"a62yjcotjse8","geo_precision":"zip"},"type":"Feature","geometry":{"type":"Point","coordinates":[-80.138516,26.301407]}},{"properties":{"zip":"33496","geo_score":0.714,"var":1,"id":"a62yjcqzv5b7","geo_precision":"zip"},"type":"Feature","geometry":{"type":"Point","coordinates":[-80.162567,26.409333]}},{"properties":{"zip":"33596","geo_score":0.0,"var":1,"id":"a62yjcx612dh","geo_precision":"unmatched"},"type":"Feature","geometry":null},{"properties":{"zip":"33611","geo_score":0.714,"var":1,"id":"a62yjcy73lhm","geo_precision":"zip"},"type":"Feature","geometry":{"type":"Point","coordinates":[-82.512017,27.942099]}},{"properties":{"zip":"33701","geo_score":0.714,"var":1,"id":"a62yjcozk549","geo_precision":"zip"},"type":"Feature","geometry":{"type":"Point","coordinates":[-82.64092,27.775654]}},{"properties":{"zip":"33706","geo_score":0.714,"var":1,"id":"a62yjcr7vfj2","geo_precision":"zip"},"type":"Feature","geometry":{"type":"Point","coordinates":[-82.754223,27.749529]}},{"properties":{"zip":"33965","geo_score":0.714,"var":1,"id":"a62yjcvmtsor","geo_precision":"zip"},"type":"Feature","geometry":{"type":"Point","coordinates":[-81.94861,26.552895]}},{"properties":{"zip":"34221","geo_score":0.714,"var":1,"id":"a62yjcwiw5s5","geo_precision":"zip"},"type":"Feature","geometry":{"type":"Point","coordinates":[-82.552597,27.578925]}},{"properties":{"zip":"34655","geo_score":0.714,"var":1,"id":"a62yjd06wwgl","geo_precision":"zip"},"type":"Feature","geometry":{"type":"Point","coordinates":[-82.665933,28.212233]}},{"properties":{"zip":"34667","geo_score":0.714,"var":1,"id":"a62yjcz7uprl","geo_precision":"zip"},"type":"Feature","geometry":{"type":"Point","coordinates":[-82.683434,28.326673]}},{"properties":{"zip":"35055","geo_score":0.714,"var":1,"id":"a62yjcvye46c","geo_precision":"zip"},"type":"Feature","geometry":{"type":"Point","coordinates":[-86.738887,34.139265]}},{"properties":{"zip":"35209","geo_score":0.714,"var":1,"id":"a62yjcqpcdwy","geo_precision":"zip"},"type":"Feature","geometry":{"type":"Point","coordinates":[-86.800823,33.471773]}},{"properties":{"zip":"35758","geo_score":0.714,"var":1,"id":"a62yjcs3pyf7","geo_precision":"zip"},"type":"Feature","geometry":{"type":"Point","coordinates":[-86.788611,34.597314]}},{"properties":{"zip":"35805","geo_score":0.714,"var":1,"id":"a62yjcs0nffv","geo_precision":"zip"},"type":"Feature","geometry":{"type":"Point","coordinates":[-86.634439,34.749535]}},{"properties":{"zip":"35808","geo_score":0.714,"var":1,"id":"a62yjcyi4zrj","geo_precision":"zip"},"type":"Feature","geometry":{"type":"Point","coordinates":[-86.539157,34.553425]}},{"properties":{"zip":"35986","geo_score":0.714,"var":1,"id":"a62yjcntxtqa","geo_precision":"zip"},"type":"Feature","geometry":{"type":"Point","coordinates":[-85.820526,34.483143]}},{"properties":{"zip":"36303","geo_score":0.714,"var":1,"id":"a62yjcmk71cz","geo_precision":"zip"},"type":"Feature","geometry":{"type":"Point","coordinates":[-85.468267,31.181843]}},{"properties":{"zip":"36849","geo_score":0.0,"var":1,"id":"a62yjcu85k84","geo_precision":"unmatched"},"type":"Feature","geometry":null},{"properties":{"zip":"36863","geo_score":0.714,"var":1,"id":"a62yjcz5qkjx","geo_precision":"zip"},"type":"Feature","geometry":{"type":"Point","coordinates":[-85.190775,32.853184]}},{"properties":{"zip":"37040","geo_score":0.714,"var":1,"id":"a62yjcokr1s5","geo_precision":"zip"},"type":"Feature","geometry":{"type":"Point","coordinates":[-87.184727,36.463938]}},{"properties":{"zip":"37064","geo_score":0.714,"var":1,"id":"a62yjco2h9xi","geo_precision":"zip"},"type":"Feature","geometry":{"type":"Point","coordinates":[-86.926391,35.892565]}},{"properties":{"zip":"37160","geo_score":0.714,"var":1,"id":"a62yjcw4wejl","geo_precision":"zip"},"type":"Feature","geometry":{"type":"Point","coordinates":[-86.626385,35.452018]}},{"properties":{"zip":"37203","geo_score":0.714,"var":1,"id":"a62yjcysrdzc","geo_precision":"zip"},"type":"Feature","geometry":{"type":"Point","coordinates":[-86.791598,36.150406]}},{"properties":{"zip":"37309","geo_score":0.714,"var":1,"id":"a62yjcvrhen8","geo_precision":"zip"},"type":"Feature","geometry":{"type":"Point","coordinates":[-84.740774,35.292851]}},{"properties":{"zip":"37411","geo_score":0.714,"var":1,"id":"a62yjcnp481h","geo_precision":"zip"},"type":"Feature","geometry":{"type":"Point","coordinates":[-85.252456,35.032574]}},{"properties":{"zip":"37841","geo_score":0.714,"var":1,"id":"a62yjcyq9nw7","geo_precision":"zip"},"type":"Feature","geometry":{"type":"Point","coordinates":[-84.494383,36.453968]}},{"properties":{"zip":"38138","geo_score":0.714,"var":1,"id":"a62yjcz4kfj0","geo_precision":"zip"},"type":"Feature","geometry":{"type":"Point","coordinates":[-89.759251,35.063147]}},{"properties":{"zip":"38261","geo_score":0.714,"var":1,"id":"a62yjcwr1tk4","geo_precision":"zip"},"type":"Feature","geometry":{"type":"Point","coordinates":[-88.976175,36.382842]}},{"properties":{"zip":"38606","geo_score":0.714,"var":1,"id":"a62yjczi8cs8","geo_precision":"zip"},"type":"Feature","geometry":{"type":"Point","coordinates":[-89.854256,34.351497]}},{"properties":{"zip":"38655","geo_score":0.714,"var":1,"id":"a62yjcypgyfu","geo_precision":"zip"},"type":"Feature","geometry":{"type":"Point","coordinates":[-89.4148,34.278163]}},{"properties":{"zip":"39158","geo_score":0.714,"var":1,"id":"a62yjcxgistk","geo_precision":"zip"},"type":"Feature","geometry":{"type":"Point","coordinates":[-90.090683,32.642448]}},{"properties":{"zip":"39159","geo_score":0.714,"var":1,"id":"a62yjcwksoat","geo_precision":"zip"},"type":"Feature","geometry":{"type":"Point","coordinates":[-91.114552,32.779575]}},{"properties":{"zip":"39208","geo_score":0.714,"var":1,"id":"a62yjctg28wp","geo_precision":"zip"},"type":"Feature","geometry":{"type":"Point","coordinates":[-90.123142,32.246814]}},{"properties":{"zip":"39441","geo_score":0.714,"var":1,"id":"a62yjcwn7rgf","geo_precision":"zip"},"type":"Feature","geometry":{"type":"Point","coordinates":[-89.075482,31.727664]}},{"properties":{"zip":"39529","geo_score":0.714,"var":1,"id":"a62yjcp5tr3c","geo_precision":"zip"},"type":"Feature","geometry":{"type":"Point","coordinates":[-89.49821,30.403156]}},{"properties":{"zip":"40217","geo_score":0.714,"var":1,"id":"a62yjco1o4s7","geo_precision":"zip"},"type":"Feature","geometry":{"type":"Point","coordinates":[-85.739861,38.21787]}},{"properties":{"zip":"40503","geo_score":0.714,"var":1,"id":"a62yjcyxjgko","geo_precision":"zip"},"type":"Feature","geometry":{"type":"Point","coordinates":[-84.530773,38.019522]}},{"properties":{"zip":"41048","geo_score":0.714,"var":1,"id":"a62yjd0fi9q2","geo_precision":"zip"},"type":"Feature","geometry":{"type":"Point","coordinates":[-84.69328,39.099781]}},{"properties":{"zip":"41097","geo_score":0.714,"var":1,"id":"a62yjcnftks2","geo_precision":"zip"},"type":"Feature","geometry":{"type":"Point","coordinates":[-84.648278,38.633124]}},{"properties":{"zip":"41129","geo_score":0.714,"var":1,"id":"a62yjd0p87zr","geo_precision":"zip"},"type":"Feature","geometry":{"type":"Point","coordinates":[-82.597936,38.344249]}},{"properties":{"zip":"43015","geo_score":0.714,"var":1,"id":"a62yjcqbyhh6","geo_precision":"zip"},"type":"Feature","geometry":{"type":"Point","coordinates":[-83.012685,40.255618]}},{"properties":{"zip":"43026","geo_score":0.714,"var":1,"id":"a62yjcv3e9j6","geo_precision":"zip"},"type":"Feature","geometry":{"type":"Point","coordinates":[-83.182135,40.002285]}},{"properties":{"zip":"43040","geo_score":0.714,"var":1,"id":"a62yjcq9exl0","geo_precision":"zip"},"type":"Feature","geometry":{"type":"Point","coordinates":[-83.246861,40.212561]}},{"properties":{"zip":"43223","geo_score":0.714,"var":1,"id":"a62yjcy5kwtw","geo_precision":"zip"},"type":"Feature","geometry":{"type":"Point","coordinates":[-83.058241,39.925897]}},{"properties":{"zip":"43402","geo_score":0.714,"var":1,"id":"a62yjcwdr1j7","geo_precision":"zip"},"type":"Feature","geometry":{"type":"Point","coordinates":[-83.622434,41.428941]}},{"properties":{"zip":"43528","geo_score":0.714,"var":1,"id":"a62yjcyc3tpq","geo_precision":"zip"},"type":"Feature","geometry":{"type":"Point","coordinates":[-83.730771,41.605607]}},{"properties":{"zip":"44135","geo_score":0.714,"var":2,"id":"a62yjcranavo","geo_precision":"zip"},"type":"Feature","geometry":{"type":"Point","coordinates":[-81.850414,41.420327]}},{"properties":{"zip":"44512","geo_score":0.714,"var":1,"id":"a62yjcr6eg5k","geo_precision":"zip"},"type":"Feature","geometry":{"type":"Point","coordinates":[-80.662853,41.024226]}},{"properties":{"zip":"44685","geo_score":0.714,"var":2,"id":"a62yjcsu5sk7","geo_precision":"zip"},"type":"Feature","geometry":{"type":"Point","coordinates":[-81.423724,40.976168]}},{"properties":{"zip":"44818","geo_score":0.714,"var":1,"id":"a62yjcx89oa1","geo_precision":"zip"},"type":"Feature","geometry":{"type":"Point","coordinates":[-83.016857,40.965056]}},{"properties":{"zip":"45331","geo_score":0.714,"var":1,"id":"a62yjcua4v0f","geo_precision":"zip"},"type":"Feature","geometry":{"type":"Point","coordinates":[-84.677736,40.178381]}},{"properties":{"zip":"45414","geo_score":0.714,"var":1,"id":"a62yjctbg2sc","geo_precision":"zip"},"type":"Feature","geometry":{"type":"Point","coordinates":[-84.199386,39.857835]}},{"properties":{"zip":"45431","geo_score":0.714,"var":1,"id":"a62yjcntkw08","geo_precision":"zip"},"type":"Feature","geometry":{"type":"Point","coordinates":[-84.057435,39.727837]}},{"properties":{"zip":"46033","geo_score":0.714,"var":1,"id":"a62yjd09jyuh","geo_precision":"zip"},"type":"Feature","geometry":{"type":"Point","coordinates":[-86.082936,39.974404]}},{"properties":{"zip":"46077","geo_score":0.714,"var":1,"id":"a62yjcxbmbvw","geo_precision":"zip"},"type":"Feature","geometry":{"type":"Point","coordinates":[-86.301661,39.948652]}},{"properties":{"zip":"46140","geo_score":0.714,"var":1,"id":"a62yjct16ji0","geo_precision":"zip"},"type":"Feature","geometry":{"type":"Point","coordinates":[-85.687755,39.750322]}},{"properties":{"zip":"46204","geo_score":0.714,"var":1,"id":"a62yjcy1n6kn","geo_precision":"zip"},"type":"Feature","geometry":{"type":"Point","coordinates":[-86.158038,39.772692]}},{"properties":{"zip":"46933","geo_score":0.714,"var":1,"id":"a62yjco2kvg0","geo_precision":"zip"},"type":"Feature","geometry":{"type":"Point","coordinates":[-85.585245,40.54429]}},{"properties":{"zip":"46952","geo_score":0.714,"var":1,"id":"a62yjcn0grtp","geo_precision":"zip"},"type":"Feature","geometry":{"type":"Point","coordinates":[-85.674145,40.589485]}},{"properties":{"zip":"46953","geo_score":0.714,"var":2,"id":"a62yjcr46c3h","geo_precision":"zip"},"type":"Feature","geometry":{"type":"Point","coordinates":[-85.626401,40.499959]}},{"properties":{"zip":"47904","geo_score":0.714,"var":1,"id":"a62yjcypagec","geo_precision":"zip"},"type":"Feature","geometry":{"type":"Point","coordinates":[-86.917273,40.482287]}},{"properties":{"zip":"47933","geo_score":0.714,"var":1,"id":"a62yjcnhinrh","geo_precision":"zip"},"type":"Feature","geometry":{"type":"Point","coordinates":[-86.980008,40.024766]}},{"properties":{"zip":"48105","geo_score":0.714,"var":2,"id":"a62yjcm3vork","geo_precision":"zip"},"type":"Feature","geometry":{"type":"Point","coordinates":[-83.667717,42.266983]}},{"properties":{"zip":"48108","geo_score":0.714,"var":1,"id":"a62yjcsg27m5","geo_precision":"zip"},"type":"Feature","geometry":{"type":"Point","coordinates":[-83.729342,42.223305]}},{"properties":{"zip":"48118","geo_score":0.714,"var":1,"id":"a62yjcv99ax6","geo_precision":"zip"},"type":"Feature","geometry":{"type":"Point","coordinates":[-84.013999,42.31375]}},{"properties":{"zip":"48122","geo_score":0.714,"var":1,"id":"a62yjcx2j6n8","geo_precision":"zip"},"type":"Feature","geometry":{"type":"Point","coordinates":[-83.223427,42.353686]}},{"properties":{"zip":"48158","geo_score":0.714,"var":1,"id":"a62yjctvi93v","geo_precision":"zip"},"type":"Feature","geometry":{"type":"Point","coordinates":[-84.093836,42.178372]}},{"properties":{"zip":"48309","geo_score":0.714,"var":1,"id":"a62yjcrtzi9j","geo_precision":"zip"},"type":"Feature","geometry":{"type":"Point","coordinates":[-83.183666,42.662644]}},{"properties":{"zip":"48312","geo_score":0.714,"var":1,"id":"a62yjctb8joj","geo_precision":"zip"},"type":"Feature","geometry":{"type":"Point","coordinates":[-83.028532,42.566338]}},{"properties":{"zip":"48326","geo_score":0.714,"var":2,"id":"a62yjcldomnl","geo_precision":"zip"},"type":"Feature","geometry":{"type":"Point","coordinates":[-83.316605,42.698643]}},{"properties":{"zip":"48341","geo_score":0.714,"var":1,"id":"a62yjcnqjany","geo_precision":"zip"},"type":"Feature","geometry":{"type":"Point","coordinates":[-83.291471,42.633716]}},{"properties":{"zip":"49085","geo_score":0.714,"var":1,"id":"a62yjcpjh4oe","geo_precision":"zip"},"type":"Feature","geometry":{"type":"Point","coordinates":[-86.470299,42.061431]}},{"properties":{"zip":"49202","geo_score":0.714,"var":1,"id":"a62yjcwzitrr","geo_precision":"zip"},"type":"Feature","geometry":{"type":"Point","coordinates":[-84.398207,42.275635]}},{"properties":{"zip":"49252","geo_score":0.714,"var":1,"id":"a62yjcs6qywi","geo_precision":"zip"},"type":"Feature","geometry":{"type":"Point","coordinates":[-84.619228,42.029101]}},{"properties":{"zip":"49302","geo_score":0.714,"var":1,"id":"a62yjcvfq58u","geo_precision":"zip"},"type":"Feature","geometry":{"type":"Point","coordinates":[-85.443908,42.867531]}},{"properties":{"zip":"49315","geo_score":0.714,"var":1,"id":"a62yjcwhnwjx","geo_precision":"zip"},"type":"Feature","geometry":{"type":"Point","coordinates":[-85.663636,42.782808]}},{"properties":{"zip":"49331","geo_score":0.714,"var":1,"id":"a62yjcp6041o","geo_precision":"zip"},"type":"Feature","geometry":{"type":"Point","coordinates":[-85.384134,42.969378]}},{"properties":{"zip":"50164","geo_score":0.714,"var":1,"id":"a62yjcopmmd3","geo_precision":"zip"},"type":"Feature","geometry":{"type":"Point","coordinates":[-94.402189,41.594432]}},{"properties":{"zip":"50219","geo_score":0.714,"var":1,"id":"a62yjcquu45y","geo_precision":"zip"},"type":"Feature","geometry":{"type":"Point","coordinates":[-92.801306,41.461943]}},{"properties":{"zip":"50450","geo_score":0.714,"var":1,"id":"a62yjcsajan1","geo_precision":"zip"},"type":"Feature","geometry":{"type":"Point","coordinates":[-93.567204,43.408993]}},{"properties":{"zip":"50616","geo_score":0.714,"var":1,"id":"a62yjcz1jmqt","geo_precision":"zip"},"type":"Feature","geometry":{"type":"Point","coordinates":[-92.605464,43.005251]}},{"properties":{"zip":"50843","geo_score":0.714,"var":1,"id":"a62yjcn2jf7w","geo_precision":"zip"},"type":"Feature","geometry":{"type":"Point","coordinates":[-94.947597,41.255042]}},{"properties":{"zip":"51638","geo_score":0.714,"var":1,"id":"a62yjcq52haq","geo_precision":"zip"},"type":"Feature","geometry":{"type":"Point","coordinates":[-95.261263,40.77046]}},{"properties":{"zip":"52241","geo_score":0.714,"var":2,"id":"a62yjcoyeldg","geo_precision":"zip"},"type":"Feature","geometry":{"type":"Point","coordinates":[-91.6332,41.699942]}},{"properties":{"zip":"52246","geo_score":0.714,"var":1,"id":"a62yjct27nmv","geo_precision":"zip"},"type":"Feature","geometry":{"type":"Point","coordinates":[-91.556835,41.655016]}},{"properties":{"zip":"52332","geo_score":0.714,"var":1,"id":"a62yjcseu9gn","geo_precision":"zip"},"type":"Feature","geometry":{"type":"Point","coordinates":[-91.914187,42.101443]}},{"properties":{"zip":"52401","geo_score":0.714,"var":1,"id":"a62yjcvooqyc","geo_precision":"zip"},"type":"Feature","geometry":{"type":"Point","coordinates":[-91.643232,41.865285]}},{"properties":{"zip":"52402","geo_score":0.714,"var":1,"id":"a62yjctpiira","geo_precision":"zip"},"type":"Feature","geometry":{"type":"Point","coordinates":[-91.681029,42.020105]}},{"properties":{"zip":"52404","geo_score":0.714,"var":1,"id":"a62yjcys26ea","geo_precision":"zip"},"type":"Feature","geometry":{"type":"Point","coordinates":[-91.646565,41.850563]}},{"properties":{"zip":"53037","geo_score":0.714,"var":1,"id":"a62yjcnpk5z1","geo_precision":"zip"},"type":"Feature","geometry":{"type":"Point","coordinates":[-88.19676,43.329169]}},{"properties":{"zip":"54016","geo_score":0.714,"var":1,"id":"a62yjcv4tinw","geo_precision":"zip"},"type":"Feature","geometry":{"type":"Point","coordinates":[-92.756871,44.993023]}},{"properties":{"zip":"54466","geo_score":0.714,"var":1,"id":"a62yjczolvh5","geo_precision":"zip"},"type":"Feature","geometry":{"type":"Point","coordinates":[-90.173466,44.409685]}},{"properties":{"zip":"54806","geo_score":0.714,"var":1,"id":"a62yjcprmuoi","geo_precision":"zip"},"type":"Feature","geometry":{"type":"Point","coordinates":[-90.9088,46.433004]}},{"properties":{"zip":"54912","geo_score":0.714,"var":1,"id":"a62yjcmwtfsr","geo_precision":"zip"},"type":"Feature","geometry":{"type":"Point","coordinates":[-88.464873,44.416326]}},{"properties":{"zip":"54921","geo_score":0.714,"var":1,"id":"a62yjcymoikq","geo_precision":"zip"},"type":"Feature","geometry":{"type":"Point","coordinates":[-89.474285,44.366916]}},{"properties":{"zip":"55074","geo_score":0.714,"var":1,"id":"a62yjcx6polm","geo_precision":"zip"},"type":"Feature","geometry":{"type":"Point","coordinates":[-92.691597,45.370241]}},{"properties":{"zip":"55107","geo_score":0.714,"var":1,"id":"a62yjcxl980t","geo_precision":"zip"},"type":"Feature","geometry":{"type":"Point","coordinates":[-93.087967,44.932465]}},{"properties":{"zip":"56315","geo_score":0.714,"var":1,"id":"a62yjczuwy5c","geo_precision":"zip"},"type":"Feature","geometry":{"type":"Point","coordinates":[-95.562543,46.067461]}},{"properties":{"zip":"56560","geo_score":0.714,"var":1,"id":"a62yjco54bqv","geo_precision":"zip"},"type":"Feature","geometry":{"type":"Point","coordinates":[-96.744804,46.733296]}},{"properties":{"zip":"57025","geo_score":0.714,"var":1,"id":"a62yjcue65jb","geo_precision":"zip"},"type":"Feature","geometry":{"type":"Point","coordinates":[-96.746985,42.85194]}},{"properties":{"zip":"57548","geo_score":0.714,"var":1,"id":"a62yjcm7ndv6","geo_precision":"zip"},"type":"Feature","geometry":{"type":"Point","coordinates":[-99.824337,43.85862]}},{"properties":{"zip":"58103","geo_score":0.714,"var":1,"id":"a62yjcmz3z9x","geo_precision":"zip"},"type":"Feature","geometry":{"type":"Point","coordinates":[-96.825841,46.832152]}},{"properties":{"zip":"58501","geo_score":0.714,"var":1,"id":"a62yjcut9q8g","geo_precision":"zip"},"type":"Feature","geometry":{"type":"Point","coordinates":[-100.502724,46.981207]}},{"properties":{"zip":"58849","geo_score":0.714,"var":1,"id":"a62yjcrpz4w9","geo_precision":"zip"},"type":"Feature","geometry":{"type":"Point","coordinates":[-103.252408,48.29641]}},{"properties":{"zip":"59436","geo_score":0.714,"var":1,"id":"a62yjczadm7g","geo_precision":"zip"},"type":"Feature","geometry":{"type":"Point","coordinates":[-111.859438,47.639953]}},{"properties":{"zip":"59715","geo_score":0.714,"var":1,"id":"a62yjcwxbpmu","geo_precision":"zip"},"type":"Feature","geometry":{"type":"Point","coordinates":[-111.168212,45.809998]}},{"properties":{"zip":"59718","geo_score":0.714,"var":1,"id":"a62yjcve49sx","geo_precision":"zip"},"type":"Feature","geometry":{"type":"Point","coordinates":[-111.240393,45.66812]}},{"properties":{"zip":"59801","geo_score":0.714,"var":2,"id":"a62yjcykji2y","geo_precision":"zip"},"type":"Feature","geometry":{"type":"Point","coordinates":[-113.889827,46.877148]}},{"properties":{"zip":"59808","geo_score":0.714,"var":1,"id":"a62yjcr8l6hz","geo_precision":"zip"},"type":"Feature","geometry":{"type":"Point","coordinates":[-114.061856,46.977603]}},{"properties":{"zip":"60012","geo_score":0.714,"var":1,"id":"a62yjcsitrst","geo_precision":"zip"},"type":"Feature","geometry":{"type":"Point","coordinates":[-88.361476,42.268356]}},{"properties":{"zip":"60047","geo_score":0.714,"var":2,"id":"a62yjcmwjpay","geo_precision":"zip"},"type":"Feature","geometry":{"type":"Point","coordinates":[-88.047853,42.170581]}},{"properties":{"zip":"60050","geo_score":0.714,"var":1,"id":"a62yjcmkg51x","geo_precision":"zip"},"type":"Feature","geometry":{"type":"Point","coordinates":[-88.226198,42.389465]}},{"properties":{"zip":"60053","geo_score":0.714,"var":1,"id":"a62yjcyjtbzg","geo_precision":"zip"},"type":"Feature","geometry":{"type":"Point","coordinates":[-87.793815,42.039329]}},{"properties":{"zip":"60090","geo_score":0.714,"var":1,"id":"a62yjco1gsjq","geo_precision":"zip"},"type":"Feature","geometry":{"type":"Point","coordinates":[-87.933819,42.124176]}},{"properties":{"zip":"60135","geo_score":0.714,"var":1,"id":"a62yjcoz05fg","geo_precision":"zip"},"type":"Feature","geometry":{"type":"Point","coordinates":[-88.718101,42.10153]}},{"properties":{"zip":"60178","geo_score":0.714,"var":1,"id":"a62yjcyfi9m9","geo_precision":"zip"},"type":"Feature","geometry":{"type":"Point","coordinates":[-88.631477,42.066415]}},{"properties":{"zip":"60194","geo_score":0.714,"var":1,"id":"a62yjcnhfanu","geo_precision":"zip"},"type":"Feature","geometry":{"type":"Point","coordinates":[-88.116655,42.028926]}},{"properties":{"zip":"60445","geo_score":0.714,"var":1,"id":"a62yjcwrni5y","geo_precision":"zip"},"type":"Feature","geometry":{"type":"Point","coordinates":[-87.752551,41.661144]}},{"properties":{"zip":"60477","geo_score":0.714,"var":1,"id":"a62yjcv0b00i","geo_precision":"zip"},"type":"Feature","geometry":{"type":"Point","coordinates":[-87.843108,41.585311]}},{"properties":{"zip":"60502","geo_score":0.0,"var":1,"id":"a62yjcyqu9on","geo_precision":"unmatched"},"type":"Feature","geometry":null},{"properties":{"zip":"60527","geo_score":0.714,"var":1,"id":"a62yjcztj439","geo_precision":"zip"},"type":"Feature","geometry":{"type":"Point","coordinates":[-88.088716,41.839679]}},{"properties":{"zip":"60563","geo_score":0.714,"var":1,"id":"a62yjcqbtn94","geo_precision":"zip"},"type":"Feature","geometry":{"type":"Point","coordinates":[-88.149884,41.782455]}},{"properties":{"zip":"60605","geo_score":0.714,"var":1,"id":"a62yjcv5o8hu","geo_precision":"zip"},"type":"Feature","geometry":{"type":"Point","coordinates":[-87.68732,41.811929]}},{"properties":{"zip":"60631","geo_score":0.714,"var":1,"id":"a62yjczh69ci","geo_precision":"zip"},"type":"Feature","geometry":{"type":"Point","coordinates":[-87.808611,42.00583]}},{"properties":{"zip":"60957","geo_score":0.714,"var":1,"id":"a62yjczg4qsv","geo_precision":"zip"},"type":"Feature","geometry":{"type":"Point","coordinates":[-88.179213,40.46559]}},{"properties":{"zip":"61024","geo_score":0.714,"var":1,"id":"a62yjcvgnfw2","geo_precision":"zip"},"type":"Feature","geometry":{"type":"Point","coordinates":[-89.213377,42.434686]}},{"properties":{"zip":"61032","geo_score":0.714,"var":1,"id":"a62yjcx9ab6i","geo_precision":"zip"},"type":"Feature","geometry":{"type":"Point","coordinates":[-89.527338,42.344462]}},{"properties":{"zip":"61933","geo_score":0.714,"var":1,"id":"a62yjct72ncf","geo_precision":"zip"},"type":"Feature","geometry":{"type":"Point","coordinates":[-87.896219,39.637094]}},{"properties":{"zip":"62864","geo_score":0.714,"var":1,"id":"a62yjcyxel2e","geo_precision":"zip"},"type":"Feature","geometry":{"type":"Point","coordinates":[-88.867007,38.327827]}},{"properties":{"zip":"63026","geo_score":0.714,"var":1,"id":"a62yjcmiybso","geo_precision":"zip"},"type":"Feature","geometry":{"type":"Point","coordinates":[-90.487066,38.490332]}},{"properties":{"zip":"63131","geo_score":0.714,"var":1,"id":"a62yjcvi64t7","geo_precision":"zip"},"type":"Feature","geometry":{"type":"Point","coordinates":[-90.439841,38.643664]}},{"properties":{"zip":"63376","geo_score":0.714,"var":1,"id":"a62yjcm0kr4y","geo_precision":"zip"},"type":"Feature","geometry":{"type":"Point","coordinates":[-90.661514,38.760608]}},{"properties":{"zip":"63645","geo_score":0.714,"var":1,"id":"a62yjcqr3z5l","geo_precision":"zip"},"type":"Feature","geometry":{"type":"Point","coordinates":[-90.310116,37.42172]}},{"properties":{"zip":"64055","geo_score":0.714,"var":1,"id":"a62yjckr0hpv","geo_precision":"zip"},"type":"Feature","geometry":{"type":"Point","coordinates":[-94.415628,39.048523]}},{"properties":{"zip":"64067","geo_score":0.714,"var":1,"id":"a62yjcrog6er","geo_precision":"zip"},"type":"Feature","geometry":{"type":"Point","coordinates":[-93.849284,39.14086]}},{"properties":{"zip":"64601","geo_score":0.714,"var":1,"id":"a62yjcvrbyut","geo_precision":"zip"},"type":"Feature","geometry":{"type":"Point","coordinates":[-93.501047,39.877239]}},{"properties":{"zip":"65079","geo_score":0.714,"var":1,"id":"a62yjcz8o37p","geo_precision":"zip"},"type":"Feature","geometry":{"type":"Point","coordinates":[-92.817412,38.16392]}},{"properties":{"zip":"66111","geo_score":0.714,"var":1,"id":"a62yjd0bfuvc","geo_precision":"zip"},"type":"Feature","geometry":{"type":"Point","coordinates":[-94.801629,39.062504]}},{"properties":{"zip":"66213","geo_score":0.714,"var":1,"id":"a62yjcoc20xo","geo_precision":"zip"},"type":"Feature","geometry":{"type":"Point","coordinates":[-94.704936,38.898243]}},{"properties":{"zip":"66603","geo_score":0.714,"var":1,"id":"a62yjcrm1g4q","geo_precision":"zip"},"type":"Feature","geometry":{"type":"Point","coordinates":[-95.675758,39.05215]}},{"properties":{"zip":"66605","geo_score":0.714,"var":1,"id":"a62yjcqj3l2r","geo_precision":"zip"},"type":"Feature","geometry":{"type":"Point","coordinates":[-95.592088,39.01115]}},{"properties":{"zip":"66621","geo_score":0.714,"var":1,"id":"a62yjcwsi9xs","geo_precision":"zip"},"type":"Feature","geometry":{"type":"Point","coordinates":[-95.769657,39.042939]}},{"properties":{"zip":"66736","geo_score":0.714,"var":1,"id":"a62yjcl3x787","geo_precision":"zip"},"type":"Feature","geometry":{"type":"Point","coordinates":[-95.920538,37.448383]}},{"properties":{"zip":"66757","geo_score":0.714,"var":1,"id":"a62yjclu00fb","geo_precision":"zip"},"type":"Feature","geometry":{"type":"Point","coordinates":[-95.676647,37.44978]}},{"properties":{"zip":"67022","geo_score":0.714,"var":1,"id":"a62yjcl5kubi","geo_precision":"zip"},"type":"Feature","geometry":{"type":"Point","coordinates":[-97.477825,37.035581]}},{"properties":{"zip":"67203","geo_score":0.714,"var":1,"id":"a62yjcynp9rl","geo_precision":"zip"},"type":"Feature","geometry":{"type":"Point","coordinates":[-97.395351,37.706514]}},{"properties":{"zip":"67220","geo_score":0.714,"var":1,"id":"a62yjcu42hdv","geo_precision":"zip"},"type":"Feature","geometry":{"type":"Point","coordinates":[-97.266988,37.762513]}},{"properties":{"zip":"67361","geo_score":0.714,"var":1,"id":"a62yjcnvmn52","geo_precision":"zip"},"type":"Feature","geometry":{"type":"Point","coordinates":[-96.105822,37.144502]}},{"properties":{"zip":"68144","geo_score":0.714,"var":2,"id":"a62yjcvx4syx","geo_precision":"zip"},"type":"Feature","geometry":{"type":"Point","coordinates":[-96.118847,41.233498]}},{"properties":{"zip":"68310","geo_score":0.714,"var":1,"id":"a62yjcys2ej7","geo_precision":"zip"},"type":"Feature","geometry":{"type":"Point","coordinates":[-96.600299,40.251667]}},{"properties":{"zip":"68434","geo_score":0.714,"var":1,"id":"a62yjcrd4qmc","geo_precision":"zip"},"type":"Feature","geometry":{"type":"Point","coordinates":[-97.225042,40.893899]}},{"properties":{"zip":"68776","geo_score":0.714,"var":1,"id":"a62yjcv3ynsk","geo_precision":"zip"},"type":"Feature","geometry":{"type":"Point","coordinates":[-96.441697,42.44055]}},{"properties":{"zip":"68788","geo_score":0.714,"var":1,"id":"a62yjctelx4z","geo_precision":"zip"},"type":"Feature","geometry":{"type":"Point","coordinates":[-96.805033,41.792779]}},{"properties":{"zip":"70001","geo_score":0.714,"var":1,"id":"a62yjcpmwayv","geo_precision":"zip"},"type":"Feature","geometry":{"type":"Point","coordinates":[-90.161821,29.984643]}},{"properties":{"zip":"70526","geo_score":0.714,"var":1,"id":"a62yjcshzuh7","geo_precision":"zip"},"type":"Feature","geometry":{"type":"Point","coordinates":[-92.40791,30.325203]}},{"properties":{"zip":"71163","geo_score":0.714,"var":1,"id":"a62yjcpao5pc","geo_precision":"zip"},"type":"Feature","geometry":{"type":"Point","coordinates":[-93.75256,32.607556]}},{"properties":{"zip":"71295","geo_score":0.714,"var":1,"id":"a62yjcob8dtg","geo_precision":"zip"},"type":"Feature","geometry":{"type":"Point","coordinates":[-91.570955,32.190984]}},{"properties":{"zip":"71635","geo_score":0.714,"var":1,"id":"a62yjcy5xx7h","geo_precision":"zip"},"type":"Feature","geometry":{"type":"Point","coordinates":[-91.995687,33.014014]}},{"properties":{"zip":"72032","geo_score":0.714,"var":1,"id":"a62yjcmehprl","geo_precision":"zip"},"type":"Feature","geometry":{"type":"Point","coordinates":[-92.326542,35.027587]}},{"properties":{"zip":"73103","geo_score":0.714,"var":1,"id":"a62yjco4xi44","geo_precision":"zip"},"type":"Feature","geometry":{"type":"Point","coordinates":[-97.486407,35.549197]}},{"properties":{"zip":"73527","geo_score":0.714,"var":1,"id":"a62yjcub6718","geo_precision":"zip"},"type":"Feature","geometry":{"type":"Point","coordinates":[-98.508297,34.545031]}},{"properties":{"zip":"73701","geo_score":0.714,"var":1,"id":"a62yjcuhoe5l","geo_precision":"zip"},"type":"Feature","geometry":{"type":"Point","coordinates":[-97.868947,36.435589]}},{"properties":{"zip":"73703","geo_score":0.714,"var":1,"id":"a62yjcv5bjkn","geo_precision":"zip"},"type":"Feature","geometry":{"type":"Point","coordinates":[-97.943813,36.398065]}},{"properties":{"zip":"73942","geo_score":0.714,"var":1,"id":"a62yjd12980j","geo_precision":"zip"},"type":"Feature","geometry":{"type":"Point","coordinates":[-101.448772,36.876693]}},{"properties":{"zip":"74012","geo_score":0.714,"var":1,"id":"a62yjcodt2v8","geo_precision":"zip"},"type":"Feature","geometry":{"type":"Point","coordinates":[-95.864712,36.073708]}},{"properties":{"zip":"74019","geo_score":0.0,"var":1,"id":"a62yjcn26gbv","geo_precision":"unmatched"},"type":"Feature","geometry":null},{"properties":{"zip":"74076","geo_score":0.714,"var":2,"id":"a62yjcqji60c","geo_precision":"zip"},"type":"Feature","geometry":{"type":"Point","coordinates":[-97.055141,36.072372]}},{"properties":{"zip":"74135","geo_score":0.714,"var":1,"id":"a62yjcrh2ugl","geo_precision":"zip"},"type":"Feature","geometry":{"type":"Point","coordinates":[-95.923175,36.092236]}},{"properties":{"zip":"74136","geo_score":0.714,"var":1,"id":"a62yjclapd4o","geo_precision":"zip"},"type":"Feature","geometry":{"type":"Point","coordinates":[-95.920371,36.053498]}},{"properties":{"zip":"74146","geo_score":0.714,"var":1,"id":"a62yjcy7jxy3","geo_precision":"zip"},"type":"Feature","geometry":{"type":"Point","coordinates":[-95.846066,36.097046]}},{"properties":{"zip":"74820","geo_score":0.714,"var":1,"id":"a62yjd09l1cd","geo_precision":"zip"},"type":"Feature","geometry":{"type":"Point","coordinates":[-96.871961,34.763974]}},{"properties":{"zip":"75034","geo_score":0.714,"var":1,"id":"a62yjcol4f2s","geo_precision":"zip"},"type":"Feature","geometry":{"type":"Point","coordinates":[-96.930005,33.220674]}},{"properties":{"zip":"75056","geo_score":0.714,"var":1,"id":"a62yjcuilnow","geo_precision":"zip"},"type":"Feature","geometry":{"type":"Point","coordinates":[-96.901605,33.077136]}},{"properties":{"zip":"75074","geo_score":0.714,"var":1,"id":"a62yjcmk0ikk","geo_precision":"zip"},"type":"Feature","geometry":{"type":"Point","coordinates":[-96.794723,33.027344]}},{"properties":{"zip":"75075","geo_score":0.714,"var":1,"id":"a62yjcmq496w","geo_precision":"zip"},"type":"Feature","geometry":{"type":"Point","coordinates":[-96.71546,33.162417]}},{"properties":{"zip":"75082","geo_score":0.714,"var":1,"id":"a62yjczgc2zd","geo_precision":"zip"},"type":"Feature","geometry":{"type":"Point","coordinates":[-96.69137,32.979315]}},{"properties":{"zip":"75165","geo_score":0.714,"var":1,"id":"a62yjcw279xh","geo_precision":"zip"},"type":"Feature","geometry":{"type":"Point","coordinates":[-96.831387,32.474028]}},{"properties":{"zip":"75201","geo_score":0.714,"var":1,"id":"a62yjcn9ggix","geo_precision":"zip"},"type":"Feature","geometry":{"type":"Point","coordinates":[-96.790329,32.781179]}},{"properties":{"zip":"75238","geo_score":0.714,"var":1,"id":"a62yjczzr933","geo_precision":"zip"},"type":"Feature","geometry":{"type":"Point","coordinates":[-96.704725,32.878923]}},{"properties":{"zip":"75402","geo_score":0.714,"var":1,"id":"a62yjcyxryk1","geo_precision":"zip"},"type":"Feature","geometry":{"type":"Point","coordinates":[-96.092747,33.104707]}},{"properties":{"zip":"75460","geo_score":0.714,"var":1,"id":"a62yjcpp9hlq","geo_precision":"zip"},"type":"Feature","geometry":{"type":"Point","coordinates":[-95.450231,33.456498]}},{"properties":{"zip":"75601","geo_score":0.714,"var":1,"id":"a62yjcpexln1","geo_precision":"zip"},"type":"Feature","geometry":{"type":"Point","coordinates":[-94.807991,32.537368]}},{"properties":{"zip":"76051","geo_score":0.714,"var":1,"id":"a62yjcwsvc52","geo_precision":"zip"},"type":"Feature","geometry":{"type":"Point","coordinates":[-97.080802,32.932843]}},{"properties":{"zip":"76248","geo_score":0.714,"var":1,"id":"a62yjcp7zazt","geo_precision":"zip"},"type":"Feature","geometry":{"type":"Point","coordinates":[-97.195014,32.991235]}},{"properties":{"zip":"76557","geo_score":0.714,"var":1,"id":"a62yjctdbgv8","geo_precision":"zip"},"type":"Feature","geometry":{"type":"Point","coordinates":[-97.295843,31.550165]}},{"properties":{"zip":"76878","geo_score":0.714,"var":1,"id":"a62yjd0jq4vo","geo_precision":"zip"},"type":"Feature","geometry":{"type":"Point","coordinates":[-99.230609,31.587656]}},{"properties":{"zip":"76903","geo_score":0.714,"var":1,"id":"a62yjcvivu08","geo_precision":"zip"},"type":"Feature","geometry":{"type":"Point","coordinates":[-100.301959,31.505333]}},{"properties":{"zip":"77002","geo_score":0.714,"var":1,"id":"a62yjcngibcx","geo_precision":"zip"},"type":"Feature","geometry":{"type":"Point","coordinates":[-95.302435,29.91189]}},{"properties":{"zip":"77042","geo_score":0.714,"var":1,"id":"a62yjcz12f1m","geo_precision":"zip"},"type":"Feature","geometry":{"type":"Point","coordinates":[-95.434241,29.83399]}},{"properties":{"zip":"77095","geo_score":0.714,"var":1,"id":"a62yjcx5p6x1","geo_precision":"zip"},"type":"Feature","geometry":{"type":"Point","coordinates":[-95.434241,29.83399]}},{"properties":{"zip":"77208","geo_score":0.714,"var":1,"id":"a62yjctj9qwk","geo_precision":"zip"},"type":"Feature","geometry":{"type":"Point","coordinates":[-95.434241,29.83399]}},{"properties":{"zip":"77210","geo_score":0.714,"var":1,"id":"a62yjcvpnoes","geo_precision":"zip"},"type":"Feature","geometry":{"type":"Point","coordinates":[-95.434241,29.83399]}},{"properties":{"zip":"77234","geo_score":0.714,"var":1,"id":"a62yjd0nauhp","geo_precision":"zip"},"type":"Feature","geometry":{"type":"Point","coordinates":[-95.434241,29.83399]}},{"properties":{"zip":"77388","geo_score":0.714,"var":1,"id":"a62yjczvzans","geo_precision":"zip"},"type":"Feature","geometry":{"type":"Point","coordinates":[-95.434241,29.83399]}},{"properties":{"zip":"77566","geo_score":0.714,"var":1,"id":"a62yjcmkzn9r","geo_precision":"zip"},"type":"Feature","geometry":{"type":"Point","coordinates":[-95.471609,29.057746]}},{"properties":{"zip":"78041","geo_score":0.714,"var":1,"id":"a62yjcxlu9dx","geo_precision":"zip"},"type":"Feature","geometry":{"type":"Point","coordinates":[-99.475079,27.556714]}},{"properties":{"zip":"78043","geo_score":0.714,"var":1,"id":"a62yjclnpaob","geo_precision":"zip"},"type":"Feature","geometry":{"type":"Point","coordinates":[-99.480042,27.364189]}},{"properties":{"zip":"78064","geo_score":0.714,"var":1,"id":"a62yjcxrhvt4","geo_precision":"zip"},"type":"Feature","geometry":{"type":"Point","coordinates":[-98.399458,29.049969]}},{"properties":{"zip":"78383","geo_score":0.714,"var":1,"id":"a62yjcnduabc","geo_precision":"zip"},"type":"Feature","geometry":{"type":"Point","coordinates":[-97.904722,28.060013]}},{"properties":{"zip":"78403","geo_score":0.714,"var":1,"id":"a62yjcrmakyk","geo_precision":"zip"},"type":"Feature","geometry":{"type":"Point","coordinates":[-97.463213,27.777]}},{"properties":{"zip":"78410","geo_score":0.714,"var":1,"id":"a62yjcxocou5","geo_precision":"zip"},"type":"Feature","geometry":{"type":"Point","coordinates":[-97.584067,27.82437]}},{"properties":{"zip":"78501","geo_score":0.714,"var":1,"id":"a62yjcxein7f","geo_precision":"zip"},"type":"Feature","geometry":{"type":"Point","coordinates":[-98.266958,26.20924]}},{"properties":{"zip":"78521","geo_score":0.714,"var":1,"id":"a62yjcunb7ti","geo_precision":"zip"},"type":"Feature","geometry":{"type":"Point","coordinates":[-97.5069,26.098629]}},{"properties":{"zip":"78701","geo_score":0.714,"var":1,"id":"a62yjcx6n4fj","geo_precision":"zip"},"type":"Feature","geometry":{"type":"Point","coordinates":[-97.741382,30.268335]}},{"properties":{"zip":"79120","geo_score":0.714,"var":1,"id":"a62yjczhhwt6","geo_precision":"zip"},"type":"Feature","geometry":{"type":"Point","coordinates":[-101.803412,35.196352]}},{"properties":{"zip":"79424","geo_score":0.714,"var":1,"id":"a62yjcms38ss","geo_precision":"zip"},"type":"Feature","geometry":{"type":"Point","coordinates":[-101.983125,33.492483]}},{"properties":{"zip":"79701","geo_score":0.714,"var":1,"id":"a62yjcs7o3wu","geo_precision":"zip"},"type":"Feature","geometry":{"type":"Point","coordinates":[-102.091276,31.861876]}},{"properties":{"zip":"79912","geo_score":0.714,"var":1,"id":"a62yjcxmkyp9","geo_precision":"zip"},"type":"Feature","geometry":{"type":"Point","coordinates":[-106.364151,31.741777]}},{"properties":{"zip":"79998","geo_score":0.714,"var":2,"id":"a62yjcufz0nv","geo_precision":"zip"},"type":"Feature","geometry":{"type":"Point","coordinates":[-106.299987,31.694842]}},{"properties":{"zip":"80004","geo_score":0.714,"var":1,"id":"a62yjcmol2b1","geo_precision":"zip"},"type":"Feature","geometry":{"type":"Point","coordinates":[-105.128173,39.814481]}},{"properties":{"zip":"80016","geo_score":0.714,"var":1,"id":"a62yjcnsg2xt","geo_precision":"zip"},"type":"Feature","geometry":{"type":"Point","coordinates":[-104.792475,39.591655]}},{"properties":{"zip":"80111","geo_score":0.714,"var":1,"id":"a62yjcrczs0b","geo_precision":"zip"},"type":"Feature","geometry":{"type":"Point","coordinates":[-104.864703,39.666811]}},{"properties":{"zip":"80118","geo_score":0.714,"var":1,"id":"a62yjctsi54w","geo_precision":"zip"},"type":"Feature","geometry":{"type":"Point","coordinates":[-104.855258,39.182491]}},{"properties":{"zip":"80125","geo_score":0.714,"var":1,"id":"a62yjcldn86x","geo_precision":"zip"},"type":"Feature","geometry":{"type":"Point","coordinates":[-105.05897,39.495327]}},{"properties":{"zip":"80138","geo_score":0.714,"var":1,"id":"a62yjcwrflwv","geo_precision":"zip"},"type":"Feature","geometry":{"type":"Point","coordinates":[-104.721607,39.510214]}},{"properties":{"zip":"80163","geo_score":0.714,"var":1,"id":"a62yjcvbq7c8","geo_precision":"zip"},"type":"Feature","geometry":{"type":"Point","coordinates":[-104.994708,39.347863]}},{"properties":{"zip":"80234","geo_score":0.714,"var":2,"id":"a62yjcvm86ho","geo_precision":"zip"},"type":"Feature","geometry":{"type":"Point","coordinates":[-105.08665,39.920541]}},{"properties":{"zip":"80250","geo_score":0.714,"var":1,"id":"a62yjcmab3d6","geo_precision":"zip"},"type":"Feature","geometry":{"type":"Point","coordinates":[-104.408349,39.738752]}},{"properties":{"zip":"80305","geo_score":0.714,"var":2,"id":"a62yjcx3p6va","geo_precision":"zip"},"type":"Feature","geometry":{"type":"Point","coordinates":[-105.250597,39.975263]}},{"properties":{"zip":"80516","geo_score":0.714,"var":1,"id":"a62yjcr5o0o1","geo_precision":"zip"},"type":"Feature","geometry":{"type":"Point","coordinates":[-104.923481,40.062204]}},{"properties":{"zip":"80517","geo_score":0.714,"var":1,"id":"a62yjcojopxl","geo_precision":"zip"},"type":"Feature","geometry":{"type":"Point","coordinates":[-105.544444,40.364428]}},{"properties":{"zip":"80907","geo_score":0.714,"var":1,"id":"a62yjckz0p4q","geo_precision":"zip"},"type":"Feature","geometry":{"type":"Point","coordinates":[-104.81942,38.873604]}},{"properties":{"zip":"80918","geo_score":0.714,"var":1,"id":"a62yjcla1i24","geo_precision":"zip"},"type":"Feature","geometry":{"type":"Point","coordinates":[-104.807998,38.90319]}},{"properties":{"zip":"81140","geo_score":0.714,"var":1,"id":"a62yjd04y7qn","geo_precision":"zip"},"type":"Feature","geometry":{"type":"Point","coordinates":[-105.945023,37.277786]}},{"properties":{"zip":"81224","geo_score":0.714,"var":1,"id":"a62yjcls0zft","geo_precision":"zip"},"type":"Feature","geometry":{"type":"Point","coordinates":[-106.94868,38.880713]}},{"properties":{"zip":"81230","geo_score":0.714,"var":1,"id":"a62yjcyd9b91","geo_precision":"zip"},"type":"Feature","geometry":{"type":"Point","coordinates":[-106.609477,38.45166]}},{"properties":{"zip":"81401","geo_score":0.714,"var":1,"id":"a62yjcqsp15r","geo_precision":"zip"},"type":"Feature","geometry":{"type":"Point","coordinates":[-107.818672,38.378043]}},{"properties":{"zip":"81427","geo_score":0.714,"var":1,"id":"a62yjcwwlsvz","geo_precision":"zip"},"type":"Feature","geometry":{"type":"Point","coordinates":[-107.702561,37.903606]}},{"properties":{"zip":"81611","geo_score":0.714,"var":1,"id":"a62yjcy7vqui","geo_precision":"zip"},"type":"Feature","geometry":{"type":"Point","coordinates":[-106.776744,39.169324]}},{"properties":{"zip":"81632","geo_score":0.714,"var":1,"id":"a62yjcotsbrb","geo_precision":"zip"},"type":"Feature","geometry":{"type":"Point","coordinates":[-106.620644,39.638166]}},{"properties":{"zip":"81657","geo_score":0.714,"var":1,"id":"a62yjcz19hbt","geo_precision":"zip"},"type":"Feature","geometry":{"type":"Point","coordinates":[-106.414752,39.630264]}},{"properties":{"zip":"82716","geo_score":0.714,"var":1,"id":"a62yjcu3j5l0","geo_precision":"zip"},"type":"Feature","geometry":{"type":"Point","coordinates":[-105.379716,44.291369]}},{"properties":{"zip":"82901","geo_score":0.714,"var":1,"id":"a62yjcvlvcq1","geo_precision":"zip"},"type":"Feature","geometry":{"type":"Point","coordinates":[-108.817058,40.918017]}},{"properties":{"zip":"82939","geo_score":0.714,"var":1,"id":"a62yjcqln07p","geo_precision":"zip"},"type":"Feature","geometry":{"type":"Point","coordinates":[-110.337157,41.233491]}},{"properties":{"zip":"83001","geo_score":0.714,"var":1,"id":"a62yjd14qxx1","geo_precision":"zip"},"type":"Feature","geometry":{"type":"Point","coordinates":[-110.739266,43.452793]}},{"properties":{"zip":"83025","geo_score":0.714,"var":1,"id":"a62yjd14s0gu","geo_precision":"zip"},"type":"Feature","geometry":{"type":"Point","coordinates":[-110.694002,43.443851]}},{"properties":{"zip":"83301","geo_score":0.714,"var":1,"id":"a62yjcq0uyo4","geo_precision":"zip"},"type":"Feature","geometry":{"type":"Point","coordinates":[-114.575039,42.353244]}},{"properties":{"zip":"83404","geo_score":0.714,"var":1,"id":"a62yjcwt38li","geo_precision":"zip"},"type":"Feature","geometry":{"type":"Point","coordinates":[-111.660433,43.433036]}},{"properties":{"zip":"83415","geo_score":0.714,"var":1,"id":"a62yjcrzuwv2","geo_precision":"zip"},"type":"Feature","geometry":{"type":"Point","coordinates":[-111.782152,43.323306]}},{"properties":{"zip":"83672","geo_score":0.714,"var":1,"id":"a62yjcmg3xd7","geo_precision":"zip"},"type":"Feature","geometry":{"type":"Point","coordinates":[-117.053503,44.267386]}},{"properties":{"zip":"83706","geo_score":0.714,"var":1,"id":"a62yjcvbxaiu","geo_precision":"zip"},"type":"Feature","geometry":{"type":"Point","coordinates":[-115.90149,43.417948]}},{"properties":{"zip":"83815","geo_score":0.714,"var":1,"id":"a62yjcoeicv0","geo_precision":"zip"},"type":"Feature","geometry":{"type":"Point","coordinates":[-116.718533,47.837453]}},{"properties":{"zip":"83816","geo_score":0.714,"var":2,"id":"a62yjcuoru1k","geo_precision":"zip"},"type":"Feature","geometry":{"type":"Point","coordinates":[-116.682718,47.678798]}},{"properties":{"zip":"83854","geo_score":0.714,"var":1,"id":"a62yjcxrsxdy","geo_precision":"zip"},"type":"Feature","geometry":{"type":"Point","coordinates":[-117.03685,47.705167]}},{"properties":{"zip":"84070","geo_score":0.714,"var":1,"id":"a62yjcqg5i0e","geo_precision":"zip"},"type":"Feature","geometry":{"type":"Point","coordinates":[-111.864378,40.565782]}},{"properties":{"zip":"84092","geo_score":0.714,"var":1,"id":"a62yjcmoxuwa","geo_precision":"zip"},"type":"Feature","geometry":{"type":"Point","coordinates":[-111.637979,40.588839]}},{"properties":{"zip":"84106","geo_score":0.714,"var":1,"id":"a62yjcxz8m4j","geo_precision":"zip"},"type":"Feature","geometry":{"type":"Point","coordinates":[-111.836766,40.707846]}},{"properties":{"zip":"84118","geo_score":0.714,"var":1,"id":"a62yjcl90vzx","geo_precision":"zip"},"type":"Feature","geometry":{"type":"Point","coordinates":[-111.938826,40.667725]}},{"properties":{"zip":"84414","geo_score":0.714,"var":1,"id":"a62yjctn158j","geo_precision":"zip"},"type":"Feature","geometry":{"type":"Point","coordinates":[-111.92559,41.309184]}},{"properties":{"zip":"84603","geo_score":0.714,"var":1,"id":"a62yjd0rc2f9","geo_precision":"zip"},"type":"Feature","geometry":{"type":"Point","coordinates":[-111.626081,40.203908]}},{"properties":{"zip":"84720","geo_score":0.714,"var":1,"id":"a62yjd0xv8g6","geo_precision":"zip"},"type":"Feature","geometry":{"type":"Point","coordinates":[-113.431632,38.007469]}},{"properties":{"zip":"84770","geo_score":0.714,"var":1,"id":"a62yjcx6psbu","geo_precision":"zip"},"type":"Feature","geometry":{"type":"Point","coordinates":[-113.540788,37.120815]}},{"properties":{"zip":"85014","geo_score":0.714,"var":1,"id":"a62yjcx6055x","geo_precision":"zip"},"type":"Feature","geometry":{"type":"Point","coordinates":[-112.18717,33.276539]}},{"properties":{"zip":"85027","geo_score":0.714,"var":1,"id":"a62yjcxw2nnp","geo_precision":"zip"},"type":"Feature","geometry":{"type":"Point","coordinates":[-112.135991,33.915869]}},{"properties":{"zip":"85038","geo_score":0.714,"var":1,"id":"a62yjd0lfnnb","geo_precision":"zip"},"type":"Feature","geometry":{"type":"Point","coordinates":[-112.18717,33.276539]}},{"properties":{"zip":"85040","geo_score":0.714,"var":2,"id":"a62yjcx8djzq","geo_precision":"zip"},"type":"Feature","geometry":{"type":"Point","coordinates":[-112.066878,33.367267]}},{"properties":{"zip":"85044","geo_score":0.714,"var":1,"id":"a62yjcowojg2","geo_precision":"zip"},"type":"Feature","geometry":{"type":"Point","coordinates":[-111.984033,33.341714]}},{"properties":{"zip":"85138","geo_score":0.0,"var":1,"id":"a62yjcl6p0fi","geo_precision":"unmatched"},"type":"Feature","geometry":null},{"properties":{"zip":"85258","geo_score":0.714,"var":1,"id":"a62yjctyojar","geo_precision":"zip"},"type":"Feature","geometry":{"type":"Point","coordinates":[-111.879806,33.553346]}},{"properties":{"zip":"85283","geo_score":0.714,"var":2,"id":"a62yjd144e13","geo_precision":"zip"},"type":"Feature","geometry":{"type":"Point","coordinates":[-111.962922,33.37088]}},{"properties":{"zip":"85284","geo_score":0.714,"var":1,"id":"a62yjcuph1on","geo_precision":"zip"},"type":"Feature","geometry":{"type":"Point","coordinates":[-111.914127,33.343546]}},{"properties":{"zip":"85303","geo_score":0.714,"var":1,"id":"a62yjczc7cxg","geo_precision":"zip"},"type":"Feature","geometry":{"type":"Point","coordinates":[-112.18717,33.276539]}},{"properties":{"zip":"85323","geo_score":0.714,"var":1,"id":"a62yjcyg95ky","geo_precision":"zip"},"type":"Feature","geometry":{"type":"Point","coordinates":[-112.18717,33.276539]}},{"properties":{"zip":"85390","geo_score":0.714,"var":1,"id":"a62yjcmh07i6","geo_precision":"zip"},"type":"Feature","geometry":{"type":"Point","coordinates":[-112.18717,33.276539]}},{"properties":{"zip":"85621","geo_score":0.714,"var":1,"id":"a62yjco5vsz5","geo_precision":"zip"},"type":"Feature","geometry":{"type":"Point","coordinates":[-110.188411,31.723146]}},{"properties":{"zip":"85707","geo_score":0.714,"var":1,"id":"a62yjcnigrv6","geo_precision":"zip"},"type":"Feature","geometry":{"type":"Point","coordinates":[-110.875093,32.169577]}},{"properties":{"zip":"85752","geo_score":0.714,"var":1,"id":"a62yjcmiwkpl","geo_precision":"zip"},"type":"Feature","geometry":{"type":"Point","coordinates":[-111.890713,31.970131]}},{"properties":{"zip":"85937","geo_score":0.714,"var":1,"id":"a62yjcs0c34q","geo_precision":"zip"},"type":"Feature","geometry":{"type":"Point","coordinates":[-110.110981,34.521702]}},{"properties":{"zip":"86021","geo_score":0.714,"var":1,"id":"a62yjcumrotr","geo_precision":"zip"},"type":"Feature","geometry":{"type":"Point","coordinates":[-112.978914,36.974658]}},{"properties":{"zip":"86334","geo_score":0.714,"var":1,"id":"a62yjcqu978y","geo_precision":"zip"},"type":"Feature","geometry":{"type":"Point","coordinates":[-112.376282,34.981407]}},{"properties":{"zip":"86401","geo_score":0.714,"var":1,"id":"a62yjcz2b22j","geo_precision":"zip"},"type":"Feature","geometry":{"type":"Point","coordinates":[-114.25968,35.396939]}},{"properties":{"zip":"86404","geo_score":0.714,"var":1,"id":"a62yjcqj0cqj","geo_precision":"zip"},"type":"Feature","geometry":{"type":"Point","coordinates":[-114.330704,34.557533]}},{"properties":{"zip":"87015","geo_score":0.714,"var":1,"id":"a62yjctglute","geo_precision":"zip"},"type":"Feature","geometry":{"type":"Point","coordinates":[-106.125117,35.134731]}},{"properties":{"zip":"87103","geo_score":0.714,"var":1,"id":"a62yjcssq4cm","geo_precision":"zip"},"type":"Feature","geometry":{"type":"Point","coordinates":[-106.672872,35.044339]}},{"properties":{"zip":"87120","geo_score":0.714,"var":1,"id":"a62yjctng9es","geo_precision":"zip"},"type":"Feature","geometry":{"type":"Point","coordinates":[-106.704983,35.119742]}},{"properties":{"zip":"87401","geo_score":0.714,"var":1,"id":"a62yjcrm57ni","geo_precision":"zip"},"type":"Feature","geometry":{"type":"Point","coordinates":[-107.326157,35.840021]}},{"properties":{"zip":"87506","geo_score":0.714,"var":1,"id":"a62yjcko44u5","geo_precision":"zip"},"type":"Feature","geometry":{"type":"Point","coordinates":[-106.075722,35.606283]}},{"properties":{"zip":"88001","geo_score":0.714,"var":1,"id":"a62yjcyreptk","geo_precision":"zip"},"type":"Feature","geometry":{"type":"Point","coordinates":[-106.854065,32.41467]}},{"properties":{"zip":"88007","geo_score":0.714,"var":1,"id":"a62yjcw94fih","geo_precision":"zip"},"type":"Feature","geometry":{"type":"Point","coordinates":[-106.944511,32.424266]}},{"properties":{"zip":"88061","geo_score":0.714,"var":1,"id":"a62yjcv8hrh0","geo_precision":"zip"},"type":"Feature","geometry":{"type":"Point","coordinates":[-108.511718,32.842573]}},{"properties":{"zip":"88081","geo_score":0.0,"var":1,"id":"a62yjcor0xrh","geo_precision":"unmatched"},"type":"Feature","geometry":null},{"properties":{"zip":"88201","geo_score":0.714,"var":1,"id":"a62yjcqjo6jq","geo_precision":"zip"},"type":"Feature","geometry":{"type":"Point","coordinates":[-104.485523,33.344545]}},{"properties":{"zip":"89030","geo_score":0.714,"var":1,"id":"a62yjclximlf","geo_precision":"zip"},"type":"Feature","geometry":{"type":"Point","coordinates":[-115.15431,36.225271]}},{"properties":{"zip":"89041","geo_score":0.714,"var":1,"id":"a62yjcru9ufq","geo_precision":"zip"},"type":"Feature","geometry":{"type":"Point","coordinates":[-116.071698,36.419679]}},{"properties":{"zip":"89049","geo_score":0.714,"var":1,"id":"a62yjcr6px7f","geo_precision":"zip"},"type":"Feature","geometry":{"type":"Point","coordinates":[-116.370054,38.19049]}},{"properties":{"zip":"89102","geo_score":0.714,"var":1,"id":"a62yjclqgsuh","geo_precision":"zip"},"type":"Feature","geometry":{"type":"Point","coordinates":[-115.390646,36.281327]}},{"properties":{"zip":"89117","geo_score":0.714,"var":2,"id":"a62yjcv02pah","geo_precision":"zip"},"type":"Feature","geometry":{"type":"Point","coordinates":[-115.217932,36.130992]}},{"properties":{"zip":"89120","geo_score":0.714,"var":1,"id":"a62yjcp3m629","geo_precision":"zip"},"type":"Feature","geometry":{"type":"Point","coordinates":[-115.367158,36.310827]}},{"properties":{"zip":"89193","geo_score":0.714,"var":1,"id":"a62yjcs1f54b","geo_precision":"zip"},"type":"Feature","geometry":{"type":"Point","coordinates":[-114.972061,35.927901]}},{"properties":{"zip":"89445","geo_score":0.714,"var":1,"id":"a62yjcvhnv1n","geo_precision":"zip"},"type":"Feature","geometry":{"type":"Point","coordinates":[-117.691517,41.011291]}},{"properties":{"zip":"89502","geo_score":0.714,"var":1,"id":"a62yjcnyasrn","geo_precision":"zip"},"type":"Feature","geometry":{"type":"Point","coordinates":[-119.717965,39.491856]}},{"properties":{"zip":"89509","geo_score":0.714,"var":1,"id":"a62yjcv7eiqg","geo_precision":"zip"},"type":"Feature","geometry":{"type":"Point","coordinates":[-119.857022,39.413458]}},{"properties":{"zip":"89511","geo_score":0.714,"var":1,"id":"a62yjcyouuw3","geo_precision":"zip"},"type":"Feature","geometry":{"type":"Point","coordinates":[-119.743796,39.377133]}},{"properties":{"zip":"89721","geo_score":0.714,"var":1,"id":"a62yjcwi00zb","geo_precision":"zip"},"type":"Feature","geometry":{"type":"Point","coordinates":[-119.776409,39.167833]}},{"properties":{"zip":"90010","geo_score":0.714,"var":1,"id":"a62yjcni2jnn","geo_precision":"zip"},"type":"Feature","geometry":{"type":"Point","coordinates":[-118.298662,33.786594]}},{"properties":{"zip":"90025","geo_score":0.714,"var":1,"id":"a62yjcoiiono","geo_precision":"zip"},"type":"Feature","geometry":{"type":"Point","coordinates":[-118.448135,34.046399]}},{"properties":{"zip":"90049","geo_score":0.714,"var":1,"id":"a62yjcuwobxp","geo_precision":"zip"},"type":"Feature","geometry":{"type":"Point","coordinates":[-118.473969,34.051954]}},{"properties":{"zip":"90066","geo_score":0.714,"var":1,"id":"a62yjcnu6jcv","geo_precision":"zip"},"type":"Feature","geometry":{"type":"Point","coordinates":[-118.430912,34.004734]}},{"properties":{"zip":"90248","geo_score":0.714,"var":1,"id":"a62yjd055frg","geo_precision":"zip"},"type":"Feature","geometry":{"type":"Point","coordinates":[-118.269605,33.877165]}},{"properties":{"zip":"90401","geo_score":0.714,"var":1,"id":"a62yjcxj3jxp","geo_precision":"zip"},"type":"Feature","geometry":{"type":"Point","coordinates":[-118.298662,33.786594]}},{"properties":{"zip":"90404","geo_score":0.714,"var":1,"id":"a62yjcsk4qd3","geo_precision":"zip"},"type":"Feature","geometry":{"type":"Point","coordinates":[-118.298662,33.786594]}},{"properties":{"zip":"90504","geo_score":0.714,"var":1,"id":"a62yjcwit9i1","geo_precision":"zip"},"type":"Feature","geometry":{"type":"Point","coordinates":[-118.298662,33.786594]}},{"properties":{"zip":"90602","geo_score":0.714,"var":1,"id":"a62yjcxlajfg","geo_precision":"zip"},"type":"Feature","geometry":{"type":"Point","coordinates":[-118.036578,33.971839]}},{"properties":{"zip":"90630","geo_score":0.714,"var":1,"id":"a62yjd12hg4b","geo_precision":"zip"},"type":"Feature","geometry":{"type":"Point","coordinates":[-118.023952,33.82446]}},{"properties":{"zip":"90703","geo_score":0.714,"var":1,"id":"a62yjcn6nzr0","geo_precision":"zip"},"type":"Feature","geometry":{"type":"Point","coordinates":[-118.068648,33.866914]}},{"properties":{"zip":"90807","geo_score":0.714,"var":1,"id":"a62yjd12u9dz","geo_precision":"zip"},"type":"Feature","geometry":{"type":"Point","coordinates":[-118.181102,33.831466]}},{"properties":{"zip":"91101","geo_score":0.714,"var":1,"id":"a62yjcztp2ku","geo_precision":"zip"},"type":"Feature","geometry":{"type":"Point","coordinates":[-118.298662,33.786594]}},{"properties":{"zip":"91125","geo_score":0.714,"var":1,"id":"a62yjclgmr1l","geo_precision":"zip"},"type":"Feature","geometry":{"type":"Point","coordinates":[-118.298662,33.786594]}},{"properties":{"zip":"91302","geo_score":0.714,"var":1,"id":"a62yjcxy44wg","geo_precision":"zip"},"type":"Feature","geometry":{"type":"Point","coordinates":[-118.687031,34.08084]}},{"properties":{"zip":"91355","geo_score":0.714,"var":1,"id":"a62yjcphwt2g","geo_precision":"zip"},"type":"Feature","geometry":{"type":"Point","coordinates":[-118.298662,33.786594]}},{"properties":{"zip":"91361","geo_score":0.714,"var":1,"id":"a62yjcup1qro","geo_precision":"zip"},"type":"Feature","geometry":{"type":"Point","coordinates":[-118.82193,34.137015]}},{"properties":{"zip":"91406","geo_score":0.714,"var":1,"id":"a62yjd0clhzp","geo_precision":"zip"},"type":"Feature","geometry":{"type":"Point","coordinates":[-118.298662,33.786594]}},{"properties":{"zip":"91505","geo_score":0.714,"var":1,"id":"a62yjcntlpj1","geo_precision":"zip"},"type":"Feature","geometry":{"type":"Point","coordinates":[-118.347301,34.167784]}},{"properties":{"zip":"91506","geo_score":0.714,"var":1,"id":"a62yjd031qf9","geo_precision":"zip"},"type":"Feature","geometry":{"type":"Point","coordinates":[-118.298662,33.786594]}},{"properties":{"zip":"91702","geo_score":0.714,"var":1,"id":"a62yjcylfwhy","geo_precision":"zip"},"type":"Feature","geometry":{"type":"Point","coordinates":[-118.298662,33.786594]}},{"properties":{"zip":"91710","geo_score":0.714,"var":1,"id":"a62yjcy1fzpk","geo_precision":"zip"},"type":"Feature","geometry":{"type":"Point","coordinates":[-117.778668,33.947792]}},{"properties":{"zip":"91724","geo_score":0.714,"var":1,"id":"a62yjcw84a3y","geo_precision":"zip"},"type":"Feature","geometry":{"type":"Point","coordinates":[-117.845894,34.103065]}},{"properties":{"zip":"91748","geo_score":0.714,"var":1,"id":"a62yjczbwfi5","geo_precision":"zip"},"type":"Feature","geometry":{"type":"Point","coordinates":[-117.884784,33.987513]}},{"properties":{"zip":"91750","geo_score":0.714,"var":1,"id":"a62yjcwwe2a7","geo_precision":"zip"},"type":"Feature","geometry":{"type":"Point","coordinates":[-118.298662,33.786594]}},{"properties":{"zip":"91768","geo_score":0.714,"var":2,"id":"a62yjcx7dvcl","geo_precision":"zip"},"type":"Feature","geometry":{"type":"Point","coordinates":[-118.298662,33.786594]}},{"properties":{"zip":"91901","geo_score":0.714,"var":1,"id":"a62yjcn1ogjl","geo_precision":"zip"},"type":"Feature","geometry":{"type":"Point","coordinates":[-116.976341,32.74081]}},{"properties":{"zip":"91911","geo_score":0.714,"var":1,"id":"a62yjcs934b0","geo_precision":"zip"},"type":"Feature","geometry":{"type":"Point","coordinates":[-117.034012,32.615983]}},{"properties":{"zip":"92007","geo_score":0.714,"var":1,"id":"a62yjd0uh4oa","geo_precision":"zip"},"type":"Feature","geometry":{"type":"Point","coordinates":[-117.274469,33.023042]}},{"properties":{"zip":"92008","geo_score":0.714,"var":1,"id":"a62yjcxzzb6q","geo_precision":"zip"},"type":"Feature","geometry":{"type":"Point","coordinates":[-116.846046,33.016928]}},{"properties":{"zip":"92038","geo_score":0.714,"var":1,"id":"a62yjcv7d72x","geo_precision":"zip"},"type":"Feature","geometry":{"type":"Point","coordinates":[-116.846046,33.016928]}},{"properties":{"zip":"92056","geo_score":0.714,"var":1,"id":"a62yjcxr6as1","geo_precision":"zip"},"type":"Feature","geometry":{"type":"Point","coordinates":[-116.846046,33.016928]}},{"properties":{"zip":"92071","geo_score":0.714,"var":1,"id":"a62yjczz53wa","geo_precision":"zip"},"type":"Feature","geometry":{"type":"Point","coordinates":[-116.994511,32.843956]}},{"properties":{"zip":"92084","geo_score":0.714,"var":1,"id":"a62yjcltayk2","geo_precision":"zip"},"type":"Feature","geometry":{"type":"Point","coordinates":[-116.846046,33.016928]}},{"properties":{"zip":"92109","geo_score":0.714,"var":2,"id":"a62yjcnx2m2a","geo_precision":"zip"},"type":"Feature","geometry":{"type":"Point","coordinates":[-117.240314,32.797827]}},{"properties":{"zip":"92121","geo_score":0.714,"var":4,"id":"a62yjcp1lvba","geo_precision":"zip"},"type":"Feature","geometry":{"type":"Point","coordinates":[-117.207828,32.90391]}},{"properties":{"zip":"92123","geo_score":0.714,"var":2,"id":"a62yjcnx351n","geo_precision":"zip"},"type":"Feature","geometry":{"type":"Point","coordinates":[-117.138366,32.802827]}},{"properties":{"zip":"92126","geo_score":0.714,"var":1,"id":"a62yjczb3pix","geo_precision":"zip"},"type":"Feature","geometry":{"type":"Point","coordinates":[-117.143923,32.915602]}},{"properties":{"zip":"92130","geo_score":0.714,"var":1,"id":"a62yjcl38o1c","geo_precision":"zip"},"type":"Feature","geometry":{"type":"Point","coordinates":[-117.161871,32.952467]}},{"properties":{"zip":"92131","geo_score":0.714,"var":1,"id":"a62yjcvkm7q5","geo_precision":"zip"},"type":"Feature","geometry":{"type":"Point","coordinates":[-117.088322,32.874916]}},{"properties":{"zip":"92327","geo_score":0.714,"var":1,"id":"a62yjcy4oree","geo_precision":"zip"},"type":"Feature","geometry":{"type":"Point","coordinates":[-116.77035,34.899805]}},{"properties":{"zip":"92345","geo_score":0.714,"var":1,"id":"a62yjcmi5rl5","geo_precision":"zip"},"type":"Feature","geometry":{"type":"Point","coordinates":[-115.967051,34.839964]}},{"properties":{"zip":"92373","geo_score":0.714,"var":1,"id":"a62yjcmgzc7i","geo_precision":"zip"},"type":"Feature","geometry":{"type":"Point","coordinates":[-117.158648,34.033903]}},{"properties":{"zip":"92374","geo_score":0.714,"var":1,"id":"a62yjcxt80r7","geo_precision":"zip"},"type":"Feature","geometry":{"type":"Point","coordinates":[-116.898232,34.153575]}},{"properties":{"zip":"92395","geo_score":0.0,"var":1,"id":"a62yjd0lhxd8","geo_precision":"unmatched"},"type":"Feature","geometry":null},{"properties":{"zip":"92508","geo_score":0.714,"var":1,"id":"a62yjco70u3v","geo_precision":"zip"},"type":"Feature","geometry":{"type":"Point","coordinates":[-117.2631,33.892091]}},{"properties":{"zip":"92521","geo_score":0.714,"var":2,"id":"a62yjct588ak","geo_precision":"zip"},"type":"Feature","geometry":{"type":"Point","coordinates":[-116.055617,33.752886]}},{"properties":{"zip":"92562","geo_score":0.714,"var":1,"id":"a62yjcvin46m","geo_precision":"zip"},"type":"Feature","geometry":{"type":"Point","coordinates":[-116.861027,33.44204]}},{"properties":{"zip":"92590","geo_score":0.714,"var":1,"id":"a62yjcnhwvk4","geo_precision":"zip"},"type":"Feature","geometry":{"type":"Point","coordinates":[-116.055617,33.752886]}},{"properties":{"zip":"92612","geo_score":0.714,"var":1,"id":"a62yjcn87ryk","geo_precision":"zip"},"type":"Feature","geometry":{"type":"Point","coordinates":[-117.782805,33.615525]}},{"properties":{"zip":"92614","geo_score":0.714,"var":1,"id":"a62yjcvfyn9l","geo_precision":"zip"},"type":"Feature","geometry":{"type":"Point","coordinates":[-117.827913,33.685319]}},{"properties":{"zip":"92618","geo_score":0.714,"var":1,"id":"a62yjd10f1bi","geo_precision":"zip"},"type":"Feature","geometry":{"type":"Point","coordinates":[-117.73269,33.641579]}},{"properties":{"zip":"92656","geo_score":0.714,"var":1,"id":"a62yjcnj4f7e","geo_precision":"zip"},"type":"Feature","geometry":{"type":"Point","coordinates":[-117.751341,33.603459]}},{"properties":{"zip":"92672","geo_score":0.714,"var":1,"id":"a62yjcrebo8u","geo_precision":"zip"},"type":"Feature","geometry":{"type":"Point","coordinates":[-117.573102,33.381141]}},{"properties":{"zip":"92673","geo_score":0.714,"var":1,"id":"a62yjcozgnl9","geo_precision":"zip"},"type":"Feature","geometry":{"type":"Point","coordinates":[-117.625076,33.459745]}},{"properties":{"zip":"92683","geo_score":0.714,"var":1,"id":"a62yjcnbgc4l","geo_precision":"zip"},"type":"Feature","geometry":{"type":"Point","coordinates":[-118.024228,33.758905]}},{"properties":{"zip":"92705","geo_score":0.714,"var":1,"id":"a62yjcm8jgq7","geo_precision":"zip"},"type":"Feature","geometry":{"type":"Point","coordinates":[-117.79811,33.777795]}},{"properties":{"zip":"92780","geo_score":0.714,"var":1,"id":"a62yjcx2npdb","geo_precision":"zip"},"type":"Feature","geometry":{"type":"Point","coordinates":[-117.731534,33.579122]}},{"properties":{"zip":"92799","geo_score":0.714,"var":1,"id":"a62yjcu0zfgo","geo_precision":"zip"},"type":"Feature","geometry":{"type":"Point","coordinates":[-117.769442,33.640302]}},{"properties":{"zip":"92806","geo_score":0.714,"var":1,"id":"a62yjcl613ov","geo_precision":"zip"},"type":"Feature","geometry":{"type":"Point","coordinates":[-117.769442,33.640302]}},{"properties":{"zip":"92807","geo_score":0.714,"var":1,"id":"a62yjcpv636k","geo_precision":"zip"},"type":"Feature","geometry":{"type":"Point","coordinates":[-117.777277,33.84446]}},{"properties":{"zip":"92832","geo_score":0.714,"var":1,"id":"a62yjcuqblle","geo_precision":"zip"},"type":"Feature","geometry":{"type":"Point","coordinates":[-117.769442,33.640302]}},{"properties":{"zip":"92833","geo_score":0.714,"var":1,"id":"a62yjcp84q2j","geo_precision":"zip"},"type":"Feature","geometry":{"type":"Point","coordinates":[-117.769442,33.640302]}},{"properties":{"zip":"92866","geo_score":0.714,"var":1,"id":"a62yjcuadsvg","geo_precision":"zip"},"type":"Feature","geometry":{"type":"Point","coordinates":[-117.769442,33.640302]}},{"properties":{"zip":"93003","geo_score":0.714,"var":1,"id":"a62yjckv2jo9","geo_precision":"zip"},"type":"Feature","geometry":{"type":"Point","coordinates":[-119.221299,34.230353]}},{"properties":{"zip":"93006","geo_score":0.714,"var":1,"id":"a62yjcz9wvo5","geo_precision":"zip"},"type":"Feature","geometry":{"type":"Point","coordinates":[-119.1343,34.032383]}},{"properties":{"zip":"93010","geo_score":0.714,"var":2,"id":"a62yjckydqei","geo_precision":"zip"},"type":"Feature","geometry":{"type":"Point","coordinates":[-119.095938,34.22056]}},{"properties":{"zip":"93012","geo_score":0.714,"var":1,"id":"a62yjcvcj8or","geo_precision":"zip"},"type":"Feature","geometry":{"type":"Point","coordinates":[-118.974355,34.204429]}},{"properties":{"zip":"93021","geo_score":0.714,"var":2,"id":"a62yjcwzu84u","geo_precision":"zip"},"type":"Feature","geometry":{"type":"Point","coordinates":[-118.858429,34.28778]}},{"properties":{"zip":"93023","geo_score":0.714,"var":1,"id":"a62yjcq5mtbn","geo_precision":"zip"},"type":"Feature","geometry":{"type":"Point","coordinates":[-119.291503,34.508047]}},{"properties":{"zip":"93065","geo_score":0.714,"var":1,"id":"a62yjcylvt5g","geo_precision":"zip"},"type":"Feature","geometry":{"type":"Point","coordinates":[-118.737592,34.26917]}},{"properties":{"zip":"93106","geo_score":0.714,"var":2,"id":"a62yjd12jq0s","geo_precision":"zip"},"type":"Feature","geometry":{"type":"Point","coordinates":[-119.837072,34.432896]}},{"properties":{"zip":"93111","geo_score":0.714,"var":1,"id":"a62yjcvdj252","geo_precision":"zip"},"type":"Feature","geometry":{"type":"Point","coordinates":[-119.798472,34.453046]}},{"properties":{"zip":"93117","geo_score":0.714,"var":2,"id":"a62yjctbbaqm","geo_precision":"zip"},"type":"Feature","geometry":{"type":"Point","coordinates":[-120.22904,34.508044]}},{"properties":{"zip":"93221","geo_score":0.714,"var":1,"id":"a62yjcmfcmr0","geo_precision":"zip"},"type":"Feature","geometry":{"type":"Point","coordinates":[-119.117606,36.28745]}},{"properties":{"zip":"93268","geo_score":0.714,"var":1,"id":"a62yjd0iyf2y","geo_precision":"zip"},"type":"Feature","geometry":{"type":"Point","coordinates":[-119.406783,35.206076]}},{"properties":{"zip":"93308","geo_score":0.714,"var":1,"id":"a62yjczbjvce","geo_precision":"zip"},"type":"Feature","geometry":{"type":"Point","coordinates":[-119.083159,35.383292]}},{"properties":{"zip":"93401","geo_score":0.714,"var":2,"id":"a62yjctpxdzr","geo_precision":"zip"},"type":"Feature","geometry":{"type":"Point","coordinates":[-120.846846,35.318308]}},{"properties":{"zip":"93407","geo_score":0.714,"var":1,"id":"a62yjcujlmax","geo_precision":"zip"},"type":"Feature","geometry":{"type":"Point","coordinates":[-120.455345,35.347065]}},{"properties":{"zip":"93422","geo_score":0.714,"var":1,"id":"a62yjcx1zr4a","geo_precision":"zip"},"type":"Feature","geometry":{"type":"Point","coordinates":[-120.606279,35.418029]}},{"properties":{"zip":"93436","geo_score":0.714,"var":2,"id":"a62yjcowgfui","geo_precision":"zip"},"type":"Feature","geometry":{"type":"Point","coordinates":[-120.467664,34.708316]}},{"properties":{"zip":"93444","geo_score":0.714,"var":1,"id":"a62yjcr1uyho","geo_precision":"zip"},"type":"Feature","geometry":{"type":"Point","coordinates":[-120.494812,35.048397]}},{"properties":{"zip":"93465","geo_score":0.714,"var":1,"id":"a62yjcp0kcxx","geo_precision":"zip"},"type":"Feature","geometry":{"type":"Point","coordinates":[-120.65385,35.517781]}},{"properties":{"zip":"93514","geo_score":0.714,"var":1,"id":"a62yjcrobh2q","geo_precision":"zip"},"type":"Feature","geometry":{"type":"Point","coordinates":[-118.676786,37.377989]}},{"properties":{"zip":"93524","geo_score":0.714,"var":1,"id":"a62yjcog2fyn","geo_precision":"zip"},"type":"Feature","geometry":{"type":"Point","coordinates":[-118.905173,35.294405]}},{"properties":{"zip":"93630","geo_score":0.714,"var":1,"id":"a62yjcr567gu","geo_precision":"zip"},"type":"Feature","geometry":{"type":"Point","coordinates":[-120.219522,36.676147]}},{"properties":{"zip":"93644","geo_score":0.714,"var":1,"id":"a62yjd06gerv","geo_precision":"zip"},"type":"Feature","geometry":{"type":"Point","coordinates":[-119.634318,37.441051]}},{"properties":{"zip":"93703","geo_score":0.714,"var":1,"id":"a62yjclkr8j8","geo_precision":"zip"},"type":"Feature","geometry":{"type":"Point","coordinates":[-119.761076,36.768449]}},{"properties":{"zip":"93722","geo_score":0.714,"var":1,"id":"a62yjcrkukjm","geo_precision":"zip"},"type":"Feature","geometry":{"type":"Point","coordinates":[-119.931132,36.793291]}},{"properties":{"zip":"93776","geo_score":0.714,"var":1,"id":"a62yjd0edyt4","geo_precision":"zip"},"type":"Feature","geometry":{"type":"Point","coordinates":[-119.639658,36.746375]}},{"properties":{"zip":"93902","geo_score":0.714,"var":1,"id":"a62yjczpk46j","geo_precision":"zip"},"type":"Feature","geometry":{"type":"Point","coordinates":[-121.132928,36.35433]}},{"properties":{"zip":"93940","geo_score":0.714,"var":1,"id":"a62yjcs9etem","geo_precision":"zip"},"type":"Feature","geometry":{"type":"Point","coordinates":[-121.902177,36.614682]}},{"properties":{"zip":"94018","geo_score":0.714,"var":1,"id":"a62yjcsxhbkz","geo_precision":"zip"},"type":"Feature","geometry":{"type":"Point","coordinates":[-122.486922,37.504941]}},{"properties":{"zip":"94022","geo_score":0.714,"var":1,"id":"a62yjcznnxb3","geo_precision":"zip"},"type":"Feature","geometry":{"type":"Point","coordinates":[-122.100518,37.35133]}},{"properties":{"zip":"94025","geo_score":0.714,"var":2,"id":"a62yjcvaoyoi","geo_precision":"zip"},"type":"Feature","geometry":{"type":"Point","coordinates":[-122.203021,37.43355]}},{"properties":{"zip":"94035","geo_score":0.714,"var":2,"id":"a62yjcueirs0","geo_precision":"zip"},"type":"Feature","geometry":{"type":"Point","coordinates":[-121.705327,37.189396]}},{"properties":{"zip":"94043","geo_score":0.714,"var":1,"id":"a62yjcytjfv7","geo_precision":"zip"},"type":"Feature","geometry":{"type":"Point","coordinates":[-121.705327,37.189396]}},{"properties":{"zip":"94063","geo_score":0.714,"var":1,"id":"a62yjczcigki","geo_precision":"zip"},"type":"Feature","geometry":{"type":"Point","coordinates":[-122.212846,37.490387]}},{"properties":{"zip":"94065","geo_score":0.714,"var":1,"id":"a62yjcvgibdj","geo_precision":"zip"},"type":"Feature","geometry":{"type":"Point","coordinates":[-122.247806,37.53256]}},{"properties":{"zip":"94066","geo_score":0.714,"var":2,"id":"a62yjclurzl2","geo_precision":"zip"},"type":"Feature","geometry":{"type":"Point","coordinates":[-122.404417,37.616602]}},{"properties":{"zip":"94085","geo_score":0.714,"var":4,"id":"a62yjczvs7i7","geo_precision":"zip"},"type":"Feature","geometry":{"type":"Point","coordinates":[-122.026548,37.385697]}},{"properties":{"zip":"94089","geo_score":0.714,"var":1,"id":"a62yjcr9y8ol","geo_precision":"zip"},"type":"Feature","geometry":{"type":"Point","coordinates":[-121.705327,37.189396]}},{"properties":{"zip":"94105","geo_score":0.714,"var":1,"id":"a62yjcqe5cay","geo_precision":"zip"},"type":"Feature","geometry":{"type":"Point","coordinates":[-122.395631,37.789595]}},{"properties":{"zip":"94107","geo_score":0.714,"var":1,"id":"a62yjcu7mil8","geo_precision":"zip"},"type":"Feature","geometry":{"type":"Point","coordinates":[-122.393681,37.769029]}},{"properties":{"zip":"94109","geo_score":0.714,"var":1,"id":"a62yjcydcehp","geo_precision":"zip"},"type":"Feature","geometry":{"type":"Point","coordinates":[-122.420782,37.795219]}},{"properties":{"zip":"94133","geo_score":0.714,"var":1,"id":"a62yjcum6a48","geo_precision":"zip"},"type":"Feature","geometry":{"type":"Point","coordinates":[-122.412193,37.805762]}},{"properties":{"zip":"94304","geo_score":0.714,"var":1,"id":"a62yjd0e1pkb","geo_precision":"zip"},"type":"Feature","geometry":{"type":"Point","coordinates":[-121.705327,37.189396]}},{"properties":{"zip":"94403","geo_score":0.714,"var":1,"id":"a62yjcvl6aw4","geo_precision":"zip"},"type":"Feature","geometry":{"type":"Point","coordinates":[-122.304079,37.541486]}},{"properties":{"zip":"94501","geo_score":0.714,"var":1,"id":"a62yjco1wapd","geo_precision":"zip"},"type":"Feature","geometry":{"type":"Point","coordinates":[-122.264779,37.770563]}},{"properties":{"zip":"94505","geo_score":0.0,"var":1,"id":"a62yjcz8lfb5","geo_precision":"unmatched"},"type":"Feature","geometry":null},{"properties":{"zip":"94510","geo_score":0.714,"var":1,"id":"a62yjcr2bnjm","geo_precision":"zip"},"type":"Feature","geometry":{"type":"Point","coordinates":[-122.032061,38.1012]}},{"properties":{"zip":"94521","geo_score":0.714,"var":1,"id":"a62yjcru8wvj","geo_precision":"zip"},"type":"Feature","geometry":{"type":"Point","coordinates":[-121.960045,37.951661]}},{"properties":{"zip":"94538","geo_score":0.714,"var":4,"id":"a62yjcu7wxsd","geo_precision":"zip"},"type":"Feature","geometry":{"type":"Point","coordinates":[-121.95832,37.509453]}},{"properties":{"zip":"94550","geo_score":0.714,"var":1,"id":"a62yjcnhohfh","geo_precision":"zip"},"type":"Feature","geometry":{"type":"Point","coordinates":[-121.716063,37.702985]}},{"properties":{"zip":"94551","geo_score":0.714,"var":1,"id":"a62yjcveiiso","geo_precision":"zip"},"type":"Feature","geometry":{"type":"Point","coordinates":[-121.921498,37.680181]}},{"properties":{"zip":"94556","geo_score":0.714,"var":1,"id":"a62yjctulcpz","geo_precision":"zip"},"type":"Feature","geometry":{"type":"Point","coordinates":[-122.099224,37.838926]}},{"properties":{"zip":"94558","geo_score":0.714,"var":1,"id":"a62yjczlpjgx","geo_precision":"zip"},"type":"Feature","geometry":{"type":"Point","coordinates":[-122.224975,38.535185]}},{"properties":{"zip":"94577","geo_score":0.714,"var":1,"id":"a62yjcu7jydp","geo_precision":"zip"},"type":"Feature","geometry":{"type":"Point","coordinates":[-122.158621,37.715629]}},{"properties":{"zip":"94579","geo_score":0.714,"var":1,"id":"a62yjczoiksc","geo_precision":"zip"},"type":"Feature","geometry":{"type":"Point","coordinates":[-122.147425,37.688518]}},{"properties":{"zip":"94583","geo_score":0.714,"var":2,"id":"a62yjcnbup9o","geo_precision":"zip"},"type":"Feature","geometry":{"type":"Point","coordinates":[-121.975531,37.768556]}},{"properties":{"zip":"94585","geo_score":0.714,"var":1,"id":"a62yjcou17ey","geo_precision":"zip"},"type":"Feature","geometry":{"type":"Point","coordinates":[-122.122191,38.244082]}},{"properties":{"zip":"94588","geo_score":0.714,"var":1,"id":"a62yjcqup6pw","geo_precision":"zip"},"type":"Feature","geometry":{"type":"Point","coordinates":[-121.898741,37.688244]}},{"properties":{"zip":"94591","geo_score":0.714,"var":1,"id":"a62yjcna7bsd","geo_precision":"zip"},"type":"Feature","geometry":{"type":"Point","coordinates":[-122.206292,38.114249]}},{"properties":{"zip":"94598","geo_score":0.714,"var":1,"id":"a62yjcp8blbr","geo_precision":"zip"},"type":"Feature","geometry":{"type":"Point","coordinates":[-122.037045,37.906873]}},{"properties":{"zip":"94607","geo_score":0.714,"var":2,"id":"a62yjcycgeyw","geo_precision":"zip"},"type":"Feature","geometry":{"type":"Point","coordinates":[-122.29878,37.807967]}},{"properties":{"zip":"94612","geo_score":0.714,"var":1,"id":"a62yjd0u6iyu","geo_precision":"zip"},"type":"Feature","geometry":{"type":"Point","coordinates":[-122.27018,37.809435]}},{"properties":{"zip":"94709","geo_score":0.714,"var":1,"id":"a62yjcy1z4rl","geo_precision":"zip"},"type":"Feature","geometry":{"type":"Point","coordinates":[-122.26553,37.879825]}},{"properties":{"zip":"94720","geo_score":0.714,"var":1,"id":"a62yjcokp8ty","geo_precision":"zip"},"type":"Feature","geometry":{"type":"Point","coordinates":[-122.253582,37.866825]}},{"properties":{"zip":"94804","geo_score":0.714,"var":2,"id":"a62yjcmldxz9","geo_precision":"zip"},"type":"Feature","geometry":{"type":"Point","coordinates":[-122.344381,37.925174]}},{"properties":{"zip":"94941","geo_score":0.714,"var":1,"id":"a62yjcmzeleu","geo_precision":"zip"},"type":"Feature","geometry":{"type":"Point","coordinates":[-122.545809,37.879649]}},{"properties":{"zip":"94947","geo_score":0.714,"var":1,"id":"a62yjcmjrsb6","geo_precision":"zip"},"type":"Feature","geometry":{"type":"Point","coordinates":[-122.53859,38.070199]}},{"properties":{"zip":"94949","geo_score":0.714,"var":1,"id":"a62yjcoy01f2","geo_precision":"zip"},"type":"Feature","geometry":{"type":"Point","coordinates":[-122.549702,38.06881]}},{"properties":{"zip":"94954","geo_score":0.714,"var":1,"id":"a62yjcwu9p2f","geo_precision":"zip"},"type":"Feature","geometry":{"type":"Point","coordinates":[-122.574526,38.225816]}},{"properties":{"zip":"94965","geo_score":0.714,"var":1,"id":"a62yjcna0ez5","geo_precision":"zip"},"type":"Feature","geometry":{"type":"Point","coordinates":[-122.581367,37.862149]}},{"properties":{"zip":"95014","geo_score":0.714,"var":1,"id":"a62yjcr03egn","geo_precision":"zip"},"type":"Feature","geometry":{"type":"Point","coordinates":[-122.003015,37.314942]}},{"properties":{"zip":"95015","geo_score":0.714,"var":1,"id":"a62yjcn8xgts","geo_precision":"zip"},"type":"Feature","geometry":{"type":"Point","coordinates":[-121.705327,37.189396]}},{"properties":{"zip":"95020","geo_score":0.714,"var":1,"id":"a62yjcwqs2hl","geo_precision":"zip"},"type":"Feature","geometry":{"type":"Point","coordinates":[-121.592165,37.054114]}},{"properties":{"zip":"95035","geo_score":0.714,"var":2,"id":"a62yjcy2rfxl","geo_precision":"zip"},"type":"Feature","geometry":{"type":"Point","coordinates":[-121.861989,37.436454]}},{"properties":{"zip":"95054","geo_score":0.714,"var":3,"id":"a62yjcrcp5xr","geo_precision":"zip"},"type":"Feature","geometry":{"type":"Point","coordinates":[-121.959125,37.394663]}},{"properties":{"zip":"95060","geo_score":0.714,"var":2,"id":"a62yjcs9sr1k","geo_precision":"zip"},"type":"Feature","geometry":{"type":"Point","coordinates":[-122.043575,37.010227]}},{"properties":{"zip":"95066","geo_score":0.714,"var":1,"id":"a62yjcyksc8e","geo_precision":"zip"},"type":"Feature","geometry":{"type":"Point","coordinates":[-122.006276,37.071387]}},{"properties":{"zip":"95070","geo_score":0.714,"var":1,"id":"a62yjczndhb0","geo_precision":"zip"},"type":"Feature","geometry":{"type":"Point","coordinates":[-122.00857,37.275777]}},{"properties":{"zip":"95112","geo_score":0.714,"var":1,"id":"a62yjcv9bx13","geo_precision":"zip"},"type":"Feature","geometry":{"type":"Point","coordinates":[-121.892093,37.37004]}},{"properties":{"zip":"95113","geo_score":0.714,"var":1,"id":"a62yjd03hbgi","geo_precision":"zip"},"type":"Feature","geometry":{"type":"Point","coordinates":[-121.705327,37.189396]}},{"properties":{"zip":"95116","geo_score":0.714,"var":1,"id":"a62yjcrz0ejv","geo_precision":"zip"},"type":"Feature","geometry":{"type":"Point","coordinates":[-121.835344,37.35504]}},{"properties":{"zip":"95125","geo_score":0.714,"var":2,"id":"a62yjckw4t05","geo_precision":"zip"},"type":"Feature","geometry":{"type":"Point","coordinates":[-121.705327,37.189396]}},{"properties":{"zip":"95127","geo_score":0.714,"var":1,"id":"a62yjcnbi9fh","geo_precision":"zip"},"type":"Feature","geometry":{"type":"Point","coordinates":[-121.817453,37.381051]}},{"properties":{"zip":"95128","geo_score":0.714,"var":1,"id":"a62yjcokb9h5","geo_precision":"zip"},"type":"Feature","geometry":{"type":"Point","coordinates":[-121.93079,37.321053]}},{"properties":{"zip":"95132","geo_score":0.714,"var":1,"id":"a62yjcnkftu8","geo_precision":"zip"},"type":"Feature","geometry":{"type":"Point","coordinates":[-121.721615,37.198833]}},{"properties":{"zip":"95134","geo_score":0.714,"var":1,"id":"a62yjcp1cbn3","geo_precision":"zip"},"type":"Feature","geometry":{"type":"Point","coordinates":[-121.705327,37.189396]}},{"properties":{"zip":"95135","geo_score":0.714,"var":1,"id":"a62yjcwcofxi","geo_precision":"zip"},"type":"Feature","geometry":{"type":"Point","coordinates":[-121.723862,37.272289]}},{"properties":{"zip":"95138","geo_score":0.714,"var":1,"id":"a62yjczpsqlx","geo_precision":"zip"},"type":"Feature","geometry":{"type":"Point","coordinates":[-121.745159,37.258733]}},{"properties":{"zip":"95202","geo_score":0.714,"var":1,"id":"a62yjcl47b2g","geo_precision":"zip"},"type":"Feature","geometry":{"type":"Point","coordinates":[-121.289206,37.958573]}},{"properties":{"zip":"95203","geo_score":0.714,"var":1,"id":"a62yjcllw6ha","geo_precision":"zip"},"type":"Feature","geometry":{"type":"Point","coordinates":[-121.321707,37.954573]}},{"properties":{"zip":"95228","geo_score":0.714,"var":1,"id":"a62yjcpaw6sc","geo_precision":"zip"},"type":"Feature","geometry":{"type":"Point","coordinates":[-120.649912,37.971877]}},{"properties":{"zip":"95304","geo_score":0.714,"var":1,"id":"a62yjcv6j88n","geo_precision":"zip"},"type":"Feature","geometry":{"type":"Point","coordinates":[-121.253872,37.889849]}},{"properties":{"zip":"95305","geo_score":0.714,"var":1,"id":"a62yjcrft6ut","geo_precision":"zip"},"type":"Feature","geometry":{"type":"Point","coordinates":[-120.241685,37.822025]}},{"properties":{"zip":"95344","geo_score":0.714,"var":1,"id":"a62yjd08w5pn","geo_precision":"zip"},"type":"Feature","geometry":{"type":"Point","coordinates":[-120.617808,37.378234]}},{"properties":{"zip":"95357","geo_score":0.714,"var":1,"id":"a62yjcx3ois7","geo_precision":"zip"},"type":"Feature","geometry":{"type":"Point","coordinates":[-120.875893,37.679529]}},{"properties":{"zip":"95370","geo_score":0.714,"var":1,"id":"a62yjcwmlmjj","geo_precision":"zip"},"type":"Feature","geometry":{"type":"Point","coordinates":[-120.459641,37.991591]}},{"properties":{"zip":"95373","geo_score":0.714,"var":1,"id":"a62yjcvohvxy","geo_precision":"zip"},"type":"Feature","geometry":{"type":"Point","coordinates":[-120.241412,37.986377]}},{"properties":{"zip":"95391","geo_score":0.0,"var":1,"id":"a62yjd0m95o6","geo_precision":"unmatched"},"type":"Feature","geometry":null},{"properties":{"zip":"95482","geo_score":0.714,"var":1,"id":"a62yjco1r40h","geo_precision":"zip"},"type":"Feature","geometry":{"type":"Point","coordinates":[-123.158059,39.166837]}},{"properties":{"zip":"95521","geo_score":0.714,"var":1,"id":"a62yjcus0v4j","geo_precision":"zip"},"type":"Feature","geometry":{"type":"Point","coordinates":[-124.06645,40.858184]}},{"properties":{"zip":"95531","geo_score":0.714,"var":1,"id":"a62yjcvqg1j3","geo_precision":"zip"},"type":"Feature","geometry":{"type":"Point","coordinates":[-124.056897,41.744452]}},{"properties":{"zip":"95610","geo_score":0.714,"var":1,"id":"a62yjcrdqxzf","geo_precision":"zip"},"type":"Feature","geometry":{"type":"Point","coordinates":[-121.26736,38.689802]}},{"properties":{"zip":"95619","geo_score":0.714,"var":1,"id":"a62yjctl331l","geo_precision":"zip"},"type":"Feature","geometry":{"type":"Point","coordinates":[-120.820021,38.629821]}},{"properties":{"zip":"95631","geo_score":0.714,"var":1,"id":"a62yjd0dwy72","geo_precision":"zip"},"type":"Feature","geometry":{"type":"Point","coordinates":[-120.851602,38.997954]}},{"properties":{"zip":"95658","geo_score":0.714,"var":1,"id":"a62yjcl89a89","geo_precision":"zip"},"type":"Feature","geometry":{"type":"Point","coordinates":[-120.971166,39.038217]}},{"properties":{"zip":"95665","geo_score":0.714,"var":1,"id":"a62yjcxghs90","geo_precision":"zip"},"type":"Feature","geometry":{"type":"Point","coordinates":[-120.668334,38.4038]}},{"properties":{"zip":"95685","geo_score":0.714,"var":1,"id":"a62yjctht8ja","geo_precision":"zip"},"type":"Feature","geometry":{"type":"Point","coordinates":[-120.801603,38.378246]}},{"properties":{"zip":"95687","geo_score":0.714,"var":1,"id":"a62yjcvhnqjn","geo_precision":"zip"},"type":"Feature","geometry":{"type":"Point","coordinates":[-121.912773,38.35056]}},{"properties":{"zip":"95688","geo_score":0.714,"var":2,"id":"a62yjd0n2db5","geo_precision":"zip"},"type":"Feature","geometry":{"type":"Point","coordinates":[-121.943022,38.444631]}},{"properties":{"zip":"95762","geo_score":0.714,"var":1,"id":"a62yjczafws7","geo_precision":"zip"},"type":"Feature","geometry":{"type":"Point","coordinates":[-121.044846,38.686847]}},{"properties":{"zip":"95841","geo_score":0.714,"var":1,"id":"a62yjco2iwk4","geo_precision":"zip"},"type":"Feature","geometry":{"type":"Point","coordinates":[-121.351144,38.678773]}},{"properties":{"zip":"95864","geo_score":0.714,"var":1,"id":"a62yjczdhrka","geo_precision":"zip"},"type":"Feature","geometry":{"type":"Point","coordinates":[-121.379467,38.586554]}},{"properties":{"zip":"96022","geo_score":0.714,"var":1,"id":"a62yjcxcpa3d","geo_precision":"zip"},"type":"Feature","geometry":{"type":"Point","coordinates":[-122.326947,40.300709]}},{"properties":{"zip":"96023","geo_score":0.714,"var":1,"id":"a62yjcrjufp3","geo_precision":"zip"},"type":"Feature","geometry":{"type":"Point","coordinates":[-121.973887,41.919428]}},{"properties":{"zip":"96049","geo_score":0.714,"var":1,"id":"a62yjcv7spc5","geo_precision":"zip"},"type":"Feature","geometry":{"type":"Point","coordinates":[-122.311628,40.709783]}},{"properties":{"zip":"96701","geo_score":0.714,"var":1,"id":"a62yjco3n2ng","geo_precision":"zip"},"type":"Feature","geometry":{"type":"Point","coordinates":[-157.943333,21.404722]}},{"properties":{"zip":"96725","geo_score":0.714,"var":1,"id":"a62yjd1105ys","geo_precision":"zip"},"type":"Feature","geometry":{"type":"Point","coordinates":[-155.846389,19.818611]}},{"properties":{"zip":"96814","geo_score":0.714,"var":1,"id":"a62yjcuelox2","geo_precision":"zip"},"type":"Feature","geometry":{"type":"Point","coordinates":[-157.829167,21.290556]}},{"properties":{"zip":"96819","geo_score":0.714,"var":2,"id":"a62yjcvokpvz","geo_precision":"zip"},"type":"Feature","geometry":{"type":"Point","coordinates":[-157.901979,21.373179]}},{"properties":{"zip":"97005","geo_score":0.714,"var":1,"id":"a62yjcxxdwi8","geo_precision":"zip"},"type":"Feature","geometry":{"type":"Point","coordinates":[-122.902324,45.497617]}},{"properties":{"zip":"97062","geo_score":0.714,"var":1,"id":"a62yjcwv2ats","geo_precision":"zip"},"type":"Feature","geometry":{"type":"Point","coordinates":[-122.753984,45.359286]}},{"properties":{"zip":"97205","geo_score":0.714,"var":1,"id":"a62yjcvpr30i","geo_precision":"zip"},"type":"Feature","geometry":{"type":"Point","coordinates":[-122.690157,45.51949]}},{"properties":{"zip":"97223","geo_score":0.714,"var":1,"id":"a62yjcyneg3p","geo_precision":"zip"},"type":"Feature","geometry":{"type":"Point","coordinates":[-122.753431,45.465951]}},{"properties":{"zip":"97301","geo_score":0.714,"var":1,"id":"a62yjcrb0szo","geo_precision":"zip"},"type":"Feature","geometry":{"type":"Point","coordinates":[-122.887314,44.907899]}},{"properties":{"zip":"97333","geo_score":0.714,"var":1,"id":"a62yjcnkhkkf","geo_precision":"zip"},"type":"Feature","geometry":{"type":"Point","coordinates":[-123.337762,44.467218]}},{"properties":{"zip":"97365","geo_score":0.714,"var":1,"id":"a62yjcrh8e3g","geo_precision":"zip"},"type":"Feature","geometry":{"type":"Point","coordinates":[-124.008728,44.602062]}},{"properties":{"zip":"97523","geo_score":0.714,"var":1,"id":"a62yjcl6l7kc","geo_precision":"zip"},"type":"Feature","geometry":{"type":"Point","coordinates":[-123.619511,42.051504]}},{"properties":{"zip":"97756","geo_score":0.714,"var":2,"id":"a62yjcujb91d","geo_precision":"zip"},"type":"Feature","geometry":{"type":"Point","coordinates":[-121.45282,44.291227]}},{"properties":{"zip":"97761","geo_score":0.714,"var":2,"id":"a62yjcmubdua","geo_precision":"zip"},"type":"Feature","geometry":{"type":"Point","coordinates":[-121.350061,44.972894]}},{"properties":{"zip":"97850","geo_score":0.714,"var":1,"id":"a62yjclz0l1r","geo_precision":"zip"},"type":"Feature","geometry":{"type":"Point","coordinates":[-118.166611,45.348465]}},{"properties":{"zip":"98001","geo_score":0.714,"var":1,"id":"a62yjcosalj1","geo_precision":"zip"},"type":"Feature","geometry":{"type":"Point","coordinates":[-122.252065,47.27899]}},{"properties":{"zip":"98002","geo_score":0.714,"var":1,"id":"a62yjcrbtl4o","geo_precision":"zip"},"type":"Feature","geometry":{"type":"Point","coordinates":[-122.20423,47.315422]}},{"properties":{"zip":"98032","geo_score":0.714,"var":1,"id":"a62yjcqjlum2","geo_precision":"zip"},"type":"Feature","geometry":{"type":"Point","coordinates":[-122.312067,47.361489]}},{"properties":{"zip":"98057","geo_score":0.714,"var":1,"id":"a62yjcokgovg","geo_precision":"zip"},"type":"Feature","geometry":{"type":"Point","coordinates":[-121.803388,47.432251]}},{"properties":{"zip":"98093","geo_score":0.714,"var":1,"id":"a62yjd0dv4gq","geo_precision":"zip"},"type":"Feature","geometry":{"type":"Point","coordinates":[-122.113791,47.311041]}},{"properties":{"zip":"98134","geo_score":0.714,"var":1,"id":"a62yjcxutcwz","geo_precision":"zip"},"type":"Feature","geometry":{"type":"Point","coordinates":[-121.803388,47.432251]}},{"properties":{"zip":"98188","geo_score":0.714,"var":1,"id":"a62yjczv15vc","geo_precision":"zip"},"type":"Feature","geometry":{"type":"Point","coordinates":[-122.294568,47.484266]}},{"properties":{"zip":"98195","geo_score":0.714,"var":1,"id":"a62yjd0j4uq4","geo_precision":"zip"},"type":"Feature","geometry":{"type":"Point","coordinates":[-121.803388,47.432251]}},{"properties":{"zip":"98367","geo_score":0.714,"var":1,"id":"a62yjcp6mycy","geo_precision":"zip"},"type":"Feature","geometry":{"type":"Point","coordinates":[-122.650972,47.470651]}},{"properties":{"zip":"98424","geo_score":0.714,"var":1,"id":"a62yjd12bsc3","geo_precision":"zip"},"type":"Feature","geometry":{"type":"Point","coordinates":[-122.394567,47.240655]}},{"properties":{"zip":"98512","geo_score":0.714,"var":1,"id":"a62yjcx2tojl","geo_precision":"zip"},"type":"Feature","geometry":{"type":"Point","coordinates":[-123.021207,46.949776]}},{"properties":{"zip":"98664","geo_score":0.714,"var":1,"id":"a62yjcsuwfhf","geo_precision":"zip"},"type":"Feature","geometry":{"type":"Point","coordinates":[-122.576413,45.620669]}},{"properties":{"zip":"98683","geo_score":0.714,"var":1,"id":"a62yjcqzrss5","geo_precision":"zip"},"type":"Feature","geometry":{"type":"Point","coordinates":[-122.513318,45.603216]}},{"properties":{"zip":"98936","geo_score":0.714,"var":1,"id":"a62yjcstb7j6","geo_precision":"zip"},"type":"Feature","geometry":{"type":"Point","coordinates":[-120.233518,46.410236]}},{"properties":{"zip":"99114","geo_score":0.714,"var":2,"id":"a62yjcu7exji","geo_precision":"zip"},"type":"Feature","geometry":{"type":"Point","coordinates":[-117.650533,48.829635]}},{"properties":{"zip":"99301","geo_score":0.714,"var":1,"id":"a62yjcwvlqpm","geo_precision":"zip"},"type":"Feature","geometry":{"type":"Point","coordinates":[-119.141401,46.234857]}},{"properties":{"zip":"99330","geo_score":0.714,"var":1,"id":"a62yjd0qhlt0","geo_precision":"zip"},"type":"Feature","geometry":{"type":"Point","coordinates":[-118.992619,46.508917]}},{"properties":{"zip":"99337","geo_score":0.714,"var":1,"id":"a62yjcoay9fx","geo_precision":"zip"},"type":"Feature","geometry":{"type":"Point","coordinates":[-119.090676,46.117122]}},{"properties":{"zip":"99350","geo_score":0.714,"var":1,"id":"a62yjcpc2k4j","geo_precision":"zip"},"type":"Feature","geometry":{"type":"Point","coordinates":[-119.705587,46.235411]}},{"properties":{"zip":"99518","geo_score":0.714,"var":2,"id":"a62yjcr59w5z","geo_precision":"zip"},"type":"Feature","geometry":{"type":"Point","coordinates":[-149.894338,61.157813]}},{"properties":{"zip":"99709","geo_score":0.714,"var":1,"id":"a62yjcxu53qc","geo_precision":"zip"},"type":"Feature","geometry":{"type":"Point","coordinates":[-147.999791,64.860126]}},{"properties":{"zip":"99801","geo_score":0.714,"var":1,"id":"a62yjcv8pzl3","geo_precision":"zip"},"type":"Feature","geometry":{"type":"Point","coordinates":[-134.429444,58.295]}}],"is_temporal":false,"author":{"url":"","metadata":"","contact_name":"","contact_address":"","source":"","contact_phone":""},"source":"","pagination":{"sort":null,"start":0,"total":676,"limit":1000000},"state":"complete","tags":"","published":"2014-08-10T23:26:43-04:00","id":79228}