{"type":"FeatureCollection","data_type":"Dataset","url_type":null,"permissions":[{"permissions":{"download":true,"view":true},"group_id":"everyone"}],"classification":null,"title":"best university in china temperatue showing","count":10,"stream_id":79403,"contributor":{"url":"http://geocommons.com/users/18917","name":"youmanszhao"},"data_attributes":null,"calculation_params":null,"icon_link":null,"link":"http://geocommons.com/overlays/79403.json","extent":[113.299,23.098,125.307,43.8837],"geometry_types":["point"],"unique_name":null,"name":"best university in china temperatue showing","feature_count":10,"description":"This map shows the temperature in both January and July in different locations of the university. So that you can know how hot is it in July and how cold is it in January.","next_feature":null,"is_raster":false,"short_classification":"Y","stats":{"latitude":{"max":43.88369692,"mean":34.213206358,"variance":41.0548620179622,"stdev":6.4074068091516,"min":23.09796986,"median":32.05564493},"rank":{"max":10,"mean":5.5,"variance":9.16666666666667,"stdev":3.02765035409749,"min":1,"median":6},"rank showing":{"max":10,"mean":5.5,"variance":9.16666666666667,"stdev":3.02765035409749,"min":1,"median":6},"july average temperature (celsius)":{"max":30,"mean":26.8,"variance":38.4,"stdev":6.19677335393187,"min":10,"median":30},"january average temperature (celsius)":{"max":18,"mean":-0.8,"variance":89.0666666666667,"stdev":9.43751379689941,"min":-18,"median":2},"longitude":{"max":125.307312,"mean":118.37627051,"variance":13.904709815104,"stdev":3.72890195836576,"min":113.299255,"median":118.7802741}},"features":[{"properties":{"city":"Beijing","latitude":39.99185096,"university":"Peking University","country":"China","rank":1,"rank showing":10,"july average temperature (celsius)":26,"january average temperature (celsius)":-6,"longitude":116.3099599,"id":"a6220ri9h5f3","province":"Beijing","address":"No.5 Yiheyuan Road Haidian District,Beijing"},"type":"Feature","geometry":{"type":"Point","coordinates":[116.3099599,39.99185096]}},{"properties":{"city":"Beijing","latitude":40.00108599,"university":"Tsing Hua University","country":"China","rank":2,"rank showing":9,"july average temperature (celsius)":26,"january average temperature (celsius)":-6,"longitude":116.3242188,"id":"a6220rr984ir","province":"Beijing","address":"Tshing Hua University, Haidian District,Beijing"},"type":"Feature","geometry":{"type":"Point","coordinates":[116.3242188,40.00108599]}},{"properties":{"city":"Beijing","latitude":39.97093698,"university":"Renmin University of China","country":"China","rank":8,"rank showing":3,"july average temperature (celsius)":26,"january average temperature (celsius)":-6,"longitude":116.3140801,"id":"a6220rw1jk9a","province":"Beijing","address":"59 Zhong Guan Cun Avenue,Haidian District,Beijing"},"type":"Feature","geometry":{"type":"Point","coordinates":[116.3140801,39.97093698]}},{"properties":{"city":"Guangzhou","latitude":23.09796986,"university":"Sun Yat-Sen University","country":"China","rank":10,"rank showing":1,"july average temperature (celsius)":30,"january average temperature (celsius)":18,"longitude":113.299255,"id":"a6220rmmxsi5","province":"Guangdong","address":"No. 135, Xingang Xi Road, Guangzhou"},"type":"Feature","geometry":{"type":"Point","coordinates":[113.299255,23.09796986]}},{"properties":{"city":"Wuhan","latitude":30.53919899,"university":"Wuhan University","country":"China","rank":7,"rank showing":4,"july average temperature (celsius)":30,"january average temperature (celsius)":-2,"longitude":114.354544,"id":"a6220rpjwklb","province":"Hubei","address":"Luojia Hill,Wuhan, Hubei"},"type":"Feature","geometry":{"type":"Point","coordinates":[114.354544,30.53919899]}},{"properties":{"city":"Nanjing","latitude":32.05564493,"university":"Nanjing University","country":"China","rank":6,"rank showing":5,"july average temperature (celsius)":30,"january average temperature (celsius)":2,"longitude":118.7802741,"id":"a6220rurqmn1","province":"Jiangsu","address":"22 Hankou Road, Nanjing, Jiangsu"},"type":"Feature","geometry":{"type":"Point","coordinates":[118.7802741,32.05564493]}},{"properties":{"city":"Changchun","latitude":43.88369692,"university":"Jilin University","country":"China","rank":9,"rank showing":2,"july average temperature (celsius)":10,"january average temperature (celsius)":-18,"longitude":125.307312,"id":"a6220rimvg28","province":"Jilin","address":"2699 Qianjin Avenue,Changchun, Jilin"},"type":"Feature","geometry":{"type":"Point","coordinates":[125.307312,43.88369692]}},{"properties":{"city":"Shanghai","latitude":31.2984281,"university":"Fudan University","country":"China","rank":3,"rank showing":8,"july average temperature (celsius)":30,"january average temperature (celsius)":2,"longitude":121.5015582,"id":"a6220rvptkv3","province":"Shanghai","address":"No.220, Handan Road, Shanghai"},"type":"Feature","geometry":{"type":"Point","coordinates":[121.5015582,31.2984281]}},{"properties":{"city":"Shanghai","latitude":31.02925397,"university":"Shanghai Jiaotong University","country":"China","rank":5,"rank showing":6,"july average temperature (celsius)":30,"january average temperature (celsius)":2,"longitude":121.4481929,"id":"a6220rvtlzfr","province":"Shanghai","address":"800 Dongchuan Road, Min Hang, Shanghai"},"type":"Feature","geometry":{"type":"Point","coordinates":[121.4481929,31.02925397]}},{"properties":{"city":"Hangzhou","latitude":30.26399688,"university":"Zhejiang University","country":"China","rank":4,"rank showing":7,"july average temperature (celsius)":30,"january average temperature (celsius)":6,"longitude":120.1233101,"id":"a6220rsdvr4h","province":"Zhejiang","address":"388 Yuhangtang Road , Hangzhou , Zhejiang"},"type":"Feature","geometry":{"type":"Point","coordinates":[120.1233101,30.26399688]}}],"is_temporal":false,"author":{"url":"","metadata":"","contact_name":"","contact_address":"","source":"the average tempurature in China in both January and July","contact_phone":""},"source":"","pagination":{"sort":null,"start":0,"total":10,"limit":1000000},"state":"complete","tags":"","published":"2014-08-10T23:37:43-04:00","id":79403}