{"type":"FeatureCollection","data_type":"Dataset","url_type":null,"permissions":[{"permissions":{"download":true,"view":true},"group_id":"everyone"}],"classification":null,"title":"Ad Market Turns","count":58,"stream_id":79868,"contributor":{"url":"http://geocommons.com/users/19271","name":"jvannaarden"},"data_attributes":null,"calculation_params":null,"icon_link":null,"link":"http://geocommons.com/overlays/79868.json","extent":[-122.419,25.7743,-71.0598,47.6062],"geometry_types":["point"],"unique_name":null,"name":"Ad Market Turns","feature_count":58,"description":"","next_feature":null,"is_raster":false,"short_classification":"Y","stats":{"turns":{"max":4.363636364,"mean":2.60722926410345,"variance":0.548834077541737,"stdev":0.740833366919807,"min":1.406976744,"median":2.61627907},"geo_score":{"max":0.857,"mean":0.852051724137931,"variance":0.000371839382940109,"stdev":0.01928313726913,"min":0.755,"median":0.857}},"features":[{"properties":{"city":"Atlanta","turns":3.06,"geo_score":0.857,"id":"a64wll9xod59","geo_precision":"city","state":"GA"},"type":"Feature","geometry":{"type":"Point","coordinates":[-84.387982,33.748995]}},{"properties":{"city":"Austin","turns":3.30952381,"geo_score":0.857,"id":"a64wllb0me2t","geo_precision":"city","state":"TX"},"type":"Feature","geometry":{"type":"Point","coordinates":[-97.743061,30.267153]}},{"properties":{"city":"Baltimore","turns":3.295454545,"geo_score":0.857,"id":"a64wllj61iey","geo_precision":"city","state":"MD"},"type":"Feature","geometry":{"type":"Point","coordinates":[-76.612189,39.290385]}},{"properties":{"city":"Baton Rouge","turns":3.210526316,"geo_score":0.857,"id":"a64wlljytls1","geo_precision":"city","state":"LA"},"type":"Feature","geometry":{"type":"Point","coordinates":[-91.154551,30.450746]}},{"properties":{"city":"Birmingham","turns":2.659090909,"geo_score":0.857,"id":"a64wlle9hii8","geo_precision":"city","state":"AL"},"type":"Feature","geometry":{"type":"Point","coordinates":[-86.80249,33.520661]}},{"properties":{"city":"Boston","turns":1.406976744,"geo_score":0.857,"id":"a64wll8z5bcz","geo_precision":"city","state":"MA"},"type":"Feature","geometry":{"type":"Point","coordinates":[-71.059773,42.358431]}},{"properties":{"city":"Charlotte","turns":2.022222222,"geo_score":0.857,"id":"a64wllivkobj","geo_precision":"city","state":"NC"},"type":"Feature","geometry":{"type":"Point","coordinates":[-80.843127,35.227087]}},{"properties":{"city":"Chattanooga","turns":4.363636364,"geo_score":0.857,"id":"a64wllbuvcw9","geo_precision":"city","state":"TN"},"type":"Feature","geometry":{"type":"Point","coordinates":[-85.30968,35.04563]}},{"properties":{"city":"Chicago","turns":1.763888889,"geo_score":0.857,"id":"a64wlli8qu2w","geo_precision":"city","state":"IL"},"type":"Feature","geometry":{"type":"Point","coordinates":[-87.650052,41.850033]}},{"properties":{"city":"Cleveland","turns":2.193181818,"geo_score":0.857,"id":"a64wlliilywk","geo_precision":"city","state":"OH"},"type":"Feature","geometry":{"type":"Point","coordinates":[-81.695409,41.499495]}},{"properties":{"city":"Columbus","turns":2.24137931,"geo_score":0.776,"id":"a64wlljnl3df","geo_precision":"city","state":"OH"},"type":"Feature","geometry":{"type":"Point","coordinates":[-82.695724,39.998397]}},{"properties":{"city":"Dallas","turns":2.674528302,"geo_score":0.857,"id":"a64wll8e3ahb","geo_precision":"city","state":"TX"},"type":"Feature","geometry":{"type":"Point","coordinates":[-96.806667,32.783056]}},{"properties":{"city":"Dayton","turns":2.642857143,"geo_score":0.857,"id":"a64wllb6c6co","geo_precision":"city","state":"OH"},"type":"Feature","geometry":{"type":"Point","coordinates":[-84.191607,39.758948]}},{"properties":{"city":"Denver","turns":2.595744681,"geo_score":0.857,"id":"a64wllatijlv","geo_precision":"city","state":"CO"},"type":"Feature","geometry":{"type":"Point","coordinates":[-104.984703,39.739154]}},{"properties":{"city":"Des Moines","turns":2.5,"geo_score":0.857,"id":"a64wllf9vqe4","geo_precision":"city","state":"IA"},"type":"Feature","geometry":{"type":"Point","coordinates":[-93.609106,41.600545]}},{"properties":{"city":"Detroit","turns":1.785714286,"geo_score":0.857,"id":"a64wlleotz1h","geo_precision":"city","state":"MI"},"type":"Feature","geometry":{"type":"Point","coordinates":[-83.045754,42.331427]}},{"properties":{"city":"Fayetteville","turns":4.0,"geo_score":0.857,"id":"a64wllci4kix","geo_precision":"city","state":"AR"},"type":"Feature","geometry":{"type":"Point","coordinates":[-94.190997,35.974602]}},{"properties":{"city":"Fort Smith","turns":3.413043478,"geo_score":0.857,"id":"a64wll766psn","geo_precision":"city","state":"AR"},"type":"Feature","geometry":{"type":"Point","coordinates":[-94.398548,35.385924]}},{"properties":{"city":"Ft. Wayne","turns":2.5,"geo_score":0.755,"id":"a64wllab42ri","geo_precision":"city","state":"IN"},"type":"Feature","geometry":{"type":"Point","coordinates":[-85.149971,40.553379]}},{"properties":{"city":"Green Bay","turns":4.25,"geo_score":0.857,"id":"a64wll53umel","geo_precision":"city","state":"WI"},"type":"Feature","geometry":{"type":"Point","coordinates":[-88.019826,44.519159]}},{"properties":{"city":"Greensboro","turns":3.354166667,"geo_score":0.857,"id":"a64wll9efsjh","geo_precision":"city","state":"NC"},"type":"Feature","geometry":{"type":"Point","coordinates":[-79.791975,36.072636]}},{"properties":{"city":"Greenville","turns":3.134615385,"geo_score":0.857,"id":"a64wllbj9gmy","geo_precision":"city","state":"SC"},"type":"Feature","geometry":{"type":"Point","coordinates":[-82.402871,34.848567]}},{"properties":{"city":"Houston","turns":2.006493506,"geo_score":0.816,"id":"a64wlldjul0s","geo_precision":"city","state":"TX"},"type":"Feature","geometry":{"type":"Point","coordinates":[-96.919704,29.845783]}},{"properties":{"city":"Indianapolis","turns":2.448717949,"geo_score":0.857,"id":"a64wll9dajn5","geo_precision":"city","state":"IN"},"type":"Feature","geometry":{"type":"Point","coordinates":[-86.158042,39.768377]}},{"properties":{"city":"Jackson","turns":3.5,"geo_score":0.857,"id":"a64wllgp7rr8","geo_precision":"city","state":"MS"},"type":"Feature","geometry":{"type":"Point","coordinates":[-90.18481,32.298757]}},{"properties":{"city":"Jacksonville","turns":1.9,"geo_score":0.857,"id":"a64wll44e57e","geo_precision":"city","state":"FL"},"type":"Feature","geometry":{"type":"Point","coordinates":[-81.655651,30.332184]}},{"properties":{"city":"Kansas City","turns":2.065789474,"geo_score":0.857,"id":"a64wllbq1yj5","geo_precision":"city","state":"KS"},"type":"Feature","geometry":{"type":"Point","coordinates":[-94.627457,39.114171]}},{"properties":{"city":"Knoxville","turns":3.5,"geo_score":0.794,"id":"a64wllcbatj9","geo_precision":"city","state":"TN"},"type":"Feature","geometry":{"type":"Point","coordinates":[-86.784443,36.16589]}},{"properties":{"city":"Las Vegas","turns":2.083333333,"geo_score":0.857,"id":"a64wllcd8o8q","geo_precision":"city","state":"NV"},"type":"Feature","geometry":{"type":"Point","coordinates":[-115.137223,36.174971]}},{"properties":{"city":"Lexington","turns":2.464285714,"geo_score":0.857,"id":"a64wll9bt4pp","geo_precision":"city","state":"KY"},"type":"Feature","geometry":{"type":"Point","coordinates":[-84.477715,37.988689]}},{"properties":{"city":"Little Rock","turns":2.710526316,"geo_score":0.857,"id":"a64wll5thl5y","geo_precision":"city","state":"AR"},"type":"Feature","geometry":{"type":"Point","coordinates":[-92.289595,34.746481]}},{"properties":{"city":"Los Angeles","turns":3.674242424,"geo_score":0.857,"id":"a64wllfjhpgs","geo_precision":"city","state":"CA"},"type":"Feature","geometry":{"type":"Point","coordinates":[-118.243685,34.052234]}},{"properties":{"city":"Louisville","turns":2.844827586,"geo_score":0.857,"id":"a64wllhw6u10","geo_precision":"city","state":"KY"},"type":"Feature","geometry":{"type":"Point","coordinates":[-85.759407,38.254238]}},{"properties":{"city":"Miami","turns":1.47826087,"geo_score":0.857,"id":"a64wll6bttc4","geo_precision":"city","state":"FL"},"type":"Feature","geometry":{"type":"Point","coordinates":[-80.193659,25.774266]}},{"properties":{"city":"Milwaukee","turns":3.6,"geo_score":0.857,"id":"a64wll90jlmh","geo_precision":"city","state":"WI"},"type":"Feature","geometry":{"type":"Point","coordinates":[-87.906474,43.038903]}},{"properties":{"city":"Minneapolis","turns":3.045454545,"geo_score":0.857,"id":"a64wll85lkj2","geo_precision":"city","state":"MN"},"type":"Feature","geometry":{"type":"Point","coordinates":[-93.263836,44.979965]}},{"properties":{"city":"Nashville","turns":2.61627907,"geo_score":0.857,"id":"a64wll69r36a","geo_precision":"city","state":"TN"},"type":"Feature","geometry":{"type":"Point","coordinates":[-86.784443,36.16589]}},{"properties":{"city":"New Orleans","turns":2.863636364,"geo_score":0.857,"id":"a64wllk9n2zc","geo_precision":"city","state":"LA"},"type":"Feature","geometry":{"type":"Point","coordinates":[-89.930956,30.068812]}},{"properties":{"city":"New York","turns":1.59,"geo_score":0.857,"id":"a64wll5o2eju","geo_precision":"city","state":"NY"},"type":"Feature","geometry":{"type":"Point","coordinates":[-74.005973,40.714269]}},{"properties":{"city":"Oklahoma City","turns":2.097826087,"geo_score":0.857,"id":"a64wllgsd0r3","geo_precision":"city","state":"OK"},"type":"Feature","geometry":{"type":"Point","coordinates":[-97.516428,35.46756]}},{"properties":{"city":"Omaha","turns":3.866666667,"geo_score":0.857,"id":"a64wll5hr4mg","geo_precision":"city","state":"NE"},"type":"Feature","geometry":{"type":"Point","coordinates":[-95.937792,41.25861]}},{"properties":{"city":"Orlando","turns":1.509259259,"geo_score":0.857,"id":"a64wll43sve3","geo_precision":"city","state":"FL"},"type":"Feature","geometry":{"type":"Point","coordinates":[-81.379237,28.538336]}},{"properties":{"city":"Philadelphia","turns":1.925531915,"geo_score":0.857,"id":"a64wll5acn48","geo_precision":"city","state":"PA"},"type":"Feature","geometry":{"type":"Point","coordinates":[-75.163789,39.952335]}},{"properties":{"city":"Phoenix","turns":2.048611111,"geo_score":0.857,"id":"a64wllcllg98","geo_precision":"city","state":"AZ"},"type":"Feature","geometry":{"type":"Point","coordinates":[-112.074037,33.448377]}},{"properties":{"city":"Pittsburgh","turns":1.620689655,"geo_score":0.857,"id":"a64wlle337y4","geo_precision":"city","state":"PA"},"type":"Feature","geometry":{"type":"Point","coordinates":[-79.995886,40.440625]}},{"properties":{"city":"Providence","turns":2.954545455,"geo_score":0.857,"id":"a64wlliiggxt","geo_precision":"city","state":"RI"},"type":"Feature","geometry":{"type":"Point","coordinates":[-71.412834,41.823989]}},{"properties":{"city":"Raleigh","turns":2.6,"geo_score":0.857,"id":"a64wllar1jxd","geo_precision":"city","state":"NC"},"type":"Feature","geometry":{"type":"Point","coordinates":[-78.638615,35.772096]}},{"properties":{"city":"Sacramento","turns":2.147058824,"geo_score":0.857,"id":"a64wll94g95i","geo_precision":"city","state":"CA"},"type":"Feature","geometry":{"type":"Point","coordinates":[-121.4944,38.581572]}},{"properties":{"city":"Saint Louis","turns":2.945652174,"geo_score":0.857,"id":"a64wlljt6mgz","geo_precision":"city","state":"MO"},"type":"Feature","geometry":{"type":"Point","coordinates":[-90.197889,38.627273]}},{"properties":{"city":"Salt Lake City","turns":2.964285714,"geo_score":0.857,"id":"a64wll6nwnrk","geo_precision":"city","state":"UT"},"type":"Feature","geometry":{"type":"Point","coordinates":[-111.891047,40.760779]}},{"properties":{"city":"San Antonio","turns":2.444444444,"geo_score":0.857,"id":"a64wll8xlatf","geo_precision":"city","state":"TX"},"type":"Feature","geometry":{"type":"Point","coordinates":[-98.493628,29.424122]}},{"properties":{"city":"San Francisco","turns":1.5625,"geo_score":0.857,"id":"a64wll6l5hrb","geo_precision":"city","state":"CA"},"type":"Feature","geometry":{"type":"Point","coordinates":[-122.419416,37.77493]}},{"properties":{"city":"Seattle","turns":1.660714286,"geo_score":0.857,"id":"a64wll4xv6l9","geo_precision":"city","state":"WA"},"type":"Feature","geometry":{"type":"Point","coordinates":[-122.332071,47.60621]}},{"properties":{"city":"Tallahassee","turns":2.944444444,"geo_score":0.857,"id":"a64wllcqou1g","geo_precision":"city","state":"FL"},"type":"Feature","geometry":{"type":"Point","coordinates":[-84.280733,30.438256]}},{"properties":{"city":"Tampa","turns":1.466101695,"geo_score":0.857,"id":"a64wll6qchqz","geo_precision":"city","state":"FL"},"type":"Feature","geometry":{"type":"Point","coordinates":[-82.458428,27.947522]}},{"properties":{"city":"Tulsa","turns":2.067567568,"geo_score":0.857,"id":"a64wllc8536h","geo_precision":"city","state":"OK"},"type":"Feature","geometry":{"type":"Point","coordinates":[-95.992775,36.153982]}},{"properties":{"city":"Washington","turns":2.7,"geo_score":0.857,"id":"a64wlla25ppm","geo_precision":"city","state":"DC"},"type":"Feature","geometry":{"type":"Point","coordinates":[-77.036366,38.895112]}},{"properties":{"city":"Wichita","turns":2.925,"geo_score":0.857,"id":"a64wllew8n1h","geo_precision":"city","state":"KS"},"type":"Feature","geometry":{"type":"Point","coordinates":[-97.337545,37.692236]}}],"is_temporal":false,"author":{"url":"","metadata":"","contact_name":"","contact_address":"","source":"","contact_phone":""},"source":"","pagination":{"sort":null,"start":0,"total":58,"limit":1000000},"state":"complete","tags":"","published":"2014-08-11T00:01:34-04:00","id":79868}