{"type":"FeatureCollection","data_type":"Dataset","url_type":null,"permissions":[{"permissions":{"download":true,"view":true},"group_id":"everyone"}],"classification":null,"title":"AFL","count":764,"stream_id":79903,"contributor":{"url":"http://geocommons.com/users/12003","name":"LauraHale"},"data_attributes":null,"calculation_params":null,"icon_link":null,"link":"http://geocommons.com/overlays/79903.json","extent":[-170.688,-14.275,-67.9853,62.6147],"geometry_types":["point"],"unique_name":null,"name":"AFL","feature_count":764,"description":"November 23 Twitter follower data by city.","next_feature":null,"is_raster":false,"short_classification":"Y","stats":{"geo_score":{"max":0.714,"mean":0.516821989528796,"variance":0.0688462933035071,"stdev":0.262385771915146,"min":0.0,"median":0.629},"afl":{"max":11890,"mean":35.794502617801,"variance":220117.191005123,"stdev":469.166485381387,"min":1,"median":1}},"features":[{"properties":{"city":"Abbotsford","country":"Australia","geo_score":0.701,"afl":1,"id":"a64lkxwngc3k","geo_precision":"city","state":"Victoria"},"type":"Feature","geometry":{"type":"Point","coordinates":[-85.179665,33.047346]}},{"properties":{"city":"Adelaide","country":"Australia","geo_score":0.696,"afl":2250,"id":"a64lky2gfdd2","geo_precision":"city","state":"South Australia"},"type":"Feature","geometry":{"type":"Point","coordinates":[-120.873514,35.645526]}},{"properties":{"city":"Albany","country":"Australia","geo_score":0.714,"afl":6,"id":"a64lkxvofpob","geo_precision":"city","state":"Western Australia"},"type":"Feature","geometry":{"type":"Point","coordinates":[-73.756232,42.652579]}},{"properties":{"city":"Albert Park","country":"Australia","geo_score":0.657,"afl":5,"id":"a64lky1dv8hm","geo_precision":"city","state":"Victoria"},"type":"Feature","geometry":{"type":"Point","coordinates":[-86.12578,31.277947]}},{"properties":{"city":"Alberton","country":"Australia","geo_score":0.714,"afl":1,"id":"a64lky84yc4l","geo_precision":"city","state":"South Australia"},"type":"Feature","geometry":{"type":"Point","coordinates":[-86.12578,31.277947]}},{"properties":{"city":"Albury","country":"Australia","geo_score":0.0,"afl":3,"id":"a64lky5pfoue","geo_precision":"unmatched","state":"Victoria"},"type":"Feature","geometry":null},{"properties":{"city":"Albury","country":"Australia","geo_score":0.0,"afl":43,"id":"a64lkxtpibdz","geo_precision":"unmatched","state":"New South Wales"},"type":"Feature","geometry":null},{"properties":{"city":"Aldinga","country":"Australia","geo_score":0.0,"afl":1,"id":"a64lkxza0zv9","geo_precision":"unmatched","state":"South Australia"},"type":"Feature","geometry":null},{"properties":{"city":"Alexandria","country":"Australia","geo_score":0.714,"afl":1,"id":"a64lky2eeq4e","geo_precision":"city","state":"New South Wales"},"type":"Feature","geometry":{"type":"Point","coordinates":[-92.445137,31.311294]}},{"properties":{"city":"Alice Springs","country":"Australia","geo_score":0.595,"afl":13,"id":"a64lky078x2r","geo_precision":"city","state":"Northern Territory"},"type":"Feature","geometry":{"type":"Point","coordinates":[-72.589811,42.101483]}},{"properties":{"city":"Alphington","country":"Australia","geo_score":0.0,"afl":3,"id":"a64lkxxhfqkb","geo_precision":"unmatched","state":"Victoria"},"type":"Feature","geometry":null},{"properties":{"city":"Altona","country":"Australia","geo_score":0.69,"afl":6,"id":"a64lkxtm14f7","geo_precision":"city","state":"Victoria"},"type":"Feature","geometry":{"type":"Point","coordinates":[-124.140884,40.547355]}},{"properties":{"city":"Altona Meadows","country":"Australia","geo_score":0.626,"afl":1,"id":"a64lky6vtm2a","geo_precision":"city","state":"Victoria"},"type":"Feature","geometry":{"type":"Point","coordinates":[-124.140884,40.547355]}},{"properties":{"city":"Anglesea","country":"Australia","geo_score":0.696,"afl":1,"id":"a64lkxuka3od","geo_precision":"city","state":"Victoria"},"type":"Feature","geometry":{"type":"Point","coordinates":[-75.616038,39.759002]}},{"properties":{"city":"Anna Bay","country":"Australia","geo_score":0.633,"afl":1,"id":"a64lky87yg1t","geo_precision":"city","state":"New South Wales"},"type":"Feature","geometry":{"type":"Point","coordinates":[-170.687778,-14.275]}},{"properties":{"city":"Annandale","country":"Australia","geo_score":0.652,"afl":2,"id":"a64lkxuu9km8","geo_precision":"city","state":"New South Wales"},"type":"Feature","geometry":{"type":"Point","coordinates":[-86.266102,39.217826]}},{"properties":{"city":"Annerley","country":"Australia","geo_score":0.0,"afl":1,"id":"a64lky1g5m71","geo_precision":"unmatched","state":"Queensland"},"type":"Feature","geometry":null},{"properties":{"city":"Apollo Bay","country":"Australia","geo_score":0.635,"afl":2,"id":"a64lkxyk883j","geo_precision":"city","state":"Victoria"},"type":"Feature","geometry":{"type":"Point","coordinates":[-76.053535,42.823956]}},{"properties":{"city":"Armidale","country":"Australia","geo_score":0.0,"afl":4,"id":"a64lky0rdzfo","geo_precision":"unmatched","state":"New South Wales"},"type":"Feature","geometry":null},{"properties":{"city":"Armidale","country":"Australia","geo_score":0.0,"afl":3,"id":"a64lkxrynkuq","geo_precision":"unmatched","state":"Victoria"},"type":"Feature","geometry":null},{"properties":{"city":"Ashfield","country":"Australia","geo_score":0.643,"afl":2,"id":"a64lky586df1","geo_precision":"city","state":"New South Wales"},"type":"Feature","geometry":{"type":"Point","coordinates":[-91.568849,36.234637]}},{"properties":{"city":"Ashgrove","country":"Australia","geo_score":0.714,"afl":1,"id":"a64lkxzkk1fx","geo_precision":"city","state":"Queensland"},"type":"Feature","geometry":{"type":"Point","coordinates":[-86.847788,40.547814]}},{"properties":{"city":"Ashmore","country":"Australia","geo_score":0.714,"afl":1,"id":"a64lky5n8aa0","geo_precision":"city","state":"Queensland"},"type":"Feature","geometry":{"type":"Point","coordinates":[-102.278512,32.915372]}},{"properties":{"city":"Ashtonfield","country":"Australia","geo_score":0.0,"afl":1,"id":"a64lky60zq9o","geo_precision":"unmatched","state":"New South Wales"},"type":"Feature","geometry":null},{"properties":{"city":"Ashwood","country":"Australia","geo_score":0.714,"afl":1,"id":"a64lkxyzrn4h","geo_precision":"city","state":"Victoria"},"type":"Feature","geometry":{"type":"Point","coordinates":[-91.297055,31.044898]}},{"properties":{"city":"Aspendale","country":"Australia","geo_score":0.683,"afl":1,"id":"a64lky2cjdfu","geo_precision":"city","state":"Victoria"},"type":"Feature","geometry":{"type":"Point","coordinates":[-118.598446,37.237988]}},{"properties":{"city":"Astrayah","country":"Australia","geo_score":0.0,"afl":1,"id":"a64lky2gevgx","geo_precision":"unmatched","state":"South Australia"},"type":"Feature","geometry":null},{"properties":{"city":"Attwood","country":"Australia","geo_score":0.694,"afl":1,"id":"a64lkxxl5vea","geo_precision":"city","state":"Victoria"},"type":"Feature","geometry":{"type":"Point","coordinates":[-87.995037,34.360654]}},{"properties":{"city":"Auckland","country":"New Zealand","geo_score":0.631,"afl":150,"id":"a64lkxxzulug","geo_precision":"city","state":"Auckland"},"type":"Feature","geometry":{"type":"Point","coordinates":[-113.324354,32.985324]}},{"properties":{"city":"Bacchus Marsh","country":"Australia","geo_score":0.619,"afl":11,"id":"a64lky5qpg9h","geo_precision":"city","state":"Victoria"},"type":"Feature","geometry":{"type":"Point","coordinates":[-91.616233,32.217372]}},{"properties":{"city":"Bairnsdale","country":"Australia","geo_score":0.614,"afl":3,"id":"a64lkxy3oxb6","geo_precision":"city","state":"Victoria"},"type":"Feature","geometry":{"type":"Point","coordinates":[-94.067137,33.817896]}},{"properties":{"city":"Balaclava","country":"Australia","geo_score":0.0,"afl":2,"id":"a64lky4lnuon","geo_precision":"unmatched","state":"Victoria"},"type":"Feature","geometry":null},{"properties":{"city":"Balcatta","country":"Australia","geo_score":0.643,"afl":2,"id":"a64lky4dhtkx","geo_precision":"city","state":"Western Australia"},"type":"Feature","geometry":{"type":"Point","coordinates":[-77.846119,43.024784]}},{"properties":{"city":"Balcolyn","country":"Australia","geo_score":0.0,"afl":2,"id":"a64lky6ngyxi","geo_precision":"unmatched","state":"New South Wales"},"type":"Feature","geometry":null},{"properties":{"city":"Bald Hills","country":"Australia","geo_score":0.619,"afl":1,"id":"a64lky2wem1m","geo_precision":"city","state":"New South Wales"},"type":"Feature","geometry":{"type":"Point","coordinates":[-87.182782,33.853995]}},{"properties":{"city":"Ballajura","country":"Australia","geo_score":0.619,"afl":1,"id":"a64lkxxhk5bj","geo_precision":"city","state":"Western Australia"},"type":"Feature","geometry":{"type":"Point","coordinates":[-81.981241,38.13343]}},{"properties":{"city":"Ballarat","country":"Australia","geo_score":0.679,"afl":181,"id":"a64lkxylfi0w","geo_precision":"city","state":"Victoria"},"type":"Feature","geometry":{"type":"Point","coordinates":[-91.668755,36.235067]}},{"properties":{"city":"Balmain","country":"Australia","geo_score":0.625,"afl":5,"id":"a64lky6xg6jf","geo_precision":"city","state":"New South Wales"},"type":"Feature","geometry":{"type":"Point","coordinates":[-82.697657,37.5076]}},{"properties":{"city":"Balnarring","country":"Australia","geo_score":0.0,"afl":1,"id":"a64lky7kbnvk","geo_precision":"unmatched","state":"Victoria"},"type":"Feature","geometry":null},{"properties":{"city":"Balwyn","country":"Australia","geo_score":0.625,"afl":2,"id":"a64lky25310u","geo_precision":"city","state":"Victoria"},"type":"Feature","geometry":{"type":"Point","coordinates":[-81.975947,30.771623]}},{"properties":{"city":"Balwyn North","country":"Australia","geo_score":0.597,"afl":1,"id":"a64lky5pakrz","geo_precision":"city","state":"Tasmania"},"type":"Feature","geometry":{"type":"Point","coordinates":[-81.975947,30.771623]}},{"properties":{"city":"Balwyn North","country":"Australia","geo_score":0.597,"afl":1,"id":"a64lkxz7adrw","geo_precision":"city","state":"Victoria"},"type":"Feature","geometry":{"type":"Point","coordinates":[-81.975947,30.771623]}},{"properties":{"city":"Bangalow","country":"Australia","geo_score":0.661,"afl":2,"id":"a64lky0d6qcj","geo_precision":"city","state":"New South Wales"},"type":"Feature","geometry":{"type":"Point","coordinates":[-85.922762,39.473383]}},{"properties":{"city":"Bangholme","country":"Australia","geo_score":0.0,"afl":1,"id":"a64lky24jfoq","geo_precision":"unmatched","state":"Victoria"},"type":"Feature","geometry":null},{"properties":{"city":"Bannockburn","country":"Australia","geo_score":0.714,"afl":2,"id":"a64lky4u7uns","geo_precision":"city","state":"Victoria"},"type":"Feature","geometry":{"type":"Point","coordinates":[-83.057372,31.284923]}},{"properties":{"city":"Barcaldine","country":"Australia","geo_score":0.6,"afl":1,"id":"a64lky3rg077","geo_precision":"city","state":"Queensland"},"type":"Feature","geometry":{"type":"Point","coordinates":[-81.6571,32.352307]}},{"properties":{"city":"Barmaryee","country":"Australia","geo_score":0.0,"afl":1,"id":"a64lky0025l3","geo_precision":"unmatched","state":"Queensland"},"type":"Feature","geometry":null},{"properties":{"city":"Barnbougle Dunes","country":"Australia","geo_score":0.61,"afl":2,"id":"a64lkxxer39y","geo_precision":"city","state":"Tasmania"},"type":"Feature","geometry":{"type":"Point","coordinates":[-75.618248,40.174823]}},{"properties":{"city":"Barossa Valley","country":"Australia","geo_score":0.593,"afl":2,"id":"a64lkxu9o2ks","geo_precision":"city","state":"South Australia"},"type":"Feature","geometry":{"type":"Point","coordinates":[-81.247611,31.974931]}},{"properties":{"city":"Barton","country":"Australia","geo_score":0.714,"afl":1,"id":"a64lkxtg8rol","geo_precision":"city","state":"Australian Capital Territory"},"type":"Feature","geometry":{"type":"Point","coordinates":[-87.891146,34.738701]}},{"properties":{"city":"Barwon Heads","country":"Australia","geo_score":0.636,"afl":5,"id":"a64lkxt0l2zh","geo_precision":"city","state":"Victoria"},"type":"Feature","geometry":{"type":"Point","coordinates":[-90.846487,33.470672]}},{"properties":{"city":"Bassendean","country":"Australia","geo_score":0.0,"afl":1,"id":"a64lkxuhzyhk","geo_precision":"unmatched","state":"Western Australia"},"type":"Feature","geometry":null},{"properties":{"city":"Batemans Bay","country":"Australia","geo_score":0.597,"afl":1,"id":"a64lkxzy6mow","geo_precision":"city","state":"New South Wales"},"type":"Feature","geometry":{"type":"Point","coordinates":[-92.564049,34.352039]}},{"properties":{"city":"Bathurst","country":"Australia","geo_score":0.0,"afl":15,"id":"a64lkxxq3o4k","geo_precision":"unmatched","state":"New South Wales"},"type":"Feature","geometry":null},{"properties":{"city":"Baulkham Hills","country":"Australia","geo_score":0.604,"afl":1,"id":"a64lkxw6radj","geo_precision":"city","state":"New South Wales"},"type":"Feature","geometry":{"type":"Point","coordinates":[-132.636389,55.556667]}},{"properties":{"city":"Baxter","country":"Australia","geo_score":0.714,"afl":1,"id":"a64lkxze17ep","geo_precision":"city","state":"Victoria"},"type":"Feature","geometry":{"type":"Point","coordinates":[-91.497067,33.529279]}},{"properties":{"city":"Bayside","country":"Australia","geo_score":0.653,"afl":3,"id":"a64lkxy678ar","geo_precision":"city","state":"Victoria"},"type":"Feature","geometry":{"type":"Point","coordinates":[-85.020467,29.7566]}},{"properties":{"city":"Bayswater","country":"Australia","geo_score":0.0,"afl":1,"id":"a64lkxsxuvpd","geo_precision":"unmatched","state":"Western Australia"},"type":"Feature","geometry":null},{"properties":{"city":"Beachcomber","country":"Australia","geo_score":0.0,"afl":6,"id":"a64lkxzj44pb","geo_precision":"unmatched","state":"Victoria"},"type":"Feature","geometry":null},{"properties":{"city":"Beaumaris","country":"Australia","geo_score":0.0,"afl":1,"id":"a64lky5k2wof","geo_precision":"unmatched","state":"Victoria"},"type":"Feature","geometry":null},{"properties":{"city":"Bega","country":"Australia","geo_score":0.643,"afl":1,"id":"a64lkxzcsay9","geo_precision":"city","state":"New South Wales"},"type":"Feature","geometry":{"type":"Point","coordinates":[-120.094087,39.386018]}},{"properties":{"city":"Belgrave Heights","country":"Australia","geo_score":0.648,"afl":1,"id":"a64lky0n0pp1","geo_precision":"city","state":"Victoria"},"type":"Feature","geometry":{"type":"Point","coordinates":[-76.534131,39.350941]}},{"properties":{"city":"Bellara","country":"Australia","geo_score":0.679,"afl":2,"id":"a64lky23a8pk","geo_precision":"city","state":"Queensland"},"type":"Feature","geometry":{"type":"Point","coordinates":[-91.359284,33.50428]}},{"properties":{"city":"Bellarine","country":"Australia","geo_score":0.651,"afl":1,"id":"a64lkxtlv2eg","geo_precision":"city","state":"Victoria"},"type":"Feature","geometry":{"type":"Point","coordinates":[-79.770056,39.583972]}},{"properties":{"city":"Bellbowrie","country":"Australia","geo_score":0.614,"afl":1,"id":"a64lkxry24ln","geo_precision":"city","state":"Queensland"},"type":"Feature","geometry":{"type":"Point","coordinates":[-102.819662,34.026752]}},{"properties":{"city":"Bells Beach","country":"Australia","geo_score":0.614,"afl":1,"id":"a64lkxxagelt","geo_precision":"city","state":"Victoria"},"type":"Feature","geometry":{"type":"Point","coordinates":[-86.976922,31.573495]}},{"properties":{"city":"Benalla","country":"Australia","geo_score":0.633,"afl":2,"id":"a64lky19z2m5","geo_precision":"city","state":"Victoria"},"type":"Feature","geometry":{"type":"Point","coordinates":[-84.974122,39.168388]}},{"properties":{"city":"Bendigo","country":"Australia","geo_score":0.633,"afl":96,"id":"a64lky1ax1hc","geo_precision":"city","state":"Victoria"},"type":"Feature","geometry":{"type":"Point","coordinates":[-88.542822,33.438732]}},{"properties":{"city":"Bentleigh","country":"Australia","geo_score":0.643,"afl":3,"id":"a64lky7ptnw9","geo_precision":"city","state":"Victoria"},"type":"Feature","geometry":{"type":"Point","coordinates":[-76.713285,41.946463]}},{"properties":{"city":"Bentleigh East","country":"Australia","geo_score":0.648,"afl":2,"id":"a64lkxyqhhip","geo_precision":"city","state":"Victoria"},"type":"Feature","geometry":{"type":"Point","coordinates":[-76.713285,41.946463]}},{"properties":{"city":"Berri","country":"Australia","geo_score":0.657,"afl":1,"id":"a64lky1gkrr8","geo_precision":"city","state":"South Australia"},"type":"Feature","geometry":{"type":"Point","coordinates":[-91.700682,33.339284]}},{"properties":{"city":"Berrigan","country":"Australia","geo_score":0.607,"afl":1,"id":"a64lkxw26mmk","geo_precision":"city","state":"New South Wales"},"type":"Feature","geometry":{"type":"Point","coordinates":[-73.662618,43.089797]}},{"properties":{"city":"Berwick","country":"Australia","geo_score":0.714,"afl":9,"id":"a64lky26d6lv","geo_precision":"city","state":"Victoria"},"type":"Feature","geometry":{"type":"Point","coordinates":[-95.844714,39.933333]}},{"properties":{"city":"Beverford","country":"Australia","geo_score":0.636,"afl":1,"id":"a64lkxw3adae","geo_precision":"city","state":"Victoria"},"type":"Feature","geometry":{"type":"Point","coordinates":[-74.909903,43.903676]}},{"properties":{"city":"Beverly Hills","country":"Australia","geo_score":0.655,"afl":1,"id":"a64lkxx219pf","geo_precision":"city","state":"New South Wales"},"type":"Feature","geometry":{"type":"Point","coordinates":[-90.990967,39.793381]}},{"properties":{"city":"Bexley North","country":"Australia","geo_score":0.636,"afl":1,"id":"a64lkxs4zk60","geo_precision":"city","state":"New South Wales"},"type":"Feature","geometry":{"type":"Point","coordinates":[-93.402127,35.976744]}},{"properties":{"city":"Black Rock","country":"Australia","geo_score":0.635,"afl":1,"id":"a64lkxw0e354","geo_precision":"city","state":"Victoria"},"type":"Feature","geometry":{"type":"Point","coordinates":[-86.178564,31.540718]}},{"properties":{"city":"Blackamns Bay","country":"Australia","geo_score":0.583,"afl":1,"id":"a64lkxxx1czo","geo_precision":"city","state":"Tasmania"},"type":"Feature","geometry":{"type":"Point","coordinates":[-92.564049,34.352039]}},{"properties":{"city":"Blacktown","country":"Australia","geo_score":0.643,"afl":1,"id":"a64lky0w9cgl","geo_precision":"city","state":"New South Wales"},"type":"Feature","geometry":{"type":"Point","coordinates":[-87.086662,33.344835]}},{"properties":{"city":"Blakehurst","country":"Australia","geo_score":0.0,"afl":1,"id":"a64lkxurm9u8","geo_precision":"unmatched","state":"New South Wales"},"type":"Feature","geometry":null},{"properties":{"city":"Blue Mountains","country":"Australia","geo_score":0.615,"afl":8,"id":"a64lkxxw8ezm","geo_precision":"city","state":"New South Wales"},"type":"Feature","geometry":{"type":"Point","coordinates":[-86.232449,31.229059]}},{"properties":{"city":"Bondi","country":"Australia","geo_score":0.657,"afl":10,"id":"a64lkxtl1so3","geo_precision":"city","state":"New South Wales"},"type":"Feature","geometry":{"type":"Point","coordinates":[-121.31531,44.058173]}},{"properties":{"city":"Bondi Beach","country":"Australia","geo_score":0.614,"afl":12,"id":"a64lky1hqj7k","geo_precision":"city","state":"New South Wales"},"type":"Feature","geometry":{"type":"Point","coordinates":[-121.31531,44.058173]}},{"properties":{"city":"Bondi Junction","country":"Australia","geo_score":0.604,"afl":2,"id":"a64lky399d1h","geo_precision":"city","state":"New South Wales"},"type":"Feature","geometry":{"type":"Point","coordinates":[-121.31531,44.058173]}},{"properties":{"city":"Bordertown","country":"Australia","geo_score":0.714,"afl":1,"id":"a64lky3jz77s","geo_precision":"city","state":"South Australia"},"type":"Feature","geometry":{"type":"Point","coordinates":[-119.991311,39.675741]}},{"properties":{"city":"Bordetown","country":"Australia","geo_score":0.683,"afl":1,"id":"a64lkxw2it78","geo_precision":"city","state":"South Australia"},"type":"Feature","geometry":{"type":"Point","coordinates":[-92.607661,35.306192]}},{"properties":{"city":"Boronia","country":"Australia","geo_score":0.633,"afl":1,"id":"a64lky7m137r","geo_precision":"city","state":"Victoria"},"type":"Feature","geometry":{"type":"Point","coordinates":[-87.158612,33.716218]}},{"properties":{"city":"Bowral","country":"Australia","geo_score":0.595,"afl":1,"id":"a64lkxs56rkg","geo_precision":"city","state":"New South Wales"},"type":"Feature","geometry":{"type":"Point","coordinates":[-88.323627,31.566829]}},{"properties":{"city":"Breamlea","country":"Australia","geo_score":0.661,"afl":1,"id":"a64lkxysc4ll","geo_precision":"city","state":"Victoria"},"type":"Feature","geometry":{"type":"Point","coordinates":[-87.867494,30.7388]}},{"properties":{"city":"Bribie Island","country":"Australia","geo_score":0.607,"afl":1,"id":"a64lky7ar1wy","geo_precision":"city","state":"Queensland"},"type":"Feature","geometry":{"type":"Point","coordinates":[-85.712209,41.290879]}},{"properties":{"city":"Bright","country":"Australia","geo_score":0.595,"afl":1,"id":"a64lkxupaqla","geo_precision":"city","state":"Victoria"},"type":"Feature","geometry":{"type":"Point","coordinates":[-90.377047,36.074513]}},{"properties":{"city":"Brighton","country":"Australia","geo_score":0.643,"afl":5,"id":"a64lkxyrrvln","geo_precision":"city","state":"Victoria"},"type":"Feature","geometry":{"type":"Point","coordinates":[-87.891146,34.738701]}},{"properties":{"city":"Brighton","country":"Australia","geo_score":0.643,"afl":1,"id":"a64lkxw6htb1","geo_precision":"city","state":"Queensland"},"type":"Feature","geometry":{"type":"Point","coordinates":[-87.891146,34.738701]}},{"properties":{"city":"Brisbane","country":"Australia","geo_score":0.679,"afl":1824,"id":"a64lkxwnkdrq","geo_precision":"city","state":"Queensland"},"type":"Feature","geometry":{"type":"Point","coordinates":[-81.306221,31.917155]}},{"properties":{"city":"Broadbeach","country":"Australia","geo_score":0.0,"afl":3,"id":"a64lkxzo8tnp","geo_precision":"unmatched","state":"Queensland"},"type":"Feature","geometry":null},{"properties":{"city":"Broadbeach Gold Coast","country":"Australia","geo_score":0.594,"afl":1,"id":"a64lkxusssuc","geo_precision":"city","state":"Queensland"},"type":"Feature","geometry":{"type":"Point","coordinates":[-86.07052,32.579022]}},{"properties":{"city":"Broadford","country":"Australia","geo_score":0.698,"afl":1,"id":"a64lkxza1r20","geo_precision":"city","state":"Victoria"},"type":"Feature","geometry":{"type":"Point","coordinates":[-86.084969,32.994844]}},{"properties":{"city":"Broken Hill","country":"Australia","geo_score":0.6,"afl":1,"id":"a64lky20lhm6","geo_precision":"city","state":"New South Wales"},"type":"Feature","geometry":{"type":"Point","coordinates":[-80.278106,25.857596]}},{"properties":{"city":"Brookvale","country":"Australia","geo_score":0.635,"afl":1,"id":"a64lkxs1g23z","geo_precision":"city","state":"New South Wales"},"type":"Feature","geometry":{"type":"Point","coordinates":[-86.53692,32.328195]}},{"properties":{"city":"Broome","country":"Australia","geo_score":0.595,"afl":5,"id":"a64lkxtt1fou","geo_precision":"city","state":"Western Australia"},"type":"Feature","geometry":{"type":"Point","coordinates":[-114.260318,43.12935]}},{"properties":{"city":"Browns Plains","country":"Australia","geo_score":0.607,"afl":1,"id":"a64lky2gv532","geo_precision":"city","state":"Queensland"},"type":"Feature","geometry":{"type":"Point","coordinates":[-85.606627,33.838435]}},{"properties":{"city":"Bruce","country":"Australia","geo_score":0.619,"afl":1,"id":"a64lky480ffj","geo_precision":"city","state":"Australian Capital Territory"},"type":"Feature","geometry":{"type":"Point","coordinates":[-81.247611,31.974931]}},{"properties":{"city":"Bruce Rock","country":"Australia","geo_score":0.603,"afl":1,"id":"a64lkxs2k4ht","geo_precision":"city","state":"Western Australia"},"type":"Feature","geometry":{"type":"Point","coordinates":[-81.247611,31.974931]}},{"properties":{"city":"Brunswick","country":"Australia","geo_score":0.714,"afl":10,"id":"a64lky3i1l9r","geo_precision":"city","state":"Victoria"},"type":"Feature","geometry":{"type":"Point","coordinates":[-87.120012,39.196987]}},{"properties":{"city":"Brunswick Heads","country":"Australia","geo_score":0.663,"afl":1,"id":"a64lky0iskyu","geo_precision":"city","state":"New South Wales"},"type":"Feature","geometry":{"type":"Point","coordinates":[-87.120012,39.196987]}},{"properties":{"city":"Brunswick West","country":"Australia","geo_score":0.67,"afl":4,"id":"a64lky7kdmut","geo_precision":"city","state":"Victoria"},"type":"Feature","geometry":{"type":"Point","coordinates":[-87.120012,39.196987]}},{"properties":{"city":"Buckland","country":"Australia","geo_score":0.714,"afl":1,"id":"a64lky10pqq0","geo_precision":"city","state":"Victoria"},"type":"Feature","geometry":{"type":"Point","coordinates":[-77.673881,38.780394]}},{"properties":{"city":"Buderim","country":"Australia","geo_score":0.0,"afl":1,"id":"a64lky0jhv41","geo_precision":"unmatched","state":"Queensland"},"type":"Feature","geometry":null},{"properties":{"city":"Bulleen","country":"Australia","geo_score":0.625,"afl":1,"id":"a64lkxtc0buq","geo_precision":"city","state":"Victoria"},"type":"Feature","geometry":{"type":"Point","coordinates":[-81.975947,30.771623]}},{"properties":{"city":"Bunbury","country":"Australia","geo_score":0.614,"afl":17,"id":"a64lkxryt9j8","geo_precision":"city","state":"Western Australia"},"type":"Feature","geometry":{"type":"Point","coordinates":[-76.939979,39.397326]}},{"properties":{"city":"Bundaberg","country":"Australia","geo_score":0.629,"afl":9,"id":"a64lky4g8zqq","geo_precision":"city","state":"Queensland"},"type":"Feature","geometry":{"type":"Point","coordinates":[-74.538249,40.575402]}},{"properties":{"city":"Bundoora","country":"Australia","geo_score":0.614,"afl":3,"id":"a64lkxu1ptg7","geo_precision":"city","state":"Victoria"},"type":"Feature","geometry":{"type":"Point","coordinates":[-90.487988,37.879195]}},{"properties":{"city":"Bungendore","country":"Australia","geo_score":0.0,"afl":1,"id":"a64lky81t6i9","geo_precision":"unmatched","state":"New South Wales"},"type":"Feature","geometry":null},{"properties":{"city":"Burleigh Heads","country":"Australia","geo_score":0.659,"afl":4,"id":"a64lkxv2kbhv","geo_precision":"city","state":"Queensland"},"type":"Feature","geometry":{"type":"Point","coordinates":[-74.851558,39.045669]}},{"properties":{"city":"Burnie","country":"Australia","geo_score":0.643,"afl":10,"id":"a64lkxtjdeen","geo_precision":"city","state":"Tasmania"},"type":"Feature","geometry":{"type":"Point","coordinates":[-87.158612,33.716218]}},{"properties":{"city":"Burswood","country":"Australia","geo_score":0.643,"afl":1,"id":"a64lkxspu2j0","geo_precision":"city","state":"Western Australia"},"type":"Feature","geometry":{"type":"Point","coordinates":[-75.553258,39.052891]}},{"properties":{"city":"Burwood","country":"Australia","geo_score":0.714,"afl":1,"id":"a64lky84l2ef","geo_precision":"city","state":"Victoria"},"type":"Feature","geometry":{"type":"Point","coordinates":[-86.983337,35.812567]}},{"properties":{"city":"Burwood","country":"Australia","geo_score":0.714,"afl":6,"id":"a64lkxt0ay5k","geo_precision":"city","state":"New South Wales"},"type":"Feature","geometry":{"type":"Point","coordinates":[-86.983337,35.812567]}},{"properties":{"city":"Burwood East","country":"Australia","geo_score":0.662,"afl":1,"id":"a64lky3kuugq","geo_precision":"city","state":"Victoria"},"type":"Feature","geometry":{"type":"Point","coordinates":[-86.983337,35.812567]}},{"properties":{"city":"Busselton","country":"Australia","geo_score":0.651,"afl":10,"id":"a64lkxul7kdz","geo_precision":"city","state":"Western Australia"},"type":"Feature","geometry":{"type":"Point","coordinates":[-84.533547,35.96202]}},{"properties":{"city":"Byron Bay","country":"Australia","geo_score":0.589,"afl":14,"id":"a64lkxvi7tfv","geo_precision":"city","state":"New South Wales"},"type":"Feature","geometry":{"type":"Point","coordinates":[-92.564049,34.352039]}},{"properties":{"city":"Caboolture","country":"Australia","geo_score":0.0,"afl":3,"id":"a64lkxtpry55","geo_precision":"unmatched","state":"Queensland"},"type":"Feature","geometry":null},{"properties":{"city":"Cairns","country":"Australia","geo_score":0.69,"afl":55,"id":"a64lky1h0adk","geo_precision":"city","state":"Queensland"},"type":"Feature","geometry":{"type":"Point","coordinates":[-85.974146,34.80925]}},{"properties":{"city":"Calbourne","country":"Australia","geo_score":0.619,"afl":1,"id":"a64lkxxj7x6b","geo_precision":"city","state":"Victoria"},"type":"Feature","geometry":{"type":"Point","coordinates":[-85.778579,34.375923]}},{"properties":{"city":"Calgary","country":"Australia","geo_score":0.633,"afl":4,"id":"a64lky0812u4","geo_precision":"city","state":"Alberta"},"type":"Feature","geometry":{"type":"Point","coordinates":[-111.893862,44.402136]}},{"properties":{"city":"Caloundra","country":"Australia","geo_score":0.614,"afl":2,"id":"a64lkxuhm5q6","geo_precision":"city","state":"Queensland"},"type":"Feature","geometry":{"type":"Point","coordinates":[-93.769694,45.578023]}},{"properties":{"city":"Calwell","country":"Australia","geo_score":0.694,"afl":1,"id":"a64lkxy4wzo3","geo_precision":"city","state":"Australian Capital Territory"},"type":"Feature","geometry":{"type":"Point","coordinates":[-85.919136,33.879266]}},{"properties":{"city":"Camp Hill","country":"Australia","geo_score":0.571,"afl":1,"id":"a64lky419v9u","geo_precision":"city","state":"Queensland"},"type":"Feature","geometry":{"type":"Point","coordinates":[-80.278106,25.857596]}},{"properties":{"city":"Campbelltown","country":"Australia","geo_score":0.667,"afl":3,"id":"a64lkxstpp39","geo_precision":"city","state":"New South Wales"},"type":"Feature","geometry":{"type":"Point","coordinates":[-149.894167,61.171944]}},{"properties":{"city":"Camperdown","country":"Australia","geo_score":0.714,"afl":1,"id":"a64lkxz8rq7i","geo_precision":"city","state":"Victoria"},"type":"Feature","geometry":{"type":"Point","coordinates":[-91.484,29.845761]}},{"properties":{"city":"Canberra","country":"Australia","geo_score":0.625,"afl":573,"id":"a64lkxyjkrl5","geo_precision":"city","state":"Australian Capital Territory"},"type":"Feature","geometry":{"type":"Point","coordinates":[-95.487227,43.825795]}},{"properties":{"city":"Canberra International Airport","country":"Australia","geo_score":0.602,"afl":1,"id":"a64lkxv1l6d1","geo_precision":"city","state":"Australian Capital Territory"},"type":"Feature","geometry":{"type":"Point","coordinates":[-83.202951,37.28704]}},{"properties":{"city":"Cannington","country":"Australia","geo_score":0.626,"afl":1,"id":"a64lkxvixr73","geo_precision":"city","state":"Western Australia"},"type":"Feature","geometry":{"type":"Point","coordinates":[-71.36422,41.561769]}},{"properties":{"city":"Canterbury","country":"Australia","geo_score":0.643,"afl":2,"id":"a64lky272emd","geo_precision":"city","state":"Victoria"},"type":"Feature","geometry":{"type":"Point","coordinates":[-88.312807,32.332641]}},{"properties":{"city":"Carisbrook","country":"Australia","geo_score":0.61,"afl":1,"id":"a64lkxt84kum","geo_precision":"city","state":"Victoria"},"type":"Feature","geometry":{"type":"Point","coordinates":[-82.87517,38.653411]}},{"properties":{"city":"Carlton","country":"Australia","geo_score":0.671,"afl":5,"id":"a64lky3jecby","geo_precision":"city","state":"Victoria"},"type":"Feature","geometry":{"type":"Point","coordinates":[-93.321849,36.262571]}},{"properties":{"city":"Carnegie","country":"Australia","geo_score":0.714,"afl":1,"id":"a64lkxvc7ipq","geo_precision":"city","state":"Victoria"},"type":"Feature","geometry":{"type":"Point","coordinates":[-84.779087,31.642946]}},{"properties":{"city":"Carrara","country":"Australia","geo_score":0.612,"afl":1,"id":"a64lkxtgmnsf","geo_precision":"city","state":"Queensland"},"type":"Feature","geometry":{"type":"Point","coordinates":[-116.17514,46.3899]}},{"properties":{"city":"Carrick","country":"Australia","geo_score":0.673,"afl":1,"id":"a64lkxvvx9yy","geo_precision":"city","state":"Tasmania"},"type":"Feature","geometry":{"type":"Point","coordinates":[-88.987575,40.553091]}},{"properties":{"city":"Carrum","country":"Australia","geo_score":0.643,"afl":2,"id":"a64lky481f49","geo_precision":"city","state":"Victoria"},"type":"Feature","geometry":{"type":"Point","coordinates":[-90.273154,35.888684]}},{"properties":{"city":"Casterton","country":"Australia","geo_score":0.635,"afl":2,"id":"a64lkxs2ldqo","geo_precision":"city","state":"Victoria"},"type":"Feature","geometry":{"type":"Point","coordinates":[-80.159228,41.530331]}},{"properties":{"city":"Castle Hill","country":"Australia","geo_score":0.6,"afl":6,"id":"a64lky178wl5","geo_precision":"city","state":"New South Wales"},"type":"Feature","geometry":{"type":"Point","coordinates":[-80.278106,25.857596]}},{"properties":{"city":"Castlemaine","country":"Australia","geo_score":0.648,"afl":3,"id":"a64lkxx787de","geo_precision":"city","state":"Victoria"},"type":"Feature","geometry":{"type":"Point","coordinates":[-118.561194,34.042509]}},{"properties":{"city":"Caulfield North","country":"Australia","geo_score":0.633,"afl":1,"id":"a64lky074110","geo_precision":"city","state":"Victoria"},"type":"Feature","geometry":{"type":"Point","coordinates":[-83.251269,32.853756]}},{"properties":{"city":"Centennial Park","country":"Australia","geo_score":0.582,"afl":1,"id":"a64lky1h9cop","geo_precision":"city","state":"New South Wales"},"type":"Feature","geometry":{"type":"Point","coordinates":[-92.280706,34.286764]}},{"properties":{"city":"Chadstone","country":"Australia","geo_score":0.635,"afl":1,"id":"a64lkxtlsfym","geo_precision":"city","state":"Victoria"},"type":"Feature","geometry":{"type":"Point","coordinates":[-92.100399,30.428254]}},{"properties":{"city":"Chatswood","country":"Australia","geo_score":0.0,"afl":8,"id":"a64lkxz5plz2","geo_precision":"unmatched","state":"New South Wales"},"type":"Feature","geometry":null},{"properties":{"city":"Chelsea","country":"Australia","geo_score":0.714,"afl":2,"id":"a64lkxyuro0o","geo_precision":"city","state":"Victoria"},"type":"Feature","geometry":{"type":"Point","coordinates":[-85.440237,34.523418]}},{"properties":{"city":"Cheltenham","country":"Australia","geo_score":0.714,"afl":2,"id":"a64lky3gpswl","geo_precision":"city","state":"Victoria"},"type":"Feature","geometry":{"type":"Point","coordinates":[-76.840572,38.745514]}},{"properties":{"city":"Chippendale","country":"Australia","geo_score":0.0,"afl":1,"id":"a64lkxz9bpyu","geo_precision":"unmatched","state":"New South Wales"},"type":"Feature","geometry":null},{"properties":{"city":"Christchurch","country":"New Zealand","geo_score":0.714,"afl":18,"id":"a64lkxz5qppj","geo_precision":"city","state":"Canterbury"},"type":"Feature","geometry":{"type":"Point","coordinates":[-76.447551,37.598391]}},{"properties":{"city":"Churchill","country":"Australia","geo_score":0.7,"afl":1,"id":"a64lky3dhmn9","geo_precision":"city","state":"Victoria"},"type":"Feature","geometry":{"type":"Point","coordinates":[-87.572234,36.802269]}},{"properties":{"city":"Churchlands","country":"Australia","geo_score":0.701,"afl":1,"id":"a64lky6ki4d6","geo_precision":"city","state":"Western Australia"},"type":"Feature","geometry":{"type":"Point","coordinates":[-80.417556,35.78625]}},{"properties":{"city":"City","country":"Australia","geo_score":0.686,"afl":2,"id":"a64lky5396e1","geo_precision":"city","state":"Australian Capital Territory"},"type":"Feature","geometry":{"type":"Point","coordinates":[-94.077152,34.734825]}},{"properties":{"city":"City Beach","country":"Australia","geo_score":0.603,"afl":1,"id":"a64lky6vuxti","geo_precision":"city","state":"Western Australia"},"type":"Feature","geometry":{"type":"Point","coordinates":[-87.861397,31.971263]}},{"properties":{"city":"Clare","country":"Australia","geo_score":0.657,"afl":2,"id":"a64lky5a31rw","geo_precision":"city","state":"South Australia"},"type":"Feature","geometry":{"type":"Point","coordinates":[-90.45788,35.309809]}},{"properties":{"city":"Clare Valley","country":"Australia","geo_score":0.61,"afl":1,"id":"a64lkxvino6r","geo_precision":"city","state":"South Australia"},"type":"Feature","geometry":{"type":"Point","coordinates":[-92.820441,33.699554]}},{"properties":{"city":"Claremont","country":"Australia","geo_score":0.634,"afl":1,"id":"a64lkxz30zbf","geo_precision":"city","state":"Western Australia"},"type":"Feature","geometry":{"type":"Point","coordinates":[-85.930244,33.350389]}},{"properties":{"city":"Clayton","country":"Australia","geo_score":0.619,"afl":2,"id":"a64lky51eqx1","geo_precision":"city","state":"Victoria"},"type":"Feature","geometry":{"type":"Point","coordinates":[-87.087485,31.890428]}},{"properties":{"city":"Cleveland","country":"Australia","geo_score":0.714,"afl":3,"id":"a64lky1oy48u","geo_precision":"city","state":"Queensland"},"type":"Feature","geometry":{"type":"Point","coordinates":[-81.695409,41.499495]}},{"properties":{"city":"Clifton","country":"Australia","geo_score":0.714,"afl":1,"id":"a64lky40c0ok","geo_precision":"city","state":"Queensland"},"type":"Feature","geometry":{"type":"Point","coordinates":[-118.379796,33.827515]}},{"properties":{"city":"Clifton Hill","country":"Australia","geo_score":0.597,"afl":2,"id":"a64lky6rb5cf","geo_precision":"city","state":"Victoria"},"type":"Feature","geometry":{"type":"Point","coordinates":[-80.278106,25.857596]}},{"properties":{"city":"Clifton Springs","country":"Australia","geo_score":0.592,"afl":1,"id":"a64lkxua0l86","geo_precision":"city","state":"Victoria"},"type":"Feature","geometry":{"type":"Point","coordinates":[-72.589811,42.101483]}},{"properties":{"city":"Clovelly","country":"Australia","geo_score":0.643,"afl":1,"id":"a64lkxxdsu5v","geo_precision":"city","state":"New South Wales"},"type":"Feature","geometry":{"type":"Point","coordinates":[-87.418061,33.74011]}},{"properties":{"city":"Cobram","country":"Australia","geo_score":0.0,"afl":1,"id":"a64lkxumoqxt","geo_precision":"unmatched","state":"Victoria"},"type":"Feature","geometry":null},{"properties":{"city":"Coburg","country":"Australia","geo_score":0.714,"afl":2,"id":"a64lky37bpoo","geo_precision":"city","state":"Victoria"},"type":"Feature","geometry":{"type":"Point","coordinates":[-95.264434,40.917494]}},{"properties":{"city":"Coffs Harbor","country":"Australia","geo_score":0.649,"afl":1,"id":"a64lky0d5aux","geo_precision":"city","state":"New South Wales"},"type":"Feature","geometry":{"type":"Point","coordinates":[-80.409233,41.035338]}},{"properties":{"city":"Coffs Harbour","country":"Australia","geo_score":0.643,"afl":17,"id":"a64lky5ig2ib","geo_precision":"city","state":"New South Wales"},"type":"Feature","geometry":{"type":"Point","coordinates":[-80.409233,41.035338]}},{"properties":{"city":"Colac","country":"Australia","geo_score":0.667,"afl":4,"id":"a64lkxxakofp","geo_precision":"city","state":"Victoria"},"type":"Feature","geometry":{"type":"Point","coordinates":[-111.989013,31.808413]}},{"properties":{"city":"Coldstream","country":"Australia","geo_score":0.614,"afl":1,"id":"a64lkxzfie50","geo_precision":"city","state":"Victoria"},"type":"Feature","geometry":{"type":"Point","coordinates":[-86.643051,34.872589]}},{"properties":{"city":"Collie","country":"Australia","geo_score":0.619,"afl":1,"id":"a64lky0mxaqo","geo_precision":"city","state":"Western Australia"},"type":"Feature","geometry":{"type":"Point","coordinates":[-85.655213,31.323783]}},{"properties":{"city":"Collingwood","country":"Australia","geo_score":0.676,"afl":19,"id":"a64lky79c7z0","geo_precision":"city","state":"Victoria"},"type":"Feature","geometry":{"type":"Point","coordinates":[-74.133753,40.222335]}},{"properties":{"city":"Concord","country":"Australia","geo_score":0.714,"afl":3,"id":"a64lky6h1i52","geo_precision":"city","state":"New South Wales"},"type":"Feature","geometry":{"type":"Point","coordinates":[-71.537572,43.208137]}},{"properties":{"city":"Coobiaco","country":"Australia","geo_score":0.607,"afl":1,"id":"a64lky6e9eau","geo_precision":"city","state":"Western Australia"},"type":"Feature","geometry":{"type":"Point","coordinates":[-71.88785,41.799265]}},{"properties":{"city":"Coogee","country":"Australia","geo_score":0.571,"afl":4,"id":"a64lkxta4m2d","geo_precision":"city","state":"New South Wales"},"type":"Feature","geometry":{"type":"Point","coordinates":[-83.84909,36.744252]}},{"properties":{"city":"Coogee","country":"Australia","geo_score":0.571,"afl":1,"id":"a64lkxteltwt","geo_precision":"city","state":"Western Australia"},"type":"Feature","geometry":{"type":"Point","coordinates":[-83.84909,36.744252]}},{"properties":{"city":"Coogee Beach","country":"Australia","geo_score":0.597,"afl":1,"id":"a64lkxxr5iiz","geo_precision":"city","state":"New South Wales"},"type":"Feature","geometry":{"type":"Point","coordinates":[-87.861397,31.971263]}},{"properties":{"city":"Cooktown","country":"Australia","geo_score":0.714,"afl":1,"id":"a64lkxx6yaol","geo_precision":"city","state":"Queensland"},"type":"Feature","geometry":{"type":"Point","coordinates":[-85.940812,36.834774]}},{"properties":{"city":"Coolangatta","country":"Australia","geo_score":0.649,"afl":1,"id":"a64lky0t3td5","geo_precision":"city","state":"Queensland"},"type":"Feature","geometry":{"type":"Point","coordinates":[-94.728558,35.275374]}},{"properties":{"city":"Coolum Beach","country":"Australia","geo_score":0.597,"afl":1,"id":"a64lkxsax7oi","geo_precision":"city","state":"Queensland"},"type":"Feature","geometry":{"type":"Point","coordinates":[-87.861397,31.971263]}},{"properties":{"city":"Coonabarabran","country":"Australia","geo_score":0.0,"afl":1,"id":"a64lky183vmq","geo_precision":"unmatched","state":"New South Wales"},"type":"Feature","geometry":null},{"properties":{"city":"Coopers Beach","country":"New Zealand","geo_score":0.595,"afl":1,"id":"a64lkxrw291e","geo_precision":"city","state":"Northland"},"type":"Feature","geometry":{"type":"Point","coordinates":[-87.861397,31.971263]}},{"properties":{"city":"Cottesloe","country":"Australia","geo_score":0.0,"afl":2,"id":"a64lky19pn09","geo_precision":"unmatched","state":"Western Australia"},"type":"Feature","geometry":null},{"properties":{"city":"Craigieburn","country":"Australia","geo_score":0.0,"afl":3,"id":"a64lky75yb3m","geo_precision":"unmatched","state":"Victoria"},"type":"Feature","geometry":null},{"properties":{"city":"Craigmore","country":"Australia","geo_score":0.667,"afl":1,"id":"a64lky5wf37e","geo_precision":"city","state":"South Australia"},"type":"Feature","geometry":{"type":"Point","coordinates":[-84.361603,36.622858]}},{"properties":{"city":"Cranbourne","country":"Australia","geo_score":0.614,"afl":14,"id":"a64lkxwodfbi","geo_precision":"city","state":"Victoria"},"type":"Feature","geometry":{"type":"Point","coordinates":[-87.647528,34.832587]}},{"properties":{"city":"Cremorne","country":"Australia","geo_score":0.651,"afl":2,"id":"a64lkxvzef06","geo_precision":"city","state":"Victoria"},"type":"Feature","geometry":{"type":"Point","coordinates":[-96.065612,46.730514]}},{"properties":{"city":"Cremorne","country":"Australia","geo_score":0.651,"afl":1,"id":"a64lkxxx6zec","geo_precision":"city","state":"New South Wales"},"type":"Feature","geometry":{"type":"Point","coordinates":[-96.065612,46.730514]}},{"properties":{"city":"Crib Point","country":"Australia","geo_score":0.635,"afl":1,"id":"a64lky4f36rv","geo_precision":"city","state":"Victoria"},"type":"Feature","geometry":{"type":"Point","coordinates":[-121.15774,40.080443]}},{"properties":{"city":"Cronulla","country":"Australia","geo_score":0.643,"afl":10,"id":"a64lkxwg3pfu","geo_precision":"city","state":"New South Wales"},"type":"Feature","geometry":{"type":"Point","coordinates":[-118.777868,34.11445]}},{"properties":{"city":"Croudace Bay","country":"Australia","geo_score":0.597,"afl":1,"id":"a64lkxtxnbmc","geo_precision":"city","state":"New South Wales"},"type":"Feature","geometry":{"type":"Point","coordinates":[-92.564049,34.352039]}},{"properties":{"city":"Croydon","country":"Australia","geo_score":0.612,"afl":7,"id":"a64lky1au5ov","geo_precision":"city","state":"Victoria"},"type":"Feature","geometry":{"type":"Point","coordinates":[-88.183363,33.15679]}},{"properties":{"city":"Currumbin","country":"Australia","geo_score":0.0,"afl":1,"id":"a64lky59rbsr","geo_precision":"unmatched","state":"Queensland"},"type":"Feature","geometry":null},{"properties":{"city":"Dalby","country":"Australia","geo_score":0.714,"afl":1,"id":"a64lky3rsjwz","geo_precision":"city","state":"Queensland"},"type":"Feature","geometry":{"type":"Point","coordinates":[-91.274021,43.264145]}},{"properties":{"city":"Dandenong","country":"Australia","geo_score":0.0,"afl":1,"id":"a64lky47ob2p","geo_precision":"unmatched","state":"Victoria"},"type":"Feature","geometry":null},{"properties":{"city":"Dapto","country":"Australia","geo_score":0.612,"afl":1,"id":"a64lky1k7m4t","geo_precision":"city","state":"New South Wales"},"type":"Feature","geometry":{"type":"Point","coordinates":[-114.349734,39.868549]}},{"properties":{"city":"Darlinghurst","country":"Australia","geo_score":0.655,"afl":12,"id":"a64lkxzusar5","geo_precision":"city","state":"New South Wales"},"type":"Feature","geometry":{"type":"Point","coordinates":[-86.057439,30.943793]}},{"properties":{"city":"Darwin","country":"Australia","geo_score":0.714,"afl":123,"id":"a64lkxsu7q55","geo_precision":"city","state":"Northern Territory"},"type":"Feature","geometry":{"type":"Point","coordinates":[-87.61197,39.283372]}},{"properties":{"city":"Dawesville","country":"Australia","geo_score":0.714,"afl":1,"id":"a64lky3ymzum","geo_precision":"city","state":"Western Australia"},"type":"Feature","geometry":{"type":"Point","coordinates":[-84.009061,30.922412]}},{"properties":{"city":"Daylesford","country":"Australia","geo_score":0.714,"afl":3,"id":"a64lky424g4a","geo_precision":"city","state":"Victoria"},"type":"Feature","geometry":{"type":"Point","coordinates":[-75.460196,40.038997]}},{"properties":{"city":"Dee Why","country":"Australia","geo_score":0.619,"afl":2,"id":"a64lkxxllfks","geo_precision":"city","state":"New South Wales"},"type":"Feature","geometry":{"type":"Point","coordinates":[-91.727645,36.238678]}},{"properties":{"city":"Dee Why Beach","country":"Australia","geo_score":0.597,"afl":1,"id":"a64lky57h3ik","geo_precision":"city","state":"New South Wales"},"type":"Feature","geometry":{"type":"Point","coordinates":[-87.861397,31.971263]}},{"properties":{"city":"Deepwater","country":"Australia","geo_score":0.633,"afl":1,"id":"a64lkxvu3eo0","geo_precision":"city","state":"Queensland"},"type":"Feature","geometry":{"type":"Point","coordinates":[-96.452208,33.056785]}},{"properties":{"city":"Deer Park","country":"Australia","geo_score":0.589,"afl":3,"id":"a64lky6rgoww","geo_precision":"city","state":"Victoria"},"type":"Feature","geometry":{"type":"Point","coordinates":[-83.14993,42.605589]}},{"properties":{"city":"Deniliquin","country":"Australia","geo_score":0.0,"afl":2,"id":"a64lky3mvp85","geo_precision":"unmatched","state":"New South Wales"},"type":"Feature","geometry":null},{"properties":{"city":"Derby","country":"Australia","geo_score":0.714,"afl":1,"id":"a64lky5mby5e","geo_precision":"city","state":"Western Australia"},"type":"Feature","geometry":{"type":"Point","coordinates":[-104.918589,39.83943]}},{"properties":{"city":"Devonport","country":"Australia","geo_score":0.683,"afl":15,"id":"a64lkxuuufys","geo_precision":"city","state":"Tasmania"},"type":"Feature","geometry":{"type":"Point","coordinates":[-90.577637,41.523644]}},{"properties":{"city":"Dickson","country":"Australia","geo_score":0.714,"afl":1,"id":"a64lky83135w","geo_precision":"city","state":"Australian Capital Territory"},"type":"Feature","geometry":{"type":"Point","coordinates":[-96.984456,34.187317]}},{"properties":{"city":"Dingley Village","country":"Australia","geo_score":0.622,"afl":1,"id":"a64lkxy2ehta","geo_precision":"city","state":"Victoria"},"type":"Feature","geometry":{"type":"Point","coordinates":[-92.758499,35.908687]}},{"properties":{"city":"Docklands","country":"Australia","geo_score":0.0,"afl":4,"id":"a64lky80enf4","geo_precision":"unmatched","state":"Victoria"},"type":"Feature","geometry":null},{"properties":{"city":"Doncaster East","country":"Australia","geo_score":0.67,"afl":1,"id":"a64lkxyfe4pd","geo_precision":"city","state":"Victoria"},"type":"Feature","geometry":{"type":"Point","coordinates":[-77.210535,38.497899]}},{"properties":{"city":"Donvale","country":"Australia","geo_score":0.661,"afl":1,"id":"a64lky4ck4ok","geo_precision":"city","state":"Victoria"},"type":"Feature","geometry":{"type":"Point","coordinates":[-79.395023,36.585972]}},{"properties":{"city":"Doreen","country":"Australia","geo_score":0.595,"afl":1,"id":"a64lky0seiqv","geo_precision":"city","state":"Victoria"},"type":"Feature","geometry":{"type":"Point","coordinates":[-104.208305,37.454181]}},{"properties":{"city":"Doubleview","country":"Australia","geo_score":0.0,"afl":1,"id":"a64lkxt248pn","geo_precision":"unmatched","state":"Western Australia"},"type":"Feature","geometry":null},{"properties":{"city":"Dromana","country":"Australia","geo_score":0.643,"afl":1,"id":"a64lkxxg2sym","geo_precision":"city","state":"Victoria"},"type":"Feature","geometry":{"type":"Point","coordinates":[-111.832362,33.358937]}},{"properties":{"city":"Drouin","country":"Australia","geo_score":0.595,"afl":4,"id":"a64lky7wpipi","geo_precision":"city","state":"Victoria"},"type":"Feature","geometry":{"type":"Point","coordinates":[-104.208305,37.454181]}},{"properties":{"city":"Drummoyne","country":"Australia","geo_score":0.635,"afl":1,"id":"a64lky8ca62d","geo_precision":"city","state":"New South Wales"},"type":"Feature","geometry":{"type":"Point","coordinates":[-111.832362,33.358937]}},{"properties":{"city":"Drysdale","country":"Australia","geo_score":0.607,"afl":3,"id":"a64lky37qj4j","geo_precision":"city","state":"Victoria"},"type":"Feature","geometry":{"type":"Point","coordinates":[-116.350738,48.283263]}},{"properties":{"city":"Dubbo","country":"Australia","geo_score":0.6,"afl":6,"id":"a64lky5bt8r9","geo_precision":"city","state":"New South Wales"},"type":"Feature","geometry":{"type":"Point","coordinates":[-103.611616,37.219186]}},{"properties":{"city":"Dunedin","country":"New Zealand","geo_score":0.612,"afl":5,"id":"a64lky3hy90q","geo_precision":"city","state":"Otago"},"type":"Feature","geometry":{"type":"Point","coordinates":[-109.898407,31.414267]}},{"properties":{"city":"Durack","country":"Australia","geo_score":0.667,"afl":1,"id":"a64lkxv8xtnf","geo_precision":"city","state":"Queensland"},"type":"Feature","geometry":{"type":"Point","coordinates":[-94.831904,37.230614]}},{"properties":{"city":"East Bentleigh","country":"Australia","geo_score":0.604,"afl":1,"id":"a64lky32oewa","geo_precision":"city","state":"Victoria"},"type":"Feature","geometry":{"type":"Point","coordinates":[-76.713285,41.946463]}},{"properties":{"city":"East Devonport","country":"Australia","geo_score":0.648,"afl":1,"id":"a64lky16vki4","geo_precision":"city","state":"Tasmania"},"type":"Feature","geometry":{"type":"Point","coordinates":[-90.577637,41.523644]}},{"properties":{"city":"East Fremantle","country":"Australia","geo_score":0.637,"afl":1,"id":"a64lkxzp3me8","geo_precision":"city","state":"Western Australia"},"type":"Feature","geometry":{"type":"Point","coordinates":[-121.988572,37.54827]}},{"properties":{"city":"East Melbourne","country":"Australia","geo_score":0.67,"afl":2,"id":"a64lky5py4l7","geo_precision":"city","state":"Victoria"},"type":"Feature","geometry":{"type":"Point","coordinates":[-80.608109,28.083627]}},{"properties":{"city":"East Templestowe","country":"Australia","geo_score":0.686,"afl":1,"id":"a64lkxy777a3","geo_precision":"city","state":"Victoria"},"type":"Feature","geometry":{"type":"Point","coordinates":[-72.029434,42.551681]}},{"properties":{"city":"Eaton","country":"Australia","geo_score":0.629,"afl":4,"id":"a64lkxwic5dj","geo_precision":"city","state":"Western Australia"},"type":"Feature","geometry":{"type":"Point","coordinates":[-86.310256,33.592048]}},{"properties":{"city":"Echuca","country":"Australia","geo_score":0.0,"afl":3,"id":"a64lky03xatc","geo_precision":"unmatched","state":"Victoria"},"type":"Feature","geometry":null},{"properties":{"city":"Edge Hill","country":"Australia","geo_score":0.571,"afl":1,"id":"a64lky2nfdnd","geo_precision":"city","state":"Queensland"},"type":"Feature","geometry":{"type":"Point","coordinates":[-80.278106,25.857596]}},{"properties":{"city":"Elizabeth Bay","country":"Australia","geo_score":0.679,"afl":1,"id":"a64lkxtm62wm","geo_precision":"city","state":"New South Wales"},"type":"Feature","geometry":{"type":"Point","coordinates":[-74.210701,40.663992]}},{"properties":{"city":"Elizabeth North","country":"Australia","geo_score":0.663,"afl":1,"id":"a64lky1tdotf","geo_precision":"city","state":"South Australia"},"type":"Feature","geometry":{"type":"Point","coordinates":[-74.210701,40.663992]}},{"properties":{"city":"Elsternwick","country":"Australia","geo_score":0.597,"afl":5,"id":"a64lkxtwmxc0","geo_precision":"city","state":"Victoria"},"type":"Feature","geometry":{"type":"Point","coordinates":[-76.879395,35.969327]}},{"properties":{"city":"Eltham","country":"Australia","geo_score":0.0,"afl":5,"id":"a64lkxwrc2fb","geo_precision":"unmatched","state":"Victoria"},"type":"Feature","geometry":null},{"properties":{"city":"Eltham North","country":"Australia","geo_score":0.0,"afl":1,"id":"a64lkxvfgez6","geo_precision":"unmatched","state":"Victoria"},"type":"Feature","geometry":null},{"properties":{"city":"Elwood","country":"Australia","geo_score":0.714,"afl":3,"id":"a64lky5w5kvy","geo_precision":"city","state":"Victoria"},"type":"Feature","geometry":{"type":"Point","coordinates":[-99.860955,40.590284]}},{"properties":{"city":"Elysium","country":"Australia","geo_score":0.653,"afl":1,"id":"a64lky3ywm6x","geo_precision":"city","state":"Queensland"},"type":"Feature","geometry":{"type":"Point","coordinates":[-76.754127,37.571533]}},{"properties":{"city":"Emerald","country":"Australia","geo_score":0.648,"afl":1,"id":"a64lky2ngh2f","geo_precision":"city","state":"Victoria"},"type":"Feature","geometry":{"type":"Point","coordinates":[-87.569193,34.858142]}},{"properties":{"city":"Emu Plains","country":"Australia","geo_score":0.619,"afl":1,"id":"a64lkxxlbxd7","geo_precision":"city","state":"New South Wales"},"type":"Feature","geometry":{"type":"Point","coordinates":[-107.061714,39.364984]}},{"properties":{"city":"Endeavour Hills","country":"Australia","geo_score":0.602,"afl":3,"id":"a64lkxukv5xe","geo_precision":"city","state":"Victoria"},"type":"Feature","geometry":{"type":"Point","coordinates":[-132.636389,55.556667]}},{"properties":{"city":"Enmore","country":"Australia","geo_score":0.0,"afl":1,"id":"a64lkxu58ti0","geo_precision":"unmatched","state":"New South Wales"},"type":"Feature","geometry":null},{"properties":{"city":"Epping","country":"Australia","geo_score":0.714,"afl":2,"id":"a64lkxsx5inl","geo_precision":"city","state":"Victoria"},"type":"Feature","geometry":{"type":"Point","coordinates":[-103.376284,48.276356]}},{"properties":{"city":"Erina","country":"Australia","geo_score":0.686,"afl":1,"id":"a64lky709za4","geo_precision":"city","state":"New South Wales"},"type":"Feature","geometry":{"type":"Point","coordinates":[-85.908577,33.362611]}},{"properties":{"city":"Erskineville","country":"Australia","geo_score":0.655,"afl":1,"id":"a64lkxz5jrkn","geo_precision":"city","state":"New South Wales"},"type":"Feature","geometry":{"type":"Point","coordinates":[-74.258204,41.090929]}},{"properties":{"city":"Essendon","country":"Australia","geo_score":0.0,"afl":12,"id":"a64lkxtsbyge","geo_precision":"unmatched","state":"Victoria"},"type":"Feature","geometry":null},{"properties":{"city":"Ettalong Beach","country":"Australia","geo_score":0.593,"afl":2,"id":"a64lkxv6r5wn","geo_precision":"city","state":"New South Wales"},"type":"Feature","geometry":{"type":"Point","coordinates":[-87.861397,31.971263]}},{"properties":{"city":"Fairbairn Park","country":"Australia","geo_score":0.648,"afl":1,"id":"a64lkxwe2nqq","geo_precision":"city","state":"Victoria"},"type":"Feature","geometry":{"type":"Point","coordinates":[-89.037338,43.971091]}},{"properties":{"city":"Fairfield","country":"Australia","geo_score":0.643,"afl":1,"id":"a64lkxrx101m","geo_precision":"city","state":"New South Wales"},"type":"Feature","geometry":{"type":"Point","coordinates":[-86.942493,33.453442]}},{"properties":{"city":"Fairfield","country":"Australia","geo_score":0.643,"afl":1,"id":"a64lkxwjhlxi","geo_precision":"city","state":"Victoria"},"type":"Feature","geometry":{"type":"Point","coordinates":[-86.942493,33.453442]}},{"properties":{"city":"Fairlight","country":"Australia","geo_score":0.619,"afl":2,"id":"a64lky4tw7rp","geo_precision":"city","state":"New South Wales"},"type":"Feature","geometry":{"type":"Point","coordinates":[-121.777349,48.090382]}},{"properties":{"city":"Fairy Meadow","country":"Australia","geo_score":0.61,"afl":1,"id":"a64lkxyfpeop","geo_precision":"city","state":"New South Wales"},"type":"Feature","geometry":{"type":"Point","coordinates":[-75.387693,39.916778]}},{"properties":{"city":"Ferntree Gully","country":"Australia","geo_score":0.626,"afl":2,"id":"a64lkxsndvfq","geo_precision":"city","state":"Victoria"},"type":"Feature","geometry":{"type":"Point","coordinates":[-84.610767,33.804828]}},{"properties":{"city":"Fingal","country":"Australia","geo_score":0.653,"afl":1,"id":"a64lkxx600w8","geo_precision":"city","state":"Victoria"},"type":"Feature","geometry":{"type":"Point","coordinates":[-87.830842,32.071538]}},{"properties":{"city":"Fitzroy","country":"Australia","geo_score":0.0,"afl":13,"id":"a64lky2055kt","geo_precision":"unmatched","state":"Victoria"},"type":"Feature","geometry":null},{"properties":{"city":"Fitzroy North","country":"Australia","geo_score":0.0,"afl":2,"id":"a64lkxu1xoue","geo_precision":"unmatched","state":"Victoria"},"type":"Feature","geometry":null},{"properties":{"city":"Flagstaff Hill","country":"Australia","geo_score":0.604,"afl":1,"id":"a64lky0jmg9k","geo_precision":"city","state":"South Australia"},"type":"Feature","geometry":{"type":"Point","coordinates":[-80.278106,25.857596]}},{"properties":{"city":"Flemington","country":"Australia","geo_score":0.663,"afl":3,"id":"a64lky0d36ws","geo_precision":"city","state":"Victoria"},"type":"Feature","geometry":{"type":"Point","coordinates":[-75.597982,38.918447]}},{"properties":{"city":"Flinders Island","country":"Australia","geo_score":0.643,"afl":1,"id":"a64lkxu8s7gj","geo_precision":"city","state":"Tasmania"},"type":"Feature","geometry":{"type":"Point","coordinates":[-72.217579,41.368987]}},{"properties":{"city":"Footscray","country":"Australia","geo_score":0.655,"afl":6,"id":"a64lky7cu1u8","geo_precision":"city","state":"Victoria"},"type":"Feature","geometry":{"type":"Point","coordinates":[-77.677498,42.746453]}},{"properties":{"city":"Forestville","country":"Australia","geo_score":0.675,"afl":1,"id":"a64lkxsosuc1","geo_precision":"city","state":"New South Wales"},"type":"Feature","geometry":{"type":"Point","coordinates":[-87.79339,41.808643]}},{"properties":{"city":"Forititude Valley","country":"Australia","geo_score":0.598,"afl":1,"id":"a64lkxwbiyg2","geo_precision":"city","state":"Queensland"},"type":"Feature","geometry":{"type":"Point","coordinates":[-92.820441,33.699554]}},{"properties":{"city":"Forster","country":"Australia","geo_score":0.696,"afl":1,"id":"a64lkxsypu9k","geo_precision":"city","state":"New South Wales"},"type":"Feature","geometry":{"type":"Point","coordinates":[-86.598034,32.437081]}},{"properties":{"city":"Foster","country":"Australia","geo_score":0.661,"afl":1,"id":"a64lkxv5c5w8","geo_precision":"city","state":"Victoria"},"type":"Feature","geometry":{"type":"Point","coordinates":[-86.829982,32.086534]}},{"properties":{"city":"Frankston","country":"Australia","geo_score":0.667,"afl":35,"id":"a64lky2jzu1n","geo_precision":"city","state":"Victoria"},"type":"Feature","geometry":{"type":"Point","coordinates":[-88.679801,41.710863]}},{"properties":{"city":"Frankston South","country":"Australia","geo_score":0.633,"afl":10,"id":"a64lkxy4tveg","geo_precision":"city","state":"Victoria"},"type":"Feature","geometry":{"type":"Point","coordinates":[-88.679801,41.710863]}},{"properties":{"city":"Fremantle","country":"Australia","geo_score":0.667,"afl":46,"id":"a64lky17djfy","geo_precision":"city","state":"Western Australia"},"type":"Feature","geometry":{"type":"Point","coordinates":[-121.988572,37.54827]}},{"properties":{"city":"French Forest","country":"Australia","geo_score":0.637,"afl":1,"id":"a64lky8ajabj","geo_precision":"city","state":"New South Wales"},"type":"Feature","geometry":{"type":"Point","coordinates":[-90.050106,38.600328]}},{"properties":{"city":"Gawler","country":"Australia","geo_score":0.595,"afl":4,"id":"a64lkxwzv7ps","geo_precision":"city","state":"South Australia"},"type":"Feature","geometry":{"type":"Point","coordinates":[-90.45788,35.309809]}},{"properties":{"city":"Geelong","country":"Australia","geo_score":0.0,"afl":545,"id":"a64lky7sntol","geo_precision":"unmatched","state":"Victoria"},"type":"Feature","geometry":null},{"properties":{"city":"Gembrook","country":"Australia","geo_score":0.0,"afl":1,"id":"a64lky2bbbz4","geo_precision":"unmatched","state":"Victoria"},"type":"Feature","geometry":null},{"properties":{"city":"Geraldton","country":"Australia","geo_score":0.0,"afl":10,"id":"a64lkxw6m3el","geo_precision":"unmatched","state":"Western Australia"},"type":"Feature","geometry":null},{"properties":{"city":"Gerogery","country":"Australia","geo_score":0.0,"afl":1,"id":"a64lkxy4wxy4","geo_precision":"unmatched","state":"New South Wales"},"type":"Feature","geometry":null},{"properties":{"city":"Gippsland","country":"Australia","geo_score":0.0,"afl":17,"id":"a64lkxvbnrhh","geo_precision":"unmatched","state":"Victoria"},"type":"Feature","geometry":null},{"properties":{"city":"Gisborne","country":"Australia","geo_score":0.0,"afl":7,"id":"a64lky82k1xx","geo_precision":"unmatched","state":"Victoria"},"type":"Feature","geometry":null},{"properties":{"city":"Gladesville","country":"Australia","geo_score":0.662,"afl":1,"id":"a64lkxtcvvmu","geo_precision":"city","state":"New South Wales"},"type":"Feature","geometry":{"type":"Point","coordinates":[-86.749166,34.830645]}},{"properties":{"city":"Gladstone","country":"Australia","geo_score":0.714,"afl":1,"id":"a64lkxujbmc0","geo_precision":"city","state":"Queensland"},"type":"Feature","geometry":{"type":"Point","coordinates":[-86.643051,34.872589]}},{"properties":{"city":"Glebe","country":"Australia","geo_score":0.629,"afl":1,"id":"a64lky1wyvdm","geo_precision":"city","state":"New South Wales"},"type":"Feature","geometry":{"type":"Point","coordinates":[-84.012134,33.782608]}},{"properties":{"city":"Glen Huntly","country":"Australia","geo_score":0.643,"afl":1,"id":"a64lkxx7cqin","geo_precision":"city","state":"Victoria"},"type":"Feature","geometry":{"type":"Point","coordinates":[-75.519924,39.137057]}},{"properties":{"city":"Glen Iris","country":"Australia","geo_score":0.589,"afl":1,"id":"a64lky5pg4yt","geo_precision":"city","state":"Victoria"},"type":"Feature","geometry":{"type":"Point","coordinates":[-86.901516,33.94131]}},{"properties":{"city":"Glen Waverley","country":"Australia","geo_score":0.595,"afl":4,"id":"a64lkxsprrk7","geo_precision":"city","state":"Victoria"},"type":"Feature","geometry":{"type":"Point","coordinates":[-86.901516,33.94131]}},{"properties":{"city":"Glenelg","country":"Australia","geo_score":0.694,"afl":1,"id":"a64lky6awpu7","geo_precision":"city","state":"South Australia"},"type":"Feature","geometry":{"type":"Point","coordinates":[-105.354717,39.463322]}},{"properties":{"city":"Gold Coast","country":"Australia","geo_score":0.603,"afl":740,"id":"a64lkxv11xvy","geo_precision":"city","state":"Queensland"},"type":"Feature","geometry":{"type":"Point","coordinates":[-86.07052,32.579022]}},{"properties":{"city":"Gold Coast","country":"Australia","geo_score":0.603,"afl":1,"id":"a64lkxu1hp66","geo_precision":"city","state":"Victoria"},"type":"Feature","geometry":{"type":"Point","coordinates":[-86.07052,32.579022]}},{"properties":{"city":"Golden Grove","country":"Australia","geo_score":0.597,"afl":2,"id":"a64lkxzpgp0b","geo_precision":"city","state":"South Australia"},"type":"Feature","geometry":{"type":"Point","coordinates":[-87.087485,31.890428]}},{"properties":{"city":"Golden Square","country":"Australia","geo_score":0.607,"afl":1,"id":"a64lky7d22ry","geo_precision":"city","state":"Victoria"},"type":"Feature","geometry":{"type":"Point","coordinates":[-87.087485,31.890428]}},{"properties":{"city":"Goorambat","country":"Australia","geo_score":0.0,"afl":1,"id":"a64lky87ivx3","geo_precision":"unmatched","state":"Victoria"},"type":"Feature","geometry":null},{"properties":{"city":"Gordon","country":"Australia","geo_score":0.667,"afl":1,"id":"a64lkxsk8zb7","geo_precision":"city","state":"New South Wales"},"type":"Feature","geometry":{"type":"Point","coordinates":[-88.183363,33.15679]}},{"properties":{"city":"Gosford","country":"Australia","geo_score":0.0,"afl":43,"id":"a64lkxuzpsc8","geo_precision":"unmatched","state":"New South Wales"},"type":"Feature","geometry":null},{"properties":{"city":"Grafton","country":"Australia","geo_score":0.694,"afl":1,"id":"a64lkxvxahbx","geo_precision":"city","state":"New South Wales"},"type":"Feature","geometry":{"type":"Point","coordinates":[-117.121702,34.063069]}},{"properties":{"city":"Greensborough","country":"Australia","geo_score":0.681,"afl":2,"id":"a64lky1qnocf","geo_precision":"city","state":"Victoria"},"type":"Feature","geometry":{"type":"Point","coordinates":[-79.791975,36.072636]}},{"properties":{"city":"Greenwith","country":"Australia","geo_score":0.635,"afl":1,"id":"a64lkxxel4uc","geo_precision":"city","state":"South Australia"},"type":"Feature","geometry":{"type":"Point","coordinates":[-78.512245,40.863393]}},{"properties":{"city":"Gregory Hills","country":"Australia","geo_score":0.607,"afl":2,"id":"a64lky55mmrv","geo_precision":"city","state":"New South Wales"},"type":"Feature","geometry":{"type":"Point","coordinates":[-132.636389,55.556667]}},{"properties":{"city":"Greymouth","country":"New Zealand","geo_score":0.0,"afl":1,"id":"a64lky31d6vj","geo_precision":"unmatched","state":"West Coast"},"type":"Feature","geometry":null},{"properties":{"city":"Griffith","country":"Australia","geo_score":0.714,"afl":5,"id":"a64lkxu4kiis","geo_precision":"city","state":"New South Wales"},"type":"Feature","geometry":{"type":"Point","coordinates":[-88.828109,33.635119]}},{"properties":{"city":"Grovedale","country":"Australia","geo_score":0.683,"afl":3,"id":"a64lkxxfmiy7","geo_precision":"city","state":"Victoria"},"type":"Feature","geometry":{"type":"Point","coordinates":[-76.129396,40.091487]}},{"properties":{"city":"Gunnedah","country":"Australia","geo_score":0.589,"afl":1,"id":"a64lkxs45k70","geo_precision":"city","state":"New South Wales"},"type":"Feature","geometry":{"type":"Point","coordinates":[-122.234843,47.380934]}},{"properties":{"city":"Gymbowen","country":"Australia","geo_score":0.0,"afl":1,"id":"a64lkxzxb5tb","geo_precision":"unmatched","state":"Victoria"},"type":"Feature","geometry":null},{"properties":{"city":"Hadfield","country":"Australia","geo_score":0.696,"afl":2,"id":"a64lky5jcm7g","geo_precision":"city","state":"Victoria"},"type":"Feature","geometry":{"type":"Point","coordinates":[-82.368478,37.724544]}},{"properties":{"city":"Hamilton","country":"New Zealand","geo_score":0.714,"afl":5,"id":"a64lkxv601wi","geo_precision":"city","state":"Waikato"},"type":"Feature","geometry":{"type":"Point","coordinates":[-84.561336,39.399501]}},{"properties":{"city":"Hamilton","country":"Australia","geo_score":0.714,"afl":7,"id":"a64lkxzgvl04","geo_precision":"city","state":"Victoria"},"type":"Feature","geometry":{"type":"Point","coordinates":[-84.561336,39.399501]}},{"properties":{"city":"Hampton Park","country":"Australia","geo_score":0.649,"afl":1,"id":"a64lkxxhtd0x","geo_precision":"city","state":"Victoria"},"type":"Feature","geometry":{"type":"Point","coordinates":[-86.304984,34.547588]}},{"properties":{"city":"Harden","country":"Australia","geo_score":0.69,"afl":1,"id":"a64lky7cbr2e","geo_precision":"city","state":"New South Wales"},"type":"Feature","geometry":{"type":"Point","coordinates":[-92.150146,34.281208]}},{"properties":{"city":"Harvey","country":"Australia","geo_score":0.69,"afl":3,"id":"a64lky1v6u55","geo_precision":"city","state":"Western Australia"},"type":"Feature","geometry":{"type":"Point","coordinates":[-93.777126,33.498178]}},{"properties":{"city":"Hastings","country":"Australia","geo_score":0.714,"afl":3,"id":"a64lky6k0gq5","geo_precision":"city","state":"Victoria"},"type":"Feature","geometry":{"type":"Point","coordinates":[-85.92944,41.383658]}},{"properties":{"city":"Hastings Point","country":"Australia","geo_score":0.659,"afl":1,"id":"a64lkxw2zctk","geo_precision":"city","state":"New South Wales"},"type":"Feature","geometry":{"type":"Point","coordinates":[-85.92944,41.383658]}},{"properties":{"city":"Hawkesbury Heights","country":"Australia","geo_score":0.63,"afl":1,"id":"a64lkxzym5aq","geo_precision":"city","state":"New South Wales"},"type":"Feature","geometry":{"type":"Point","coordinates":[-81.783745,39.583683]}},{"properties":{"city":"Hawthorn","country":"Australia","geo_score":0.714,"afl":7,"id":"a64lkxyk3vb4","geo_precision":"city","state":"Victoria"},"type":"Feature","geometry":{"type":"Point","coordinates":[-88.088337,31.333225]}},{"properties":{"city":"Hawthorn East","country":"Australia","geo_score":0.667,"afl":2,"id":"a64lkxzmhv6o","geo_precision":"city","state":"Victoria"},"type":"Feature","geometry":{"type":"Point","coordinates":[-88.088337,31.333225]}},{"properties":{"city":"Haymarket","country":"Australia","geo_score":0.714,"afl":1,"id":"a64lkxsm0w90","geo_precision":"city","state":"New South Wales"},"type":"Feature","geometry":{"type":"Point","coordinates":[-77.466897,38.721912]}},{"properties":{"city":"Healesville","country":"Australia","geo_score":0.623,"afl":1,"id":"a64lkxw2komm","geo_precision":"city","state":"Victoria"},"type":"Feature","geometry":{"type":"Point","coordinates":[-121.053283,39.224061]}},{"properties":{"city":"Heathcote","country":"Australia","geo_score":0.714,"afl":1,"id":"a64lkxuk4hcv","geo_precision":"city","state":"New South Wales"},"type":"Feature","geometry":{"type":"Point","coordinates":[-73.774577,40.984542]}},{"properties":{"city":"Heathmont","country":"Australia","geo_score":0.0,"afl":2,"id":"a64lkxwbxdxp","geo_precision":"unmatched","state":"Victoria"},"type":"Feature","geometry":null},{"properties":{"city":"Henty","country":"Australia","geo_score":0.657,"afl":2,"id":"a64lkxv9arsw","geo_precision":"city","state":"New South Wales"},"type":"Feature","geometry":{"type":"Point","coordinates":[-109.627608,34.610034]}},{"properties":{"city":"Herston","country":"Australia","geo_score":0.657,"afl":1,"id":"a64lky0njntr","geo_precision":"city","state":"Queensland"},"type":"Feature","geometry":{"type":"Point","coordinates":[-76.74275,39.287884]}},{"properties":{"city":"Hervey Bay","country":"Australia","geo_score":0.587,"afl":18,"id":"a64lkxuq48w2","geo_precision":"city","state":"Queensland"},"type":"Feature","geometry":{"type":"Point","coordinates":[-92.564049,34.352039]}},{"properties":{"city":"Heyfield","country":"Australia","geo_score":0.667,"afl":2,"id":"a64lkxwwntf9","geo_precision":"city","state":"Victoria"},"type":"Feature","geometry":{"type":"Point","coordinates":[-79.928112,40.863398]}},{"properties":{"city":"Highton","country":"Australia","geo_score":0.653,"afl":2,"id":"a64lkxsfojdn","geo_precision":"city","state":"Victoria"},"type":"Feature","geometry":{"type":"Point","coordinates":[-87.340279,33.259005]}},{"properties":{"city":"Hillside","country":"Australia","geo_score":0.714,"afl":3,"id":"a64lky00low6","geo_precision":"city","state":"Victoria"},"type":"Feature","geometry":{"type":"Point","coordinates":[-112.91713,34.418357]}},{"properties":{"city":"Hobart","country":"Australia","geo_score":0.653,"afl":223,"id":"a64lky4pihsm","geo_precision":"city","state":"Tasmania"},"type":"Feature","geometry":{"type":"Point","coordinates":[-94.319933,35.90536]}},{"properties":{"city":"Homebush","country":"Australia","geo_score":0.0,"afl":1,"id":"a64lkxyn65tz","geo_precision":"unmatched","state":"New South Wales"},"type":"Feature","geometry":null},{"properties":{"city":"Homebush Bay","country":"Australia","geo_score":0.597,"afl":1,"id":"a64lkxwjqd2s","geo_precision":"city","state":"New South Wales"},"type":"Feature","geometry":{"type":"Point","coordinates":[-92.564049,34.352039]}},{"properties":{"city":"Hoppers Crossing","country":"Australia","geo_score":0.619,"afl":12,"id":"a64lky1p2hmu","geo_precision":"city","state":"Victoria"},"type":"Feature","geometry":{"type":"Point","coordinates":[-90.534845,39.361437]}},{"properties":{"city":"Hornsby","country":"Australia","geo_score":0.714,"afl":3,"id":"a64lkxwrp9of","geo_precision":"city","state":"New South Wales"},"type":"Feature","geometry":{"type":"Point","coordinates":[-89.745093,39.170603]}},{"properties":{"city":"Horsham","country":"Australia","geo_score":0.714,"afl":5,"id":"a64lky5hlj5z","geo_precision":"city","state":"Victoria"},"type":"Feature","geometry":{"type":"Point","coordinates":[-75.150577,40.191808]}},{"properties":{"city":"Hughesdale","country":"Australia","geo_score":0.657,"afl":2,"id":"a64lky5terqf","geo_precision":"city","state":"Victoria"},"type":"Feature","geometry":{"type":"Point","coordinates":[-75.773249,41.327024]}},{"properties":{"city":"Hunter Region","country":"Australia","geo_score":0.643,"afl":1,"id":"a64lkxukf636","geo_precision":"city","state":"New South Wales"},"type":"Feature","geometry":{"type":"Point","coordinates":[-86.395528,32.395693]}},{"properties":{"city":"Hunter Valley","country":"Australia","geo_score":0.607,"afl":6,"id":"a64lkxwwdvoo","geo_precision":"city","state":"New South Wales"},"type":"Feature","geometry":{"type":"Point","coordinates":[-92.820441,33.699554]}},{"properties":{"city":"Hyde Park","country":"Australia","geo_score":0.643,"afl":1,"id":"a64lky6k14kr","geo_precision":"city","state":"South Australia"},"type":"Feature","geometry":{"type":"Point","coordinates":[-102.832712,40.135818]}},{"properties":{"city":"Illawarra","country":"Australia","geo_score":0.0,"afl":4,"id":"a64lky264pm6","geo_precision":"unmatched","state":"New South Wales"},"type":"Feature","geometry":null},{"properties":{"city":"Ingham","country":"Australia","geo_score":0.649,"afl":1,"id":"a64lky0af64v","geo_precision":"city","state":"Queensland"},"type":"Feature","geometry":{"type":"Point","coordinates":[-74.763759,43.057571]}},{"properties":{"city":"Inglewood","country":"Australia","geo_score":0.714,"afl":1,"id":"a64lky2f68zs","geo_precision":"city","state":"Western Australia"},"type":"Feature","geometry":{"type":"Point","coordinates":[-96.501414,41.416389]}},{"properties":{"city":"Invercargill","country":"New Zealand","geo_score":0.622,"afl":1,"id":"a64lky2dsoxa","geo_precision":"city","state":"Southland"},"type":"Feature","geometry":{"type":"Point","coordinates":[-93.042715,44.848022]}},{"properties":{"city":"Invermay","country":"Australia","geo_score":0.0,"afl":1,"id":"a64lky40821n","geo_precision":"unmatched","state":"Victoria"},"type":"Feature","geometry":null},{"properties":{"city":"Ipswich","country":"Australia","geo_score":0.714,"afl":9,"id":"a64lky3c5vys","geo_precision":"city","state":"Queensland"},"type":"Feature","geometry":{"type":"Point","coordinates":[-70.864132,42.68571]}},{"properties":{"city":"Ipswitch","country":"Australia","geo_score":0.696,"afl":1,"id":"a64lky3bx2r6","geo_precision":"city","state":"Queensland"},"type":"Feature","geometry":{"type":"Point","coordinates":[-70.864132,42.68571]}},{"properties":{"city":"Ivanhoe","country":"Australia","geo_score":0.714,"afl":1,"id":"a64lkxv6kil4","geo_precision":"city","state":"Victoria"},"type":"Feature","geometry":{"type":"Point","coordinates":[-81.477333,32.284087]}},{"properties":{"city":"Jacana","country":"Australia","geo_score":0.595,"afl":1,"id":"a64lkxv0d00e","geo_precision":"city","state":"Victoria"},"type":"Feature","geometry":{"type":"Point","coordinates":[-86.164125,31.786544]}},{"properties":{"city":"Jan Juc","country":"Australia","geo_score":0.619,"afl":1,"id":"a64lky3qncp3","geo_precision":"city","state":"Victoria"},"type":"Feature","geometry":{"type":"Point","coordinates":[-85.227449,33.652053]}},{"properties":{"city":"Jerrabomberra","country":"Australia","geo_score":0.0,"afl":1,"id":"a64lkxztqcod","geo_precision":"unmatched","state":"New South Wales"},"type":"Feature","geometry":null},{"properties":{"city":"Jimboomba","country":"Australia","geo_score":0.0,"afl":1,"id":"a64lky71sarb","geo_precision":"unmatched","state":"Queensland"},"type":"Feature","geometry":null},{"properties":{"city":"Joondalup","country":"Australia","geo_score":0.0,"afl":3,"id":"a64lky817vqb","geo_precision":"unmatched","state":"Western Australia"},"type":"Feature","geometry":null},{"properties":{"city":"Kadina","country":"Australia","geo_score":0.643,"afl":2,"id":"a64lky7ol3i8","geo_precision":"city","state":"South Australia"},"type":"Feature","geometry":{"type":"Point","coordinates":[-86.765268,33.605381]}},{"properties":{"city":"Kalgoorlie","country":"Australia","geo_score":0.0,"afl":14,"id":"a64lkxrywnoa","geo_precision":"unmatched","state":"Western Australia"},"type":"Feature","geometry":null},{"properties":{"city":"Kallangur","country":"Australia","geo_score":0.619,"afl":2,"id":"a64lky29alfd","geo_precision":"city","state":"Queensland"},"type":"Feature","geometry":{"type":"Point","coordinates":[-116.374628,48.22187]}},{"properties":{"city":"Kangaroo Point","country":"Australia","geo_score":0.626,"afl":1,"id":"a64lkxwbh8mm","geo_precision":"city","state":"Queensland"},"type":"Feature","geometry":{"type":"Point","coordinates":[-77.078034,39.031498]}},{"properties":{"city":"Katoomba","country":"Australia","geo_score":0.0,"afl":1,"id":"a64lky5psf97","geo_precision":"unmatched","state":"New South Wales"},"type":"Feature","geometry":null},{"properties":{"city":"Kawa","country":"Australia","geo_score":0.6,"afl":1,"id":"a64lky079fib","geo_precision":"city","state":"New South Wales"},"type":"Feature","geometry":{"type":"Point","coordinates":[-83.407933,35.261207]}},{"properties":{"city":"Keilor Downs","country":"Australia","geo_score":0.597,"afl":1,"id":"a64lkxtk9w5w","geo_precision":"city","state":"Victoria"},"type":"Feature","geometry":{"type":"Point","coordinates":[-90.45788,35.309809]}},{"properties":{"city":"Kellyville","country":"Australia","geo_score":0.629,"afl":1,"id":"a64lkxxa6afl","geo_precision":"city","state":"New South Wales"},"type":"Feature","geometry":{"type":"Point","coordinates":[-87.418061,33.74011]}},{"properties":{"city":"Kensington","country":"Australia","geo_score":0.714,"afl":1,"id":"a64lkxtxq38v","geo_precision":"city","state":"Victoria"},"type":"Feature","geometry":{"type":"Point","coordinates":[-122.280247,37.910481]}},{"properties":{"city":"Kent Town","country":"Australia","geo_score":0.643,"afl":2,"id":"a64lky0dsxl1","geo_precision":"city","state":"South Australia"},"type":"Feature","geometry":{"type":"Point","coordinates":[-122.234843,47.380934]}},{"properties":{"city":"Kew","country":"Australia","geo_score":0.667,"afl":7,"id":"a64lky5c9s9c","geo_precision":"city","state":"Victoria"},"type":"Feature","geometry":{"type":"Point","coordinates":[-85.534404,34.102597]}},{"properties":{"city":"Kiama","country":"Australia","geo_score":0.6,"afl":1,"id":"a64lky70gml6","geo_precision":"city","state":"New South Wales"},"type":"Feature","geometry":{"type":"Point","coordinates":[-92.183489,36.406454]}},{"properties":{"city":"Kilsyth","country":"Australia","geo_score":0.714,"afl":4,"id":"a64lkxzprr21","geo_precision":"city","state":"Victoria"},"type":"Feature","geometry":{"type":"Point","coordinates":[-84.08298,36.42869]}},{"properties":{"city":"Kingscote","country":"Australia","geo_score":0.675,"afl":4,"id":"a64lky53r8jn","geo_precision":"city","state":"South Australia"},"type":"Feature","geometry":{"type":"Point","coordinates":[-72.602311,41.944541]}},{"properties":{"city":"Kingsley","country":"Australia","geo_score":0.643,"afl":1,"id":"a64lky5gep8i","geo_precision":"city","state":"Western Australia"},"type":"Feature","geometry":{"type":"Point","coordinates":[-87.081934,32.255974]}},{"properties":{"city":"Kingston","country":"Australia","geo_score":0.714,"afl":2,"id":"a64lky0b81hv","geo_precision":"city","state":"Tasmania"},"type":"Feature","geometry":{"type":"Point","coordinates":[-93.315183,35.016757]}},{"properties":{"city":"Kingsville","country":"Australia","geo_score":0.643,"afl":1,"id":"a64lkxx3ve59","geo_precision":"city","state":"Victoria"},"type":"Feature","geometry":{"type":"Point","coordinates":[-81.838998,30.785234]}},{"properties":{"city":"Kingswood","country":"Australia","geo_score":0.714,"afl":1,"id":"a64lkxrxj97i","geo_precision":"city","state":"New South Wales"},"type":"Feature","geometry":{"type":"Point","coordinates":[-86.408588,37.718948]}},{"properties":{"city":"Kirra","country":"Australia","geo_score":0.629,"afl":1,"id":"a64lky6nf91j","geo_precision":"city","state":"Queensland"},"type":"Feature","geometry":{"type":"Point","coordinates":[-150.011944,62.614722]}},{"properties":{"city":"Kirribilli","country":"Australia","geo_score":0.629,"afl":1,"id":"a64lkxsw9xxc","geo_precision":"city","state":"New South Wales"},"type":"Feature","geometry":{"type":"Point","coordinates":[-85.275768,31.586557]}},{"properties":{"city":"Knoxfield","country":"Australia","geo_score":0.631,"afl":1,"id":"a64lky01k2g3","geo_precision":"city","state":"Victoria"},"type":"Feature","geometry":{"type":"Point","coordinates":[-80.280061,40.598956]}},{"properties":{"city":"Kooyong","country":"Australia","geo_score":0.607,"afl":1,"id":"a64lky41q7pv","geo_precision":"city","state":"Victoria"},"type":"Feature","geometry":{"type":"Point","coordinates":[-77.16553,42.623958]}},{"properties":{"city":"Korumburra","country":"Australia","geo_score":0.629,"afl":1,"id":"a64lkxrymx9k","geo_precision":"city","state":"Victoria"},"type":"Feature","geometry":{"type":"Point","coordinates":[-120.691612,39.860174]}},{"properties":{"city":"Koumala","country":"Australia","geo_score":0.625,"afl":1,"id":"a64lkxui6h4u","geo_precision":"city","state":"Queensland"},"type":"Feature","geometry":{"type":"Point","coordinates":[-158.114167,21.572778]}},{"properties":{"city":"Ku-ring-gai","country":"Australia","geo_score":0.635,"afl":1,"id":"a64lkxvrnwhx","geo_precision":"city","state":"New South Wales"},"type":"Feature","geometry":{"type":"Point","coordinates":[-121.655517,38.784902]}},{"properties":{"city":"Kuitpo","country":"Australia","geo_score":0.612,"afl":1,"id":"a64lkxv6ilub","geo_precision":"city","state":"South Australia"},"type":"Feature","geometry":{"type":"Point","coordinates":[-88.069465,32.485138]}},{"properties":{"city":"Kyabram","country":"Australia","geo_score":0.0,"afl":3,"id":"a64lkxwbe9cu","geo_precision":"unmatched","state":"Victoria"},"type":"Feature","geometry":null},{"properties":{"city":"Kyneton","country":"Australia","geo_score":0.653,"afl":4,"id":"a64lky0fc4uh","geo_precision":"city","state":"Victoria"},"type":"Feature","geometry":{"type":"Point","coordinates":[-81.378447,40.798947]}},{"properties":{"city":"Laidley","country":"Australia","geo_score":0.633,"afl":1,"id":"a64lky801egn","geo_precision":"city","state":"Queensland"},"type":"Feature","geometry":{"type":"Point","coordinates":[-85.952438,31.075733]}},{"properties":{"city":"Lake Albert","country":"Australia","geo_score":0.629,"afl":1,"id":"a64lkxut0l9h","geo_precision":"city","state":"New South Wales"},"type":"Feature","geometry":{"type":"Point","coordinates":[-86.12578,31.277947]}},{"properties":{"city":"Lake Macquarie","country":"Australia","geo_score":0.593,"afl":1,"id":"a64lky4qxcwy","geo_precision":"city","state":"New South Wales"},"type":"Feature","geometry":{"type":"Point","coordinates":[-85.214934,31.965715]}},{"properties":{"city":"Lakes Entrance","country":"Australia","geo_score":0.593,"afl":1,"id":"a64lkxw1rm8w","geo_precision":"city","state":"Victoria"},"type":"Feature","geometry":{"type":"Point","coordinates":[-94.115485,35.069818]}},{"properties":{"city":"Langford","country":"Australia","geo_score":0.714,"afl":1,"id":"a64lky4g2i07","geo_precision":"city","state":"Western Australia"},"type":"Feature","geometry":{"type":"Point","coordinates":[-89.972304,32.346534]}},{"properties":{"city":"Langwarrin","country":"Australia","geo_score":0.634,"afl":2,"id":"a64lky00yykq","geo_precision":"city","state":"Victoria"},"type":"Feature","geometry":{"type":"Point","coordinates":[-71.768678,41.342045]}},{"properties":{"city":"Lara","country":"Australia","geo_score":0.629,"afl":1,"id":"a64lky835jt9","geo_precision":"city","state":"Victoria"},"type":"Feature","geometry":{"type":"Point","coordinates":[-87.089978,31.487386]}},{"properties":{"city":"Launceston","country":"Australia","geo_score":0.0,"afl":70,"id":"a64lky2pmkd4","geo_precision":"unmatched","state":"Tasmania"},"type":"Feature","geometry":null},{"properties":{"city":"Laverton North","country":"Australia","geo_score":0.0,"afl":1,"id":"a64lkxxv5ow1","geo_precision":"unmatched","state":"Victoria"},"type":"Feature","geometry":null},{"properties":{"city":"Leederville","country":"Australia","geo_score":0.0,"afl":1,"id":"a64lky5wdmqb","geo_precision":"unmatched","state":"Western Australia"},"type":"Feature","geometry":null},{"properties":{"city":"Leichhardt","country":"Australia","geo_score":0.0,"afl":2,"id":"a64lky5l0xzz","geo_precision":"unmatched","state":"New South Wales"},"type":"Feature","geometry":null},{"properties":{"city":"Lethbridge","country":"Australia","geo_score":0.0,"afl":1,"id":"a64lky128ycx","geo_precision":"unmatched","state":"Victoria"},"type":"Feature","geometry":null},{"properties":{"city":"Leumeah","country":"Australia","geo_score":0.633,"afl":1,"id":"a64lky27e29b","geo_precision":"city","state":"New South Wales"},"type":"Feature","geometry":{"type":"Point","coordinates":[-84.105226,40.742551]}},{"properties":{"city":"Lilydale","country":"Australia","geo_score":0.698,"afl":5,"id":"a64lky5t7lpg","geo_precision":"city","state":"Victoria"},"type":"Feature","geometry":{"type":"Point","coordinates":[-86.651373,38.011726]}},{"properties":{"city":"Lilyfield","country":"Australia","geo_score":0.0,"afl":1,"id":"a64lky70xwo4","geo_precision":"unmatched","state":"New South Wales"},"type":"Feature","geometry":null},{"properties":{"city":"Lobethal","country":"Australia","geo_score":0.0,"afl":1,"id":"a64lky2wozvs","geo_precision":"unmatched","state":"South Australia"},"type":"Feature","geometry":null},{"properties":{"city":"Logan City","country":"Australia","geo_score":0.619,"afl":1,"id":"a64lky1sqkd2","geo_precision":"city","state":"Queensland"},"type":"Feature","geometry":{"type":"Point","coordinates":[-86.903338,34.334819]}},{"properties":{"city":"Loganholme","country":"Australia","geo_score":0.636,"afl":2,"id":"a64lkxz6prb4","geo_precision":"city","state":"Queensland"},"type":"Feature","geometry":{"type":"Point","coordinates":[-117.715535,33.595714]}},{"properties":{"city":"Lorne","country":"Australia","geo_score":0.69,"afl":1,"id":"a64lky2xhnmc","geo_precision":"city","state":"Victoria"},"type":"Feature","geometry":{"type":"Point","coordinates":[-91.032624,36.30701]}},{"properties":{"city":"Lower Hutt","country":"New Zealand","geo_score":0.587,"afl":2,"id":"a64lkxxlksu6","geo_precision":"city","state":"Wellington"},"type":"Feature","geometry":{"type":"Point","coordinates":[-102.832712,40.135818]}},{"properties":{"city":"Lumsden","country":"New Zealand","geo_score":0.612,"afl":2,"id":"a64lkxt00kqc","geo_precision":"city","state":"Southland"},"type":"Feature","geometry":{"type":"Point","coordinates":[-75.666319,39.725112]}},{"properties":{"city":"Lyndoch","country":"Australia","geo_score":0.0,"afl":4,"id":"a64lkxxdwlsm","geo_precision":"unmatched","state":"South Australia"},"type":"Feature","geometry":null},{"properties":{"city":"Lysterfield","country":"Australia","geo_score":0.636,"afl":1,"id":"a64lky0ny2rr","geo_precision":"city","state":"Victoria"},"type":"Feature","geometry":{"type":"Point","coordinates":[-113.61988,43.691482]}},{"properties":{"city":"MacGregor","country":"Australia","geo_score":0.698,"afl":1,"id":"a64lkxxtwe2i","geo_precision":"city","state":"Queensland"},"type":"Feature","geometry":{"type":"Point","coordinates":[-82.504854,32.196573]}},{"properties":{"city":"Mackay","country":"Australia","geo_score":0.619,"afl":7,"id":"a64lky6wgkni","geo_precision":"city","state":"Queensland"},"type":"Feature","geometry":{"type":"Point","coordinates":[-122.116076,38.025477]}},{"properties":{"city":"Macquarie Fields","country":"Australia","geo_score":0.59,"afl":1,"id":"a64lkxtq9p5b","geo_precision":"city","state":"New South Wales"},"type":"Feature","geometry":{"type":"Point","coordinates":[-104.701935,37.122243]}},{"properties":{"city":"Maddington","country":"Australia","geo_score":0.0,"afl":1,"id":"a64lkxtsnj0v","geo_precision":"unmatched","state":"Western Australia"},"type":"Feature","geometry":null},{"properties":{"city":"Malaga","country":"Australia","geo_score":0.714,"afl":1,"id":"a64lky0ylkbx","geo_precision":"city","state":"Western Australia"},"type":"Feature","geometry":{"type":"Point","coordinates":[-119.733751,36.683561]}},{"properties":{"city":"Malbina","country":"Australia","geo_score":0.0,"afl":1,"id":"a64lkxzph862","geo_precision":"unmatched","state":"Tasmania"},"type":"Feature","geometry":null},{"properties":{"city":"Malvern","country":"Australia","geo_score":0.714,"afl":1,"id":"a64lky7g267a","geo_precision":"city","state":"Victoria"},"type":"Feature","geometry":{"type":"Point","coordinates":[-89.886784,41.855307]}},{"properties":{"city":"Mandurah","country":"Australia","geo_score":0.625,"afl":14,"id":"a64lkxvxsuuw","geo_precision":"city","state":"Western Australia"},"type":"Feature","geometry":{"type":"Point","coordinates":[-86.881925,31.903483]}},{"properties":{"city":"Mandurah","country":"Australia","geo_score":0.625,"afl":17,"id":"a64lkxv44ixs","geo_precision":"city","state":"Victoria"},"type":"Feature","geometry":{"type":"Point","coordinates":[-86.881925,31.903483]}},{"properties":{"city":"Mango Hill","country":"Australia","geo_score":0.587,"afl":1,"id":"a64lkxu5ay62","geo_precision":"city","state":"Queensland"},"type":"Feature","geometry":{"type":"Point","coordinates":[-80.278106,25.857596]}},{"properties":{"city":"Manjimup","country":"Australia","geo_score":0.0,"afl":1,"id":"a64lkxyiokya","geo_precision":"unmatched","state":"Western Australia"},"type":"Feature","geometry":null},{"properties":{"city":"Manly","country":"Australia","geo_score":0.633,"afl":5,"id":"a64lky5c2yz8","geo_precision":"city","state":"New South Wales"},"type":"Feature","geometry":{"type":"Point","coordinates":[-87.63388,31.279615]}},{"properties":{"city":"Manly West","country":"Australia","geo_score":0.603,"afl":1,"id":"a64lkxv23jo4","geo_precision":"city","state":"Queensland"},"type":"Feature","geometry":{"type":"Point","coordinates":[-87.63388,31.279615]}},{"properties":{"city":"Manningham","country":"Australia","geo_score":0.714,"afl":1,"id":"a64lkxvg2337","geo_precision":"city","state":"Victoria"},"type":"Feature","geometry":{"type":"Point","coordinates":[-86.746367,31.885984]}},{"properties":{"city":"Mannum","country":"Australia","geo_score":0.612,"afl":1,"id":"a64lkxwrqh4y","geo_precision":"city","state":"South Australia"},"type":"Feature","geometry":{"type":"Point","coordinates":[-70.081127,41.277901]}},{"properties":{"city":"Mansfield","country":"Australia","geo_score":0.657,"afl":3,"id":"a64lky0e463o","geo_precision":"city","state":"Victoria"},"type":"Feature","geometry":{"type":"Point","coordinates":[-72.185911,41.757599]}},{"properties":{"city":"Margaret River","country":"Australia","geo_score":0.659,"afl":1,"id":"a64lkxyssuqy","geo_precision":"city","state":"Western Australia"},"type":"Feature","geometry":{"type":"Point","coordinates":[-79.463371,40.263681]}},{"properties":{"city":"Maribyrnong","country":"Australia","geo_score":0.0,"afl":2,"id":"a64lky6j2t1d","geo_precision":"unmatched","state":"Victoria"},"type":"Feature","geometry":null},{"properties":{"city":"Marleston","country":"Australia","geo_score":0.651,"afl":1,"id":"a64lkxxkoc13","geo_precision":"city","state":"South Australia"},"type":"Feature","geometry":{"type":"Point","coordinates":[-118.326183,33.75224]}},{"properties":{"city":"Maroochydore","country":"Australia","geo_score":0.0,"afl":1,"id":"a64lky04fyws","geo_precision":"unmatched","state":"Queensland"},"type":"Feature","geometry":null},{"properties":{"city":"Maroubra","country":"Australia","geo_score":0.661,"afl":1,"id":"a64lky2wsx7y","geo_precision":"city","state":"New South Wales"},"type":"Feature","geometry":{"type":"Point","coordinates":[-86.516424,32.601807]}},{"properties":{"city":"Maryborough","country":"Australia","geo_score":0.0,"afl":2,"id":"a64lkxs38ptk","geo_precision":"unmatched","state":"Victoria"},"type":"Feature","geometry":null},{"properties":{"city":"Maryville","country":"Australia","geo_score":0.651,"afl":1,"id":"a64lky6qty2r","geo_precision":"city","state":"New South Wales"},"type":"Feature","geometry":{"type":"Point","coordinates":[-87.003048,33.146785]}},{"properties":{"city":"McLaren Vale","country":"Australia","geo_score":0.597,"afl":1,"id":"a64lkxzq8yo1","geo_precision":"city","state":"South Australia"},"type":"Feature","geometry":{"type":"Point","coordinates":[-92.820441,33.699554]}},{"properties":{"city":"Melboune","country":"Australia","geo_score":0.0,"afl":1,"id":"a64lky48jlll","geo_precision":"unmatched","state":"Victoria"},"type":"Feature","geometry":null},{"properties":{"city":"Melbourne","country":"Australia","geo_score":0.714,"afl":2,"id":"a64lkxs0mwwr","geo_precision":"city","state":"Victora"},"type":"Feature","geometry":{"type":"Point","coordinates":[-80.608109,28.083627]}},{"properties":{"city":"Melbourne","country":"Australia","geo_score":0.714,"afl":11890,"id":"a64lky2zzmx5","geo_precision":"city","state":"Victoria"},"type":"Feature","geometry":{"type":"Point","coordinates":[-80.608109,28.083627]}},{"properties":{"city":"Melbourne East","country":"Australia","geo_score":0.67,"afl":1,"id":"a64lkxvo6nz4","geo_precision":"city","state":"Victoria"},"type":"Feature","geometry":{"type":"Point","coordinates":[-80.608109,28.083627]}},{"properties":{"city":"Melton","country":"Australia","geo_score":0.69,"afl":9,"id":"a64lky60hkio","geo_precision":"city","state":"Victoria"},"type":"Feature","geometry":{"type":"Point","coordinates":[-86.807207,32.558744]}},{"properties":{"city":"Mentone","country":"Australia","geo_score":0.673,"afl":1,"id":"a64lkxt5qzmg","geo_precision":"city","state":"Victoria"},"type":"Feature","geometry":{"type":"Point","coordinates":[-94.069091,36.287298]}},{"properties":{"city":"Menzies","country":"Australia","geo_score":0.625,"afl":1,"id":"a64lky6tw8ro","geo_precision":"city","state":"Queensland"},"type":"Feature","geometry":{"type":"Point","coordinates":[-81.998348,32.050694]}},{"properties":{"city":"Merbein","country":"Australia","geo_score":0.614,"afl":1,"id":"a64lky2dblfv","geo_precision":"city","state":"Victoria"},"type":"Feature","geometry":{"type":"Point","coordinates":[-87.006947,36.243111]}},{"properties":{"city":"Merimbula","country":"Australia","geo_score":0.0,"afl":3,"id":"a64lkxw080fs","geo_precision":"unmatched","state":"New South Wales"},"type":"Feature","geometry":null},{"properties":{"city":"Mernda","country":"Australia","geo_score":0.673,"afl":2,"id":"a64lkxwjisfs","geo_precision":"city","state":"Victoria"},"type":"Feature","geometry":{"type":"Point","coordinates":[-98.964272,44.971919]}},{"properties":{"city":"Middle Swan","country":"Australia","geo_score":0.614,"afl":1,"id":"a64lky2mpha5","geo_precision":"city","state":"Western Australia"},"type":"Feature","geometry":{"type":"Point","coordinates":[-85.658846,33.117064]}},{"properties":{"city":"Mildura","country":"Australia","geo_score":0.607,"afl":48,"id":"a64lky0eqa0d","geo_precision":"city","state":"Victoria"},"type":"Feature","geometry":{"type":"Point","coordinates":[-81.322572,29.820248]}},{"properties":{"city":"Mill Park","country":"Australia","geo_score":0.625,"afl":1,"id":"a64lkxuimpyh","geo_precision":"city","state":"Victoria"},"type":"Feature","geometry":{"type":"Point","coordinates":[-88.202255,33.736778]}},{"properties":{"city":"Millicent","country":"Australia","geo_score":0.657,"afl":2,"id":"a64lkxy42ok0","geo_precision":"city","state":"South Australia"},"type":"Feature","geometry":{"type":"Point","coordinates":[-76.99941,42.634514]}},{"properties":{"city":"Minchinbury","country":"Australia","geo_score":0.0,"afl":1,"id":"a64lkxxal9tm","geo_precision":"unmatched","state":"New South Wales"},"type":"Feature","geometry":null},{"properties":{"city":"Miners Rest","country":"Australia","geo_score":0.586,"afl":1,"id":"a64lkxs1hosx","geo_precision":"city","state":"Victoria"},"type":"Feature","geometry":{"type":"Point","coordinates":[-105.33611,38.097224]}},{"properties":{"city":"Minnamurra","country":"Australia","geo_score":0.0,"afl":1,"id":"a64lkxsyi6er","geo_precision":"unmatched","state":"New South Wales"},"type":"Feature","geometry":null},{"properties":{"city":"Miranda","country":"Australia","geo_score":0.714,"afl":1,"id":"a64lkxs96yvj","geo_precision":"city","state":"New South Wales"},"type":"Feature","geometry":{"type":"Point","coordinates":[-98.964272,44.971919]}},{"properties":{"city":"Mitcham","country":"Australia","geo_score":0.612,"afl":3,"id":"a64lkxs7v45y","geo_precision":"city","state":"Victoria"},"type":"Feature","geometry":{"type":"Point","coordinates":[-82.340681,33.793183]}},{"properties":{"city":"Mitt","country":"Australia","geo_score":0.6,"afl":1,"id":"a64lkxxdhl7f","geo_precision":"city","state":"New South Wales"},"type":"Feature","geometry":{"type":"Point","coordinates":[-75.387693,39.916778]}},{"properties":{"city":"Moama","country":"Australia","geo_score":0.657,"afl":2,"id":"a64lkxvx8z8d","geo_precision":"city","state":"New South Wales"},"type":"Feature","geometry":{"type":"Point","coordinates":[-80.193659,25.774266]}},{"properties":{"city":"Mollymook","country":"Australia","geo_score":0.0,"afl":1,"id":"a64lky33p6x9","geo_precision":"unmatched","state":"New South Wales"},"type":"Feature","geometry":null},{"properties":{"city":"Mona Vale","country":"Australia","geo_score":0.607,"afl":1,"id":"a64lky0yr3v8","geo_precision":"city","state":"New South Wales"},"type":"Feature","geometry":{"type":"Point","coordinates":[-92.820441,33.699554]}},{"properties":{"city":"Mont Albert North","country":"Australia","geo_score":0.638,"afl":1,"id":"a64lkxxdry8l","geo_precision":"city","state":"Victoria"},"type":"Feature","geometry":{"type":"Point","coordinates":[-86.12578,31.277947]}},{"properties":{"city":"Montmorency","country":"Australia","geo_score":0.649,"afl":1,"id":"a64lkxyddktu","geo_precision":"city","state":"Victoria"},"type":"Feature","geometry":{"type":"Point","coordinates":[-93.691017,34.108996]}},{"properties":{"city":"Montrose","country":"Australia","geo_score":0.662,"afl":2,"id":"a64lky457cm2","geo_precision":"city","state":"Tasmania"},"type":"Feature","geometry":{"type":"Point","coordinates":[-87.140291,34.935085]}},{"properties":{"city":"Montville","country":"Australia","geo_score":0.671,"afl":1,"id":"a64lkxw9d72l","geo_precision":"city","state":"Queensland"},"type":"Feature","geometry":{"type":"Point","coordinates":[-93.964075,33.481791]}},{"properties":{"city":"Mooloolaba","country":"Australia","geo_score":0.0,"afl":7,"id":"a64lkxs5zf4b","geo_precision":"unmatched","state":"Queensland"},"type":"Feature","geometry":null},{"properties":{"city":"Moonee Ponds","country":"Australia","geo_score":0.584,"afl":1,"id":"a64lkxv017w7","geo_precision":"city","state":"Victoria"},"type":"Feature","geometry":{"type":"Point","coordinates":[-94.069368,36.075079]}},{"properties":{"city":"Moorabbin","country":"Australia","geo_score":0.629,"afl":3,"id":"a64lkxyo50w9","geo_precision":"city","state":"Victoria"},"type":"Feature","geometry":{"type":"Point","coordinates":[-87.006947,36.243111]}},{"properties":{"city":"Moore Park","country":"Australia","geo_score":0.635,"afl":1,"id":"a64lkxui53qn","geo_precision":"city","state":"New South Wales"},"type":"Feature","geometry":{"type":"Point","coordinates":[-86.345808,32.933734]}},{"properties":{"city":"Mooroolbark","country":"Australia","geo_score":0.636,"afl":3,"id":"a64lky337v3i","geo_precision":"city","state":"Victoria"},"type":"Feature","geometry":{"type":"Point","coordinates":[-70.97311,42.716759]}},{"properties":{"city":"Mooroopna","country":"Australia","geo_score":0.0,"afl":6,"id":"a64lky69cvrd","geo_precision":"unmatched","state":"Victoria"},"type":"Feature","geometry":null},{"properties":{"city":"Mordialloc","country":"Australia","geo_score":0.61,"afl":1,"id":"a64lkxzpil3e","geo_precision":"city","state":"Victoria"},"type":"Feature","geometry":{"type":"Point","coordinates":[-81.245663,31.884657]}},{"properties":{"city":"Morington","country":"Australia","geo_score":0.0,"afl":1,"id":"a64lky4ypba8","geo_precision":"unmatched","state":"Victoria"},"type":"Feature","geometry":null},{"properties":{"city":"Mornington","country":"Australia","geo_score":0.662,"afl":12,"id":"a64lky5sf7v0","geo_precision":"city","state":"Victoria"},"type":"Feature","geometry":{"type":"Point","coordinates":[-86.665822,33.629547]}},{"properties":{"city":"Mornington Peninsula","country":"Australia","geo_score":0.632,"afl":15,"id":"a64lky5vc9qp","geo_precision":"city","state":"Victoria"},"type":"Feature","geometry":{"type":"Point","coordinates":[-86.665822,33.629547]}},{"properties":{"city":"Morno","country":"Australia","geo_score":0.633,"afl":2,"id":"a64lkxwmvrzi","geo_precision":"city","state":"Victoria"},"type":"Feature","geometry":{"type":"Point","coordinates":[-91.734019,33.960379]}},{"properties":{"city":"Morphett Vale","country":"Australia","geo_score":0.595,"afl":2,"id":"a64lkxswhynm","geo_precision":"city","state":"South Australia"},"type":"Feature","geometry":{"type":"Point","coordinates":[-92.820441,33.699554]}},{"properties":{"city":"Morwell","country":"Australia","geo_score":0.0,"afl":6,"id":"a64lky3at63f","geo_precision":"unmatched","state":"Victoria"},"type":"Feature","geometry":null},{"properties":{"city":"Mosman","country":"Australia","geo_score":0.635,"afl":3,"id":"a64lkxyritgs","geo_precision":"city","state":"New South Wales"},"type":"Feature","geometry":{"type":"Point","coordinates":[-89.729261,43.190983]}},{"properties":{"city":"Mount Annan","country":"Australia","geo_score":0.614,"afl":1,"id":"a64lky1kde1j","geo_precision":"city","state":"New South Wales"},"type":"Feature","geometry":{"type":"Point","coordinates":[-82.830659,27.8953]}},{"properties":{"city":"Mount Barker","country":"Australia","geo_score":0.649,"afl":15,"id":"a64lky51c8il","geo_precision":"city","state":"South Australia"},"type":"Feature","geometry":{"type":"Point","coordinates":[-80.660372,39.579526]}},{"properties":{"city":"Mount Druitt","country":"Australia","geo_score":0.61,"afl":1,"id":"a64lky5clhmj","geo_precision":"city","state":"New South Wales"},"type":"Feature","geometry":{"type":"Point","coordinates":[-88.050595,34.645649]}},{"properties":{"city":"Mount Eliza","country":"Australia","geo_score":0.6,"afl":1,"id":"a64lkxzoet3x","geo_precision":"city","state":"Victoria"},"type":"Feature","geometry":{"type":"Point","coordinates":[-82.793449,29.311076]}},{"properties":{"city":"Mount Evelyn","country":"Australia","geo_score":0.649,"afl":1,"id":"a64lky4smdzn","geo_precision":"city","state":"Victoria"},"type":"Feature","geometry":{"type":"Point","coordinates":[-83.857699,37.612307]}},{"properties":{"city":"Mount Gambier","country":"Australia","geo_score":0.655,"afl":13,"id":"a64lky43bgb0","geo_precision":"city","state":"South Australia"},"type":"Feature","geometry":{"type":"Point","coordinates":[-86.299969,32.366805]}},{"properties":{"city":"Mount Hawthorn","country":"Australia","geo_score":0.659,"afl":1,"id":"a64lkxscojms","geo_precision":"city","state":"Western Australia"},"type":"Feature","geometry":{"type":"Point","coordinates":[-88.088337,31.333225]}},{"properties":{"city":"Mt Austin","country":"Australia","geo_score":0.679,"afl":1,"id":"a64lkxwf6c9n","geo_precision":"city","state":"New South Wales"},"type":"Feature","geometry":{"type":"Point","coordinates":[-97.743061,30.267153]}},{"properties":{"city":"Mt Eliza","country":"Australia","geo_score":0.653,"afl":2,"id":"a64lky6g95oh","geo_precision":"city","state":"Victoria"},"type":"Feature","geometry":{"type":"Point","coordinates":[-75.387693,39.916778]}},{"properties":{"city":"Mt Fairy","country":"Australia","geo_score":0.612,"afl":1,"id":"a64lkxz0gdy0","geo_precision":"city","state":"New South Wales"},"type":"Feature","geometry":{"type":"Point","coordinates":[-75.387693,39.916778]}},{"properties":{"city":"Mt Gambier","country":"Australia","geo_score":0.603,"afl":1,"id":"a64lkxudod62","geo_precision":"city","state":"South Australia"},"type":"Feature","geometry":{"type":"Point","coordinates":[-75.387693,39.916778]}},{"properties":{"city":"Mt Hawthorn","country":"Australia","geo_score":0.586,"afl":1,"id":"a64lkxwvcibc","geo_precision":"city","state":"Western Australia"},"type":"Feature","geometry":{"type":"Point","coordinates":[-75.387693,39.916778]}},{"properties":{"city":"Mt Jagged","country":"Australia","geo_score":0.589,"afl":1,"id":"a64lky1lrsy0","geo_precision":"city","state":"South Australia"},"type":"Feature","geometry":{"type":"Point","coordinates":[-75.387693,39.916778]}},{"properties":{"city":"Mt Martha","country":"Australia","geo_score":0.607,"afl":1,"id":"a64lky168uvl","geo_precision":"city","state":"Victoria"},"type":"Feature","geometry":{"type":"Point","coordinates":[-75.387693,39.916778]}},{"properties":{"city":"Mt Nelson","country":"Australia","geo_score":0.607,"afl":1,"id":"a64lkxxtug7y","geo_precision":"city","state":"Tasmania"},"type":"Feature","geometry":{"type":"Point","coordinates":[-75.387693,39.916778]}},{"properties":{"city":"Mt. Isa","country":"Australia","geo_score":0.629,"afl":1,"id":"a64lkxsf1tv7","geo_precision":"city","state":"Queensland"},"type":"Feature","geometry":{"type":"Point","coordinates":[-75.387693,39.916778]}},{"properties":{"city":"Mudgee","country":"Australia","geo_score":0.667,"afl":1,"id":"a64lkxzdbe49","geo_precision":"city","state":"New South Wales"},"type":"Feature","geometry":{"type":"Point","coordinates":[-79.356158,41.701727]}},{"properties":{"city":"Mudgeeraba","country":"Australia","geo_score":0.0,"afl":1,"id":"a64lkxs35377","geo_precision":"unmatched","state":"Queensland"},"type":"Feature","geometry":null},{"properties":{"city":"Mudgegonga","country":"Australia","geo_score":0.0,"afl":1,"id":"a64lkxw8zm94","geo_precision":"unmatched","state":"Victoria"},"type":"Feature","geometry":null},{"properties":{"city":"Murrumbateman","country":"Australia","geo_score":0.0,"afl":2,"id":"a64lky5y3t3u","geo_precision":"unmatched","state":"New South Wales"},"type":"Feature","geometry":null},{"properties":{"city":"Muswellbrook","country":"Australia","geo_score":0.0,"afl":1,"id":"a64lkxvbye6h","geo_precision":"unmatched","state":"New South Wales"},"type":"Feature","geometry":null},{"properties":{"city":"Myaree","country":"Australia","geo_score":0.619,"afl":1,"id":"a64lkxtl5vep","geo_precision":"city","state":"Western Australia"},"type":"Feature","geometry":{"type":"Point","coordinates":[-92.692684,43.457746]}},{"properties":{"city":"Myrtleford","country":"Australia","geo_score":0.0,"afl":1,"id":"a64lkxuae5k0","geo_precision":"unmatched","state":"Victoria"},"type":"Feature","geometry":null},{"properties":{"city":"Nagambie","country":"Australia","geo_score":0.625,"afl":1,"id":"a64lkxt3hpqp","geo_precision":"city","state":"Victoria"},"type":"Feature","geometry":{"type":"Point","coordinates":[-83.054059,38.08453]}},{"properties":{"city":"Nambour","country":"Australia","geo_score":0.0,"afl":1,"id":"a64lky4coy5g","geo_precision":"unmatched","state":"Queensland"},"type":"Feature","geometry":null},{"properties":{"city":"Napier","country":"New Zealand","geo_score":0.714,"afl":3,"id":"a64lkxtfktm4","geo_precision":"city","state":"Hawke's Bay"},"type":"Feature","geometry":{"type":"Point","coordinates":[-93.718,41.979708]}},{"properties":{"city":"Naracoorte","country":"Australia","geo_score":0.0,"afl":1,"id":"a64lkxxagpq0","geo_precision":"unmatched","state":"South Australia"},"type":"Feature","geometry":null},{"properties":{"city":"Narangba","country":"Australia","geo_score":0.0,"afl":1,"id":"a64lky75u9uw","geo_precision":"unmatched","state":"Queensland"},"type":"Feature","geometry":null},{"properties":{"city":"Narrabeen","country":"Australia","geo_score":0.0,"afl":1,"id":"a64lky2rx7gn","geo_precision":"unmatched","state":"New South Wales"},"type":"Feature","geometry":null},{"properties":{"city":"Narrandera","country":"Australia","geo_score":0.0,"afl":2,"id":"a64lkxxifg1d","geo_precision":"unmatched","state":"New South Wales"},"type":"Feature","geometry":null},{"properties":{"city":"Narre Warren South","country":"Australia","geo_score":0.607,"afl":5,"id":"a64lkxxn4ntm","geo_precision":"city","state":"Victoria"},"type":"Feature","geometry":{"type":"Point","coordinates":[-106.655589,39.324709]}},{"properties":{"city":"Narrikup","country":"Australia","geo_score":0.0,"afl":1,"id":"a64lkxz26xg1","geo_precision":"unmatched","state":"Western Australia"},"type":"Feature","geometry":null},{"properties":{"city":"Nathan","country":"Australia","geo_score":0.714,"afl":1,"id":"a64lky3ykwpu","geo_precision":"city","state":"Queensland"},"type":"Feature","geometry":{"type":"Point","coordinates":[-93.813797,34.106221]}},{"properties":{"city":"Nelson","country":"New Zealand","geo_score":0.714,"afl":1,"id":"a64lkxwsc9ye","geo_precision":"city","state":"Nelson"},"type":"Feature","geometry":{"type":"Point","coordinates":[-113.320209,35.51416]}},{"properties":{"city":"Neutral Bay","country":"Australia","geo_score":0.586,"afl":2,"id":"a64lkxw22hoj","geo_precision":"city","state":"New South Wales"},"type":"Feature","geometry":{"type":"Point","coordinates":[-92.564049,34.352039]}},{"properties":{"city":"New England","country":"Australia","geo_score":0.657,"afl":2,"id":"a64lkxzog8sp","geo_precision":"city","state":"New South Wales"},"type":"Feature","geometry":{"type":"Point","coordinates":[-96.628106,48.48581]}},{"properties":{"city":"New Farm","country":"Australia","geo_score":0.612,"afl":2,"id":"a64lky2lcbx3","geo_precision":"city","state":"Queensland"},"type":"Feature","geometry":{"type":"Point","coordinates":[-93.714914,36.181741]}},{"properties":{"city":"New Plymouth","country":"New Zealand","geo_score":0.675,"afl":3,"id":"a64lkxtguhlc","geo_precision":"city","state":"Taranaki"},"type":"Feature","geometry":{"type":"Point","coordinates":[-83.470213,42.371425]}},{"properties":{"city":"Newborough","country":"Australia","geo_score":0.638,"afl":1,"id":"a64lkxxzxdpc","geo_precision":"city","state":"Victoria"},"type":"Feature","geometry":{"type":"Point","coordinates":[-81.663462,41.450052]}},{"properties":{"city":"Newcastle","country":"Australia","geo_score":0.714,"afl":155,"id":"a64lkxry2evx","geo_precision":"city","state":"New South Wales"},"type":"Feature","geometry":{"type":"Point","coordinates":[-80.347009,41.003672]}},{"properties":{"city":"Newington","country":"Australia","geo_score":0.714,"afl":1,"id":"a64lky1o8o9l","geo_precision":"city","state":"New South Wales"},"type":"Feature","geometry":{"type":"Point","coordinates":[-70.833667,43.100087]}},{"properties":{"city":"Newlands","country":"New Zealand","geo_score":0.714,"afl":1,"id":"a64lky4mx0is","geo_precision":"city","state":"Wellington"},"type":"Feature","geometry":{"type":"Point","coordinates":[-76.276317,35.840442]}},{"properties":{"city":"Newport","country":"Australia","geo_score":0.714,"afl":1,"id":"a64lkxw12kmh","geo_precision":"city","state":"Victoria"},"type":"Feature","geometry":{"type":"Point","coordinates":[-84.180726,30.199371]}},{"properties":{"city":"Newstead","country":"Australia","geo_score":0.714,"afl":2,"id":"a64lkxtrhvua","geo_precision":"city","state":"Queensland"},"type":"Feature","geometry":{"type":"Point","coordinates":[-87.630291,36.799214]}},{"properties":{"city":"Newtown","country":"Australia","geo_score":0.714,"afl":11,"id":"a64lky0p624z","geo_precision":"city","state":"New South Wales"},"type":"Feature","geometry":{"type":"Point","coordinates":[-85.817475,34.873415]}},{"properties":{"city":"Noosa","country":"Australia","geo_score":0.629,"afl":30,"id":"a64lky8cui6j","geo_precision":"city","state":"Queensland"},"type":"Feature","geometry":{"type":"Point","coordinates":[-83.315155,34.077612]}},{"properties":{"city":"Noosa Heads","country":"Australia","geo_score":0.643,"afl":2,"id":"a64lkxyj6wo6","geo_precision":"city","state":"Queensland"},"type":"Feature","geometry":{"type":"Point","coordinates":[-90.846487,33.470672]}},{"properties":{"city":"Noranda","country":"Australia","geo_score":0.0,"afl":1,"id":"a64lkxvsg4xj","geo_precision":"unmatched","state":"Western Australia"},"type":"Feature","geometry":null},{"properties":{"city":"North Bondi","country":"Australia","geo_score":0.614,"afl":2,"id":"a64lky0bbi6z","geo_precision":"city","state":"New South Wales"},"type":"Feature","geometry":{"type":"Point","coordinates":[-121.31531,44.058173]}},{"properties":{"city":"North Brisbane","country":"Australia","geo_score":0.637,"afl":1,"id":"a64lky278t3p","geo_precision":"city","state":"Queensland"},"type":"Feature","geometry":{"type":"Point","coordinates":[-81.306221,31.917155]}},{"properties":{"city":"North Carlton","country":"Australia","geo_score":0.631,"afl":2,"id":"a64lkxytqlpr","geo_precision":"city","state":"Victoria"},"type":"Feature","geometry":{"type":"Point","coordinates":[-93.321849,36.262571]}},{"properties":{"city":"North Fremantle","country":"Australia","geo_score":0.633,"afl":1,"id":"a64lky7gi4l8","geo_precision":"city","state":"Western Australia"},"type":"Feature","geometry":{"type":"Point","coordinates":[-121.988572,37.54827]}},{"properties":{"city":"North Geelong","country":"Australia","geo_score":0.633,"afl":1,"id":"a64lky0l78b6","geo_precision":"city","state":"Victoria"},"type":"Feature","geometry":{"type":"Point","coordinates":[-86.007768,39.131996]}},{"properties":{"city":"North Haven","country":"Australia","geo_score":0.643,"afl":1,"id":"a64lkxx4sjj2","geo_precision":"city","state":"South Australia"},"type":"Feature","geometry":{"type":"Point","coordinates":[-92.479077,41.891661]}},{"properties":{"city":"North Lakes","country":"Australia","geo_score":0.6,"afl":1,"id":"a64lkxxtfx2x","geo_precision":"city","state":"Queensland"},"type":"Feature","geometry":{"type":"Point","coordinates":[-94.115485,35.069818]}},{"properties":{"city":"North Melbourne","country":"Australia","geo_score":0.663,"afl":12,"id":"a64lkxu1nbgf","geo_precision":"city","state":"Victoria"},"type":"Feature","geometry":{"type":"Point","coordinates":[-80.608109,28.083627]}},{"properties":{"city":"North Nowra","country":"Australia","geo_score":0.614,"afl":1,"id":"a64lkxuwwzb2","geo_precision":"city","state":"New South Wales"},"type":"Feature","geometry":{"type":"Point","coordinates":[-106.655589,39.324709]}},{"properties":{"city":"North Perth","country":"Australia","geo_score":0.671,"afl":1,"id":"a64lkxxnwdg5","geo_precision":"city","state":"Western Australia"},"type":"Feature","geometry":{"type":"Point","coordinates":[-89.052051,42.342796]}},{"properties":{"city":"North Rocks","country":"Australia","geo_score":0.0,"afl":1,"id":"a64lkxst1eif","geo_precision":"unmatched","state":"New South Wales"},"type":"Feature","geometry":null},{"properties":{"city":"North Ryde","country":"Australia","geo_score":0.632,"afl":2,"id":"a64lkxx4gkyt","geo_precision":"city","state":"New South Wales"},"type":"Feature","geometry":{"type":"Point","coordinates":[-82.820659,27.816136]}},{"properties":{"city":"North Sydney","country":"Australia","geo_score":0.649,"afl":4,"id":"a64lkxstvsnv","geo_precision":"city","state":"New South Wales"},"type":"Feature","geometry":{"type":"Point","coordinates":[-75.719101,39.761223]}},{"properties":{"city":"Northampton","country":"Australia","geo_score":0.702,"afl":2,"id":"a64lkxwm24tm","geo_precision":"city","state":"Western Australia"},"type":"Feature","geometry":{"type":"Point","coordinates":[-89.538982,40.931148]}},{"properties":{"city":"Northcote","country":"Australia","geo_score":0.683,"afl":10,"id":"a64lky4o8psx","geo_precision":"city","state":"Victoria"},"type":"Feature","geometry":{"type":"Point","coordinates":[-85.946383,39.26394]}},{"properties":{"city":"Norwood","country":"Australia","geo_score":0.714,"afl":7,"id":"a64lkxv3yy11","geo_precision":"city","state":"South Australia"},"type":"Feature","geometry":{"type":"Point","coordinates":[-93.478824,41.116664]}},{"properties":{"city":"Nowa Nowa","country":"Australia","geo_score":0.625,"afl":1,"id":"a64lky1o3n1o","geo_precision":"city","state":"Victoria"},"type":"Feature","geometry":{"type":"Point","coordinates":[-82.573497,40.15423]}},{"properties":{"city":"Nowra","country":"Australia","geo_score":0.643,"afl":2,"id":"a64lky3l0l6a","geo_precision":"city","state":"New South Wales"},"type":"Feature","geometry":{"type":"Point","coordinates":[-106.655589,39.324709]}},{"properties":{"city":"Numurkah","country":"Australia","geo_score":0.0,"afl":3,"id":"a64lkxxdt77n","geo_precision":"unmatched","state":"Victoria"},"type":"Feature","geometry":null},{"properties":{"city":"Nunawading","country":"Australia","geo_score":0.0,"afl":1,"id":"a64lky233nu5","geo_precision":"unmatched","state":"New South Wales"},"type":"Feature","geometry":null},{"properties":{"city":"Oak Flats","country":"Australia","geo_score":0.607,"afl":1,"id":"a64lkxv97uad","geo_precision":"city","state":"New South Wales"},"type":"Feature","geometry":{"type":"Point","coordinates":[-104.701935,37.122243]}},{"properties":{"city":"Oak Park","country":"Australia","geo_score":0.633,"afl":1,"id":"a64lky7sh4xy","geo_precision":"city","state":"Victoria"},"type":"Feature","geometry":{"type":"Point","coordinates":[-82.115648,29.252197]}},{"properties":{"city":"Oakleigh","country":"Australia","geo_score":0.714,"afl":1,"id":"a64lky7de6ms","geo_precision":"city","state":"Victoria"},"type":"Feature","geometry":{"type":"Point","coordinates":[-76.558855,39.405107]}},{"properties":{"city":"Ocean Grove","country":"Australia","geo_score":0.6,"afl":7,"id":"a64lky3qvdsd","geo_precision":"city","state":"Victoria"},"type":"Feature","geometry":{"type":"Point","coordinates":[-90.871241,42.493057]}},{"properties":{"city":"Old Reynella","country":"Australia","geo_score":0.631,"afl":1,"id":"a64lky2tras7","geo_precision":"city","state":"South Australia"},"type":"Feature","geometry":{"type":"Point","coordinates":[-97.681674,30.514644]}},{"properties":{"city":"Olympic Park","country":"Australia","geo_score":0.662,"afl":1,"id":"a64lkxv7bab7","geo_precision":"city","state":"New South Wales"},"type":"Feature","geometry":{"type":"Point","coordinates":[-122.740432,47.693982]}},{"properties":{"city":"Oranga","country":"Australia","geo_score":0.625,"afl":1,"id":"a64lkxvu1bzk","geo_precision":"city","state":"New South Wales"},"type":"Feature","geometry":{"type":"Point","coordinates":[-73.101498,41.247875]}},{"properties":{"city":"Orange","country":"Australia","geo_score":0.714,"afl":3,"id":"a64lkxxl46y6","geo_precision":"city","state":"New South Wales"},"type":"Feature","geometry":{"type":"Point","coordinates":[-117.853112,33.787795]}},{"properties":{"city":"Orewa","country":"New Zealand","geo_score":0.0,"afl":1,"id":"a64lky5gedl1","geo_precision":"unmatched","state":"Auckland"},"type":"Feature","geometry":null},{"properties":{"city":"Ormond","country":"Australia","geo_score":0.69,"afl":2,"id":"a64lkxt3twkh","geo_precision":"city","state":"Victoria"},"type":"Feature","geometry":{"type":"Point","coordinates":[-117.41838,34.011125]}},{"properties":{"city":"Osborne Park","country":"Australia","geo_score":0.649,"afl":1,"id":"a64lky3aibf2","geo_precision":"city","state":"Western Australia"},"type":"Feature","geometry":{"type":"Point","coordinates":[-87.143051,32.683741]}},{"properties":{"city":"Ovingham","country":"Australia","geo_score":0.0,"afl":1,"id":"a64lky31i01y","geo_precision":"unmatched","state":"South Australia"},"type":"Feature","geometry":null},{"properties":{"city":"Paddington","country":"Australia","geo_score":0.0,"afl":3,"id":"a64lkxyzm15j","geo_precision":"unmatched","state":"New South Wales"},"type":"Feature","geometry":null},{"properties":{"city":"Pakenham","country":"Australia","geo_score":0.0,"afl":10,"id":"a64lkxvcseag","geo_precision":"unmatched","state":"Victoria"},"type":"Feature","geometry":null},{"properties":{"city":"Paluma","country":"Australia","geo_score":0.69,"afl":1,"id":"a64lky2s85pk","geo_precision":"city","state":"Queensland"},"type":"Feature","geometry":{"type":"Point","coordinates":[-120.763269,38.259361]}},{"properties":{"city":"Paramatta","country":"Australia","geo_score":0.635,"afl":1,"id":"a64lkxx9rs5y","geo_precision":"city","state":"New South Wales"},"type":"Feature","geometry":{"type":"Point","coordinates":[-119.701859,40.074906]}},{"properties":{"city":"Park Orchards","country":"Australia","geo_score":0.619,"afl":1,"id":"a64lkxygu3xk","geo_precision":"city","state":"Victoria"},"type":"Feature","geometry":{"type":"Point","coordinates":[-107.9709,38.828316]}},{"properties":{"city":"Parkdale","country":"Australia","geo_score":0.714,"afl":3,"id":"a64lkxwdv0ez","geo_precision":"city","state":"Victoria"},"type":"Feature","geometry":{"type":"Point","coordinates":[-86.112192,33.097896]}},{"properties":{"city":"Parkville","country":"Australia","geo_score":0.688,"afl":2,"id":"a64lky5hb6x0","geo_precision":"city","state":"Victoria"},"type":"Feature","geometry":{"type":"Point","coordinates":[-116.855608,36.511059]}},{"properties":{"city":"Parrakie","country":"Australia","geo_score":0.643,"afl":1,"id":"a64lkxvjrx0w","geo_precision":"city","state":"South Australia"},"type":"Feature","geometry":{"type":"Point","coordinates":[-92.280706,34.286764]}},{"properties":{"city":"Parramatta","country":"Australia","geo_score":0.629,"afl":6,"id":"a64lkxxg591r","geo_precision":"city","state":"New South Wales"},"type":"Feature","geometry":{"type":"Point","coordinates":[-119.701859,40.074906]}},{"properties":{"city":"Patterson Lakes","country":"Australia","geo_score":0.653,"afl":1,"id":"a64lkxw6u284","geo_precision":"city","state":"Victoria"},"type":"Feature","geometry":{"type":"Point","coordinates":[-74.171811,40.916765]}},{"properties":{"city":"Peakhurst","country":"Australia","geo_score":0.0,"afl":1,"id":"a64lkxsavlh6","geo_precision":"unmatched","state":"New South Wales"},"type":"Feature","geometry":null},{"properties":{"city":"Penguin","country":"Australia","geo_score":0.612,"afl":1,"id":"a64lkxx3beit","geo_precision":"city","state":"Tasmania"},"type":"Feature","geometry":{"type":"Point","coordinates":[-78.066379,35.525438]}},{"properties":{"city":"Penrith","country":"Australia","geo_score":0.673,"afl":26,"id":"a64lkxv4ulw9","geo_precision":"city","state":"New South Wales"},"type":"Feature","geometry":{"type":"Point","coordinates":[-75.5177,39.807057]}},{"properties":{"city":"Penshurst","country":"Australia","geo_score":0.0,"afl":1,"id":"a64lky7ke5nq","geo_precision":"unmatched","state":"Victoria"},"type":"Feature","geometry":null},{"properties":{"city":"Perth","country":"Australia","geo_score":0.714,"afl":1926,"id":"a64lkxy61c47","geo_precision":"city","state":"Western Australia"},"type":"Feature","geometry":{"type":"Point","coordinates":[-75.523811,39.803724]}},{"properties":{"city":"Picnic Point","country":"Australia","geo_score":0.714,"afl":1,"id":"a64lkxtytwn9","geo_precision":"city","state":"New South Wales"},"type":"Feature","geometry":{"type":"Point","coordinates":[-122.328396,47.881112]}},{"properties":{"city":"Pillar Valley","country":"Australia","geo_score":0.607,"afl":1,"id":"a64lky16ylol","geo_precision":"city","state":"New South Wales"},"type":"Feature","geometry":{"type":"Point","coordinates":[-92.820441,33.699554]}},{"properties":{"city":"Pimpama","country":"Australia","geo_score":0.0,"afl":1,"id":"a64lky2blfd9","geo_precision":"unmatched","state":"Queensland"},"type":"Feature","geometry":null},{"properties":{"city":"Pingelly","country":"Australia","geo_score":0.679,"afl":1,"id":"a64lkxymstjf","geo_precision":"city","state":"Western Australia"},"type":"Feature","geometry":{"type":"Point","coordinates":[-93.212906,47.287391]}},{"properties":{"city":"Pittwater","country":"Australia","geo_score":0.0,"afl":1,"id":"a64lky26e00b","geo_precision":"unmatched","state":"New South Wales"},"type":"Feature","geometry":null},{"properties":{"city":"Point Cook","country":"Australia","geo_score":0.587,"afl":2,"id":"a64lkxsixwgt","geo_precision":"city","state":"Victoria"},"type":"Feature","geometry":{"type":"Point","coordinates":[-87.127471,31.060735]}},{"properties":{"city":"Port Augusta","country":"Australia","geo_score":0.662,"afl":1,"id":"a64lkxwktz10","geo_precision":"city","state":"South Australia"},"type":"Feature","geometry":{"type":"Point","coordinates":[-81.974838,33.47097]}},{"properties":{"city":"Port Douglas","country":"Australia","geo_score":0.61,"afl":8,"id":"a64lkxwcoe9z","geo_precision":"city","state":"Queensland"},"type":"Feature","geometry":{"type":"Point","coordinates":[-93.244612,33.242351]}},{"properties":{"city":"Port Elliot","country":"Australia","geo_score":0.643,"afl":1,"id":"a64lkxv8rm46","geo_precision":"city","state":"South Australia"},"type":"Feature","geometry":{"type":"Point","coordinates":[-78.213606,34.984056]}},{"properties":{"city":"Port Fairy","country":"Australia","geo_score":0.619,"afl":4,"id":"a64lkxyve112","geo_precision":"city","state":"Victoria"},"type":"Feature","geometry":{"type":"Point","coordinates":[-110.29508,31.556762]}},{"properties":{"city":"Port Hedland","country":"Australia","geo_score":0.623,"afl":1,"id":"a64lky4ss6ip","geo_precision":"city","state":"Western Australia"},"type":"Feature","geometry":{"type":"Point","coordinates":[-93.244612,33.242351]}},{"properties":{"city":"Port Jackson","country":"Australia","geo_score":0.607,"afl":5,"id":"a64lkxvrjqlg","geo_precision":"city","state":"New South Wales"},"type":"Feature","geometry":{"type":"Point","coordinates":[-81.655651,30.332184]}},{"properties":{"city":"Port Melbourne","country":"Australia","geo_score":0.67,"afl":18,"id":"a64lky77v9ts","geo_precision":"city","state":"Victoria"},"type":"Feature","geometry":{"type":"Point","coordinates":[-80.608109,28.083627]}},{"properties":{"city":"Port Sorell","country":"Australia","geo_score":0.629,"afl":1,"id":"a64lkxzdow8h","geo_precision":"city","state":"Tasmania"},"type":"Feature","geometry":{"type":"Point","coordinates":[-93.244612,33.242351]}},{"properties":{"city":"Portarlington","country":"Australia","geo_score":0.648,"afl":1,"id":"a64lky7ngh1m","geo_precision":"city","state":"Victoria"},"type":"Feature","geometry":{"type":"Point","coordinates":[-70.099494,43.844525]}},{"properties":{"city":"Portland","country":"Australia","geo_score":0.714,"afl":3,"id":"a64lky0et2km","geo_precision":"city","state":"Victoria"},"type":"Feature","geometry":{"type":"Point","coordinates":[-70.255326,43.661471]}},{"properties":{"city":"Portsea","country":"Australia","geo_score":0.612,"afl":1,"id":"a64lkxz0d99n","geo_precision":"city","state":"Victoria"},"type":"Feature","geometry":{"type":"Point","coordinates":[-85.509664,31.830995]}},{"properties":{"city":"Prahran","country":"Australia","geo_score":0.0,"afl":13,"id":"a64lky4668jq","geo_precision":"unmatched","state":"Victoria"},"type":"Feature","geometry":null},{"properties":{"city":"Preston","country":"Australia","geo_score":0.714,"afl":1,"id":"a64lky1cxyyz","geo_precision":"city","state":"New South Wales"},"type":"Feature","geometry":{"type":"Point","coordinates":[-86.172481,34.52592]}},{"properties":{"city":"Preston","country":"Australia","geo_score":0.714,"afl":2,"id":"a64lkxxlfdau","geo_precision":"city","state":"Victoria"},"type":"Feature","geometry":{"type":"Point","coordinates":[-86.172481,34.52592]}},{"properties":{"city":"Princes Park","country":"Australia","geo_score":0.61,"afl":1,"id":"a64lkxw8hpc0","geo_precision":"city","state":"Victoria"},"type":"Feature","geometry":{"type":"Point","coordinates":[-92.280706,34.286764]}},{"properties":{"city":"Pymble","country":"Australia","geo_score":0.0,"afl":2,"id":"a64lky5llfqp","geo_precision":"unmatched","state":"New South Wales"},"type":"Feature","geometry":null},{"properties":{"city":"Pyrmont","country":"Australia","geo_score":0.714,"afl":3,"id":"a64lkxyajqfx","geo_precision":"city","state":"New South Wales"},"type":"Feature","geometry":{"type":"Point","coordinates":[-86.679727,40.467536]}},{"properties":{"city":"Queanbeyan","country":"Australia","geo_score":0.0,"afl":2,"id":"a64lkxuphcfw","geo_precision":"unmatched","state":"New South Wales"},"type":"Feature","geometry":null},{"properties":{"city":"Queenscliff","country":"Australia","geo_score":0.0,"afl":1,"id":"a64lky3gid8p","geo_precision":"unmatched","state":"Victoria"},"type":"Feature","geometry":null},{"properties":{"city":"Queenstown","country":"New Zealand","geo_score":0.714,"afl":1,"id":"a64lky7n7b9x","geo_precision":"city","state":"Otago"},"type":"Feature","geometry":{"type":"Point","coordinates":[-86.621098,33.588159]}},{"properties":{"city":"Queenstown","country":"Australia","geo_score":0.714,"afl":1,"id":"a64lky38hmq0","geo_precision":"city","state":"Tasmania"},"type":"Feature","geometry":{"type":"Point","coordinates":[-86.621098,33.588159]}},{"properties":{"city":"Randwick","country":"Australia","geo_score":0.0,"afl":1,"id":"a64lkxvlu6jd","geo_precision":"unmatched","state":"New South Wales"},"type":"Feature","geometry":null},{"properties":{"city":"Rarrnameool","country":"Australia","geo_score":0.0,"afl":1,"id":"a64lkxyx999y","geo_precision":"unmatched","state":"Victoria"},"type":"Feature","geometry":null},{"properties":{"city":"Ravensthorpe","country":"Australia","geo_score":0.0,"afl":1,"id":"a64lkxtghg51","geo_precision":"unmatched","state":"Western Australia"},"type":"Feature","geometry":null},{"properties":{"city":"Redcliffe","country":"Australia","geo_score":0.643,"afl":2,"id":"a64lkxsmifjz","geo_precision":"city","state":"Queensland"},"type":"Feature","geometry":{"type":"Point","coordinates":[-82.681278,39.262846]}},{"properties":{"city":"Redfern","country":"Australia","geo_score":0.0,"afl":2,"id":"a64lky54qf99","geo_precision":"unmatched","state":"New South Wales"},"type":"Feature","geometry":null},{"properties":{"city":"Renmark","country":"Australia","geo_score":0.0,"afl":4,"id":"a64lkxydlu9w","geo_precision":"unmatched","state":"South Australia"},"type":"Feature","geometry":null},{"properties":{"city":"Reservoir","country":"Australia","geo_score":0.714,"afl":4,"id":"a64lkxyr622l","geo_precision":"city","state":"Victoria"},"type":"Feature","geometry":{"type":"Point","coordinates":[-71.148387,42.33482]}},{"properties":{"city":"Richmond","country":"Australia","geo_score":0.714,"afl":37,"id":"a64lkxsx28to","geo_precision":"city","state":"Victoria"},"type":"Feature","geometry":{"type":"Point","coordinates":[-122.347749,37.935758]}},{"properties":{"city":"Riddells Creek","country":"Australia","geo_score":0.604,"afl":1,"id":"a64lkxvv9efv","geo_precision":"city","state":"Victoria"},"type":"Feature","geometry":{"type":"Point","coordinates":[-87.887518,33.241508]}},{"properties":{"city":"Ringwood","country":"Australia","geo_score":0.714,"afl":1,"id":"a64lky1mbe4u","geo_precision":"city","state":"Victoria"},"type":"Feature","geometry":{"type":"Point","coordinates":[-77.847203,36.211263]}},{"properties":{"city":"Ringwood East","country":"Australia","geo_score":0.667,"afl":2,"id":"a64lkxt7365x","geo_precision":"city","state":"Victoria"},"type":"Feature","geometry":{"type":"Point","coordinates":[-77.847203,36.211263]}},{"properties":{"city":"Riverton","country":"Australia","geo_score":0.714,"afl":1,"id":"a64lkxur2a6f","geo_precision":"city","state":"South Australia"},"type":"Feature","geometry":{"type":"Point","coordinates":[-88.076704,34.880643]}},{"properties":{"city":"Robertson","country":"Australia","geo_score":0.683,"afl":1,"id":"a64lky1t4ysh","geo_precision":"city","state":"New South Wales"},"type":"Feature","geometry":{"type":"Point","coordinates":[-86.888852,31.081845]}},{"properties":{"city":"Robina","country":"Australia","geo_score":0.643,"afl":3,"id":"a64lky5rhf7r","geo_precision":"city","state":"Queensland"},"type":"Feature","geometry":{"type":"Point","coordinates":[-87.724991,31.026847]}},{"properties":{"city":"Rockhampton","country":"Australia","geo_score":0.662,"afl":15,"id":"a64lkxxt6r5i","geo_precision":"city","state":"Queensland"},"type":"Feature","geometry":{"type":"Point","coordinates":[-98.882787,45.033056]}},{"properties":{"city":"Rockingham","country":"Australia","geo_score":0.714,"afl":11,"id":"a64lky7hyug6","geo_precision":"city","state":"Western Australia"},"type":"Feature","geometry":{"type":"Point","coordinates":[-82.41652,31.547982]}},{"properties":{"city":"Roma","country":"Australia","geo_score":0.679,"afl":4,"id":"a64lky8aj4mt","geo_precision":"city","state":"Queensland"},"type":"Feature","geometry":{"type":"Point","coordinates":[-86.668847,31.141842]}},{"properties":{"city":"Rosanna","country":"Australia","geo_score":0.612,"afl":1,"id":"a64lky684cat","geo_precision":"city","state":"Victoria"},"type":"Feature","geometry":{"type":"Point","coordinates":[-122.194438,40.117656]}},{"properties":{"city":"Rosebery","country":"Australia","geo_score":0.679,"afl":1,"id":"a64lkxxr2fd8","geo_precision":"city","state":"New South Wales"},"type":"Feature","geometry":{"type":"Point","coordinates":[-86.40249,34.984254]}},{"properties":{"city":"Rosebud","country":"Australia","geo_score":0.714,"afl":1,"id":"a64lkxwip2tw","geo_precision":"city","state":"Victoria"},"type":"Feature","geometry":{"type":"Point","coordinates":[-87.136931,31.94126]}},{"properties":{"city":"Rosewater","country":"Australia","geo_score":0.0,"afl":1,"id":"a64lky2ohg6k","geo_precision":"unmatched","state":"South Australia"},"type":"Feature","geometry":null},{"properties":{"city":"Rosie","country":"Australia","geo_score":0.657,"afl":1,"id":"a64lkxwaihbp","geo_precision":"city","state":"Victoria"},"type":"Feature","geometry":{"type":"Point","coordinates":[-86.513321,33.990653]}},{"properties":{"city":"Rostrevor","country":"Australia","geo_score":0.631,"afl":1,"id":"a64lky7jiw4e","geo_precision":"city","state":"South Australia"},"type":"Feature","geometry":{"type":"Point","coordinates":[-85.183834,33.403448]}},{"properties":{"city":"Rotorua","country":"New Zealand","geo_score":0.612,"afl":1,"id":"a64lkxsiomoe","geo_precision":"city","state":"Bay of Plenty"},"type":"Feature","geometry":{"type":"Point","coordinates":[-95.822795,43.244143]}},{"properties":{"city":"Rouse Hill","country":"Australia","geo_score":0.587,"afl":1,"id":"a64lkxvbanhl","geo_precision":"city","state":"New South Wales"},"type":"Feature","geometry":{"type":"Point","coordinates":[-80.278106,25.857596]}},{"properties":{"city":"Rowville","country":"Australia","geo_score":0.625,"afl":2,"id":"a64lky07k3xx","geo_precision":"city","state":"Victoria"},"type":"Feature","geometry":{"type":"Point","coordinates":[-91.281516,35.230087]}},{"properties":{"city":"Roxby Downs","country":"Australia","geo_score":0.586,"afl":1,"id":"a64lkxsly2mr","geo_precision":"city","state":"South Australia"},"type":"Feature","geometry":{"type":"Point","coordinates":[-88.292811,33.011238]}},{"properties":{"city":"Rozelle","country":"Australia","geo_score":0.653,"afl":2,"id":"a64lkxtx8p81","geo_precision":"city","state":"New South Wales"},"type":"Feature","geometry":{"type":"Point","coordinates":[-85.768584,34.699805]}},{"properties":{"city":"Runaway Bay","country":"Australia","geo_score":0.586,"afl":2,"id":"a64lkxsna1nf","geo_precision":"city","state":"Queensland"},"type":"Feature","geometry":{"type":"Point","coordinates":[-92.564049,34.352039]}},{"properties":{"city":"Rushworth","country":"Australia","geo_score":0.0,"afl":1,"id":"a64lkxzlb1vs","geo_precision":"unmatched","state":"Victoria"},"type":"Feature","geometry":null},{"properties":{"city":"Ryde","country":"Australia","geo_score":0.607,"afl":1,"id":"a64lky64poxl","geo_precision":"city","state":"New South Wales"},"type":"Feature","geometry":{"type":"Point","coordinates":[-87.038621,34.749256]}},{"properties":{"city":"Rye","country":"Australia","geo_score":0.714,"afl":3,"id":"a64lky1cksra","geo_precision":"city","state":"Victoria"},"type":"Feature","geometry":{"type":"Point","coordinates":[-91.997916,33.746217]}},{"properties":{"city":"Sale","country":"Australia","geo_score":0.657,"afl":8,"id":"a64lkxxlntob","geo_precision":"city","state":"Victoria"},"type":"Feature","geometry":{"type":"Point","coordinates":[-86.035245,33.013732]}},{"properties":{"city":"Salisbury","country":"Australia","geo_score":0.714,"afl":1,"id":"a64lky59zzgj","geo_precision":"city","state":"Queensland"},"type":"Feature","geometry":{"type":"Point","coordinates":[-89.798162,39.889772]}},{"properties":{"city":"Sandy Bay","country":"Australia","geo_score":0.661,"afl":1,"id":"a64lky7jzhak","geo_precision":"city","state":"Tasmania"},"type":"Feature","geometry":{"type":"Point","coordinates":[-111.85254,40.569992]}},{"properties":{"city":"Sans Souci","country":"Australia","geo_score":0.603,"afl":1,"id":"a64lkxswuyx9","geo_precision":"city","state":"New South Wales"},"type":"Feature","geometry":{"type":"Point","coordinates":[-85.474966,39.120053]}},{"properties":{"city":"Sassafras","country":"Australia","geo_score":0.714,"afl":1,"id":"a64lky2mfv8j","geo_precision":"city","state":"Victoria"},"type":"Feature","geometry":{"type":"Point","coordinates":[-75.802436,39.373167]}},{"properties":{"city":"Sawtell","country":"Australia","geo_score":0.633,"afl":1,"id":"a64lky0jkahc","geo_precision":"city","state":"New South Wales"},"type":"Feature","geometry":{"type":"Point","coordinates":[-122.332071,47.60621]}},{"properties":{"city":"Seaford","country":"Australia","geo_score":0.653,"afl":4,"id":"a64lkxxjs990","geo_precision":"city","state":"South Australia"},"type":"Feature","geometry":{"type":"Point","coordinates":[-75.883537,40.288426]}},{"properties":{"city":"Seddon","country":"Australia","geo_score":0.619,"afl":3,"id":"a64lky7pwonj","geo_precision":"city","state":"Victoria"},"type":"Feature","geometry":{"type":"Point","coordinates":[-88.234451,31.067957]}},{"properties":{"city":"Selby","country":"Australia","geo_score":0.714,"afl":1,"id":"a64lkxswq52v","geo_precision":"city","state":"Victoria"},"type":"Feature","geometry":{"type":"Point","coordinates":[-114.710614,43.34379]}},{"properties":{"city":"Seymour","country":"Australia","geo_score":0.592,"afl":2,"id":"a64lky00rjhj","geo_precision":"city","state":"Victoria"},"type":"Feature","geometry":{"type":"Point","coordinates":[-112.336912,42.117699]}},{"properties":{"city":"Shearwater","country":"Australia","geo_score":0.0,"afl":1,"id":"a64lkxwnyr26","geo_precision":"unmatched","state":"Tasmania"},"type":"Feature","geometry":null},{"properties":{"city":"Shellharbour","country":"Australia","geo_score":0.0,"afl":2,"id":"a64lky270moa","geo_precision":"unmatched","state":"New South Wales"},"type":"Feature","geometry":null},{"properties":{"city":"Shepparton","country":"Australia","geo_score":0.0,"afl":37,"id":"a64lky5p1a1w","geo_precision":"unmatched","state":"Victoria"},"type":"Feature","geometry":null},{"properties":{"city":"Silverwater","country":"Australia","geo_score":0.662,"afl":1,"id":"a64lky25fkqz","geo_precision":"city","state":"New South Wales"},"type":"Feature","geometry":{"type":"Point","coordinates":[-87.403348,39.955594]}},{"properties":{"city":"Simpson","country":"Australia","geo_score":0.714,"afl":1,"id":"a64lkxxxcwgr","geo_precision":"city","state":"Victoria"},"type":"Feature","geometry":{"type":"Point","coordinates":[-85.171889,33.347338]}},{"properties":{"city":"Skye","country":"Australia","geo_score":0.607,"afl":3,"id":"a64lkxyjpz2i","geo_precision":"city","state":"Victoria"},"type":"Feature","geometry":{"type":"Point","coordinates":[-95.560811,36.373429]}},{"properties":{"city":"Somerville","country":"Australia","geo_score":0.649,"afl":10,"id":"a64lky4fnj1e","geo_precision":"city","state":"Victoria"},"type":"Feature","geometry":{"type":"Point","coordinates":[-87.041658,32.52069]}},{"properties":{"city":"South Carlton","country":"Australia","geo_score":0.619,"afl":1,"id":"a64lky70rckh","geo_precision":"city","state":"Victoria"},"type":"Feature","geometry":{"type":"Point","coordinates":[-93.321849,36.262571]}},{"properties":{"city":"South Caulfield","country":"Australia","geo_score":0.622,"afl":2,"id":"a64lkxsal8j7","geo_precision":"city","state":"Victoria"},"type":"Feature","geometry":{"type":"Point","coordinates":[-83.251269,32.853756]}},{"properties":{"city":"South Coast","country":"Australia","geo_score":0.614,"afl":1,"id":"a64lky0qcstv","geo_precision":"city","state":"New South Wales"},"type":"Feature","geometry":{"type":"Point","coordinates":[-85.873305,34.424256]}},{"properties":{"city":"South Coogee","country":"Australia","geo_score":0.571,"afl":1,"id":"a64lky5ofhsf","geo_precision":"city","state":"New South Wales"},"type":"Feature","geometry":{"type":"Point","coordinates":[-83.84909,36.744252]}},{"properties":{"city":"South Melbourne","country":"Australia","geo_score":0.663,"afl":23,"id":"a64lkxsp5y39","geo_precision":"city","state":"Victoria"},"type":"Feature","geometry":{"type":"Point","coordinates":[-80.608109,28.083627]}},{"properties":{"city":"South Perth","country":"Australia","geo_score":0.643,"afl":2,"id":"a64lky3sh36z","geo_precision":"city","state":"Western Australia"},"type":"Feature","geometry":{"type":"Point","coordinates":[-75.523811,39.803724]}},{"properties":{"city":"South Yarra","country":"Australia","geo_score":0.614,"afl":9,"id":"a64lky67xrqz","geo_precision":"city","state":"Victoria"},"type":"Feature","geometry":{"type":"Point","coordinates":[-92.680473,40.093919]}},{"properties":{"city":"Southbank","country":"Australia","geo_score":0.659,"afl":12,"id":"a64lkxypqjue","geo_precision":"city","state":"Victoria"},"type":"Feature","geometry":{"type":"Point","coordinates":[-67.985293,45.720893]}},{"properties":{"city":"Southport","country":"Australia","geo_score":0.714,"afl":1,"id":"a64lky6b56qq","geo_precision":"city","state":"Queensland"},"type":"Feature","geometry":{"type":"Point","coordinates":[-89.898721,40.792537]}},{"properties":{"city":"Southport","country":"Australia","geo_score":0.714,"afl":1,"id":"a64lky3aguy2","geo_precision":"city","state":"South Australia"},"type":"Feature","geometry":{"type":"Point","coordinates":[-89.898721,40.792537]}},{"properties":{"city":"St Johns Park","country":"Australia","geo_score":0.584,"afl":1,"id":"a64lkxssc0c7","geo_precision":"city","state":"New South Wales"},"type":"Feature","geometry":{"type":"Point","coordinates":[-120.75384,40.042949]}},{"properties":{"city":"St Kilda","country":"Australia","geo_score":0.592,"afl":48,"id":"a64lky0r80da","geo_precision":"city","state":"Victoria"},"type":"Feature","geometry":{"type":"Point","coordinates":[-86.07052,32.579022]}},{"properties":{"city":"St Kilda West","country":"Australia","geo_score":0.597,"afl":1,"id":"a64lkxvffuza","geo_precision":"city","state":"Victoria"},"type":"Feature","geometry":{"type":"Point","coordinates":[-86.07052,32.579022]}},{"properties":{"city":"St Peters","country":"Australia","geo_score":0.679,"afl":1,"id":"a64lky7t27ca","geo_precision":"city","state":"New South Wales"},"type":"Feature","geometry":{"type":"Point","coordinates":[-121.047997,37.980757]}},{"properties":{"city":"Stanmore","country":"Australia","geo_score":0.0,"afl":2,"id":"a64lky85wga5","geo_precision":"unmatched","state":"New South Wales"},"type":"Feature","geometry":null},{"properties":{"city":"Stanwell Park","country":"Australia","geo_score":0.595,"afl":1,"id":"a64lky2zxh68","geo_precision":"city","state":"New South Wales"},"type":"Feature","geometry":{"type":"Point","coordinates":[-92.280706,34.286764]}},{"properties":{"city":"Stawell","country":"Australia","geo_score":0.694,"afl":1,"id":"a64lky31w1e6","geo_precision":"city","state":"Victoria"},"type":"Feature","geometry":{"type":"Point","coordinates":[-76.201599,41.574242]}},{"properties":{"city":"Stonnington","country":"Australia","geo_score":0.701,"afl":5,"id":"a64lkxtjn53v","geo_precision":"city","state":"Victoria"},"type":"Feature","geometry":{"type":"Point","coordinates":[-86.367488,38.73172]}},{"properties":{"city":"Strathalbyn","country":"Australia","geo_score":0.0,"afl":2,"id":"a64lkxy492fx","geo_precision":"unmatched","state":"South Australia"},"type":"Feature","geometry":null},{"properties":{"city":"Strathfield","country":"Australia","geo_score":0.0,"afl":1,"id":"a64lkxtvcdyc","geo_precision":"unmatched","state":"New South Wales"},"type":"Feature","geometry":null},{"properties":{"city":"Subiaco","country":"Australia","geo_score":0.714,"afl":4,"id":"a64lkxwiodw9","geo_precision":"city","state":"Western Australia"},"type":"Feature","geometry":{"type":"Point","coordinates":[-93.599117,35.315285]}},{"properties":{"city":"Sufers Paradise","country":"Australia","geo_score":0.612,"afl":1,"id":"a64lkxuqvsjl","geo_precision":"city","state":"Queensland"},"type":"Feature","geometry":{"type":"Point","coordinates":[-85.509664,31.830995]}},{"properties":{"city":"Sunbury","country":"Australia","geo_score":0.635,"afl":6,"id":"a64lky4yovs3","geo_precision":"city","state":"Victoria"},"type":"Feature","geometry":{"type":"Point","coordinates":[-124.06645,40.858184]}},{"properties":{"city":"Sunny Coast","country":"Australia","geo_score":0.614,"afl":2,"id":"a64lkxwibqq5","geo_precision":"city","state":"Queensland"},"type":"Feature","geometry":{"type":"Point","coordinates":[-85.873305,34.424256]}},{"properties":{"city":"Sunshine","country":"Australia","geo_score":0.714,"afl":2,"id":"a64lkxxu02vu","geo_precision":"city","state":"Victoria"},"type":"Feature","geometry":{"type":"Point","coordinates":[-150.073056,62.167778]}},{"properties":{"city":"Sunshine Coast","country":"Australia","geo_score":0.615,"afl":104,"id":"a64lky86ebtu","geo_precision":"city","state":"Queensland"},"type":"Feature","geometry":{"type":"Point","coordinates":[-85.873305,34.424256]}},{"properties":{"city":"Surf Coast","country":"Australia","geo_score":0.619,"afl":1,"id":"a64lky392zr1","geo_precision":"city","state":"Victoria"},"type":"Feature","geometry":{"type":"Point","coordinates":[-85.873305,34.424256]}},{"properties":{"city":"Surfcoast","country":"Australia","geo_score":0.667,"afl":1,"id":"a64lky1ed4t0","geo_precision":"city","state":"Victoria"},"type":"Feature","geometry":{"type":"Point","coordinates":[-94.996316,29.589118]}},{"properties":{"city":"Surfers Paradise","country":"Australia","geo_score":0.61,"afl":10,"id":"a64lkxxvruqe","geo_precision":"city","state":"Queensland"},"type":"Feature","geometry":{"type":"Point","coordinates":[-85.509664,31.830995]}},{"properties":{"city":"Surrey Hills","country":"Australia","geo_score":0.61,"afl":1,"id":"a64lkxv4pysz","geo_precision":"city","state":"Victoria"},"type":"Feature","geometry":{"type":"Point","coordinates":[-132.636389,55.556667]}},{"properties":{"city":"Surry Hills","country":"Australia","geo_score":0.614,"afl":13,"id":"a64lkxsych7g","geo_precision":"city","state":"New South Wales"},"type":"Feature","geometry":{"type":"Point","coordinates":[-132.636389,55.556667]}},{"properties":{"city":"Sutherland","country":"Australia","geo_score":0.714,"afl":2,"id":"a64lkxt2c1r2","geo_precision":"city","state":"New South Wales"},"type":"Feature","geometry":{"type":"Point","coordinates":[-87.121108,37.670048]}},{"properties":{"city":"Swan Hill","country":"Australia","geo_score":0.589,"afl":11,"id":"a64lkxxtfw7m","geo_precision":"city","state":"Victoria"},"type":"Feature","geometry":{"type":"Point","coordinates":[-80.278106,25.857596]}},{"properties":{"city":"Sydenham","country":"Australia","geo_score":0.643,"afl":3,"id":"a64lky73vlo0","geo_precision":"city","state":"Victoria"},"type":"Feature","geometry":{"type":"Point","coordinates":[-79.099487,41.799227]}},{"properties":{"city":"Sydney","country":"Australia","geo_score":0.69,"afl":3750,"id":"a64lky538awp","geo_precision":"city","state":"New South Wales"},"type":"Feature","geometry":{"type":"Point","coordinates":[-88.234451,31.067957]}},{"properties":{"city":"Sydney Domestic Airport","country":"Australia","geo_score":0.599,"afl":1,"id":"a64lkxymwlfp","geo_precision":"city","state":"New South Wales"},"type":"Feature","geometry":{"type":"Point","coordinates":[-83.202951,37.28704]}},{"properties":{"city":"Tamar Valley","country":"Australia","geo_score":0.61,"afl":1,"id":"a64lkxxcol6p","geo_precision":"city","state":"Tasmania"},"type":"Feature","geometry":{"type":"Point","coordinates":[-92.820441,33.699554]}},{"properties":{"city":"Tamworth","country":"Australia","geo_score":0.714,"afl":7,"id":"a64lkxsylon8","geo_precision":"city","state":"New South Wales"},"type":"Feature","geometry":{"type":"Point","coordinates":[-78.080833,37.648202]}},{"properties":{"city":"Tanawha","country":"Australia","geo_score":0.633,"afl":1,"id":"a64lkxtzinhs","geo_precision":"city","state":"Queensland"},"type":"Feature","geometry":{"type":"Point","coordinates":[-80.432833,36.227639]}},{"properties":{"city":"Taradale","country":"Australia","geo_score":0.643,"afl":1,"id":"a64lky2mxm12","geo_precision":"city","state":"Victoria"},"type":"Feature","geometry":{"type":"Point","coordinates":[-109.840776,40.425577]}},{"properties":{"city":"Tarneit","country":"Australia","geo_score":0.653,"afl":3,"id":"a64lky1kpe02","geo_precision":"city","state":"Victoria"},"type":"Feature","geometry":{"type":"Point","coordinates":[-86.768002,33.594533]}},{"properties":{"city":"Tatura","country":"Australia","geo_score":0.595,"afl":2,"id":"a64lky6qhqpm","geo_precision":"city","state":"Victoria"},"type":"Feature","geometry":{"type":"Point","coordinates":[-84.206059,41.603384]}},{"properties":{"city":"Tauranga","country":"New Zealand","geo_score":0.625,"afl":1,"id":"a64lkxui1g75","geo_precision":"city","state":"Bay of Plenty"},"type":"Feature","geometry":{"type":"Point","coordinates":[-71.844523,43.073136]}},{"properties":{"city":"Taylors Hill","country":"Australia","geo_score":0.597,"afl":1,"id":"a64lky372nvv","geo_precision":"city","state":"Victoria"},"type":"Feature","geometry":{"type":"Point","coordinates":[-80.278106,25.857596]}},{"properties":{"city":"Taylors Lakes","country":"Australia","geo_score":0.607,"afl":2,"id":"a64lky36qeq9","geo_precision":"city","state":"Victoria"},"type":"Feature","geometry":{"type":"Point","coordinates":[-94.115485,35.069818]}},{"properties":{"city":"Tecoma","country":"Australia","geo_score":0.69,"afl":1,"id":"a64lky3wv74w","geo_precision":"city","state":"Victoria"},"type":"Feature","geometry":{"type":"Point","coordinates":[-122.444291,47.252877]}},{"properties":{"city":"Templestowe","country":"Australia","geo_score":0.61,"afl":2,"id":"a64lkxucppgb","geo_precision":"city","state":"Victoria"},"type":"Feature","geometry":{"type":"Point","coordinates":[-87.824556,32.384949]}},{"properties":{"city":"Terang","country":"Australia","geo_score":0.653,"afl":7,"id":"a64lky3i660n","geo_precision":"city","state":"Victoria"},"type":"Feature","geometry":{"type":"Point","coordinates":[-71.844523,43.073136]}},{"properties":{"city":"The Nade","country":"Australia","geo_score":0.633,"afl":1,"id":"a64lky57yb6x","geo_precision":"city","state":"Tasmania"},"type":"Feature","geometry":{"type":"Point","coordinates":[-81.669851,38.896472]}},{"properties":{"city":"The Rocks","country":"Australia","geo_score":0.625,"afl":2,"id":"a64lky7eyj2m","geo_precision":"city","state":"New South Wales"},"type":"Feature","geometry":{"type":"Point","coordinates":[-81.669851,38.896472]}},{"properties":{"city":"Thebarton","country":"Australia","geo_score":0.0,"afl":1,"id":"a64lkxz5of97","geo_precision":"unmatched","state":"South Australia"},"type":"Feature","geometry":null},{"properties":{"city":"Theodore","country":"Australia","geo_score":0.714,"afl":1,"id":"a64lkxsoifb0","geo_precision":"city","state":"Australian Capital Territory"},"type":"Feature","geometry":{"type":"Point","coordinates":[-76.009947,39.638723]}},{"properties":{"city":"Thomastown","country":"Australia","geo_score":0.7,"afl":1,"id":"a64lkxwq6lqu","geo_precision":"city","state":"Victoria"},"type":"Feature","geometry":{"type":"Point","coordinates":[-86.814188,41.378375]}},{"properties":{"city":"Thornbury","country":"Australia","geo_score":0.698,"afl":4,"id":"a64lkxz39gau","geo_precision":"city","state":"Victoria"},"type":"Feature","geometry":{"type":"Point","coordinates":[-92.806557,34.934256]}},{"properties":{"city":"Thornlie","country":"Australia","geo_score":0.0,"afl":1,"id":"a64lkxw562tw","geo_precision":"unmatched","state":"Western Australia"},"type":"Feature","geometry":null},{"properties":{"city":"Thredbo","country":"Australia","geo_score":0.0,"afl":2,"id":"a64lkxskswbq","geo_precision":"unmatched","state":"Victoria"},"type":"Feature","geometry":null},{"properties":{"city":"Tin Can Bay","country":"Australia","geo_score":0.571,"afl":1,"id":"a64lky3fm8hv","geo_precision":"city","state":"Queensland"},"type":"Feature","geometry":{"type":"Point","coordinates":[-92.564049,34.352039]}},{"properties":{"city":"Toodyay","country":"Australia","geo_score":0.0,"afl":1,"id":"a64lky6p4npm","geo_precision":"unmatched","state":"Western Australia"},"type":"Feature","geometry":null},{"properties":{"city":"Toowoomba","country":"Australia","geo_score":0.0,"afl":25,"id":"a64lkxz8glu8","geo_precision":"unmatched","state":"Queensland"},"type":"Feature","geometry":null},{"properties":{"city":"Torquay","country":"Australia","geo_score":0.592,"afl":42,"id":"a64lky1rdnlt","geo_precision":"city","state":"Victoria"},"type":"Feature","geometry":{"type":"Point","coordinates":[-112.376282,34.981407]}},{"properties":{"city":"Torrensville","country":"Australia","geo_score":0.619,"afl":1,"id":"a64lky7lea41","geo_precision":"city","state":"South Australia"},"type":"Feature","geometry":{"type":"Point","coordinates":[-117.030436,46.429051]}},{"properties":{"city":"Townsville","country":"Australia","geo_score":0.7,"afl":64,"id":"a64lky3kdyp9","geo_precision":"city","state":"Queensland"},"type":"Feature","geometry":{"type":"Point","coordinates":[-77.801661,39.548431]}},{"properties":{"city":"Traralgon","country":"Australia","geo_score":0.0,"afl":8,"id":"a64lkxu05082","geo_precision":"unmatched","state":"Victoria"},"type":"Feature","geometry":null},{"properties":{"city":"Trentham","country":"Australia","geo_score":0.0,"afl":1,"id":"a64lkxw6l3w5","geo_precision":"unmatched","state":"Victoria"},"type":"Feature","geometry":null},{"properties":{"city":"Truro","country":"Australia","geo_score":0.619,"afl":1,"id":"a64lkxzwadus","geo_precision":"city","state":"South Australia"},"type":"Feature","geometry":{"type":"Point","coordinates":[-87.253038,31.486275]}},{"properties":{"city":"Tullamarine","country":"Australia","geo_score":0.0,"afl":2,"id":"a64lky50ckp3","geo_precision":"unmatched","state":"Victoria"},"type":"Feature","geometry":null},{"properties":{"city":"Tweed Heads","country":"Australia","geo_score":0.643,"afl":2,"id":"a64lky754h8v","geo_precision":"city","state":"New South Wales"},"type":"Feature","geometry":{"type":"Point","coordinates":[-90.846487,33.470672]}},{"properties":{"city":"Tyabb","country":"Australia","geo_score":0.0,"afl":4,"id":"a64lkxxbpaxd","geo_precision":"unmatched","state":"Victoria"},"type":"Feature","geometry":null},{"properties":{"city":"Ultimo","country":"Australia","geo_score":0.0,"afl":1,"id":"a64lky6zlqy4","geo_precision":"unmatched","state":"New South Wales"},"type":"Feature","geometry":null},{"properties":{"city":"Vaucluse","country":"Australia","geo_score":0.714,"afl":1,"id":"a64lky5l76ac","geo_precision":"city","state":"New South Wales"},"type":"Feature","geometry":{"type":"Point","coordinates":[-78.246946,39.058163]}},{"properties":{"city":"Vermont","country":"Australia","geo_score":0.653,"afl":3,"id":"a64lkxt8o0gh","geo_precision":"city","state":"Victoria"},"type":"Feature","geometry":{"type":"Point","coordinates":[-121.988572,37.54827]}},{"properties":{"city":"Vermont South","country":"Australia","geo_score":0.619,"afl":1,"id":"a64lkxvaekw6","geo_precision":"city","state":"Victoria"},"type":"Feature","geometry":{"type":"Point","coordinates":[-121.988572,37.54827]}},{"properties":{"city":"Vicco","country":"Australia","geo_score":0.657,"afl":1,"id":"a64lkxvtt7vw","geo_precision":"city","state":"Victoria"},"type":"Feature","geometry":{"type":"Point","coordinates":[-85.558015,33.918157]}},{"properties":{"city":"Victor Harbor","country":"Australia","geo_score":0.655,"afl":1,"id":"a64lky0kzhwu","geo_precision":"city","state":"South Australia"},"type":"Feature","geometry":{"type":"Point","coordinates":[-85.938278,31.529887]}},{"properties":{"city":"Victory Heights","country":"Australia","geo_score":0.643,"afl":1,"id":"a64lkxzbgtds","geo_precision":"city","state":"Western Australia"},"type":"Feature","geometry":{"type":"Point","coordinates":[-85.938278,31.529887]}},{"properties":{"city":"Wagga Wagga","country":"Australia","geo_score":0.6,"afl":33,"id":"a64lkxzh985t","geo_precision":"city","state":"New South Wales"},"type":"Feature","geometry":{"type":"Point","coordinates":[-97.14667,31.549333]}},{"properties":{"city":"Wagin","country":"Australia","geo_score":0.633,"afl":1,"id":"a64lky423oob","geo_precision":"city","state":"Western Australia"},"type":"Feature","geometry":{"type":"Point","coordinates":[-75.769095,38.251233]}},{"properties":{"city":"Waikerie","country":"Australia","geo_score":0.607,"afl":1,"id":"a64lky1cwhsr","geo_precision":"city","state":"South Australia"},"type":"Feature","geometry":{"type":"Point","coordinates":[-87.104165,33.634274]}},{"properties":{"city":"Wainuiomata","country":"New Zealand","geo_score":0.0,"afl":1,"id":"a64lkxyvyo88","geo_precision":"unmatched","state":"Wellington"},"type":"Feature","geometry":null},{"properties":{"city":"Walla Walla","country":"Australia","geo_score":0.629,"afl":2,"id":"a64lky16kbrq","geo_precision":"city","state":"New South Wales"},"type":"Feature","geometry":{"type":"Point","coordinates":[-88.425016,31.184623]}},{"properties":{"city":"Wamberal","country":"Australia","geo_score":0.661,"afl":13,"id":"a64lkxuwkrcp","geo_precision":"city","state":"New South Wales"},"type":"Feature","geometry":{"type":"Point","coordinates":[-88.24835,31.915152]}},{"properties":{"city":"Wanbi","country":"Australia","geo_score":0.625,"afl":1,"id":"a64lkxsnfr6v","geo_precision":"city","state":"South Australia"},"type":"Feature","geometry":{"type":"Point","coordinates":[-78.055776,34.155253]}},{"properties":{"city":"Wangaratta","country":"Australia","geo_score":0.643,"afl":13,"id":"a64lky02yx33","geo_precision":"city","state":"Victoria"},"type":"Feature","geometry":{"type":"Point","coordinates":[-86.148569,31.83321]}},{"properties":{"city":"Wantirna","country":"Australia","geo_score":0.0,"afl":3,"id":"a64lky6p3g99","geo_precision":"unmatched","state":"Victoria"},"type":"Feature","geometry":null},{"properties":{"city":"Wantirna South","country":"Australia","geo_score":0.0,"afl":2,"id":"a64lkxupclvd","geo_precision":"unmatched","state":"Victoria"},"type":"Feature","geometry":null},{"properties":{"city":"Warburton","country":"Australia","geo_score":0.0,"afl":1,"id":"a64lkxsqxl4p","geo_precision":"unmatched","state":"Victoria"},"type":"Feature","geometry":null},{"properties":{"city":"Warilla","country":"Australia","geo_score":0.633,"afl":1,"id":"a64lkxwevjwk","geo_precision":"city","state":"New South Wales"},"type":"Feature","geometry":{"type":"Point","coordinates":[-82.790973,35.805659]}},{"properties":{"city":"Warnbro","country":"Australia","geo_score":0.0,"afl":3,"id":"a64lky86tsmk","geo_precision":"unmatched","state":"Western Australia"},"type":"Feature","geometry":null},{"properties":{"city":"Warner","country":"Australia","geo_score":0.714,"afl":1,"id":"a64lky04mssn","geo_precision":"city","state":"Queensland"},"type":"Feature","geometry":{"type":"Point","coordinates":[-92.797662,33.638167]}},{"properties":{"city":"Waroona","country":"Australia","geo_score":0.653,"afl":1,"id":"a64lky7n3bm9","geo_precision":"city","state":"Western Australia"},"type":"Feature","geometry":{"type":"Point","coordinates":[-83.84409,36.753419]}},{"properties":{"city":"Warragul","country":"Australia","geo_score":0.661,"afl":3,"id":"a64lky1l8usm","geo_precision":"city","state":"Victoria"},"type":"Feature","geometry":{"type":"Point","coordinates":[-81.944009,37.528443]}},{"properties":{"city":"Warrenmang","country":"Australia","geo_score":0.0,"afl":1,"id":"a64lkxsci09p","geo_precision":"unmatched","state":"Victoria"},"type":"Feature","geometry":null},{"properties":{"city":"Warrnambool","country":"Australia","geo_score":0.0,"afl":50,"id":"a64lky1cjcbq","geo_precision":"unmatched","state":"Victoria"},"type":"Feature","geometry":null},{"properties":{"city":"Warwick","country":"Australia","geo_score":0.714,"afl":1,"id":"a64lky2n4bxa","geo_precision":"city","state":"Queensland"},"type":"Feature","geometry":{"type":"Point","coordinates":[-97.907265,39.998624]}},{"properties":{"city":"Watermans Bay","country":"Australia","geo_score":0.583,"afl":1,"id":"a64lkxvzfb2c","geo_precision":"city","state":"Western Australia"},"type":"Feature","geometry":{"type":"Point","coordinates":[-92.564049,34.352039]}},{"properties":{"city":"Waurn Ponds","country":"Australia","geo_score":0.6,"afl":1,"id":"a64lkxvexaaz","geo_precision":"city","state":"Victoria"},"type":"Feature","geometry":{"type":"Point","coordinates":[-121.583861,39.655163]}},{"properties":{"city":"Wellington","country":"New Zealand","geo_score":0.663,"afl":73,"id":"a64lkxtp6qef","geo_precision":"city","state":"Wellington"},"type":"Feature","geometry":{"type":"Point","coordinates":[-72.263968,41.875097]}},{"properties":{"city":"Wembley","country":"Australia","geo_score":0.0,"afl":1,"id":"a64lkxt5f2p9","geo_precision":"unmatched","state":"Western Australia"},"type":"Feature","geometry":null},{"properties":{"city":"Werribee","country":"Australia","geo_score":0.625,"afl":24,"id":"a64lky1cyaey","geo_precision":"city","state":"Victoria"},"type":"Feature","geometry":{"type":"Point","coordinates":[-93.228104,47.241169]}},{"properties":{"city":"West Brunswick","country":"Australia","geo_score":0.67,"afl":1,"id":"a64lky54fi3z","geo_precision":"city","state":"Victoria"},"type":"Feature","geometry":{"type":"Point","coordinates":[-87.120012,39.196987]}},{"properties":{"city":"West End","country":"Australia","geo_score":0.612,"afl":1,"id":"a64lkxstpmet","geo_precision":"city","state":"Queensland"},"type":"Feature","geometry":{"type":"Point","coordinates":[-83.754085,37.42981]}},{"properties":{"city":"West Footscray","country":"Australia","geo_score":0.615,"afl":1,"id":"a64lkxvaw815","geo_precision":"city","state":"Victoria"},"type":"Feature","geometry":{"type":"Point","coordinates":[-77.677498,42.746453]}},{"properties":{"city":"West Gippsland","country":"Australia","geo_score":0.0,"afl":3,"id":"a64lky3vc7pm","geo_precision":"unmatched","state":"Victoria"},"type":"Feature","geometry":null},{"properties":{"city":"West Lakes","country":"Australia","geo_score":0.603,"afl":1,"id":"a64lkxxcpr4f","geo_precision":"city","state":"South Australia"},"type":"Feature","geometry":{"type":"Point","coordinates":[-94.115485,35.069818]}},{"properties":{"city":"West Melbourne","country":"Australia","geo_score":0.67,"afl":1,"id":"a64lky7wxj58","geo_precision":"city","state":"Victoria"},"type":"Feature","geometry":{"type":"Point","coordinates":[-80.608109,28.083627]}},{"properties":{"city":"West Perth","country":"Australia","geo_score":0.651,"afl":1,"id":"a64lky086qy9","geo_precision":"city","state":"Western Australia"},"type":"Feature","geometry":{"type":"Point","coordinates":[-75.523811,39.803724]}},{"properties":{"city":"Westleigh","country":"Australia","geo_score":0.647,"afl":1,"id":"a64lky5qi306","geo_precision":"city","state":"New South Wales"},"type":"Feature","geometry":{"type":"Point","coordinates":[-86.971382,33.396777]}},{"properties":{"city":"Wheelers Hill","country":"Australia","geo_score":0.619,"afl":1,"id":"a64lky57l374","geo_precision":"city","state":"Victoria"},"type":"Feature","geometry":{"type":"Point","coordinates":[-80.278106,25.857596]}},{"properties":{"city":"Whitsundays","country":"Australia","geo_score":0.648,"afl":1,"id":"a64lky83olg3","geo_precision":"city","state":"Queensland"},"type":"Feature","geometry":{"type":"Point","coordinates":[-72.304248,41.283431]}},{"properties":{"city":"Whittlesea","country":"Australia","geo_score":0.7,"afl":1,"id":"a64lkxsolzxz","geo_precision":"city","state":"Victoria"},"type":"Feature","geometry":{"type":"Point","coordinates":[-90.328755,45.223024]}},{"properties":{"city":"Whyalla","country":"Australia","geo_score":0.0,"afl":19,"id":"a64lkxxiuqdn","geo_precision":"unmatched","state":"South Australia"},"type":"Feature","geometry":null},{"properties":{"city":"Williamstown","country":"Australia","geo_score":0.714,"afl":5,"id":"a64lkxv3pahx","geo_precision":"city","state":"Victoria"},"type":"Feature","geometry":{"type":"Point","coordinates":[-91.732393,41.570015]}},{"properties":{"city":"Willoughby","country":"Australia","geo_score":0.629,"afl":1,"id":"a64lkxtyme1y","geo_precision":"city","state":"New South Wales"},"type":"Feature","geometry":{"type":"Point","coordinates":[-104.959146,39.836653]}},{"properties":{"city":"Windsor","country":"Australia","geo_score":0.634,"afl":1,"id":"a64lky16wy9m","geo_precision":"city","state":"Victoria"},"type":"Feature","geometry":{"type":"Point","coordinates":[-86.793878,33.46844]}},{"properties":{"city":"Winnellie","country":"Australia","geo_score":0.619,"afl":1,"id":"a64lky30hvpo","geo_precision":"city","state":"Northern Territory"},"type":"Feature","geometry":{"type":"Point","coordinates":[-89.031527,46.730216]}},{"properties":{"city":"Wodonga","country":"Australia","geo_score":0.612,"afl":32,"id":"a64lky1md3yc","geo_precision":"city","state":"Victoria"},"type":"Feature","geometry":{"type":"Point","coordinates":[-89.373963,36.788944]}},{"properties":{"city":"Wollongong","country":"Australia","geo_score":0.0,"afl":61,"id":"a64lky5g753l","geo_precision":"unmatched","state":"New South Wales"},"type":"Feature","geometry":null},{"properties":{"city":"Wonthaggi","country":"Australia","geo_score":0.0,"afl":2,"id":"a64lkxt5qgpg","geo_precision":"unmatched","state":"Victoria"},"type":"Feature","geometry":null},{"properties":{"city":"Woodchester","country":"Australia","geo_score":0.0,"afl":1,"id":"a64lkxvpxuxu","geo_precision":"unmatched","state":"South Australia"},"type":"Feature","geometry":null},{"properties":{"city":"Woodcroft","country":"Australia","geo_score":0.714,"afl":1,"id":"a64lky0bdvkb","geo_precision":"city","state":"New South Wales"},"type":"Feature","geometry":{"type":"Point","coordinates":[-76.538021,39.392329]}},{"properties":{"city":"Woodend","country":"Australia","geo_score":0.0,"afl":2,"id":"a64lky20g0zo","geo_precision":"unmatched","state":"Victoria"},"type":"Feature","geometry":null},{"properties":{"city":"Woodgate Beach","country":"Australia","geo_score":0.593,"afl":1,"id":"a64lkxxog3ky","geo_precision":"city","state":"Queensland"},"type":"Feature","geometry":{"type":"Point","coordinates":[-87.861397,31.971263]}},{"properties":{"city":"Woodside","country":"Australia","geo_score":0.603,"afl":2,"id":"a64lky2aso7h","geo_precision":"city","state":"South Australia"},"type":"Feature","geometry":{"type":"Point","coordinates":[-86.774443,34.092877]}},{"properties":{"city":"Woodville","country":"Australia","geo_score":0.657,"afl":2,"id":"a64lky4nquci","geo_precision":"city","state":"South Australia"},"type":"Feature","geometry":{"type":"Point","coordinates":[-92.477939,36.317568]}},{"properties":{"city":"Woody Point","country":"Australia","geo_score":0.6,"afl":1,"id":"a64lky83j0q8","geo_precision":"city","state":"Queensland"},"type":"Feature","geometry":{"type":"Point","coordinates":[-91.995687,33.014014]}},{"properties":{"city":"Woollahra","country":"Australia","geo_score":0.619,"afl":1,"id":"a64lkxug6zab","geo_precision":"city","state":"New South Wales"},"type":"Feature","geometry":{"type":"Point","coordinates":[-87.249741,34.652591]}},{"properties":{"city":"Woolloongabba","country":"Australia","geo_score":0.626,"afl":2,"id":"a64lkxs4hldy","geo_precision":"city","state":"Queensland"},"type":"Feature","geometry":{"type":"Point","coordinates":[-74.805773,40.013737]}},{"properties":{"city":"Woy Woy","country":"Australia","geo_score":0.595,"afl":2,"id":"a64lky3orwi5","geo_precision":"city","state":"New South Wales"},"type":"Feature","geometry":{"type":"Point","coordinates":[-157.9625,21.393056]}},{"properties":{"city":"Wunghnu","country":"Australia","geo_score":0.0,"afl":1,"id":"a64lky16vr0c","geo_precision":"unmatched","state":"Victoria"},"type":"Feature","geometry":null},{"properties":{"city":"Wyndham","country":"Australia","geo_score":0.653,"afl":2,"id":"a64lky6wqa7g","geo_precision":"city","state":"Western Australia"},"type":"Feature","geometry":{"type":"Point","coordinates":[-90.535108,35.822575]}},{"properties":{"city":"Yallingup","country":"Australia","geo_score":0.0,"afl":1,"id":"a64lkxs1q1he","geo_precision":"unmatched","state":"Western Australia"},"type":"Feature","geometry":null},{"properties":{"city":"Yarra Junction","country":"Australia","geo_score":0.615,"afl":1,"id":"a64lkxw4rhyp","geo_precision":"city","state":"Victoria"},"type":"Feature","geometry":{"type":"Point","coordinates":[-89.127847,38.580327]}},{"properties":{"city":"Yarrambat","country":"Australia","geo_score":0.0,"afl":2,"id":"a64lky19loct","geo_precision":"unmatched","state":"Victoria"},"type":"Feature","geometry":null},{"properties":{"city":"Yarraville","country":"Australia","geo_score":0.0,"afl":1,"id":"a64lkxtuigex","geo_precision":"unmatched","state":"Victoria"},"type":"Feature","geometry":null},{"properties":{"city":"Yarrawonga","country":"Australia","geo_score":0.0,"afl":1,"id":"a64lky34ao3j","geo_precision":"unmatched","state":"Victoria"},"type":"Feature","geometry":null},{"properties":{"city":"Yass","country":"Australia","geo_score":0.657,"afl":4,"id":"a64lkxzhmyqz","geo_precision":"city","state":"New South Wales"},"type":"Feature","geometry":{"type":"Point","coordinates":[-86.197209,36.8531]}},{"properties":{"city":"Yungaburra","country":"Australia","geo_score":0.629,"afl":1,"id":"a64lky3oqmzq","geo_precision":"city","state":"Queensland"},"type":"Feature","geometry":{"type":"Point","coordinates":[-81.343173,39.380353]}}],"is_temporal":false,"author":{"url":"http://ozziesport.com/","metadata":"","contact_name":"","contact_address":"","source":"Ozzies Sport","contact_phone":""},"source":"http://ozziesport.com/","pagination":{"sort":null,"start":0,"total":764,"limit":1000000},"state":"complete","tags":"afl","published":"2010-11-23T17:00:00Z","id":79903}