{"type":"FeatureCollection","data_type":"Dataset","url_type":null,"permissions":[{"permissions":{"download":true,"view":true},"group_id":"everyone"}],"classification":null,"title":"NRL","count":480,"stream_id":79925,"contributor":{"url":"http://geocommons.com/users/12003","name":"LauraHale"},"data_attributes":null,"calculation_params":null,"icon_link":null,"link":"http://geocommons.com/overlays/79925.json","extent":[-123.369,-70.75,179.3,63.0667],"geometry_types":["point"],"unique_name":null,"name":"NRL","feature_count":480,"description":"","next_feature":null,"is_raster":false,"short_classification":"Y","stats":{"geo_score":{"max":1.0,"mean":0.792885416666668,"variance":0.00337358809585943,"stdev":0.0580825971858992,"min":0.0,"median":0.786},"nrl":{"max":5773,"mean":31.4104166666667,"variance":87372.2717075503,"stdev":295.588010087605,"min":1,"median":1}},"features":[{"properties":{"city":"Abbotsford","country":"Australia","geo_score":0.857,"nrl":1,"id":"a6bnb0psbmpe","geo_precision":"zip","state":"Victoria"},"type":"Feature","geometry":{"type":"Point","coordinates":[-122.252570429,49.057976687]}},{"properties":{"city":"Adelaide","country":"Australia","geo_score":0.857,"nrl":171,"id":"a6bnb0n2ujhd","geo_precision":"zip","state":"South Australia"},"type":"Feature","geometry":{"type":"Point","coordinates":[138.6,-34.9333333]}},{"properties":{"city":"Albany","country":"Australia","geo_score":0.857,"nrl":1,"id":"a6bnb0k21fbh","geo_precision":"zip","state":"Western Australia"},"type":"Feature","geometry":{"type":"Point","coordinates":[-73.7562317,42.6525793]}},{"properties":{"city":"Albert Park","country":"Australia","geo_score":0.814,"nrl":1,"id":"a6bnb0s7rjyb","geo_precision":"zip","state":"Victoria"},"type":"Feature","geometry":{"type":"Point","coordinates":[-117.469001862,52.283328931]}},{"properties":{"city":"Albury","country":"Australia","geo_score":0.857,"nrl":9,"id":"a6bnb0msdsrb","geo_precision":"zip","state":"New South Wales"},"type":"Feature","geometry":{"type":"Point","coordinates":[146.9166667,-36.0833333]}},{"properties":{"city":"Alexandria","country":"Australia","geo_score":0.857,"nrl":1,"id":"a6bnb0k890w5","geo_precision":"zip","state":"New South Wales"},"type":"Feature","geometry":{"type":"Point","coordinates":[29.9191667,31.1980556]}},{"properties":{"city":"Alice Springs","country":"Australia","geo_score":0.798,"nrl":10,"id":"a6bnb0sucbh0","geo_precision":"zip","state":"Northern Territory"},"type":"Feature","geometry":{"type":"Point","coordinates":[28.4,-26.25]}},{"properties":{"city":"Altona","country":"Australia","geo_score":0.837,"nrl":1,"id":"a6bnb0h4qpry","geo_precision":"zip","state":"Victoria"},"type":"Feature","geometry":{"type":"Point","coordinates":[-78.3947359,40.5186809]}},{"properties":{"city":"Ambarvale","country":"Australia","geo_score":0.778,"nrl":1,"id":"a6bnb0i70cmk","geo_precision":"zip","state":"New South Wales"},"type":"Feature","geometry":{"type":"Point","coordinates":[3.4,49.3166667]}},{"properties":{"city":"Anna Bay","country":"Australia","geo_score":0.837,"nrl":1,"id":"a6bnb0unfvlm","geo_precision":"zip","state":"New South Wales"},"type":"Feature","geometry":{"type":"Point","coordinates":[7.7666667,36.9]}},{"properties":{"city":"Annandale","country":"Australia","geo_score":0.857,"nrl":2,"id":"a6bnb0m0mhbg","geo_precision":"zip","state":"New South Wales"},"type":"Feature","geometry":{"type":"Point","coordinates":[-77.1963703,38.8303905]}},{"properties":{"city":"Apollo Bay","country":"Australia","geo_score":0.73,"nrl":1,"id":"a6bnb0fz7neb","geo_precision":"zip","state":"Victoria"},"type":"Feature","geometry":{"type":"Point","coordinates":[-11.7383333,7.9647222]}},{"properties":{"city":"Armidale","country":"Australia","geo_score":0.857,"nrl":7,"id":"a6bnb0hhylrw","geo_precision":"zip","state":"New South Wales"},"type":"Feature","geometry":{"type":"Point","coordinates":[151.65,-30.5166667]}},{"properties":{"city":"Armidale","country":"Australia","geo_score":0.857,"nrl":5,"id":"a6bnb0kam90b","geo_precision":"zip","state":"Victoria"},"type":"Feature","geometry":{"type":"Point","coordinates":[151.65,-30.5166667]}},{"properties":{"city":"Ashfield","country":"Australia","geo_score":0.857,"nrl":3,"id":"a6bnb0t05eh8","geo_precision":"zip","state":"New South Wales"},"type":"Feature","geometry":{"type":"Point","coordinates":[-72.788426,42.5264745]}},{"properties":{"city":"Ashgrove","country":"Australia","geo_score":0.804,"nrl":1,"id":"a6bnb0opx5rv","geo_precision":"zip","state":"Queensland"},"type":"Feature","geometry":{"type":"Point","coordinates":[-121.285899854,50.71645835]}},{"properties":{"city":"Ashwood","country":"Australia","geo_score":0.786,"nrl":1,"id":"a6bnb0hfbogf","geo_precision":"zip","state":"Victoria"},"type":"Feature","geometry":{"type":"Point","coordinates":[91.1838889,22.7947222]}},{"properties":{"city":"Aspendale","country":"Australia","geo_score":0.794,"nrl":1,"id":"a6bnb0kkjxab","geo_precision":"zip","state":"Victoria"},"type":"Feature","geometry":{"type":"Point","coordinates":[43.2561111,41.5738889]}},{"properties":{"city":"Auckland","country":"New Zealand","geo_score":0.857,"nrl":742,"id":"a6bnb0l2dgpc","geo_precision":"zip","state":"Auckland"},"type":"Feature","geometry":{"type":"Point","coordinates":[174.7666667,-36.8666667]}},{"properties":{"city":"Bacchus Marsh","country":"Australia","geo_score":0.738,"nrl":1,"id":"a6bnb0l9t0jn","geo_precision":"zip","state":"Victoria"},"type":"Feature","geometry":{"type":"Point","coordinates":[-1.16363536604525,37.9439891615427]}},{"properties":{"city":"Balcolyn","country":"Australia","geo_score":0.792,"nrl":4,"id":"a6bnb0f5l0dj","geo_precision":"zip","state":"New South Wales"},"type":"Feature","geometry":{"type":"Point","coordinates":[14.75,-11.4333333]}},{"properties":{"city":"Ballajura","country":"Australia","geo_score":0.81,"nrl":1,"id":"a6bnb0un3r6z","geo_precision":"zip","state":"Western Australia"},"type":"Feature","geometry":{"type":"Point","coordinates":[70.0844444,36.8680556]}},{"properties":{"city":"Ballarat","country":"Australia","geo_score":0.857,"nrl":17,"id":"a6bnb0p0ytsv","geo_precision":"zip","state":"Victoria"},"type":"Feature","geometry":{"type":"Point","coordinates":[143.85,-37.5666667]}},{"properties":{"city":"Ballina","country":"Australia","geo_score":0.796,"nrl":1,"id":"a6bnb0q76j3w","geo_precision":"zip","state":"New South Wales"},"type":"Feature","geometry":{"type":"Point","coordinates":[11.3387489318848,44.4938114812334]}},{"properties":{"city":"Balmain","country":"Australia","geo_score":0.75,"nrl":6,"id":"a6bnb0euu7hl","geo_precision":"zip","state":"New South Wales"},"type":"Feature","geometry":{"type":"Point","coordinates":[-49.06611111,-26.91944444]}},{"properties":{"city":"Bankstown","country":"Australia","geo_score":0.841,"nrl":2,"id":"a6bnb0gf2hwf","geo_precision":"zip","state":"New South Wales"},"type":"Feature","geometry":{"type":"Point","coordinates":[-90.9612418,42.5186098]}},{"properties":{"city":"Bannockburn","country":"Australia","geo_score":0.857,"nrl":1,"id":"a6bnb0h6wkxr","geo_precision":"zip","state":"Victoria"},"type":"Feature","geometry":{"type":"Point","coordinates":[-3.8833333,56.0833333]}},{"properties":{"city":"Barcaldine","country":"Australia","geo_score":0.786,"nrl":1,"id":"a6bnb0fikmvw","geo_precision":"zip","state":"Queensland"},"type":"Feature","geometry":{"type":"Point","coordinates":[-2.99729347229004,43.2956366817153]}},{"properties":{"city":"Barmaryee","country":"Australia","geo_score":0.857,"nrl":1,"id":"a6bnb0hoj8sm","geo_precision":"zip","state":"Queensland"},"type":"Feature","geometry":{"type":"Point","coordinates":[150.7166667,-23.1333333]}},{"properties":{"city":"Batemans Bay","country":"Australia","geo_score":0.727,"nrl":2,"id":"a6bnb0ezdcj4","geo_precision":"zip","state":"New South Wales"},"type":"Feature","geometry":{"type":"Point","coordinates":[-11.7383333,7.9647222]}},{"properties":{"city":"Bathurst","country":"Australia","geo_score":0.857,"nrl":17,"id":"a6bnb0hngraj","geo_precision":"zip","state":"New South Wales"},"type":"Feature","geometry":{"type":"Point","coordinates":[-61.8166667,-37.5833333]}},{"properties":{"city":"Baulkham Hills","country":"Australia","geo_score":0.747,"nrl":1,"id":"a6bnb0qt9kz7","geo_precision":"zip","state":"New South Wales"},"type":"Feature","geometry":{"type":"Point","coordinates":[85.2833333,25.3166667]}},{"properties":{"city":"Bayside","country":"Australia","geo_score":0.776,"nrl":1,"id":"a6bnb0ntg59b","geo_precision":"zip","state":"Victoria"},"type":"Feature","geometry":{"type":"Point","coordinates":[82.7166667,26.8]}},{"properties":{"city":"Beachcomber","country":"Australia","geo_score":0.753,"nrl":1,"id":"a6bnb0ttmj5x","geo_precision":"zip","state":"Victoria"},"type":"Feature","geometry":{"type":"Point","coordinates":[14.2333333,-9.9666667]}},{"properties":{"city":"Beechworth","country":"Australia","geo_score":0.857,"nrl":1,"id":"a6bnb0ppirb3","geo_precision":"zip","state":"Victoria"},"type":"Feature","geometry":{"type":"Point","coordinates":[146.7166667,-36.3666667]}},{"properties":{"city":"Bega","country":"Australia","geo_score":0.75,"nrl":2,"id":"a6bnb0hijmhs","geo_precision":"zip","state":"New South Wales"},"type":"Feature","geometry":{"type":"Point","coordinates":[49.8822222,40.3952778]}},{"properties":{"city":"Belconnen","country":"Australia","geo_score":0.778,"nrl":2,"id":"a6bnb0lo41un","geo_precision":"zip","state":"Australian Capital Territory"},"type":"Feature","geometry":{"type":"Point","coordinates":[121.1411111,13.9858333]}},{"properties":{"city":"Bellara","country":"Australia","geo_score":0.837,"nrl":4,"id":"a6bnb0ls3mlm","geo_precision":"zip","state":"Queensland"},"type":"Feature","geometry":{"type":"Point","coordinates":[76.9333333,15.15]}},{"properties":{"city":"Bellingen","country":"Australia","geo_score":0.825,"nrl":1,"id":"a6bnb0ttxorz","geo_precision":"zip","state":"New South Wales"},"type":"Feature","geometry":{"type":"Point","coordinates":[8.85463714599609,48.2752531579162]}},{"properties":{"city":"Belmore","country":"Australia","geo_score":0.839,"nrl":1,"id":"a6bnb0tcq5ql","geo_precision":"zip","state":"New South Wales"},"type":"Feature","geometry":{"type":"Point","coordinates":[-73.5270709,40.6687125]}},{"properties":{"city":"Bendigo","country":"Australia","geo_score":0.857,"nrl":9,"id":"a6bnb0h6kphx","geo_precision":"zip","state":"Victoria"},"type":"Feature","geometry":{"type":"Point","coordinates":[144.2833333,-36.7666667]}},{"properties":{"city":"Bentleigh","country":"Australia","geo_score":0.75,"nrl":1,"id":"a6bnb0evk6w7","geo_precision":"zip","state":"Victoria"},"type":"Feature","geometry":{"type":"Point","coordinates":[10.578503,44.008649]}},{"properties":{"city":"Bentleigh East","country":"Australia","geo_score":0.736,"nrl":1,"id":"a6bnb0qx14vj","geo_precision":"zip","state":"Victoria"},"type":"Feature","geometry":{"type":"Point","coordinates":[10.578503,44.008649]}},{"properties":{"city":"Bethania","country":"Australia","geo_score":0.804,"nrl":1,"id":"a6bnb0gu8hv0","geo_precision":"zip","state":"Queensland"},"type":"Feature","geometry":{"type":"Point","coordinates":[2.6333333,50.5333333]}},{"properties":{"city":"Bexley North","country":"Australia","geo_score":0.792,"nrl":1,"id":"a6bnb0er74cr","geo_precision":"zip","state":"New South Wales"},"type":"Feature","geometry":{"type":"Point","coordinates":[-82.9376804,39.9689532]}},{"properties":{"city":"Blakehurst","country":"Australia","geo_score":0.757,"nrl":1,"id":"a6bnb0q3ppyt","geo_precision":"zip","state":"New South Wales"},"type":"Feature","geometry":{"type":"Point","coordinates":[67.16,31.59]}},{"properties":{"city":"Blenheim","country":"New Zealand","geo_score":0.857,"nrl":2,"id":"a6bnb0lk7v9i","geo_precision":"zip","state":"Marlborough"},"type":"Feature","geometry":{"type":"Point","coordinates":[173.952798843384,-41.5160327530779]}},{"properties":{"city":"Blue Mountains","country":"Australia","geo_score":0.736,"nrl":10,"id":"a6bnb0g9cz3g","geo_precision":"zip","state":"New South Wales"},"type":"Feature","geometry":{"type":"Point","coordinates":[-75.5622222,6.3388889]}},{"properties":{"city":"Bondi","country":"Australia","geo_score":0.8,"nrl":19,"id":"a6bnb0mxqp4p","geo_precision":"zip","state":"New South Wales"},"type":"Feature","geometry":{"type":"Point","coordinates":[80.3333333,25.4833333]}},{"properties":{"city":"Bondi Beach","country":"Australia","geo_score":0.743,"nrl":18,"id":"a6bnb0tj3u4g","geo_precision":"zip","state":"New South Wales"},"type":"Feature","geometry":{"type":"Point","coordinates":[9.8441667,10.3158333]}},{"properties":{"city":"Bondi Junction","country":"Australia","geo_score":0.747,"nrl":1,"id":"a6bnb0pi0yas","geo_precision":"zip","state":"New South Wales"},"type":"Feature","geometry":{"type":"Point","coordinates":[80.3333333,25.4833333]}},{"properties":{"city":"Bowral","country":"Australia","geo_score":0.75,"nrl":2,"id":"a6bnb0tol32g","geo_precision":"zip","state":"New South Wales"},"type":"Feature","geometry":{"type":"Point","coordinates":[79.4166667,28.35]}},{"properties":{"city":"Boyne Island","country":"Australia","geo_score":0.766,"nrl":1,"id":"a6bnb0h3zer8","geo_precision":"zip","state":"Queensland"},"type":"Feature","geometry":{"type":"Point","coordinates":[7.1,50.7333333]}},{"properties":{"city":"Bradbury","country":"Australia","geo_score":0.753,"nrl":1,"id":"a6bnb0qxlo9p","geo_precision":"zip","state":"New South Wales"},"type":"Feature","geometry":{"type":"Point","coordinates":[-43.8322723565459,-5.75581954038997]}},{"properties":{"city":"Bribie Island","country":"Australia","geo_score":0.714,"nrl":1,"id":"a6bnb0ekmpj1","geo_precision":"zip","state":"Queensland"},"type":"Feature","geometry":{"type":"Point","coordinates":[-122.5846041,48.1331513]}},{"properties":{"city":"Bright","country":"Australia","geo_score":0.786,"nrl":1,"id":"a6bnb0qukke7","geo_precision":"zip","state":"Victoria"},"type":"Feature","geometry":{"type":"Point","coordinates":[35.5097222,33.8719444]}},{"properties":{"city":"Brighton","country":"Australia","geo_score":0.768,"nrl":1,"id":"a6bnb0ibumay","geo_precision":"zip","state":"Victoria"},"type":"Feature","geometry":{"type":"Point","coordinates":[32.5,41.5833333]}},{"properties":{"city":"Brisbane","country":"Australia","geo_score":0.857,"nrl":2017,"id":"a6bnb0gxyul9","geo_precision":"zip","state":"Queensland"},"type":"Feature","geometry":{"type":"Point","coordinates":[153.028092384338,-27.4679357321901]}},{"properties":{"city":"Broadbeach","country":"Australia","geo_score":0.857,"nrl":3,"id":"a6bnb0puel18","geo_precision":"zip","state":"Queensland"},"type":"Feature","geometry":{"type":"Point","coordinates":[153.433427810669,-28.0278187078271]}},{"properties":{"city":"Broken Hill","country":"Australia","geo_score":0.757,"nrl":1,"id":"a6bnb0n4et3x","geo_precision":"zip","state":"New South Wales"},"type":"Feature","geometry":{"type":"Point","coordinates":[-2.34610260795808,34.9083666133014]}},{"properties":{"city":"Brookvale","country":"Australia","geo_score":0.8,"nrl":1,"id":"a6bnb0t778j2","geo_precision":"zip","state":"New South Wales"},"type":"Feature","geometry":{"type":"Point","coordinates":[-88.1064787,43.0605671]}},{"properties":{"city":"Browns Plains","country":"Australia","geo_score":0.75,"nrl":1,"id":"a6bnb0q70vso","geo_precision":"zip","state":"Queensland"},"type":"Feature","geometry":{"type":"Point","coordinates":[123.8833333,12.1166667]}},{"properties":{"city":"Bruce","country":"Australia","geo_score":0.743,"nrl":1,"id":"a6bnb0u9chg7","geo_precision":"zip","state":"Australian Capital Territory"},"type":"Feature","geometry":{"type":"Point","coordinates":[29.0833333,40.1666667]}},{"properties":{"city":"Brunswick","country":"Australia","geo_score":0.8,"nrl":2,"id":"a6bnb0n1ppqx","geo_precision":"zip","state":"Victoria"},"type":"Feature","geometry":{"type":"Point","coordinates":[-78.2663883,34.0668378]}},{"properties":{"city":"Brunswick Heads","country":"Australia","geo_score":0.8,"nrl":1,"id":"a6bnb0lwnui9","geo_precision":"zip","state":"New South Wales"},"type":"Feature","geometry":{"type":"Point","coordinates":[-78.2663883,34.0668378]}},{"properties":{"city":"Buderim","country":"Australia","geo_score":0.796,"nrl":1,"id":"a6bnb0i7kzec","geo_precision":"zip","state":"Queensland"},"type":"Feature","geometry":{"type":"Point","coordinates":[27.4291667,37.0383333]}},{"properties":{"city":"Bunbury","country":"Australia","geo_score":0.837,"nrl":1,"id":"a6bnb0o4l6vm","geo_precision":"zip","state":"Western Australia"},"type":"Feature","geometry":{"type":"Point","coordinates":[-1.3333333,52.05]}},{"properties":{"city":"Bundaberg","country":"Australia","geo_score":0.857,"nrl":19,"id":"a6bnb0k4xtmu","geo_precision":"zip","state":"Queensland"},"type":"Feature","geometry":{"type":"Point","coordinates":[152.35,-24.85]}},{"properties":{"city":"Bundoora","country":"Australia","geo_score":0.768,"nrl":1,"id":"a6bnb0rcfq6k","geo_precision":"zip","state":"Victoria"},"type":"Feature","geometry":{"type":"Point","coordinates":[106.3833333,10.2333333]}},{"properties":{"city":"Bungendore","country":"Australia","geo_score":0.857,"nrl":2,"id":"a6bnb0jpx5m3","geo_precision":"zip","state":"New South Wales"},"type":"Feature","geometry":{"type":"Point","coordinates":[149.4333333,-35.25]}},{"properties":{"city":"Burleigh Heads","country":"Australia","geo_score":0.747,"nrl":5,"id":"a6bnb0hv11hb","geo_precision":"zip","state":"Queensland"},"type":"Feature","geometry":{"type":"Point","coordinates":[18.5,46.2666667]}},{"properties":{"city":"Burnie","country":"Australia","geo_score":0.786,"nrl":1,"id":"a6bnb0pxian8","geo_precision":"zip","state":"Tasmania"},"type":"Feature","geometry":{"type":"Point","coordinates":[16.6079592704773,49.1952226735148]}},{"properties":{"city":"Burra","country":"Australia","geo_score":0.8,"nrl":1,"id":"a6bnb0gofu2f","geo_precision":"zip","state":"New South Wales"},"type":"Feature","geometry":{"type":"Point","coordinates":[85.0833333,27.0833333]}},{"properties":{"city":"Burwood","country":"Australia","geo_score":0.768,"nrl":5,"id":"a6bnb0k2wmkz","geo_precision":"zip","state":"New South Wales"},"type":"Feature","geometry":{"type":"Point","coordinates":[84.1166667,23.8333333]}},{"properties":{"city":"Busselton","country":"Australia","geo_score":0.794,"nrl":1,"id":"a6bnb0okp4d9","geo_precision":"zip","state":"Western Australia"},"type":"Feature","geometry":{"type":"Point","coordinates":[0.4666667,51.5666667]}},{"properties":{"city":"Byron Bay","country":"Australia","geo_score":0.768,"nrl":13,"id":"a6bnb0qrscn7","geo_precision":"zip","state":"New South Wales"},"type":"Feature","geometry":{"type":"Point","coordinates":[16.6079592704773,49.1952226735148]}},{"properties":{"city":"Caboolture","country":"Australia","geo_score":0.857,"nrl":4,"id":"a6bnb0unzvkb","geo_precision":"zip","state":"Queensland"},"type":"Feature","geometry":{"type":"Point","coordinates":[152.95,-27.0833333]}},{"properties":{"city":"Cairns","country":"Australia","geo_score":0.768,"nrl":68,"id":"a6bnb0ev55st","geo_precision":"zip","state":"Queensland"},"type":"Feature","geometry":{"type":"Point","coordinates":[-66.6166667,10.4666667]}},{"properties":{"city":"Caloundra","country":"Australia","geo_score":0.778,"nrl":2,"id":"a6bnb0tmqibc","geo_precision":"zip","state":"Queensland"},"type":"Feature","geometry":{"type":"Point","coordinates":[-117.865339,34.1361187]}},{"properties":{"city":"Calwell","country":"Australia","geo_score":0.837,"nrl":1,"id":"a6bnb0pbr5yr","geo_precision":"zip","state":"Australian Capital Territory"},"type":"Feature","geometry":{"type":"Point","coordinates":[-92.5940738,43.1558053]}},{"properties":{"city":"Cambelltown","country":"Australia","geo_score":0.779,"nrl":1,"id":"a6bnb0ip120p","geo_precision":"zip","state":"New South Wales"},"type":"Feature","geometry":{"type":"Point","coordinates":[122.8919444,13.6202778]}},{"properties":{"city":"Cambridge","country":"New Zealand","geo_score":0.857,"nrl":1,"id":"a6bnb0ii3gzc","geo_precision":"zip","state":"Waikato"},"type":"Feature","geometry":{"type":"Point","coordinates":[0.1166667,52.2]}},{"properties":{"city":"Camden","country":"Australia","geo_score":0.857,"nrl":1,"id":"a6bnb0jmyw0q","geo_precision":"zip","state":"New South Wales"},"type":"Feature","geometry":{"type":"Point","coordinates":[-75.1196199,39.9259463]}},{"properties":{"city":"Campbelltown","country":"Australia","geo_score":0.816,"nrl":25,"id":"a6bnb0mnm7nk","geo_precision":"zip","state":"New South Wales"},"type":"Feature","geometry":{"type":"Point","coordinates":[-84.3832721,38.9500637]}},{"properties":{"city":"Camperdown","country":"Australia","geo_score":0.798,"nrl":1,"id":"a6bnb0kforr9","geo_precision":"zip","state":"Victoria"},"type":"Feature","geometry":{"type":"Point","coordinates":[-36.2196882592593,-6.24581859259259]}},{"properties":{"city":"Canada Bay","country":"Australia","geo_score":0.81,"nrl":1,"id":"a6bnb0gpxoty","geo_precision":"zip","state":"New South Wales"},"type":"Feature","geometry":{"type":"Point","coordinates":[-96.0,60.0]}},{"properties":{"city":"Canberra","country":"Australia","geo_score":0.857,"nrl":545,"id":"a6bnb0npcxrt","geo_precision":"zip","state":"Australian Capital Territory"},"type":"Feature","geometry":{"type":"Point","coordinates":[149.128074645996,-35.2834624726481]}},{"properties":{"city":"Cannington","country":"Australia","geo_score":0.786,"nrl":1,"id":"a6bnb0jyhy2d","geo_precision":"zip","state":"Western Australia"},"type":"Feature","geometry":{"type":"Point","coordinates":[75.0666667,12.3166667]}},{"properties":{"city":"Carlton","country":"Australia","geo_score":0.791,"nrl":1,"id":"a6bnb0mozlxg","geo_precision":"zip","state":"Victoria"},"type":"Feature","geometry":{"type":"Point","coordinates":[27.4,-26.3666667]}},{"properties":{"city":"Carrara","country":"Australia","geo_score":0.816,"nrl":2,"id":"a6bnb0ixps65","geo_precision":"zip","state":"Queensland"},"type":"Feature","geometry":{"type":"Point","coordinates":[-35.97611111,-8.283333333]}},{"properties":{"city":"Casterton","country":"Australia","geo_score":0.774,"nrl":1,"id":"a6bnb0ud1yqo","geo_precision":"zip","state":"Victoria"},"type":"Feature","geometry":{"type":"Point","coordinates":[9.11938190460205,48.5230000767161]}},{"properties":{"city":"Castle Hill","country":"Australia","geo_score":0.757,"nrl":7,"id":"a6bnb0h4u50f","geo_precision":"zip","state":"New South Wales"},"type":"Feature","geometry":{"type":"Point","coordinates":[12.0,51.5]}},{"properties":{"city":"Castlemaine","country":"Australia","geo_score":0.769,"nrl":1,"id":"a6bnb0h59d5e","geo_precision":"zip","state":"Victoria"},"type":"Feature","geometry":{"type":"Point","coordinates":[14.489137,40.715509]}},{"properties":{"city":"Charlestown","country":"Australia","geo_score":0.804,"nrl":1,"id":"a6bnb0tsa2b2","geo_precision":"zip","state":"New South Wales"},"type":"Feature","geometry":{"type":"Point","coordinates":[-79.966479,32.7668437]}},{"properties":{"city":"Chatswood","country":"Australia","geo_score":0.857,"nrl":5,"id":"a6bnb0hn2qks","geo_precision":"zip","state":"New South Wales"},"type":"Feature","geometry":{"type":"Point","coordinates":[151.1833333,-33.8]}},{"properties":{"city":"Chelsea","country":"Australia","geo_score":0.776,"nrl":1,"id":"a6bnb0hot6l0","geo_precision":"zip","state":"Victoria"},"type":"Feature","geometry":{"type":"Point","coordinates":[51.4219444,36.6547222]}},{"properties":{"city":"Cheltenham","country":"Australia","geo_score":0.857,"nrl":1,"id":"a6bnb0qkt3ag","geo_precision":"zip","state":"Victoria"},"type":"Feature","geometry":{"type":"Point","coordinates":[-2.0833333,51.9]}},{"properties":{"city":"Christchurch","country":"New Zealand","geo_score":0.857,"nrl":108,"id":"a6bnb0ftlz7m","geo_precision":"zip","state":"Canterbury"},"type":"Feature","geometry":{"type":"Point","coordinates":[172.6333333,-43.5333333]}},{"properties":{"city":"Churchlands","country":"Australia","geo_score":0.779,"nrl":1,"id":"a6bnb0p4nywz","geo_precision":"zip","state":"Western Australia"},"type":"Feature","geometry":{"type":"Point","coordinates":[65.3527778,33.5327778]}},{"properties":{"city":"Clayton","country":"Australia","geo_score":0.796,"nrl":2,"id":"a6bnb0f1dpbj","geo_precision":"zip","state":"Victoria"},"type":"Feature","geometry":{"type":"Point","coordinates":[110.6063889,-7.7058333]}},{"properties":{"city":"Cleveland","country":"Australia","geo_score":0.857,"nrl":3,"id":"a6bnb0npskys","geo_precision":"zip","state":"Queensland"},"type":"Feature","geometry":{"type":"Point","coordinates":[-81.6954088,41.4994954]}},{"properties":{"city":"Cloncurry","country":"Australia","geo_score":0.771,"nrl":1,"id":"a6bnb0uivc60","geo_precision":"zip","state":"Queensland"},"type":"Feature","geometry":{"type":"Point","coordinates":[-89.983158,38.7483814]}},{"properties":{"city":"Coffs Harbor","country":"Australia","geo_score":0.753,"nrl":1,"id":"a6bnb0lloxa2","geo_precision":"zip","state":"New South Wales"},"type":"Feature","geometry":{"type":"Point","coordinates":[8.7841667,34.425]}},{"properties":{"city":"Coffs Harbour","country":"Australia","geo_score":0.75,"nrl":37,"id":"a6bnb0gh1gwe","geo_precision":"zip","state":"New South Wales"},"type":"Feature","geometry":{"type":"Point","coordinates":[8.7841667,34.425]}},{"properties":{"city":"Colac","country":"Australia","geo_score":0.738,"nrl":2,"id":"a6bnb0jd0fby","geo_precision":"zip","state":"Victoria"},"type":"Feature","geometry":{"type":"Point","coordinates":[36.2705556,54.5358333]}},{"properties":{"city":"Collingwood","country":"Australia","geo_score":0.857,"nrl":2,"id":"a6bnb0g3c8rq","geo_precision":"zip","state":"Victoria"},"type":"Feature","geometry":{"type":"Point","coordinates":[-80.216379865,44.483400662]}},{"properties":{"city":"Concord","country":"Australia","geo_score":0.825,"nrl":3,"id":"a6bnb0tbcq4n","geo_precision":"zip","state":"New South Wales"},"type":"Feature","geometry":{"type":"Point","coordinates":[-58.0333333,-31.4]}},{"properties":{"city":"Conder","country":"Australia","geo_score":0.755,"nrl":1,"id":"a6bnb0lgmnf1","geo_precision":"zip","state":"Australian Capital Territory"},"type":"Feature","geometry":{"type":"Point","coordinates":[-6.3333333,34.5833333]}},{"properties":{"city":"Coogee","country":"Australia","geo_score":0.762,"nrl":2,"id":"a6bnb0o7ys4k","geo_precision":"zip","state":"New South Wales"},"type":"Feature","geometry":{"type":"Point","coordinates":[128.5886111,34.8502778]}},{"properties":{"city":"Coogee Beach","country":"Australia","geo_score":0.74,"nrl":2,"id":"a6bnb0hcbo55","geo_precision":"zip","state":"New South Wales"},"type":"Feature","geometry":{"type":"Point","coordinates":[9.8441667,10.3158333]}},{"properties":{"city":"Cooktown","country":"Australia","geo_score":0.73,"nrl":2,"id":"a6bnb0rmrlti","geo_precision":"zip","state":"Queensland"},"type":"Feature","geometry":{"type":"Point","coordinates":[125.6333333,10.0]}},{"properties":{"city":"Coolangatta","country":"Australia","geo_score":0.792,"nrl":1,"id":"a6bnb0szepge","geo_precision":"zip","state":"Queensland"},"type":"Feature","geometry":{"type":"Point","coordinates":[73.7552976608276,15.5438956557379]}},{"properties":{"city":"Coolum Beach","country":"Australia","geo_score":0.74,"nrl":1,"id":"a6bnb0mbo5e6","geo_precision":"zip","state":"Queensland"},"type":"Feature","geometry":{"type":"Point","coordinates":[9.8441667,10.3158333]}},{"properties":{"city":"Coonabarabran","country":"Australia","geo_score":0.857,"nrl":1,"id":"a6bnb0qp28ck","geo_precision":"zip","state":"New South Wales"},"type":"Feature","geometry":{"type":"Point","coordinates":[149.2833333,-31.2666667]}},{"properties":{"city":"Corlette","country":"Australia","geo_score":0.804,"nrl":1,"id":"a6bnb0em616w","geo_precision":"zip","state":"New South Wales"},"type":"Feature","geometry":{"type":"Point","coordinates":[-0.524157217955934,39.2329533692492]}},{"properties":{"city":"Coromandel","country":"New Zealand","geo_score":0.857,"nrl":1,"id":"a6bnb0i2kld8","geo_precision":"zip","state":"Waikato"},"type":"Feature","geometry":{"type":"Point","coordinates":[-47.1516067837181,-18.4045594119077]}},{"properties":{"city":"Corowa","country":"Australia","geo_score":0.786,"nrl":1,"id":"a6bnb0h1ad1m","geo_precision":"zip","state":"New South Wales"},"type":"Feature","geometry":{"type":"Point","coordinates":[-2.4333333,53.1]}},{"properties":{"city":"Cottage Point","country":"Australia","geo_score":0.762,"nrl":1,"id":"a6bnb0sorjsi","geo_precision":"zip","state":"New South Wales"},"type":"Feature","geometry":{"type":"Point","coordinates":[-35.53422528,-6.90639088]}},{"properties":{"city":"Cottesloe","country":"Australia","geo_score":0.762,"nrl":1,"id":"a6bnb0newkh1","geo_precision":"zip","state":"Western Australia"},"type":"Feature","geometry":{"type":"Point","coordinates":[-2.2,52.6333333]}},{"properties":{"city":"Craigieburn","country":"Australia","geo_score":0.857,"nrl":2,"id":"a6bnb0gu457k","geo_precision":"zip","state":"Victoria"},"type":"Feature","geometry":{"type":"Point","coordinates":[144.95,-37.6]}},{"properties":{"city":"Cranbourne","country":"Australia","geo_score":0.786,"nrl":2,"id":"a6bnb0k0xz6o","geo_precision":"zip","state":"Victoria"},"type":"Feature","geometry":{"type":"Point","coordinates":[46.6666667,40.5833333]}},{"properties":{"city":"Cremorne","country":"Australia","geo_score":0.794,"nrl":1,"id":"a6bnb0jhh6sx","geo_precision":"zip","state":"Victoria"},"type":"Feature","geometry":{"type":"Point","coordinates":[124.1833333,13.8666667]}},{"properties":{"city":"Cronulla","country":"Australia","geo_score":0.75,"nrl":32,"id":"a6bnb0grbdjp","geo_precision":"zip","state":"New South Wales"},"type":"Feature","geometry":{"type":"Point","coordinates":[76.9833333,29.6833333]}},{"properties":{"city":"Croydon","country":"Australia","geo_score":0.735,"nrl":1,"id":"a6bnb0gfpxha","geo_precision":"zip","state":"Victoria"},"type":"Feature","geometry":{"type":"Point","coordinates":[-118.3089624,33.8883487]}},{"properties":{"city":"Currumbin","country":"Australia","geo_score":0.829,"nrl":2,"id":"a6bnb0otp45i","geo_precision":"zip","state":"Queensland"},"type":"Feature","geometry":{"type":"Point","coordinates":[115.747661590576,-31.7330582529148]}},{"properties":{"city":"Dalby","country":"Australia","geo_score":0.857,"nrl":1,"id":"a6bnb0qzzyjl","geo_precision":"zip","state":"Queensland"},"type":"Feature","geometry":{"type":"Point","coordinates":[151.2666667,-27.1833333]}},{"properties":{"city":"Dapto","country":"Australia","geo_score":0.768,"nrl":2,"id":"a6bnb0qg4csr","geo_precision":"zip","state":"New South Wales"},"type":"Feature","geometry":{"type":"Point","coordinates":[66.5333333,34.6097222]}},{"properties":{"city":"Darlinghurst","country":"Australia","geo_score":0.798,"nrl":2,"id":"a6bnb0t07l23","geo_precision":"zip","state":"New South Wales"},"type":"Feature","geometry":{"type":"Point","coordinates":[-1.5666667,54.5333333]}},{"properties":{"city":"Darwin","country":"Australia","geo_score":0.857,"nrl":56,"id":"a6bnb0esx8gn","geo_precision":"zip","state":"Northern Territory"},"type":"Feature","geometry":{"type":"Point","coordinates":[130.841846466064,-12.4611336615902]}},{"properties":{"city":"Dawes Point","country":"Australia","geo_score":0.757,"nrl":1,"id":"a6bnb0kmetnq","geo_precision":"zip","state":"New South Wales"},"type":"Feature","geometry":{"type":"Point","coordinates":[76.0666667,22.9666667]}},{"properties":{"city":"Dawesville","country":"Australia","geo_score":0.769,"nrl":1,"id":"a6bnb0nd515j","geo_precision":"zip","state":"Western Australia"},"type":"Feature","geometry":{"type":"Point","coordinates":[54.6,23.6]}},{"properties":{"city":"Dee Why","country":"Australia","geo_score":0.762,"nrl":4,"id":"a6bnb0ub2l7h","geo_precision":"zip","state":"New South Wales"},"type":"Feature","geometry":{"type":"Point","coordinates":[51.5333333,25.2866667]}},{"properties":{"city":"Deepwater","country":"Australia","geo_score":0.857,"nrl":1,"id":"a6bnb0rwx28s","geo_precision":"zip","state":"Queensland"},"type":"Feature","geometry":{"type":"Point","coordinates":[-93.7729902,38.26058]}},{"properties":{"city":"Deer Park","country":"Australia","geo_score":0.732,"nrl":1,"id":"a6bnb0nhv3xx","geo_precision":"zip","state":"Victoria"},"type":"Feature","geometry":{"type":"Point","coordinates":[2.6166667,9.35]}},{"properties":{"city":"Derby","country":"Australia","geo_score":0.857,"nrl":1,"id":"a6bnb0eunkpf","geo_precision":"zip","state":"Western Australia"},"type":"Feature","geometry":{"type":"Point","coordinates":[-1.47663116455078,52.9227723427478]}},{"properties":{"city":"Devonport","country":"Australia","geo_score":0.825,"nrl":1,"id":"a6bnb0urhdtn","geo_precision":"zip","state":"Tasmania"},"type":"Feature","geometry":{"type":"Point","coordinates":[-90.5776367,41.5236437]}},{"properties":{"city":"Devonport","country":"New Zealand","geo_score":0.825,"nrl":1,"id":"a6bnb0sj9gie","geo_precision":"zip","state":"Auckland"},"type":"Feature","geometry":{"type":"Point","coordinates":[-90.5776367,41.5236437]}},{"properties":{"city":"Docklands","country":"Australia","geo_score":0.759,"nrl":1,"id":"a6bnb0kufeje","geo_precision":"zip","state":"Victoria"},"type":"Feature","geometry":{"type":"Point","coordinates":[7.8045,52.221]}},{"properties":{"city":"Doolandella","country":"Australia","geo_score":0.768,"nrl":1,"id":"a6bnb0iiy9e8","geo_precision":"zip","state":"Queensland"},"type":"Feature","geometry":{"type":"Point","coordinates":[13.4747222,46.0330556]}},{"properties":{"city":"Doonside","country":"Australia","geo_score":0.746,"nrl":1,"id":"a6bnb0pnwndg","geo_precision":"zip","state":"New South Wales"},"type":"Feature","geometry":{"type":"Point","coordinates":[124.0333333,10.5333333]}},{"properties":{"city":"Dromana","country":"Australia","geo_score":0.776,"nrl":1,"id":"a6bnb0ibmp10","geo_precision":"zip","state":"Victoria"},"type":"Feature","geometry":{"type":"Point","coordinates":[10.204493701458,59.7439367975026]}},{"properties":{"city":"Drouin","country":"Australia","geo_score":0.738,"nrl":1,"id":"a6bnb0te2lry","geo_precision":"zip","state":"Victoria"},"type":"Feature","geometry":{"type":"Point","coordinates":[51.4244444,35.6719444]}},{"properties":{"city":"Drysdale","country":"Australia","geo_score":0.762,"nrl":1,"id":"a6bnb0er94wr","geo_precision":"zip","state":"Victoria"},"type":"Feature","geometry":{"type":"Point","coordinates":[-44.6175107058823,-4.52222490196078]}},{"properties":{"city":"Dubbo","country":"Australia","geo_score":0.786,"nrl":12,"id":"a6bnb0eojgpe","geo_precision":"zip","state":"New South Wales"},"type":"Feature","geometry":{"type":"Point","coordinates":[55.3333333,25.0]}},{"properties":{"city":"Dunedin","country":"New Zealand","geo_score":0.857,"nrl":18,"id":"a6bnb0gov8sb","geo_precision":"zip","state":"Otago"},"type":"Feature","geometry":{"type":"Point","coordinates":[170.503612160683,-45.8741594858349]}},{"properties":{"city":"Durack","country":"Australia","geo_score":0.762,"nrl":1,"id":"a6bnb0icxc7y","geo_precision":"zip","state":"Queensland"},"type":"Feature","geometry":{"type":"Point","coordinates":[110.6588889,-7.7183333]}},{"properties":{"city":"East Devonport","country":"Australia","geo_score":0.791,"nrl":1,"id":"a6bnb0f8qkhv","geo_precision":"zip","state":"Tasmania"},"type":"Feature","geometry":{"type":"Point","coordinates":[-90.5776367,41.5236437]}},{"properties":{"city":"East Fremantle","country":"Australia","geo_score":0.758,"nrl":1,"id":"a6bnb0trfiav","geo_precision":"zip","state":"Western Australia"},"type":"Feature","geometry":{"type":"Point","coordinates":[-72.7498308,44.0003417]}},{"properties":{"city":"East Gosford","country":"Australia","geo_score":0.74,"nrl":1,"id":"a6bnb0pwc6jt","geo_precision":"zip","state":"New South Wales"},"type":"Feature","geometry":{"type":"Point","coordinates":[22.0833333,48.2166667]}},{"properties":{"city":"Elizabeth North","country":"Australia","geo_score":0.806,"nrl":1,"id":"a6bnb0imsnt1","geo_precision":"zip","state":"South Australia"},"type":"Feature","geometry":{"type":"Point","coordinates":[-74.2107006,40.6639916]}},{"properties":{"city":"Elsternwick","country":"Australia","geo_score":0.766,"nrl":1,"id":"a6bnb0ms8fgy","geo_precision":"zip","state":"Victoria"},"type":"Feature","geometry":{"type":"Point","coordinates":[6.56827926635742,50.9373913062077]}},{"properties":{"city":"Elysium","country":"Australia","geo_score":0.816,"nrl":1,"id":"a6bnb0patr2d","geo_precision":"zip","state":"Queensland"},"type":"Feature","geometry":{"type":"Point","coordinates":[4.9833333,51.1666667]}},{"properties":{"city":"Emerald","country":"Australia","geo_score":0.857,"nrl":1,"id":"a6bnb0kqj13a","geo_precision":"zip","state":"Queensland"},"type":"Feature","geometry":{"type":"Point","coordinates":[148.1666667,-23.5333333]}},{"properties":{"city":"Emu Plains","country":"Australia","geo_score":0.762,"nrl":1,"id":"a6bnb0jlsqx6","geo_precision":"zip","state":"New South Wales"},"type":"Feature","geometry":{"type":"Point","coordinates":[123.8833333,12.1166667]}},{"properties":{"city":"Epping","country":"Australia","geo_score":0.857,"nrl":1,"id":"a6bnb0krzqzp","geo_precision":"zip","state":"Victoria"},"type":"Feature","geometry":{"type":"Point","coordinates":[0.1166667,51.7]}},{"properties":{"city":"Erina","country":"Australia","geo_score":0.816,"nrl":1,"id":"a6bnb0s9ucy8","geo_precision":"zip","state":"New South Wales"},"type":"Feature","geometry":{"type":"Point","coordinates":[35.3125,32.7236111]}},{"properties":{"city":"Essendon","country":"Australia","geo_score":0.857,"nrl":2,"id":"a6bnb0pdg6tw","geo_precision":"zip","state":"Victoria"},"type":"Feature","geometry":{"type":"Point","coordinates":[144.9166667,-37.7666667]}},{"properties":{"city":"Ettalong Beach","country":"Australia","geo_score":0.736,"nrl":1,"id":"a6bnb0s4kbkp","geo_precision":"zip","state":"New South Wales"},"type":"Feature","geometry":{"type":"Point","coordinates":[9.8441667,10.3158333]}},{"properties":{"city":"Fairbairn Park","country":"Australia","geo_score":0.747,"nrl":1,"id":"a6bnb0o8xczm","geo_precision":"zip","state":"Victoria"},"type":"Feature","geometry":{"type":"Point","coordinates":[2.6166667,9.35]}},{"properties":{"city":"Fairfield","country":"Australia","geo_score":0.8,"nrl":1,"id":"a6bnb0q56jn3","geo_precision":"zip","state":"New South Wales"},"type":"Feature","geometry":{"type":"Point","coordinates":[-73.3162289,41.2667626]}},{"properties":{"city":"Fairlight","country":"Australia","geo_score":0.857,"nrl":2,"id":"a6bnb0kjsvkf","geo_precision":"zip","state":"New South Wales"},"type":"Feature","geometry":{"type":"Point","coordinates":[0.6333333,50.8833333]}},{"properties":{"city":"Fairy Hill","country":"Australia","geo_score":0.746,"nrl":1,"id":"a6bnb0qjf9al","geo_precision":"zip","state":"New South Wales"},"type":"Feature","geometry":{"type":"Point","coordinates":[12.0,51.5]}},{"properties":{"city":"Feilding","country":"New Zealand","geo_score":0.738,"nrl":1,"id":"a6bnb0uuuc8p","geo_precision":"zip","state":"Manawatu-Wanganui"},"type":"Feature","geometry":{"type":"Point","coordinates":[-84.4499292,33.7667732]}},{"properties":{"city":"Fitzroy","country":"Australia","geo_score":0.743,"nrl":1,"id":"a6bnb0osmo66","geo_precision":"zip","state":"Victoria"},"type":"Feature","geometry":{"type":"Point","coordinates":[25.8666667,63.0666667]}},{"properties":{"city":"Flemington","country":"Australia","geo_score":0.813,"nrl":1,"id":"a6bnb0r2dlms","geo_precision":"zip","state":"Victoria"},"type":"Feature","geometry":{"type":"Point","coordinates":[-83.6832499,38.3500781]}},{"properties":{"city":"Forbes","country":"Australia","geo_score":0.857,"nrl":2,"id":"a6bnb0mq69j0","geo_precision":"zip","state":"New South Wales"},"type":"Feature","geometry":{"type":"Point","coordinates":[148.0166667,-33.3833333]}},{"properties":{"city":"Forititude Valley","country":"Australia","geo_score":0.741,"nrl":1,"id":"a6bnb0n5ezyh","geo_precision":"zip","state":"Queensland"},"type":"Feature","geometry":{"type":"Point","coordinates":[131.1394444,46.7216667]}},{"properties":{"city":"Forster","country":"Australia","geo_score":0.857,"nrl":1,"id":"a6bnb0p3ao3q","geo_precision":"zip","state":"New South Wales"},"type":"Feature","geometry":{"type":"Point","coordinates":[152.5166667,-32.1666667]}},{"properties":{"city":"Fortitude Valley","country":"Australia","geo_score":0.743,"nrl":2,"id":"a6bnb0rbqoum","geo_precision":"zip","state":"Queensland"},"type":"Feature","geometry":{"type":"Point","coordinates":[131.1394444,46.7216667]}},{"properties":{"city":"Foxton","country":"New Zealand","geo_score":0.857,"nrl":1,"id":"a6bnb0ivjou8","geo_precision":"zip","state":"Manawatu-Wanganui"},"type":"Feature","geometry":{"type":"Point","coordinates":[175.3,-40.4666667]}},{"properties":{"city":"Frankston","country":"Australia","geo_score":0.765,"nrl":3,"id":"a6bnb0hg6lbo","geo_precision":"zip","state":"Victoria"},"type":"Feature","geometry":{"type":"Point","coordinates":[8.8586111,49.7461111]}},{"properties":{"city":"Frankston South","country":"Australia","geo_score":0.773,"nrl":1,"id":"a6bnb0kuy8gy","geo_precision":"zip","state":"Victoria"},"type":"Feature","geometry":{"type":"Point","coordinates":[8.8586111,49.7461111]}},{"properties":{"city":"Fremantle","country":"Australia","geo_score":0.762,"nrl":3,"id":"a6bnb0p183u1","geo_precision":"zip","state":"Western Australia"},"type":"Feature","geometry":{"type":"Point","coordinates":[-72.7498308,44.0003417]}},{"properties":{"city":"French Forest","country":"Australia","geo_score":0.762,"nrl":1,"id":"a6bnb0tqcafc","geo_precision":"zip","state":"New South Wales"},"type":"Feature","geometry":{"type":"Point","coordinates":[6.141667,52.17]}},{"properties":{"city":"Fyshwick","country":"Australia","geo_score":0.857,"nrl":1,"id":"a6bnb0ewc0t6","geo_precision":"zip","state":"Australian Capital Territory"},"type":"Feature","geometry":{"type":"Point","coordinates":[149.1666667,-35.3333333]}},{"properties":{"city":"Gayndah","country":"Australia","geo_score":0.776,"nrl":1,"id":"a6bnb0j40iyb","geo_precision":"zip","state":"Queensland"},"type":"Feature","geometry":{"type":"Point","coordinates":[-96.0,60.0]}},{"properties":{"city":"Geelong","country":"Australia","geo_score":0.857,"nrl":65,"id":"a6bnb0mhde3t","geo_precision":"zip","state":"Victoria"},"type":"Feature","geometry":{"type":"Point","coordinates":[144.360694885254,-38.1471125837516]}},{"properties":{"city":"Gippsland","country":"Australia","geo_score":0.806,"nrl":4,"id":"a6bnb0jk1m11","geo_precision":"zip","state":"Victoria"},"type":"Feature","geometry":{"type":"Point","coordinates":[147.65,-38.0]}},{"properties":{"city":"Gisborne","country":"Australia","geo_score":0.857,"nrl":4,"id":"a6bnb0igacx7","geo_precision":"zip","state":"Victoria"},"type":"Feature","geometry":{"type":"Point","coordinates":[178.0041667,-38.6533333]}},{"properties":{"city":"Gisborne","country":"New Zealand","geo_score":0.857,"nrl":4,"id":"a6bnb0rr9q8r","geo_precision":"zip","state":"Gisborne"},"type":"Feature","geometry":{"type":"Point","coordinates":[178.0041667,-38.6533333]}},{"properties":{"city":"Gladesville","country":"Australia","geo_score":0.727,"nrl":1,"id":"a6bnb0sun0uk","geo_precision":"zip","state":"New South Wales"},"type":"Feature","geometry":{"type":"Point","coordinates":[1.6166667,42.55]}},{"properties":{"city":"Gladstone","country":"Australia","geo_score":0.769,"nrl":2,"id":"a6bnb0qu2zkh","geo_precision":"zip","state":"Queensland"},"type":"Feature","geometry":{"type":"Point","coordinates":[80.25,6.25]}},{"properties":{"city":"Glen Waverley","country":"Australia","geo_score":0.726,"nrl":1,"id":"a6bnb0mapb2p","geo_precision":"zip","state":"Victoria"},"type":"Feature","geometry":{"type":"Point","coordinates":[114.1833333,22.3166667]}},{"properties":{"city":"Glenmore Park","country":"Australia","geo_score":0.726,"nrl":2,"id":"a6bnb0o7bcxm","geo_precision":"zip","state":"New South Wales"},"type":"Feature","geometry":{"type":"Point","coordinates":[2.6166667,9.35]}},{"properties":{"city":"Gold Coast","country":"Australia","geo_score":0.857,"nrl":1094,"id":"a6bnb0k42cid","geo_precision":"zip","state":"Queensland"},"type":"Feature","geometry":{"type":"Point","coordinates":[153.4333333,-28.0]}},{"properties":{"city":"Gold Coast","country":"Australia","geo_score":0.857,"nrl":1,"id":"a6bnb0mvai84","geo_precision":"zip","state":"Victoria"},"type":"Feature","geometry":{"type":"Point","coordinates":[153.4333333,-28.0]}},{"properties":{"city":"Gordon","country":"Australia","geo_score":0.796,"nrl":1,"id":"a6bnb0tes6yr","geo_precision":"zip","state":"New South Wales"},"type":"Feature","geometry":{"type":"Point","coordinates":[-118.3089624,33.8883487]}},{"properties":{"city":"Gore","country":"New Zealand","geo_score":0.743,"nrl":1,"id":"a6bnb0szleut","geo_precision":"zip","state":"Southland"},"type":"Feature","geometry":{"type":"Point","coordinates":[31.25,30.05]}},{"properties":{"city":"Gosford","country":"Australia","geo_score":0.768,"nrl":101,"id":"a6bnb0u8pxlg","geo_precision":"zip","state":"New South Wales"},"type":"Feature","geometry":{"type":"Point","coordinates":[22.0833333,48.2166667]}},{"properties":{"city":"Goulburn","country":"Australia","geo_score":0.768,"nrl":2,"id":"a6bnb0p4ia7g","geo_precision":"zip","state":"New South Wales"},"type":"Feature","geometry":{"type":"Point","coordinates":[-97.3866837,32.3476438]}},{"properties":{"city":"Grafton","country":"Australia","geo_score":0.791,"nrl":3,"id":"a6bnb0nvooky","geo_precision":"zip","state":"New South Wales"},"type":"Feature","geometry":{"type":"Point","coordinates":[-71.7995267,43.9500681]}},{"properties":{"city":"Gregory Hills","country":"Australia","geo_score":0.726,"nrl":2,"id":"a6bnb0oxguf2","geo_precision":"zip","state":"New South Wales"},"type":"Feature","geometry":{"type":"Point","coordinates":[123.6333333,10.1166667]}},{"properties":{"city":"Greymouth","country":"New Zealand","geo_score":0.857,"nrl":1,"id":"a6bnb0ga9b18","geo_precision":"zip","state":"West Coast"},"type":"Feature","geometry":{"type":"Point","coordinates":[171.2,-42.4666667]}},{"properties":{"city":"Griffith","country":"Australia","geo_score":0.857,"nrl":3,"id":"a6bnb0qr4ucc","geo_precision":"zip","state":"New South Wales"},"type":"Feature","geometry":{"type":"Point","coordinates":[-87.4236497,41.5283693]}},{"properties":{"city":"Gunnedah","country":"Australia","geo_score":0.768,"nrl":1,"id":"a6bnb0j4o32p","geo_precision":"zip","state":"New South Wales"},"type":"Feature","geometry":{"type":"Point","coordinates":[-96.0,60.0]}},{"properties":{"city":"Hadfield","country":"Australia","geo_score":0.781,"nrl":1,"id":"a6bnb0t8e9xl","geo_precision":"zip","state":"Victoria"},"type":"Feature","geometry":{"type":"Point","coordinates":[0.6,51.7833333]}},{"properties":{"city":"Hahei","country":"New Zealand","geo_score":0.776,"nrl":1,"id":"a6bnb0fwefaz","geo_precision":"zip","state":"Waikato"},"type":"Feature","geometry":{"type":"Point","coordinates":[109.9591667,27.5494444]}},{"properties":{"city":"Hamilton","country":"New Zealand","geo_score":0.796,"nrl":27,"id":"a6bnb0rohrxa","geo_precision":"zip","state":"Waikato"},"type":"Feature","geometry":{"type":"Point","coordinates":[-84.5332772,39.1833918]}},{"properties":{"city":"Hamilton","country":"Australia","geo_score":0.796,"nrl":1,"id":"a6bnb0ty6t4i","geo_precision":"zip","state":"Victoria"},"type":"Feature","geometry":{"type":"Point","coordinates":[-84.5332772,39.1833918]}},{"properties":{"city":"Harden","country":"Australia","geo_score":0.762,"nrl":1,"id":"a6bnb0f2y867","geo_precision":"zip","state":"New South Wales"},"type":"Feature","geometry":{"type":"Point","coordinates":[23.8147222,53.6813889]}},{"properties":{"city":"Hastings","country":"New Zealand","geo_score":1.0,"nrl":3,"id":"a6bnb0tk04yb","geo_precision":"zip","state":null},"type":"Feature","geometry":{"type":"Point","coordinates":[176.849176883698,-39.6380999633232]}},{"properties":{"city":"Hastings Point","country":"Australia","geo_score":0.769,"nrl":2,"id":"a6bnb0jdwpvk","geo_precision":"zip","state":"New South Wales"},"type":"Feature","geometry":{"type":"Point","coordinates":[-83.6499038,32.4334851]}},{"properties":{"city":"Hawkesbury","country":"Australia","geo_score":0.779,"nrl":2,"id":"a6bnb0hglhbx","geo_precision":"zip","state":"New South Wales"},"type":"Feature","geometry":{"type":"Point","coordinates":[6.738889,52.156667]}},{"properties":{"city":"Hawthorn","country":"Australia","geo_score":0.841,"nrl":2,"id":"a6bnb0tzqygc","geo_precision":"zip","state":"Victoria"},"type":"Feature","geometry":{"type":"Point","coordinates":[-118.3525748,33.9164032]}},{"properties":{"city":"Heathcote","country":"Australia","geo_score":0.857,"nrl":2,"id":"a6bnb0uijjey","geo_precision":"zip","state":"New South Wales"},"type":"Feature","geometry":{"type":"Point","coordinates":[-74.5757113,40.3887176]}},{"properties":{"city":"Heathmont","country":"Australia","geo_score":0.829,"nrl":1,"id":"a6bnb0plq65a","geo_precision":"zip","state":"Victoria"},"type":"Feature","geometry":{"type":"Point","coordinates":[145.6166667,-38.65]}},{"properties":{"city":"Hervey Bay","country":"Australia","geo_score":0.73,"nrl":15,"id":"a6bnb0prrtog","geo_precision":"zip","state":"Queensland"},"type":"Feature","geometry":{"type":"Point","coordinates":[-11.7383333,7.9647222]}},{"properties":{"city":"Hillside","country":"Australia","geo_score":0.857,"nrl":1,"id":"a6bnb0hjbrnc","geo_precision":"zip","state":"Victoria"},"type":"Feature","geometry":{"type":"Point","coordinates":[-74.2301459,40.701213]}},{"properties":{"city":"Hobart","country":"Australia","geo_score":0.857,"nrl":30,"id":"a6bnb0ggkf8v","geo_precision":"zip","state":"Tasmania"},"type":"Feature","geometry":{"type":"Point","coordinates":[147.3333333,-42.9166667]}},{"properties":{"city":"Homebush","country":"Australia","geo_score":0.768,"nrl":1,"id":"a6bnb0mlqboo","geo_precision":"zip","state":"New South Wales"},"type":"Feature","geometry":{"type":"Point","coordinates":[6.4833333,50.6333333]}},{"properties":{"city":"Homebush Bay","country":"Australia","geo_score":0.727,"nrl":1,"id":"a6bnb0gqj0pk","geo_precision":"zip","state":"New South Wales"},"type":"Feature","geometry":{"type":"Point","coordinates":[-11.7383333,7.9647222]}},{"properties":{"city":"Hoppers Crossing","country":"Australia","geo_score":0.781,"nrl":2,"id":"a6bnb0i8uf87","geo_precision":"zip","state":"Victoria"},"type":"Feature","geometry":{"type":"Point","coordinates":[6.51145935058594,51.1347701238018]}},{"properties":{"city":"Hornsby","country":"Australia","geo_score":0.857,"nrl":1,"id":"a6bnb0s971j5","geo_precision":"zip","state":"New South Wales"},"type":"Feature","geometry":{"type":"Point","coordinates":[151.1,-33.7]}},{"properties":{"city":"Horsham","country":"Australia","geo_score":0.794,"nrl":2,"id":"a6bnb0g0a48q","geo_precision":"zip","state":"Victoria"},"type":"Feature","geometry":{"type":"Point","coordinates":[132.45,34.4]}},{"properties":{"city":"Hughesdale","country":"Australia","geo_score":0.8,"nrl":1,"id":"a6bnb0lsf9tn","geo_precision":"zip","state":"Victoria"},"type":"Feature","geometry":{"type":"Point","coordinates":[-75.7732488,41.3270244]}},{"properties":{"city":"Hunter Region","country":"Australia","geo_score":0.762,"nrl":1,"id":"a6bnb0khgo5y","geo_precision":"zip","state":"New South Wales"},"type":"Feature","geometry":{"type":"Point","coordinates":[-104.61779794,50.45008005]}},{"properties":{"city":"Hunter Valley","country":"Australia","geo_score":0.774,"nrl":6,"id":"a6bnb0pqm5x9","geo_precision":"zip","state":"New South Wales"},"type":"Feature","geometry":{"type":"Point","coordinates":[22.9,45.75]}},{"properties":{"city":"Huskisson","country":"Australia","geo_score":0.779,"nrl":1,"id":"a6bnb0i8b5tl","geo_precision":"zip","state":"New South Wales"},"type":"Feature","geometry":{"type":"Point","coordinates":[12.9333333,48.1166667]}},{"properties":{"city":"Illawarra","country":"Australia","geo_score":0.857,"nrl":5,"id":"a6bnb0jvqxpa","geo_precision":"zip","state":"New South Wales"},"type":"Feature","geometry":{"type":"Point","coordinates":[147.0833333,-41.55]}},{"properties":{"city":"Indooroopilly","country":"Australia","geo_score":0.769,"nrl":1,"id":"a6bnb0masypf","geo_precision":"zip","state":"Queensland"},"type":"Feature","geometry":{"type":"Point","coordinates":[15.9166667,48.4]}},{"properties":{"city":"Ingham","country":"Australia","geo_score":0.786,"nrl":1,"id":"a6bnb0s7jr3g","geo_precision":"zip","state":"Queensland"},"type":"Feature","geometry":{"type":"Point","coordinates":[-84.3833048,42.6000356]}},{"properties":{"city":"Invercargill","country":"New Zealand","geo_score":0.857,"nrl":6,"id":"a6bnb0smi9gs","geo_precision":"zip","state":"Southland"},"type":"Feature","geometry":{"type":"Point","coordinates":[168.35,-46.4]}},{"properties":{"city":"Ipswich","country":"Australia","geo_score":0.857,"nrl":16,"id":"a6bnb0qx37c7","geo_precision":"zip","state":"Queensland"},"type":"Feature","geometry":{"type":"Point","coordinates":[1.15699768066406,52.0546544307833]}},{"properties":{"city":"Isa","country":"Australia","geo_score":0.81,"nrl":1,"id":"a6bnb0u6ywjt","geo_precision":"zip","state":"Queensland"},"type":"Feature","geometry":{"type":"Point","coordinates":[136.7,34.4833333]}},{"properties":{"city":"Island Bay","country":"New Zealand","geo_score":0.73,"nrl":1,"id":"a6bnb0piokzz","geo_precision":"zip","state":"Wellington"},"type":"Feature","geometry":{"type":"Point","coordinates":[-11.7383333,7.9647222]}},{"properties":{"city":"Jimboomba","country":"Australia","geo_score":0.794,"nrl":1,"id":"a6bnb0jg3gh8","geo_precision":"zip","state":"Queensland"},"type":"Feature","geometry":{"type":"Point","coordinates":[15.3675,-12.9741667]}},{"properties":{"city":"Junee","country":"Australia","geo_score":0.743,"nrl":1,"id":"a6bnb0tzg4bi","geo_precision":"zip","state":"New South Wales"},"type":"Feature","geometry":{"type":"Point","coordinates":[115.0,27.1333333]}},{"properties":{"city":"Kaitaia","country":"New Zealand","geo_score":0.755,"nrl":2,"id":"a6bnb0ss0gnd","geo_precision":"zip","state":"Northland"},"type":"Feature","geometry":{"type":"Point","coordinates":[-78.5,-0.2166667]}},{"properties":{"city":"Kalgoorlie","country":"Australia","geo_score":0.857,"nrl":3,"id":"a6bnb0th5bfo","geo_precision":"zip","state":"Western Australia"},"type":"Feature","geometry":{"type":"Point","coordinates":[121.4666667,-30.75]}},{"properties":{"city":"Kallangur","country":"Australia","geo_score":0.729,"nrl":2,"id":"a6bnb0pkceyo","geo_precision":"zip","state":"Queensland"},"type":"Feature","geometry":{"type":"Point","coordinates":[-89.983158,38.7483814]}},{"properties":{"city":"Katoomba","country":"Australia","geo_score":0.821,"nrl":2,"id":"a6bnb0h1lq78","geo_precision":"zip","state":"New South Wales"},"type":"Feature","geometry":{"type":"Point","coordinates":[33.6166667,-9.2333333]}},{"properties":{"city":"Kawa","country":"Australia","geo_score":0.743,"nrl":1,"id":"a6bnb0mkh68v","geo_precision":"zip","state":"New South Wales"},"type":"Feature","geometry":{"type":"Point","coordinates":[-3.8666667,56.0666667]}},{"properties":{"city":"Kellyville","country":"Australia","geo_score":0.786,"nrl":2,"id":"a6bnb0mys5pa","geo_precision":"zip","state":"New South Wales"},"type":"Feature","geometry":{"type":"Point","coordinates":[-102.71666,21.85]}},{"properties":{"city":"Kew","country":"Australia","geo_score":0.714,"nrl":1,"id":"a6bnb0iajjxb","geo_precision":"zip","state":"Victoria"},"type":"Feature","geometry":{"type":"Point","coordinates":[-66.8852778,10.1622222]}},{"properties":{"city":"Kiama","country":"Australia","geo_score":0.743,"nrl":2,"id":"a6bnb0gfhcpx","geo_precision":"zip","state":"New South Wales"},"type":"Feature","geometry":{"type":"Point","coordinates":[50.8808333,34.6452778]}},{"properties":{"city":"Kilsyth","country":"Australia","geo_score":0.857,"nrl":1,"id":"a6bnb0s90bj8","geo_precision":"zip","state":"Victoria"},"type":"Feature","geometry":{"type":"Point","coordinates":[-4.05,55.9666667]}},{"properties":{"city":"Kingswood","country":"Australia","geo_score":0.857,"nrl":4,"id":"a6bnb0jskoiz","geo_precision":"zip","state":"New South Wales"},"type":"Feature","geometry":{"type":"Point","coordinates":[-2.5083333,51.4527778]}},{"properties":{"city":"Kirra","country":"Australia","geo_score":0.743,"nrl":1,"id":"a6bnb0exffi8","geo_precision":"zip","state":"Queensland"},"type":"Feature","geometry":{"type":"Point","coordinates":[31.25,30.05]}},{"properties":{"city":"Kirribilli","country":"Australia","geo_score":0.771,"nrl":1,"id":"a6bnb0ivk866","geo_precision":"zip","state":"New South Wales"},"type":"Feature","geometry":{"type":"Point","coordinates":[44.0161111,32.5977778]}},{"properties":{"city":"Kooyong","country":"Australia","geo_score":0.776,"nrl":1,"id":"a6bnb0g3edfq","geo_precision":"zip","state":"Victoria"},"type":"Feature","geometry":{"type":"Point","coordinates":[106.7166667,26.5833333]}},{"properties":{"city":"Ku-ring-gai","country":"Australia","geo_score":0.794,"nrl":1,"id":"a6bnb0ev54qg","geo_precision":"zip","state":"New South Wales"},"type":"Feature","geometry":{"type":"Point","coordinates":[33.9333333,-9.9333333]}},{"properties":{"city":"Kyneton","country":"Australia","geo_score":0.776,"nrl":1,"id":"a6bnb0ggeqsc","geo_precision":"zip","state":"Victoria"},"type":"Feature","geometry":{"type":"Point","coordinates":[103.3333333,3.8]}},{"properties":{"city":"Lake Macquarie","country":"Australia","geo_score":0.747,"nrl":3,"id":"a6bnb0g7p5f2","geo_precision":"zip","state":"New South Wales"},"type":"Feature","geometry":{"type":"Point","coordinates":[120.5936111,18.1988889]}},{"properties":{"city":"Lane Cove","country":"Australia","geo_score":0.75,"nrl":1,"id":"a6bnb0flotlb","geo_precision":"zip","state":"New South Wales"},"type":"Feature","geometry":{"type":"Point","coordinates":[30.5166667,50.4333333]}},{"properties":{"city":"Langwarrin","country":"Australia","geo_score":0.786,"nrl":1,"id":"a6bnb0msj20o","geo_precision":"zip","state":"Victoria"},"type":"Feature","geometry":{"type":"Point","coordinates":[145.7666667,-38.2]}},{"properties":{"city":"Launceston","country":"Australia","geo_score":0.857,"nrl":7,"id":"a6bnb0t6buzk","geo_precision":"zip","state":"Tasmania"},"type":"Feature","geometry":{"type":"Point","coordinates":[147.1666667,-41.45]}},{"properties":{"city":"Laverton","country":"Australia","geo_score":0.804,"nrl":1,"id":"a6bnb0gemay0","geo_precision":"zip","state":"Western Australia"},"type":"Feature","geometry":{"type":"Point","coordinates":[6.05,48.75]}},{"properties":{"city":"Laverton North","country":"Australia","geo_score":0.769,"nrl":1,"id":"a6bnb0scojpt","geo_precision":"zip","state":"Victoria"},"type":"Feature","geometry":{"type":"Point","coordinates":[6.05,48.75]}},{"properties":{"city":"Leichhardt","country":"Australia","geo_score":0.75,"nrl":3,"id":"a6bnb0p8ve51","geo_precision":"zip","state":"New South Wales"},"type":"Feature","geometry":{"type":"Point","coordinates":[-61.0833333,-24.75]}},{"properties":{"city":"Lethbridge","country":"Australia","geo_score":0.857,"nrl":1,"id":"a6bnb0fj82in","geo_precision":"zip","state":"Victoria"},"type":"Feature","geometry":{"type":"Point","coordinates":[-112.818557721,49.699993376]}},{"properties":{"city":"Leumeah","country":"Australia","geo_score":0.776,"nrl":1,"id":"a6bnb0umv27a","geo_precision":"zip","state":"New South Wales"},"type":"Feature","geometry":{"type":"Point","coordinates":[-77.05,-12.05]}},{"properties":{"city":"Lilydale","country":"Australia","geo_score":0.857,"nrl":3,"id":"a6bnb0ufgevi","geo_precision":"zip","state":"Victoria"},"type":"Feature","geometry":{"type":"Point","coordinates":[-93.1260526,44.9160768]}},{"properties":{"city":"Lilyfield","country":"Australia","geo_score":0.857,"nrl":1,"id":"a6bnb0jns0yp","geo_precision":"zip","state":"New South Wales"},"type":"Feature","geometry":{"type":"Point","coordinates":[151.1655556,-33.8761111]}},{"properties":{"city":"Lithgow","country":"Australia","geo_score":0.857,"nrl":1,"id":"a6bnb0hmlus6","geo_precision":"zip","state":"New South Wales"},"type":"Feature","geometry":{"type":"Point","coordinates":[150.15,-33.4833333]}},{"properties":{"city":"Logan","country":"Australia","geo_score":0.786,"nrl":2,"id":"a6bnb0ti9fi0","geo_precision":"zip","state":"Queensland"},"type":"Feature","geometry":{"type":"Point","coordinates":[-121.4238414,38.4210209]}},{"properties":{"city":"Logan City","country":"Australia","geo_score":0.746,"nrl":1,"id":"a6bnb0rkubck","geo_precision":"zip","state":"Queensland"},"type":"Feature","geometry":{"type":"Point","coordinates":[135.515670776367,34.7614289625356]}},{"properties":{"city":"Loganholme","country":"Australia","geo_score":0.779,"nrl":1,"id":"a6bnb0gca1kt","geo_precision":"zip","state":"Queensland"},"type":"Feature","geometry":{"type":"Point","coordinates":[-117.700309753418,33.59560402562]}},{"properties":{"city":"Lower Hutt","country":"New Zealand","geo_score":0.857,"nrl":5,"id":"a6bnb0gx8y44","geo_precision":"zip","state":"Wellington"},"type":"Feature","geometry":{"type":"Point","coordinates":[174.9166667,-41.2166667]}},{"properties":{"city":"Lumsden","country":"New Zealand","geo_score":0.762,"nrl":2,"id":"a6bnb0f91wkw","geo_precision":"zip","state":"Southland"},"type":"Feature","geometry":{"type":"Point","coordinates":[-86.9833412,34.8000883]}},{"properties":{"city":"Lyndoch","country":"Australia","geo_score":0.778,"nrl":1,"id":"a6bnb0qnmfzw","geo_precision":"zip","state":"South Australia"},"type":"Feature","geometry":{"type":"Point","coordinates":[69.0055556,33.4113889]}},{"properties":{"city":"Mackay","country":"Australia","geo_score":0.738,"nrl":7,"id":"a6bnb0lg513j","geo_precision":"zip","state":"Queensland"},"type":"Feature","geometry":{"type":"Point","coordinates":[96.5,22.9166667]}},{"properties":{"city":"Maclean","country":"Australia","geo_score":0.796,"nrl":1,"id":"a6bnb0iez6sq","geo_precision":"zip","state":"New South Wales"},"type":"Feature","geometry":{"type":"Point","coordinates":[-98.2300124,26.2034071]}},{"properties":{"city":"Macquarie Fields","country":"Australia","geo_score":0.743,"nrl":1,"id":"a6bnb0u5npno","geo_precision":"zip","state":"New South Wales"},"type":"Feature","geometry":{"type":"Point","coordinates":[-6.48499727387562,43.5333823289581]}},{"properties":{"city":"Mandurah","country":"Australia","geo_score":0.762,"nrl":3,"id":"a6bnb0esly2u","geo_precision":"zip","state":"Western Australia"},"type":"Feature","geometry":{"type":"Point","coordinates":[-100.3166667,25.6666667]}},{"properties":{"city":"Mandurah","country":"Australia","geo_score":0.762,"nrl":4,"id":"a6bnb0i4opxk","geo_precision":"zip","state":"Victoria"},"type":"Feature","geometry":{"type":"Point","coordinates":[-100.3166667,25.6666667]}},{"properties":{"city":"Mango Hill","country":"Australia","geo_score":0.762,"nrl":1,"id":"a6bnb0r6n0ev","geo_precision":"zip","state":"Queensland"},"type":"Feature","geometry":{"type":"Point","coordinates":[-86.2683333,12.1508333]}},{"properties":{"city":"Manly","country":"Australia","geo_score":0.81,"nrl":25,"id":"a6bnb0ke66a7","geo_precision":"zip","state":"New South Wales"},"type":"Feature","geometry":{"type":"Point","coordinates":[120.9822222,14.6041667]}},{"properties":{"city":"Manly West","country":"Australia","geo_score":0.762,"nrl":1,"id":"a6bnb0m8lnn5","geo_precision":"zip","state":"Queensland"},"type":"Feature","geometry":{"type":"Point","coordinates":[120.9822222,14.6041667]}},{"properties":{"city":"Manningham","country":"Australia","geo_score":0.766,"nrl":1,"id":"a6bnb0h77asc","geo_precision":"zip","state":"Victoria"},"type":"Feature","geometry":{"type":"Point","coordinates":[-79.9261603,40.2031265]}},{"properties":{"city":"Maroubra","country":"Australia","geo_score":0.786,"nrl":1,"id":"a6bnb0irnt7x","geo_precision":"zip","state":"New South Wales"},"type":"Feature","geometry":{"type":"Point","coordinates":[15.6466667,46.5547222]}},{"properties":{"city":"Maryborough","country":"Australia","geo_score":0.759,"nrl":1,"id":"a6bnb0tmdqxg","geo_precision":"zip","state":"Victoria"},"type":"Feature","geometry":{"type":"Point","coordinates":[8.7666667,50.8166667]}},{"properties":{"city":"Matraville","country":"Australia","geo_score":0.743,"nrl":1,"id":"a6bnb0ep9x1p","geo_precision":"zip","state":"New South Wales"},"type":"Feature","geometry":{"type":"Point","coordinates":[12.6803,48.9764]}},{"properties":{"city":"Mayfield","country":"Australia","geo_score":0.857,"nrl":1,"id":"a6bnb0fob2ri","geo_precision":"zip","state":"New South Wales"},"type":"Feature","geometry":{"type":"Point","coordinates":[-88.6367154,36.7417235]}},{"properties":{"city":"McLaren Vale","country":"Australia","geo_score":0.727,"nrl":1,"id":"a6bnb0jwqqmk","geo_precision":"zip","state":"South Australia"},"type":"Feature","geometry":{"type":"Point","coordinates":[131.1394444,46.7216667]}},{"properties":{"city":"McMahons Point","country":"Australia","geo_score":0.796,"nrl":1,"id":"a6bnb0tnysjl","geo_precision":"zip","state":"New South Wales"},"type":"Feature","geometry":{"type":"Point","coordinates":[165.75,-70.75]}},{"properties":{"city":"Melbourne","country":"Australia","geo_score":0.857,"nrl":1578,"id":"a6bnb0ibt5ul","geo_precision":"zip","state":"Victoria"},"type":"Feature","geometry":{"type":"Point","coordinates":[144.963322877884,-37.8139965641595]}},{"properties":{"city":"Melton","country":"Australia","geo_score":0.81,"nrl":3,"id":"a6bnb0n0qxxu","geo_precision":"zip","state":"Victoria"},"type":"Feature","geometry":{"type":"Point","coordinates":[71.4752778,30.1955556]}},{"properties":{"city":"Merimbula","country":"Australia","geo_score":0.843,"nrl":2,"id":"a6bnb0rzsrzt","geo_precision":"zip","state":"New South Wales"},"type":"Feature","geometry":{"type":"Point","coordinates":[149.9,-36.9]}},{"properties":{"city":"Mernda","country":"Australia","geo_score":0.786,"nrl":1,"id":"a6bnb0oq4u2d","geo_precision":"zip","state":"Victoria"},"type":"Feature","geometry":{"type":"Point","coordinates":[45.7749,38.4329]}},{"properties":{"city":"Middle Swan","country":"Australia","geo_score":0.743,"nrl":1,"id":"a6bnb0rahbhd","geo_precision":"zip","state":"Western Australia"},"type":"Feature","geometry":{"type":"Point","coordinates":[127.0191667,37.2841667]}},{"properties":{"city":"Mildura","country":"Australia","geo_score":0.857,"nrl":4,"id":"a6bnb0lb6j2t","geo_precision":"zip","state":"Victoria"},"type":"Feature","geometry":{"type":"Point","coordinates":[142.15,-34.2]}},{"properties":{"city":"Milford","country":"New Zealand","geo_score":0.857,"nrl":1,"id":"a6bnb0qmr2kb","geo_precision":"zip","state":"Auckland"},"type":"Feature","geometry":{"type":"Point","coordinates":[-73.0564953,41.2223194]}},{"properties":{"city":"Minchinbury","country":"Australia","geo_score":0.805,"nrl":1,"id":"a6bnb0l6zovv","geo_precision":"zip","state":"New South Wales"},"type":"Feature","geometry":{"type":"Point","coordinates":[73.5666667,30.1666667]}},{"properties":{"city":"Miranda","country":"Australia","geo_score":0.816,"nrl":2,"id":"a6bnb0oc92nq","geo_precision":"zip","state":"New South Wales"},"type":"Feature","geometry":{"type":"Point","coordinates":[45.7749,38.4329]}},{"properties":{"city":"Mission Beach","country":"Australia","geo_score":0.738,"nrl":1,"id":"a6bnb0oo3fea","geo_precision":"zip","state":"Queensland"},"type":"Feature","geometry":{"type":"Point","coordinates":[9.8441667,10.3158333]}},{"properties":{"city":"Mollymook","country":"Australia","geo_score":0.762,"nrl":1,"id":"a6bnb0q9gb4u","geo_precision":"zip","state":"New South Wales"},"type":"Feature","geometry":{"type":"Point","coordinates":[121.3666667,12.95]}},{"properties":{"city":"Mona Vale","country":"Australia","geo_score":0.768,"nrl":1,"id":"a6bnb0k9i2zo","geo_precision":"zip","state":"New South Wales"},"type":"Feature","geometry":{"type":"Point","coordinates":[-69.2497714,45.5003249]}},{"properties":{"city":"Montmorency","country":"Australia","geo_score":0.792,"nrl":1,"id":"a6bnb0s73742","geo_precision":"zip","state":"Victoria"},"type":"Feature","geometry":{"type":"Point","coordinates":[-47.31583333,-22.94666667]}},{"properties":{"city":"Montrose","country":"Australia","geo_score":0.796,"nrl":1,"id":"a6bnb0fpksju","geo_precision":"zip","state":"Tasmania"},"type":"Feature","geometry":{"type":"Point","coordinates":[-108.2673017,38.4166545]}},{"properties":{"city":"Mooloolaba","country":"Australia","geo_score":0.857,"nrl":11,"id":"a6bnb0ghzoz9","geo_precision":"zip","state":"Queensland"},"type":"Feature","geometry":{"type":"Point","coordinates":[153.1166667,-26.6833333]}},{"properties":{"city":"Moorabbin","country":"Australia","geo_score":0.778,"nrl":1,"id":"a6bnb0mqtmv5","geo_precision":"zip","state":"Victoria"},"type":"Feature","geometry":{"type":"Point","coordinates":[9.570043,46.138291]}},{"properties":{"city":"Mornington","country":"Australia","geo_score":0.857,"nrl":2,"id":"a6bnb0jw91z2","geo_precision":"zip","state":"Victoria"},"type":"Feature","geometry":{"type":"Point","coordinates":[145.0333333,-38.2166667]}},{"properties":{"city":"Mornington Island","country":"Australia","geo_score":0.732,"nrl":1,"id":"a6bnb0jbzn62","geo_precision":"zip","state":"Queensland"},"type":"Feature","geometry":{"type":"Point","coordinates":[-122.5846041,48.1331513]}},{"properties":{"city":"Mornington Peninsula","country":"Australia","geo_score":0.789,"nrl":2,"id":"a6bnb0n05gak","geo_precision":"zip","state":"Victoria"},"type":"Feature","geometry":{"type":"Point","coordinates":[145.0333333,-38.2166667]}},{"properties":{"city":"Morwell","country":"Australia","geo_score":0.857,"nrl":2,"id":"a6bnb0r7p74k","geo_precision":"zip","state":"Victoria"},"type":"Feature","geometry":{"type":"Point","coordinates":[146.4,-38.2333333]}},{"properties":{"city":"Mosman","country":"Australia","geo_score":0.804,"nrl":2,"id":"a6bnb0kt7wrn","geo_precision":"zip","state":"New South Wales"},"type":"Feature","geometry":{"type":"Point","coordinates":[-101.667662785,50.133315309]}},{"properties":{"city":"Motueka","country":"New Zealand","geo_score":0.776,"nrl":1,"id":"a6bnb0oyw9s6","geo_precision":"zip","state":"Nelson"},"type":"Feature","geometry":{"type":"Point","coordinates":[14.773989,36.845939]}},{"properties":{"city":"Mount Druitt","country":"Australia","geo_score":0.753,"nrl":1,"id":"a6bnb0fuib2x","geo_precision":"zip","state":"New South Wales"},"type":"Feature","geometry":{"type":"Point","coordinates":[124.8441667,1.5016667]}},{"properties":{"city":"Mount Gambier","country":"Australia","geo_score":0.759,"nrl":1,"id":"a6bnb0osvn74","geo_precision":"zip","state":"South Australia"},"type":"Feature","geometry":{"type":"Point","coordinates":[-77.1997039,39.1501072]}},{"properties":{"city":"Mount Isa","country":"Australia","geo_score":0.768,"nrl":2,"id":"a6bnb0te86gx","geo_precision":"zip","state":"Queensland"},"type":"Feature","geometry":{"type":"Point","coordinates":[-68.8166667,-32.8833333]}},{"properties":{"city":"Mount Maunganui","country":"New Zealand","geo_score":0.755,"nrl":1,"id":"a6bnb0ghb1c9","geo_precision":"zip","state":"Bay of Plenty"},"type":"Feature","geometry":{"type":"Point","coordinates":[124.8441667,1.5016667]}},{"properties":{"city":"Mt Hawthorn","country":"Australia","geo_score":0.757,"nrl":1,"id":"a6bnb0mv8lzf","geo_precision":"zip","state":"Western Australia"},"type":"Feature","geometry":{"type":"Point","coordinates":[140.4666667,36.3666667]}},{"properties":{"city":"Mt. Isa","country":"Australia","geo_score":0.771,"nrl":1,"id":"a6bnb0sb1w3g","geo_precision":"zip","state":"Queensland"},"type":"Feature","geometry":{"type":"Point","coordinates":[140.4666667,36.3666667]}},{"properties":{"city":"Murrumbateman","country":"Australia","geo_score":0.78,"nrl":1,"id":"a6bnb0jfdjy3","geo_precision":"zip","state":"New South Wales"},"type":"Feature","geometry":{"type":"Point","coordinates":[0.3,43.7666667]}},{"properties":{"city":"Nagambie","country":"Australia","geo_score":0.786,"nrl":1,"id":"a6bnb0j6vr24","geo_precision":"zip","state":"Victoria"},"type":"Feature","geometry":{"type":"Point","coordinates":[79.8358333,7.2086111]}},{"properties":{"city":"Napier","country":"New Zealand","geo_score":0.857,"nrl":9,"id":"a6bnb0g83yfu","geo_precision":"zip","state":"Hawke's Bay"},"type":"Feature","geometry":{"type":"Point","coordinates":[176.9166667,-39.4833333]}},{"properties":{"city":"Narrabeen","country":"Australia","geo_score":0.778,"nrl":1,"id":"a6bnb0i9zuni","geo_precision":"zip","state":"New South Wales"},"type":"Feature","geometry":{"type":"Point","coordinates":[3.0,43.1833333]}},{"properties":{"city":"Nelson","country":"New Zealand","geo_score":0.857,"nrl":4,"id":"a6bnb0he24o0","geo_precision":"zip","state":"Nelson"},"type":"Feature","geometry":{"type":"Point","coordinates":[173.282461166382,-41.2705816805255]}},{"properties":{"city":"New Farm","country":"Australia","geo_score":0.714,"nrl":2,"id":"a6bnb0sy4msy","geo_precision":"zip","state":"Queensland"},"type":"Feature","geometry":{"type":"Point","coordinates":[27.05,57.8472222]}},{"properties":{"city":"New Plymouth","country":"New Zealand","geo_score":0.818,"nrl":6,"id":"a6bnb0ltn8mn","geo_precision":"zip","state":"Taranaki"},"type":"Feature","geometry":{"type":"Point","coordinates":[-4.14304733276367,50.3715254228346]}},{"properties":{"city":"Newcastle","country":"Australia","geo_score":0.857,"nrl":374,"id":"a6bnb0q2k4rh","geo_precision":"zip","state":"New South Wales"},"type":"Feature","geometry":{"type":"Point","coordinates":[151.776466369629,-32.9271483615446]}},{"properties":{"city":"Newington","country":"Australia","geo_score":0.857,"nrl":1,"id":"a6bnb0l7mgkp","geo_precision":"zip","state":"New South Wales"},"type":"Feature","geometry":{"type":"Point","coordinates":[-72.7237063,41.6978777]}},{"properties":{"city":"Newlands","country":"New Zealand","geo_score":0.857,"nrl":2,"id":"a6bnb0t4yb2m","geo_precision":"zip","state":"Wellington"},"type":"Feature","geometry":{"type":"Point","coordinates":[115.8666667,-33.6666667]}},{"properties":{"city":"Newmarket","country":"New Zealand","geo_score":0.77,"nrl":1,"id":"a6bnb0pjhsgd","geo_precision":"zip","state":"Auckland"},"type":"Feature","geometry":{"type":"Point","coordinates":[11.458225,49.280125]}},{"properties":{"city":"Newstead","country":"Australia","geo_score":0.857,"nrl":1,"id":"a6bnb0lk3gqb","geo_precision":"zip","state":"Queensland"},"type":"Feature","geometry":{"type":"Point","coordinates":[147.1666667,-41.4333333]}},{"properties":{"city":"Newtown","country":"Australia","geo_score":0.837,"nrl":8,"id":"a6bnb0gpu0a3","geo_precision":"zip","state":"New South Wales"},"type":"Feature","geometry":{"type":"Point","coordinates":[-71.2092214,42.3370414]}},{"properties":{"city":"Noosa","country":"Australia","geo_score":0.743,"nrl":27,"id":"a6bnb0hvbgt8","geo_precision":"zip","state":"Queensland"},"type":"Feature","geometry":{"type":"Point","coordinates":[7.26608276367188,43.703126104186]}},{"properties":{"city":"Noosa Heads","country":"Australia","geo_score":0.743,"nrl":3,"id":"a6bnb0hk22c8","geo_precision":"zip","state":"Queensland"},"type":"Feature","geometry":{"type":"Point","coordinates":[7.26608276367188,43.703126104186]}},{"properties":{"city":"Noranda","country":"Australia","geo_score":0.796,"nrl":1,"id":"a6bnb0k7e15c","geo_precision":"zip","state":"Western Australia"},"type":"Feature","geometry":{"type":"Point","coordinates":[4.2333333,45.8333333]}},{"properties":{"city":"North Bondi","country":"Australia","geo_score":0.757,"nrl":2,"id":"a6bnb0n5iuoz","geo_precision":"zip","state":"New South Wales"},"type":"Feature","geometry":{"type":"Point","coordinates":[80.3333333,25.4833333]}},{"properties":{"city":"North Brisbane","country":"Australia","geo_score":0.802,"nrl":1,"id":"a6bnb0g244vl","geo_precision":"zip","state":"Queensland"},"type":"Feature","geometry":{"type":"Point","coordinates":[153.028092384338,-27.4679357321901]}},{"properties":{"city":"North Lakes","country":"Australia","geo_score":0.757,"nrl":2,"id":"a6bnb0koigdg","geo_precision":"zip","state":"Queensland"},"type":"Feature","geometry":{"type":"Point","coordinates":[3.3958333,6.4530556]}},{"properties":{"city":"North Melbourne","country":"Australia","geo_score":0.806,"nrl":4,"id":"a6bnb0jrq6w8","geo_precision":"zip","state":"Victoria"},"type":"Feature","geometry":{"type":"Point","coordinates":[144.963322877884,-37.8139965641595]}},{"properties":{"city":"North Sydney","country":"Australia","geo_score":0.792,"nrl":5,"id":"a6bnb0eypy9e","geo_precision":"zip","state":"New South Wales"},"type":"Feature","geometry":{"type":"Point","coordinates":[151.207323074341,-33.8678499639382]}},{"properties":{"city":"Northampton","country":"Australia","geo_score":0.807,"nrl":7,"id":"a6bnb0mjpzw1","geo_precision":"zip","state":"Western Australia"},"type":"Feature","geometry":{"type":"Point","coordinates":[-75.2499025,40.875373]}},{"properties":{"city":"Nowra","country":"Australia","geo_score":0.8,"nrl":3,"id":"a6bnb0hkncqe","geo_precision":"zip","state":"New South Wales"},"type":"Feature","geometry":{"type":"Point","coordinates":[135.804850459099,34.6850548003686]}},{"properties":{"city":"Oak Flats","country":"Australia","geo_score":0.732,"nrl":1,"id":"a6bnb0trgyum","geo_precision":"zip","state":"New South Wales"},"type":"Feature","geometry":{"type":"Point","coordinates":[-81.5439619,28.5691677]}},{"properties":{"city":"Ocean Grove","country":"Australia","geo_score":0.757,"nrl":1,"id":"a6bnb0iyt5yx","geo_precision":"zip","state":"Victoria"},"type":"Feature","geometry":{"type":"Point","coordinates":[49.6583333,58.5969444]}},{"properties":{"city":"Olympic Park","country":"Australia","geo_score":0.727,"nrl":1,"id":"a6bnb0i1x0gu","geo_precision":"zip","state":"New South Wales"},"type":"Feature","geometry":{"type":"Point","coordinates":[2.6166667,9.35]}},{"properties":{"city":"Onehunga","country":"New Zealand","geo_score":0.786,"nrl":1,"id":"a6bnb0mh0v0r","geo_precision":"zip","state":"Auckland"},"type":"Feature","geometry":{"type":"Point","coordinates":[127.049,37.9221]}},{"properties":{"city":"Oranga","country":"Australia","geo_score":0.81,"nrl":1,"id":"a6bnb0ltiuzy","geo_precision":"zip","state":"New South Wales"},"type":"Feature","geometry":{"type":"Point","coordinates":[122.8288889,9.9375]}},{"properties":{"city":"Orange","country":"Australia","geo_score":0.857,"nrl":14,"id":"a6bnb0sqz7au","geo_precision":"zip","state":"New South Wales"},"type":"Feature","geometry":{"type":"Point","coordinates":[-117.8531119,33.7877945]}},{"properties":{"city":"Orewa","country":"New Zealand","geo_score":0.8,"nrl":2,"id":"a6bnb0q8mu9u","geo_precision":"zip","state":"Auckland"},"type":"Feature","geometry":{"type":"Point","coordinates":[-3.1166667,10.5833333]}},{"properties":{"city":"Paddington","country":"Australia","geo_score":0.857,"nrl":3,"id":"a6bnb0p9zdl9","geo_precision":"zip","state":"New South Wales"},"type":"Feature","geometry":{"type":"Point","coordinates":[121.3333333,-30.4833333]}},{"properties":{"city":"Pakenham","country":"Australia","geo_score":0.802,"nrl":3,"id":"a6bnb0ptyx5c","geo_precision":"zip","state":"Victoria"},"type":"Feature","geometry":{"type":"Point","coordinates":[145.5166667,-38.0166667]}},{"properties":{"city":"Papamoa","country":"New Zealand","geo_score":0.735,"nrl":2,"id":"a6bnb0ep5rjt","geo_precision":"zip","state":"Bay of Plenty"},"type":"Feature","geometry":{"type":"Point","coordinates":[14.9833333,5.8666667]}},{"properties":{"city":"Paramatta","country":"Australia","geo_score":0.81,"nrl":1,"id":"a6bnb0qxl1mw","geo_precision":"zip","state":"New South Wales"},"type":"Feature","geometry":{"type":"Point","coordinates":[-39.3621870863309,-4.14739035251798]}},{"properties":{"city":"Paraparaumu","country":"New Zealand","geo_score":0.779,"nrl":1,"id":"a6bnb0qqrbnk","geo_precision":"zip","state":"Wellington"},"type":"Feature","geometry":{"type":"Point","coordinates":[20.9130556,40.5869444]}},{"properties":{"city":"Parkdale","country":"Australia","geo_score":0.75,"nrl":1,"id":"a6bnb0ur4tty","geo_precision":"zip","state":"Victoria"},"type":"Feature","geometry":{"type":"Point","coordinates":[1.4833333,42.5666667]}},{"properties":{"city":"Parramatta","country":"Australia","geo_score":0.8,"nrl":45,"id":"a6bnb0v2d6fl","geo_precision":"zip","state":"New South Wales"},"type":"Feature","geometry":{"type":"Point","coordinates":[-39.3621870863309,-4.14739035251798]}},{"properties":{"city":"Patterson Lakes","country":"Australia","geo_score":0.745,"nrl":1,"id":"a6bnb0jako9w","geo_precision":"zip","state":"Victoria"},"type":"Feature","geometry":{"type":"Point","coordinates":[3.3958333,6.4530556]}},{"properties":{"city":"Peakhurst","country":"Australia","geo_score":0.857,"nrl":2,"id":"a6bnb0h6bwaa","geo_precision":"zip","state":"New South Wales"},"type":"Feature","geometry":{"type":"Point","coordinates":[151.05,-33.9666667]}},{"properties":{"city":"Penrith","country":"Australia","geo_score":0.816,"nrl":96,"id":"a6bnb0quenij","geo_precision":"zip","state":"New South Wales"},"type":"Feature","geometry":{"type":"Point","coordinates":[-3.18,51.4347222]}},{"properties":{"city":"Perth","country":"Australia","geo_score":0.857,"nrl":254,"id":"a6bnb0g0324x","geo_precision":"zip","state":"Western Australia"},"type":"Feature","geometry":{"type":"Point","coordinates":[115.8333333,-31.9333333]}},{"properties":{"city":"Phillip","country":"Australia","geo_score":0.755,"nrl":1,"id":"a6bnb0litzfg","geo_precision":"zip","state":"Australian Capital Territory"},"type":"Feature","geometry":{"type":"Point","coordinates":[5.973611,51.995]}},{"properties":{"city":"Pimpama","country":"Australia","geo_score":0.857,"nrl":1,"id":"a6bnb0ll66dv","geo_precision":"zip","state":"Queensland"},"type":"Feature","geometry":{"type":"Point","coordinates":[153.3,-27.8166667]}},{"properties":{"city":"Point Cook","country":"Australia","geo_score":0.73,"nrl":1,"id":"a6bnb0ezyjnm","geo_precision":"zip","state":"Victoria"},"type":"Feature","geometry":{"type":"Point","coordinates":[-38.65305556,-3.736111111]}},{"properties":{"city":"Pormpuraaw","country":"Australia","geo_score":0.771,"nrl":1,"id":"a6bnb0szerpo","geo_precision":"zip","state":"Queensland"},"type":"Feature","geometry":{"type":"Point","coordinates":[-0.5833333,44.95]}},{"properties":{"city":"Port Douglas","country":"Australia","geo_score":0.779,"nrl":4,"id":"a6bnb0px2gtr","geo_precision":"zip","state":"Queensland"},"type":"Feature","geometry":{"type":"Point","coordinates":[-8.6166667,41.15]}},{"properties":{"city":"Port Jackson","country":"Australia","geo_score":0.75,"nrl":8,"id":"a6bnb0iwoc3g","geo_precision":"zip","state":"New South Wales"},"type":"Feature","geometry":{"type":"Point","coordinates":[-81.655651,30.3321838]}},{"properties":{"city":"Port Melbourne","country":"Australia","geo_score":0.813,"nrl":4,"id":"a6bnb0nix4ka","geo_precision":"zip","state":"Victoria"},"type":"Feature","geometry":{"type":"Point","coordinates":[144.963322877884,-37.8139965641595]}},{"properties":{"city":"Port Stephens","country":"Australia","geo_score":0.774,"nrl":1,"id":"a6bnb0udaiss","geo_precision":"zip","state":"New South Wales"},"type":"Feature","geometry":{"type":"Point","coordinates":[32.3075,31.2805556]}},{"properties":{"city":"Portland","country":"Australia","geo_score":0.857,"nrl":2,"id":"a6bnb0rvfz9o","geo_precision":"zip","state":"Victoria"},"type":"Feature","geometry":{"type":"Point","coordinates":[-122.6762071,45.5234515]}},{"properties":{"city":"Potts Point","country":"Australia","geo_score":0.786,"nrl":2,"id":"a6bnb0k4k9ji","geo_precision":"zip","state":"New South Wales"},"type":"Feature","geometry":{"type":"Point","coordinates":[-65.7530556,-19.5836111]}},{"properties":{"city":"Prahran","country":"Australia","geo_score":0.804,"nrl":2,"id":"a6bnb0f9ggg3","geo_precision":"zip","state":"Victoria"},"type":"Feature","geometry":{"type":"Point","coordinates":[-101.5333333,19.1]}},{"properties":{"city":"Princes Park","country":"Australia","geo_score":0.727,"nrl":1,"id":"a6bnb0oqmdlu","geo_precision":"zip","state":"Victoria"},"type":"Feature","geometry":{"type":"Point","coordinates":[2.6166667,9.35]}},{"properties":{"city":"Pymble","country":"Australia","geo_score":0.786,"nrl":1,"id":"a6bnb0frh3b3","geo_precision":"zip","state":"New South Wales"},"type":"Feature","geometry":{"type":"Point","coordinates":[-37.8701212307692,-6.806917875]}},{"properties":{"city":"Pyrmont","country":"Australia","geo_score":0.81,"nrl":3,"id":"a6bnb0mpj2fr","geo_precision":"zip","state":"New South Wales"},"type":"Feature","geometry":{"type":"Point","coordinates":[-118.1597911,33.8894598]}},{"properties":{"city":"Quakers Hill","country":"Australia","geo_score":0.74,"nrl":1,"id":"a6bnb0lm6hg8","geo_precision":"zip","state":"New South Wales"},"type":"Feature","geometry":{"type":"Point","coordinates":[12.0,51.5]}},{"properties":{"city":"Queanbeyan","country":"Australia","geo_score":0.857,"nrl":14,"id":"a6bnb0hzwo30","geo_precision":"zip","state":"New South Wales"},"type":"Feature","geometry":{"type":"Point","coordinates":[149.2333333,-35.35]}},{"properties":{"city":"Queenstown","country":"New Zealand","geo_score":0.743,"nrl":1,"id":"a6bnb0jj3fd6","geo_precision":"zip","state":"Otago"},"type":"Feature","geometry":{"type":"Point","coordinates":[28.6320877075195,44.1812806777797]}},{"properties":{"city":"Randwick","country":"Australia","geo_score":0.81,"nrl":2,"id":"a6bnb0opyi0e","geo_precision":"zip","state":"New South Wales"},"type":"Feature","geometry":{"type":"Point","coordinates":[121.6833333,-28.6833333]}},{"properties":{"city":"Redcliffe","country":"Australia","geo_score":0.841,"nrl":1,"id":"a6bnb0io6g66","geo_precision":"zip","state":"Queensland"},"type":"Feature","geometry":{"type":"Point","coordinates":[-2.3333333,53.55]}},{"properties":{"city":"Redfern","country":"Australia","geo_score":0.757,"nrl":5,"id":"a6bnb0mi9inq","geo_precision":"zip","state":"New South Wales"},"type":"Feature","geometry":{"type":"Point","coordinates":[9.547763,45.057464]}},{"properties":{"city":"Richmond","country":"Australia","geo_score":0.796,"nrl":12,"id":"a6bnb0fnh4kh","geo_precision":"zip","state":"Victoria"},"type":"Feature","geometry":{"type":"Point","coordinates":[-74.1495875,40.5834379]}},{"properties":{"city":"Robertson","country":"Australia","geo_score":0.759,"nrl":1,"id":"a6bnb0f8cf0s","geo_precision":"zip","state":"New South Wales"},"type":"Feature","geometry":{"type":"Point","coordinates":[-44.08666667,-19.76694444]}},{"properties":{"city":"Robina","country":"Australia","geo_score":0.786,"nrl":3,"id":"a6bnb0mgjk8x","geo_precision":"zip","state":"Queensland"},"type":"Feature","geometry":{"type":"Point","coordinates":[-72.9666667,-40.3166667]}},{"properties":{"city":"Rockhampton","country":"Australia","geo_score":0.857,"nrl":19,"id":"a6bnb0qd0l04","geo_precision":"zip","state":"Queensland"},"type":"Feature","geometry":{"type":"Point","coordinates":[150.5,-23.3833333]}},{"properties":{"city":"Rockingham","country":"Australia","geo_score":0.804,"nrl":1,"id":"a6bnb0m3miyt","geo_precision":"zip","state":"Western Australia"},"type":"Feature","geometry":{"type":"Point","coordinates":[-71.099504,42.9667536]}},{"properties":{"city":"Roma","country":"Australia","geo_score":0.857,"nrl":3,"id":"a6bnb0k3ly53","geo_precision":"zip","state":"Queensland"},"type":"Feature","geometry":{"type":"Point","coordinates":[12.4833333,41.9]}},{"properties":{"city":"Rosebery","country":"Australia","geo_score":0.821,"nrl":1,"id":"a6bnb0rsxw8z","geo_precision":"zip","state":"New South Wales"},"type":"Feature","geometry":{"type":"Point","coordinates":[-78.5086181,34.9529475]}},{"properties":{"city":"Rotorua","country":"New Zealand","geo_score":0.735,"nrl":6,"id":"a6bnb0mzbyrb","geo_precision":"zip","state":"Bay of Plenty"},"type":"Feature","geometry":{"type":"Point","coordinates":[-113.80199658,52.266817127]}},{"properties":{"city":"Rouse Hill","country":"Australia","geo_score":0.746,"nrl":1,"id":"a6bnb0su4q54","geo_precision":"zip","state":"New South Wales"},"type":"Feature","geometry":{"type":"Point","coordinates":[40.49560546875,41.0379306224653]}},{"properties":{"city":"Rowville","country":"Australia","geo_score":0.75,"nrl":1,"id":"a6bnb0qmr6q1","geo_precision":"zip","state":"Victoria"},"type":"Feature","geometry":{"type":"Point","coordinates":[-61.4833333,-31.2666667]}},{"properties":{"city":"Rozelle","country":"Australia","geo_score":0.776,"nrl":1,"id":"a6bnb0epejqn","geo_precision":"zip","state":"New South Wales"},"type":"Feature","geometry":{"type":"Point","coordinates":[121.1033333,15.7086111]}},{"properties":{"city":"Runaway Bay","country":"Australia","geo_score":0.729,"nrl":2,"id":"a6bnb0gqu9es","geo_precision":"zip","state":"Queensland"},"type":"Feature","geometry":{"type":"Point","coordinates":[-11.7383333,7.9647222]}},{"properties":{"city":"Ryde","country":"Australia","geo_score":0.743,"nrl":1,"id":"a6bnb0jft9es","geo_precision":"zip","state":"New South Wales"},"type":"Feature","geometry":{"type":"Point","coordinates":[12.859178,42.407232]}},{"properties":{"city":"Rye","country":"Australia","geo_score":0.786,"nrl":1,"id":"a6bnb0lc2fst","geo_precision":"zip","state":"Victoria"},"type":"Feature","geometry":{"type":"Point","coordinates":[138.5,35.65]}},{"properties":{"city":"Sandy Bay","country":"Australia","geo_score":0.768,"nrl":1,"id":"a6bnb0l57h0w","geo_precision":"zip","state":"Tasmania"},"type":"Feature","geometry":{"type":"Point","coordinates":[69.0,25.5]}},{"properties":{"city":"Sans Souci","country":"Australia","geo_score":0.746,"nrl":2,"id":"a6bnb0q1xx2a","geo_precision":"zip","state":"New South Wales"},"type":"Feature","geometry":{"type":"Point","coordinates":[32.55,29.9666667]}},{"properties":{"city":"Sawtell","country":"Australia","geo_score":0.776,"nrl":2,"id":"a6bnb0qstkhb","geo_precision":"zip","state":"New South Wales"},"type":"Feature","geometry":{"type":"Point","coordinates":[-122.3320708,47.6062095]}},{"properties":{"city":"Seaford","country":"Australia","geo_score":0.857,"nrl":1,"id":"a6bnb0un2hcc","geo_precision":"zip","state":"South Australia"},"type":"Feature","geometry":{"type":"Point","coordinates":[0.1,50.7666667]}},{"properties":{"city":"Seddon","country":"Australia","geo_score":0.762,"nrl":1,"id":"a6bnb0fb7hal","geo_precision":"zip","state":"Victoria"},"type":"Feature","geometry":{"type":"Point","coordinates":[151.207323074341,-33.8678499639382]}},{"properties":{"city":"Shellharbour","country":"Australia","geo_score":0.786,"nrl":5,"id":"a6bnb0f3pq5j","geo_precision":"zip","state":"New South Wales"},"type":"Feature","geometry":{"type":"Point","coordinates":[64.4944444,33.6702778]}},{"properties":{"city":"Shepparton","country":"Australia","geo_score":0.857,"nrl":7,"id":"a6bnb0pqtsjp","geo_precision":"zip","state":"Victoria"},"type":"Feature","geometry":{"type":"Point","coordinates":[145.4,-36.3833333]}},{"properties":{"city":"Shoalhaven","country":"Australia","geo_score":0.762,"nrl":2,"id":"a6bnb0i32u9n","geo_precision":"zip","state":"New South Wales"},"type":"Feature","geometry":{"type":"Point","coordinates":[68.867778,34.995556]}},{"properties":{"city":"Silverwater","country":"Australia","geo_score":0.804,"nrl":1,"id":"a6bnb0o31xot","geo_precision":"zip","state":"New South Wales"},"type":"Feature","geometry":{"type":"Point","coordinates":[118.85,-33.2]}},{"properties":{"city":"Somerville","country":"Australia","geo_score":0.857,"nrl":3,"id":"a6bnb0u5fssn","geo_precision":"zip","state":"Victoria"},"type":"Feature","geometry":{"type":"Point","coordinates":[-71.0994968,42.3875968]}},{"properties":{"city":"South Auckland","country":"New Zealand","geo_score":0.802,"nrl":1,"id":"a6bnb0tprp2e","geo_precision":"zip","state":"Auckland"},"type":"Feature","geometry":{"type":"Point","coordinates":[174.7666667,-36.8666667]}},{"properties":{"city":"South Coast","country":"Australia","geo_score":0.743,"nrl":5,"id":"a6bnb0kidckg","geo_precision":"zip","state":"New South Wales"},"type":"Feature","geometry":{"type":"Point","coordinates":[32.6666667,13.1666667]}},{"properties":{"city":"South Coogee","country":"Australia","geo_score":0.74,"nrl":1,"id":"a6bnb0sy3w6x","geo_precision":"zip","state":"New South Wales"},"type":"Feature","geometry":{"type":"Point","coordinates":[128.5886111,34.8502778]}},{"properties":{"city":"South Johnstone","country":"Australia","geo_score":0.745,"nrl":1,"id":"a6bnb0m08gnq","geo_precision":"zip","state":"Queensland"},"type":"Feature","geometry":{"type":"Point","coordinates":[-78.399725,35.5334927]}},{"properties":{"city":"South Melbourne","country":"Australia","geo_score":0.806,"nrl":4,"id":"a6bnb0fb73a6","geo_precision":"zip","state":"Victoria"},"type":"Feature","geometry":{"type":"Point","coordinates":[144.963322877884,-37.8139965641595]}},{"properties":{"city":"South Yarra","country":"Australia","geo_score":0.743,"nrl":2,"id":"a6bnb0tdyu3s","geo_precision":"zip","state":"Victoria"},"type":"Feature","geometry":{"type":"Point","coordinates":[139.2,36.1166667]}},{"properties":{"city":"Southbank","country":"Australia","geo_score":1.0,"nrl":1,"id":"a6bnb0sv2bs6","geo_precision":"zip","state":"Victoria"},"type":"Feature","geometry":{"type":"Point","coordinates":[-1.4566667,58.0808333]}},{"properties":{"city":"Southport","country":"Australia","geo_score":0.857,"nrl":2,"id":"a6bnb0nifrc6","geo_precision":"zip","state":"Queensland"},"type":"Feature","geometry":{"type":"Point","coordinates":[-3.0,53.6666667]}},{"properties":{"city":"Springfield Lakes","country":"Australia","geo_score":0.741,"nrl":1,"id":"a6bnb0kphoz4","geo_precision":"zip","state":"Queensland"},"type":"Feature","geometry":{"type":"Point","coordinates":[3.3958333,6.4530556]}},{"properties":{"city":"Springwood","country":"Australia","geo_score":0.8,"nrl":1,"id":"a6bnb0s43wpu","geo_precision":"zip","state":"Queensland"},"type":"Feature","geometry":{"type":"Point","coordinates":[28.4,-26.25]}},{"properties":{"city":"St Johns Park","country":"Australia","geo_score":0.727,"nrl":1,"id":"a6bnb0mllw6d","geo_precision":"zip","state":"New South Wales"},"type":"Feature","geometry":{"type":"Point","coordinates":[2.6166667,9.35]}},{"properties":{"city":"St Kilda","country":"Australia","geo_score":0.755,"nrl":7,"id":"a6bnb0l42fkx","geo_precision":"zip","state":"Victoria"},"type":"Feature","geometry":{"type":"Point","coordinates":[86.85,23.7333333]}},{"properties":{"city":"Stanmore","country":"Australia","geo_score":0.779,"nrl":2,"id":"a6bnb0rusp5z","geo_precision":"zip","state":"New South Wales"},"type":"Feature","geometry":{"type":"Point","coordinates":[8.1833333,48.9]}},{"properties":{"city":"Stanwell Park","country":"Australia","geo_score":0.726,"nrl":1,"id":"a6bnb0ombr11","geo_precision":"zip","state":"New South Wales"},"type":"Feature","geometry":{"type":"Point","coordinates":[2.6166667,9.35]}},{"properties":{"city":"Stirling","country":"Australia","geo_score":0.781,"nrl":1,"id":"a6bnb0gjq4iu","geo_precision":"zip","state":"Australian Capital Territory"},"type":"Feature","geometry":{"type":"Point","coordinates":[-83.0302033,42.5803122]}},{"properties":{"city":"Stonnington","country":"Australia","geo_score":0.779,"nrl":1,"id":"a6bnb0qfmn69","geo_precision":"zip","state":"Victoria"},"type":"Feature","geometry":{"type":"Point","coordinates":[11.8181025981903,58.0704551538018]}},{"properties":{"city":"Strathfield","country":"Australia","geo_score":0.805,"nrl":1,"id":"a6bnb0s472yf","geo_precision":"zip","state":"New South Wales"},"type":"Feature","geometry":{"type":"Point","coordinates":[-4.0666667,55.6666667]}},{"properties":{"city":"Subiaco","country":"Australia","geo_score":0.816,"nrl":1,"id":"a6bnb0jlviwj","geo_precision":"zip","state":"Western Australia"},"type":"Feature","geometry":{"type":"Point","coordinates":[120.2333333,14.9]}},{"properties":{"city":"Sufers Paradise","country":"Australia","geo_score":0.796,"nrl":1,"id":"a6bnb0je6rcg","geo_precision":"zip","state":"Queensland"},"type":"Feature","geometry":{"type":"Point","coordinates":[-115.1466648,36.0971945]}},{"properties":{"city":"Sunbury","country":"Australia","geo_score":0.857,"nrl":1,"id":"a6bnb0in131f","geo_precision":"zip","state":"Victoria"},"type":"Feature","geometry":{"type":"Point","coordinates":[144.7333333,-37.5833333]}},{"properties":{"city":"Sunny Coast","country":"Australia","geo_score":0.729,"nrl":1,"id":"a6bnb0ste72s","geo_precision":"zip","state":"Queensland"},"type":"Feature","geometry":{"type":"Point","coordinates":[108.9286111,34.2583333]}},{"properties":{"city":"Sunshine Coast","country":"Australia","geo_score":0.747,"nrl":118,"id":"a6bnb0swula1","geo_precision":"zip","state":"Queensland"},"type":"Feature","geometry":{"type":"Point","coordinates":[113.8672222,35.3088889]}},{"properties":{"city":"Surfers Paradise","country":"Australia","geo_score":0.79,"nrl":16,"id":"a6bnb0jydt9s","geo_precision":"zip","state":"Queensland"},"type":"Feature","geometry":{"type":"Point","coordinates":[-115.1466648,36.0971945]}},{"properties":{"city":"Surry Hills","country":"Australia","geo_score":0.743,"nrl":5,"id":"a6bnb0my1ggn","geo_precision":"zip","state":"New South Wales"},"type":"Feature","geometry":{"type":"Point","coordinates":[7.7,11.0666667]}},{"properties":{"city":"Sutherland","country":"Australia","geo_score":0.829,"nrl":1,"id":"a6bnb0ueg8z3","geo_precision":"zip","state":"New South Wales"},"type":"Feature","geometry":{"type":"Point","coordinates":[-123.3125763,43.3901177]}},{"properties":{"city":"Swan Hill","country":"Australia","geo_score":0.75,"nrl":1,"id":"a6bnb0fpz12m","geo_precision":"zip","state":"Victoria"},"type":"Feature","geometry":{"type":"Point","coordinates":[127.0191667,37.2841667]}},{"properties":{"city":"Sydenham","country":"Australia","geo_score":0.786,"nrl":1,"id":"a6bnb0nwg0n3","geo_precision":"zip","state":"Victoria"},"type":"Feature","geometry":{"type":"Point","coordinates":[-71.0994976,42.4800954]}},{"properties":{"city":"Sydney","country":"Australia","geo_score":0.857,"nrl":5773,"id":"a6bnb0fita08","geo_precision":"zip","state":"New South Wales"},"type":"Feature","geometry":{"type":"Point","coordinates":[151.207323074341,-33.8678499639382]}},{"properties":{"city":"Tamworth","country":"Australia","geo_score":0.857,"nrl":9,"id":"a6bnb0l01ktu","geo_precision":"zip","state":"New South Wales"},"type":"Feature","geometry":{"type":"Point","coordinates":[-1.6833333,52.6166667]}},{"properties":{"city":"Taradale","country":"Australia","geo_score":0.804,"nrl":1,"id":"a6bnb0no2sq4","geo_precision":"zip","state":"Victoria"},"type":"Feature","geometry":{"type":"Point","coordinates":[75.05,16.5]}},{"properties":{"city":"Tarneit","country":"Australia","geo_score":0.755,"nrl":1,"id":"a6bnb0nnfx2i","geo_precision":"zip","state":"Victoria"},"type":"Feature","geometry":{"type":"Point","coordinates":[-79.416304194,43.700113788]}},{"properties":{"city":"Taumarunui","country":"New Zealand","geo_score":0.757,"nrl":1,"id":"a6bnb0hgxm6x","geo_precision":"zip","state":"Manawatu-Wanganui"},"type":"Feature","geometry":{"type":"Point","coordinates":[84.15,25.55]}},{"properties":{"city":"Taupo","country":"New Zealand","geo_score":0.786,"nrl":5,"id":"a6bnb0k3rg17","geo_precision":"zip","state":"Waikato"},"type":"Feature","geometry":{"type":"Point","coordinates":[121.525,25.0391667]}},{"properties":{"city":"Tauranga","country":"New Zealand","geo_score":0.804,"nrl":6,"id":"a6bnb0hozohh","geo_precision":"zip","state":"Bay of Plenty"},"type":"Feature","geometry":{"type":"Point","coordinates":[-104.6666667,24.0333333]}},{"properties":{"city":"Terang","country":"Australia","geo_score":0.796,"nrl":3,"id":"a6bnb0pz1dpp","geo_precision":"zip","state":"Victoria"},"type":"Feature","geometry":{"type":"Point","coordinates":[-104.6666667,24.0333333]}},{"properties":{"city":"The Nade","country":"Australia","geo_score":0.755,"nrl":1,"id":"a6bnb0j2o4pv","geo_precision":"zip","state":"Tasmania"},"type":"Feature","geometry":{"type":"Point","coordinates":[139.8580556,35.9411111]}},{"properties":{"city":"The Rocks","country":"Australia","geo_score":0.768,"nrl":2,"id":"a6bnb0gik8du","geo_precision":"zip","state":"New South Wales"},"type":"Feature","geometry":{"type":"Point","coordinates":[166.2166667,-21.6166667]}},{"properties":{"city":"Theodore","country":"Australia","geo_score":0.857,"nrl":1,"id":"a6bnb0k938c2","geo_precision":"zip","state":"Australian Capital Territory"},"type":"Feature","geometry":{"type":"Point","coordinates":[-88.1752796,30.5476941]}},{"properties":{"city":"Thredbo","country":"Australia","geo_score":0.786,"nrl":1,"id":"a6bnb0m5uf69","geo_precision":"zip","state":"Victoria"},"type":"Feature","geometry":{"type":"Point","coordinates":[-81.216452903,46.000077023]}},{"properties":{"city":"Timaru","country":"New Zealand","geo_score":0.81,"nrl":2,"id":"a6bnb0emyofx","geo_precision":"zip","state":"Canterbury"},"type":"Feature","geometry":{"type":"Point","coordinates":[-6.90703724027922,33.9278010994385]}},{"properties":{"city":"Tin Can Bay","country":"Australia","geo_score":0.762,"nrl":1,"id":"a6bnb0ruai18","geo_precision":"zip","state":"Queensland"},"type":"Feature","geometry":{"type":"Point","coordinates":[117.12,36.1852778]}},{"properties":{"city":"Toowoomba","country":"Australia","geo_score":0.857,"nrl":45,"id":"a6bnb0gcikn1","geo_precision":"zip","state":"Queensland"},"type":"Feature","geometry":{"type":"Point","coordinates":[151.9666667,-27.55]}},{"properties":{"city":"Torquay","country":"Australia","geo_score":0.735,"nrl":3,"id":"a6bnb0ql195a","geo_precision":"zip","state":"Victoria"},"type":"Feature","geometry":{"type":"Point","coordinates":[81.2833333,21.1833333]}},{"properties":{"city":"Townsville","country":"Australia","geo_score":0.857,"nrl":102,"id":"a6bnb0n7c9z3","geo_precision":"zip","state":"Queensland"},"type":"Feature","geometry":{"type":"Point","coordinates":[146.8,-19.25]}},{"properties":{"city":"Townsvillel","country":"Australia","geo_score":0.844,"nrl":1,"id":"a6bnb0owa9j6","geo_precision":"zip","state":"Queensland"},"type":"Feature","geometry":{"type":"Point","coordinates":[146.8,-19.25]}},{"properties":{"city":"Traralgon","country":"Australia","geo_score":0.857,"nrl":3,"id":"a6bnb0jo1ac8","geo_precision":"zip","state":"Victoria"},"type":"Feature","geometry":{"type":"Point","coordinates":[146.5333333,-38.1833333]}},{"properties":{"city":"Tuggeranong","country":"Australia","geo_score":0.766,"nrl":2,"id":"a6bnb0p43nvd","geo_precision":"zip","state":"Australian Capital Territory"},"type":"Feature","geometry":{"type":"Point","coordinates":[15.7666667,47.0666667]}},{"properties":{"city":"Turramurra","country":"Australia","geo_score":0.786,"nrl":1,"id":"a6bnb0my5tyw","geo_precision":"zip","state":"New South Wales"},"type":"Feature","geometry":{"type":"Point","coordinates":[-67.4833333,10.2333333]}},{"properties":{"city":"Tweed Heads","country":"Australia","geo_score":0.729,"nrl":1,"id":"a6bnb0s0mhs4","geo_precision":"zip","state":"New South Wales"},"type":"Feature","geometry":{"type":"Point","coordinates":[-90.5381917,41.8233618]}},{"properties":{"city":"Tyabb","country":"Australia","geo_score":0.8,"nrl":1,"id":"a6bnb0j8j1jj","geo_precision":"zip","state":"Victoria"},"type":"Feature","geometry":{"type":"Point","coordinates":[47.3194444,43.0522222]}},{"properties":{"city":"Umina Beach","country":"Australia","geo_score":0.743,"nrl":1,"id":"a6bnb0j92jkd","geo_precision":"zip","state":"New South Wales"},"type":"Feature","geometry":{"type":"Point","coordinates":[9.8441667,10.3158333]}},{"properties":{"city":"Upper Hutt","country":"New Zealand","geo_score":0.73,"nrl":1,"id":"a6bnb0p5wgcs","geo_precision":"zip","state":"Wellington"},"type":"Feature","geometry":{"type":"Point","coordinates":[120.2516667,33.7680556]}},{"properties":{"city":"Upper Mt Gravatt","country":"Australia","geo_score":0.735,"nrl":1,"id":"a6bnb0p5vlxf","geo_precision":"zip","state":"Queensland"},"type":"Feature","geometry":{"type":"Point","coordinates":[140.4666667,36.3666667]}},{"properties":{"city":"Vaucluse","country":"Australia","geo_score":0.75,"nrl":1,"id":"a6bnb0r5y6vt","geo_precision":"zip","state":"New South Wales"},"type":"Feature","geometry":{"type":"Point","coordinates":[22.5333333,47.25]}},{"properties":{"city":"Vermont","country":"Australia","geo_score":0.857,"nrl":1,"id":"a6bnb0o6kyq6","geo_precision":"zip","state":"Victoria"},"type":"Feature","geometry":{"type":"Point","coordinates":[-72.7498308,44.0003417]}},{"properties":{"city":"Victor Harbor","country":"Australia","geo_score":0.798,"nrl":1,"id":"a6bnb0mye7kn","geo_precision":"zip","state":"South Australia"},"type":"Feature","geometry":{"type":"Point","coordinates":[-123.369299678,48.432935738]}},{"properties":{"city":"Victoria Park","country":"Australia","geo_score":0.81,"nrl":1,"id":"a6bnb0r6npl6","geo_precision":"zip","state":"Western Australia"},"type":"Feature","geometry":{"type":"Point","coordinates":[-123.369299678,48.432935738]}},{"properties":{"city":"Vincentia","country":"Australia","geo_score":0.857,"nrl":1,"id":"a6bnb0nrx9pu","geo_precision":"zip","state":"New South Wales"},"type":"Feature","geometry":{"type":"Point","coordinates":[150.674805,-35.068249]}},{"properties":{"city":"Wagga Wagga","country":"Australia","geo_score":0.743,"nrl":26,"id":"a6bnb0o7joad","geo_precision":"zip","state":"New South Wales"},"type":"Feature","geometry":{"type":"Point","coordinates":[-97.1466695,31.549333]}},{"properties":{"city":"Wagin","country":"Australia","geo_score":0.833,"nrl":1,"id":"a6bnb0n5km3s","geo_precision":"zip","state":"Western Australia"},"type":"Feature","geometry":{"type":"Point","coordinates":[7.2002778,12.6986111]}},{"properties":{"city":"Waikato Western Hills","country":"New Zealand","geo_score":0.767,"nrl":2,"id":"a6bnb0jv2xv0","geo_precision":"zip","state":"Waikato"},"type":"Feature","geometry":{"type":"Point","coordinates":[175.3333333,-37.5]}},{"properties":{"city":"Wainui","country":"New Zealand","geo_score":0.762,"nrl":1,"id":"a6bnb0mrmkk6","geo_precision":"zip","state":"Auckland"},"type":"Feature","geometry":{"type":"Point","coordinates":[16.4166667,48.25]}},{"properties":{"city":"Wainuiomata","country":"New Zealand","geo_score":0.831,"nrl":3,"id":"a6bnb0uz9tkb","geo_precision":"zip","state":"Wellington"},"type":"Feature","geometry":{"type":"Point","coordinates":[179.3,-16.5833333]}},{"properties":{"city":"Wairarapa","country":"New Zealand","geo_score":0.0,"nrl":1,"id":"a6bnb0kao7pu","geo_precision":"unmatched","state":"Wellington"},"type":"Feature","geometry":null},{"properties":{"city":"Waitakere","country":"New Zealand","geo_score":0.857,"nrl":1,"id":"a6bnb0nrsq4z","geo_precision":"zip","state":"Auckland"},"type":"Feature","geometry":{"type":"Point","coordinates":[174.55,-36.85]}},{"properties":{"city":"Waitakere City","country":"New Zealand","geo_score":0.747,"nrl":1,"id":"a6bnb0v1tahp","geo_precision":"zip","state":"Auckland"},"type":"Feature","geometry":{"type":"Point","coordinates":[135.515670776367,34.7614289625356]}},{"properties":{"city":"Wamberal","country":"Australia","geo_score":0.794,"nrl":52,"id":"a6bnb0jl0gw1","geo_precision":"zip","state":"New South Wales"},"type":"Feature","geometry":{"type":"Point","coordinates":[-98.0986204,29.9974362]}},{"properties":{"city":"Wanaka","country":"New Zealand","geo_score":0.786,"nrl":1,"id":"a6bnb0gfiz8p","geo_precision":"zip","state":"Otaga"},"type":"Feature","geometry":{"type":"Point","coordinates":[126.9158333,42.0597222]}},{"properties":{"city":"Wangaratta","country":"Australia","geo_score":0.786,"nrl":2,"id":"a6bnb0fafku4","geo_precision":"zip","state":"Victoria"},"type":"Feature","geometry":{"type":"Point","coordinates":[9.6333333,47.8]}},{"properties":{"city":"Warilla","country":"Australia","geo_score":0.776,"nrl":1,"id":"a6bnb0s4pox7","geo_precision":"zip","state":"New South Wales"},"type":"Feature","geometry":{"type":"Point","coordinates":[7.9166667,51.55]}},{"properties":{"city":"Warrnambool","country":"Australia","geo_score":0.857,"nrl":6,"id":"a6bnb0t8mso1","geo_precision":"zip","state":"Victoria"},"type":"Feature","geometry":{"type":"Point","coordinates":[142.4833333,-38.3833333]}},{"properties":{"city":"Wellington","country":"New Zealand","geo_score":0.857,"nrl":220,"id":"a6bnb0svxo63","geo_precision":"zip","state":"Wellington"},"type":"Feature","geometry":{"type":"Point","coordinates":[174.7666667,-41.2833333]}},{"properties":{"city":"Wellington","country":"Australia","geo_score":0.857,"nrl":1,"id":"a6bnb0hrh3gw","geo_precision":"zip","state":"New South Wales"},"type":"Feature","geometry":{"type":"Point","coordinates":[174.7666667,-41.2833333]}},{"properties":{"city":"Werribee","country":"Australia","geo_score":0.768,"nrl":5,"id":"a6bnb0lm81dz","geo_precision":"zip","state":"Victoria"},"type":"Feature","geometry":{"type":"Point","coordinates":[139.7044444,35.8263889]}},{"properties":{"city":"West Auckland","country":"New Zealand","geo_score":0.81,"nrl":3,"id":"a6bnb0jdtumq","geo_precision":"zip","state":"Auckland"},"type":"Feature","geometry":{"type":"Point","coordinates":[174.7666667,-36.8666667]}},{"properties":{"city":"West End","country":"Australia","geo_score":0.755,"nrl":1,"id":"a6bnb0trcgkr","geo_precision":"zip","state":"Queensland"},"type":"Feature","geometry":{"type":"Point","coordinates":[121.65,-8.8333333]}},{"properties":{"city":"West Perth","country":"Australia","geo_score":0.794,"nrl":1,"id":"a6bnb0f1zkvh","geo_precision":"zip","state":"Western Australia"},"type":"Feature","geometry":{"type":"Point","coordinates":[115.8333333,-31.9333333]}},{"properties":{"city":"West Ryde","country":"Australia","geo_score":0.732,"nrl":1,"id":"a6bnb0nkuplw","geo_precision":"zip","state":"New South Wales"},"type":"Feature","geometry":{"type":"Point","coordinates":[12.859178,42.407232]}},{"properties":{"city":"Westlake","country":"Australia","geo_score":0.782,"nrl":1,"id":"a6bnb0qwr11j","geo_precision":"zip","state":"Queensland"},"type":"Feature","geometry":{"type":"Point","coordinates":[-122.1012322,47.5776002]}},{"properties":{"city":"Whanganui","country":"New Zealand","geo_score":0.841,"nrl":7,"id":"a6bnb0gjtvtl","geo_precision":"zip","state":"Manawatu-Wanganui"},"type":"Feature","geometry":{"type":"Point","coordinates":[175.05,-39.9333333]}},{"properties":{"city":"Whyalla","country":"Australia","geo_score":0.857,"nrl":1,"id":"a6bnb0h2qdsz","geo_precision":"zip","state":"South Australia"},"type":"Feature","geometry":{"type":"Point","coordinates":[137.5833333,-33.0333333]}},{"properties":{"city":"Wilberforce","country":"Australia","geo_score":0.818,"nrl":1,"id":"a6bnb0sh4no4","geo_precision":"zip","state":"New South Wales"},"type":"Feature","geometry":{"type":"Point","coordinates":[-0.8833333,53.95]}},{"properties":{"city":"Williamstown","country":"Australia","geo_score":0.798,"nrl":1,"id":"a6bnb0iuud2b","geo_precision":"zip","state":"Victoria"},"type":"Feature","geometry":{"type":"Point","coordinates":[-68.9166667,12.1]}},{"properties":{"city":"Willoughby","country":"Australia","geo_score":0.857,"nrl":1,"id":"a6bnb0m7lpjg","geo_precision":"zip","state":"New South Wales"},"type":"Feature","geometry":{"type":"Point","coordinates":[-81.4065011,41.6397696]}},{"properties":{"city":"Wodonga","country":"Australia","geo_score":0.857,"nrl":5,"id":"a6bnb0qjbogi","geo_precision":"zip","state":"Victoria"},"type":"Feature","geometry":{"type":"Point","coordinates":[146.8833333,-36.1166667]}},{"properties":{"city":"Wollongong","country":"Australia","geo_score":0.857,"nrl":158,"id":"a6bnb0k98jbe","geo_precision":"zip","state":"New South Wales"},"type":"Feature","geometry":{"type":"Point","coordinates":[150.8833333,-34.4333333]}},{"properties":{"city":"Woody Point","country":"Australia","geo_score":0.743,"nrl":1,"id":"a6bnb0qqywau","geo_precision":"zip","state":"Queensland"},"type":"Feature","geometry":{"type":"Point","coordinates":[106.7116667,39.4994444]}},{"properties":{"city":"Woolloongabba","country":"Australia","geo_score":0.745,"nrl":2,"id":"a6bnb0m4axky","geo_precision":"zip","state":"Queensland"},"type":"Feature","geometry":{"type":"Point","coordinates":[-0.7,52.3]}},{"properties":{"city":"Woy Woy","country":"Australia","geo_score":0.762,"nrl":3,"id":"a6bnb0fjfrtq","geo_precision":"zip","state":"New South Wales"},"type":"Feature","geometry":{"type":"Point","coordinates":[28.0,7.7]}},{"properties":{"city":"Wyndham","country":"Australia","geo_score":0.796,"nrl":1,"id":"a6bnb0jsnjw4","geo_precision":"zip","state":"Western Australia"},"type":"Feature","geometry":{"type":"Point","coordinates":[-71.2328329,42.283431]}},{"properties":{"city":"Yass","country":"Australia","geo_score":0.786,"nrl":2,"id":"a6bnb0nlo2j8","geo_precision":"zip","state":"New South Wales"},"type":"Feature","geometry":{"type":"Point","coordinates":[127.7377778,34.7441667]}},{"properties":{"city":"Yeppoon","country":"Australia","geo_score":0.776,"nrl":2,"id":"a6bnb0uaz5t0","geo_precision":"zip","state":"Queensland"},"type":"Feature","geometry":{"type":"Point","coordinates":[70.8155556,40.3758333]}}],"is_temporal":false,"author":{"url":"","metadata":"","contact_name":"","contact_address":"","source":"","contact_phone":""},"source":"","pagination":{"sort":null,"start":0,"total":480,"limit":1000000},"state":"complete","tags":"","published":"2014-08-11T00:07:49-04:00","id":79925}