{"type":"FeatureCollection","data_type":"Dataset","url_type":null,"permissions":[{"permissions":{"download":true,"view":true},"group_id":"everyone"}],"classification":null,"title":"Super League","count":252,"stream_id":79926,"contributor":{"url":"http://geocommons.com/users/12003","name":"LauraHale"},"data_attributes":null,"calculation_params":null,"icon_link":null,"link":"http://geocommons.com/overlays/79926.json","extent":[-157.962,21.3931,-70.8337,62.6147],"geometry_types":["point"],"unique_name":null,"name":"Super League","feature_count":252,"description":"","next_feature":null,"is_raster":false,"short_classification":"Y","stats":{"geo_score":{"max":0.714,"mean":0.513099206349206,"variance":0.0718691255770568,"stdev":0.268084176289942,"min":0.0,"median":0.629},"super league":{"max":1334,"mean":23.3730158730159,"variance":15537.3583127807,"stdev":124.648940279413,"min":1,"median":1}},"features":[{"properties":{"city":"Adelaide","country":"Australia","geo_score":0.696,"id":"a68wyk6ezihw","super league":71,"geo_precision":"city","state":"South Australia"},"type":"Feature","geometry":{"type":"Point","coordinates":[-120.873514,35.645526]}},{"properties":{"city":"Albany","country":"New Zealand","geo_score":0.714,"id":"a68wyjy7v8wm","super league":2,"geo_precision":"city","state":"Auckland"},"type":"Feature","geometry":{"type":"Point","coordinates":[-73.756232,42.652579]}},{"properties":{"city":"Albert Park","country":"Australia","geo_score":0.657,"id":"a68wyk0t7bxd","super league":1,"geo_precision":"city","state":"Victoria"},"type":"Feature","geometry":{"type":"Point","coordinates":[-86.12578,31.277947]}},{"properties":{"city":"Albury","country":"Australia","geo_score":0.0,"id":"a68wyk7c00cq","super league":1,"geo_precision":"unmatched","state":"New South Wales"},"type":"Feature","geometry":null},{"properties":{"city":"Alexandria","country":"Australia","geo_score":0.714,"id":"a68wyk5nhbyx","super league":1,"geo_precision":"city","state":"New South Wales"},"type":"Feature","geometry":{"type":"Point","coordinates":[-92.445137,31.311294]}},{"properties":{"city":"Alice Springs","country":"Australia","geo_score":0.595,"id":"a68wyk7z8f86","super league":1,"geo_precision":"city","state":"Northern Territory"},"type":"Feature","geometry":{"type":"Point","coordinates":[-72.589811,42.101483]}},{"properties":{"city":"Annandale","country":"Australia","geo_score":0.652,"id":"a68wyk7l97s5","super league":1,"geo_precision":"city","state":"New South Wales"},"type":"Feature","geometry":{"type":"Point","coordinates":[-86.266102,39.217826]}},{"properties":{"city":"Armidale","country":"Australia","geo_score":0.0,"id":"a68wykbrk5w3","super league":2,"geo_precision":"unmatched","state":"Victoria"},"type":"Feature","geometry":null},{"properties":{"city":"Armidale","country":"Australia","geo_score":0.0,"id":"a68wykah272e","super league":5,"geo_precision":"unmatched","state":"New South Wales"},"type":"Feature","geometry":null},{"properties":{"city":"Ashfield","country":"Australia","geo_score":0.643,"id":"a68wykbutwwo","super league":1,"geo_precision":"city","state":"New South Wales"},"type":"Feature","geometry":{"type":"Point","coordinates":[-91.568849,36.234637]}},{"properties":{"city":"Ashgrove","country":"Australia","geo_score":0.714,"id":"a68wyk4t23or","super league":1,"geo_precision":"city","state":"Queensland"},"type":"Feature","geometry":{"type":"Point","coordinates":[-86.847788,40.547814]}},{"properties":{"city":"Auckland","country":"New Zealand","geo_score":0.631,"id":"a68wyk6y3wbl","super league":653,"geo_precision":"city","state":"Auckland"},"type":"Feature","geometry":{"type":"Point","coordinates":[-113.324354,32.985324]}},{"properties":{"city":"Balcolyn","country":"Australia","geo_score":0.0,"id":"a68wyk66qt8l","super league":1,"geo_precision":"unmatched","state":"New South Wales"},"type":"Feature","geometry":null},{"properties":{"city":"Ballarat","country":"Australia","geo_score":0.679,"id":"a68wyk40gxjt","super league":6,"geo_precision":"city","state":"Victoria"},"type":"Feature","geometry":{"type":"Point","coordinates":[-91.668755,36.235067]}},{"properties":{"city":"Balmain","country":"Australia","geo_score":0.625,"id":"a68wyk9ieevx","super league":1,"geo_precision":"city","state":"New South Wales"},"type":"Feature","geometry":{"type":"Point","coordinates":[-82.697657,37.5076]}},{"properties":{"city":"Batemans Bay","country":"Australia","geo_score":0.597,"id":"a68wykajdjob","super league":2,"geo_precision":"city","state":"New South Wales"},"type":"Feature","geometry":{"type":"Point","coordinates":[-92.564049,34.352039]}},{"properties":{"city":"Bathurst","country":"Australia","geo_score":0.0,"id":"a68wyjzd3xc2","super league":4,"geo_precision":"unmatched","state":"New South Wales"},"type":"Feature","geometry":null},{"properties":{"city":"Bellara","country":"Australia","geo_score":0.679,"id":"a68wyk5ce457","super league":1,"geo_precision":"city","state":"Queensland"},"type":"Feature","geometry":{"type":"Point","coordinates":[-91.359284,33.50428]}},{"properties":{"city":"Bendigo","country":"Australia","geo_score":0.633,"id":"a68wyk42nmee","super league":3,"geo_precision":"city","state":"Victoria"},"type":"Feature","geometry":{"type":"Point","coordinates":[-88.542822,33.438732]}},{"properties":{"city":"Bentleigh East","country":"Australia","geo_score":0.648,"id":"a68wykck9lqb","super league":1,"geo_precision":"city","state":"Victoria"},"type":"Feature","geometry":{"type":"Point","coordinates":[-76.713285,41.946463]}},{"properties":{"city":"Blakehurst","country":"Australia","geo_score":0.0,"id":"a68wyjxonstl","super league":1,"geo_precision":"unmatched","state":"New South Wales"},"type":"Feature","geometry":null},{"properties":{"city":"Blenheim","country":"New Zealand","geo_score":0.714,"id":"a68wyjzmwqp1","super league":3,"geo_precision":"city","state":"Marlborough"},"type":"Feature","geometry":{"type":"Point","coordinates":[-76.546078,39.489551]}},{"properties":{"city":"Blue Mountains","country":"Australia","geo_score":0.615,"id":"a68wykdbqjru","super league":1,"geo_precision":"city","state":"New South Wales"},"type":"Feature","geometry":{"type":"Point","coordinates":[-86.232449,31.229059]}},{"properties":{"city":"Bondi","country":"Australia","geo_score":0.657,"id":"a68wyk57txar","super league":11,"geo_precision":"city","state":"New South Wales"},"type":"Feature","geometry":{"type":"Point","coordinates":[-121.31531,44.058173]}},{"properties":{"city":"Bondi Beach","country":"Australia","geo_score":0.614,"id":"a68wykcrqhlr","super league":2,"geo_precision":"city","state":"New South Wales"},"type":"Feature","geometry":{"type":"Point","coordinates":[-121.31531,44.058173]}},{"properties":{"city":"Bondi Junction","country":"Australia","geo_score":0.604,"id":"a68wyk2sjy9z","super league":1,"geo_precision":"city","state":"New South Wales"},"type":"Feature","geometry":{"type":"Point","coordinates":[-121.31531,44.058173]}},{"properties":{"city":"Bribie Island","country":"Australia","geo_score":0.607,"id":"a68wykcq6j3j","super league":1,"geo_precision":"city","state":"Queensland"},"type":"Feature","geometry":{"type":"Point","coordinates":[-85.712209,41.290879]}},{"properties":{"city":"Bright","country":"Australia","geo_score":0.595,"id":"a68wykdz0s30","super league":1,"geo_precision":"city","state":"Victoria"},"type":"Feature","geometry":{"type":"Point","coordinates":[-90.377047,36.074513]}},{"properties":{"city":"Brisbane","country":"Australia","geo_score":0.679,"id":"a68wyk5a29hx","super league":902,"geo_precision":"city","state":"Queensland"},"type":"Feature","geometry":{"type":"Point","coordinates":[-81.306221,31.917155]}},{"properties":{"city":"Broken Hill","country":"Australia","geo_score":0.6,"id":"a68wyk3ou39b","super league":1,"geo_precision":"city","state":"New South Wales"},"type":"Feature","geometry":{"type":"Point","coordinates":[-80.278106,25.857596]}},{"properties":{"city":"Bruce","country":"Australia","geo_score":0.619,"id":"a68wykc90s8a","super league":1,"geo_precision":"city","state":"Australian Capital Territory"},"type":"Feature","geometry":{"type":"Point","coordinates":[-81.247611,31.974931]}},{"properties":{"city":"Brunswick","country":"Australia","geo_score":0.714,"id":"a68wyk9znog7","super league":1,"geo_precision":"city","state":"Victoria"},"type":"Feature","geometry":{"type":"Point","coordinates":[-87.120012,39.196987]}},{"properties":{"city":"Bunbury","country":"Australia","geo_score":0.614,"id":"a68wyk60f797","super league":3,"geo_precision":"city","state":"Western Australia"},"type":"Feature","geometry":{"type":"Point","coordinates":[-76.939979,39.397326]}},{"properties":{"city":"Bundaberg","country":"Australia","geo_score":0.629,"id":"a68wyjyxf5lv","super league":2,"geo_precision":"city","state":"Queensland"},"type":"Feature","geometry":{"type":"Point","coordinates":[-74.538249,40.575402]}},{"properties":{"city":"Bundoora","country":"Australia","geo_score":0.614,"id":"a68wyk47sf8w","super league":1,"geo_precision":"city","state":"Victoria"},"type":"Feature","geometry":{"type":"Point","coordinates":[-90.487988,37.879195]}},{"properties":{"city":"Bungendore","country":"Australia","geo_score":0.0,"id":"a68wykcn3v8x","super league":1,"geo_precision":"unmatched","state":"New South Wales"},"type":"Feature","geometry":null},{"properties":{"city":"Burleigh Heads","country":"Australia","geo_score":0.659,"id":"a68wykahs2e7","super league":1,"geo_precision":"city","state":"Queensland"},"type":"Feature","geometry":{"type":"Point","coordinates":[-74.851558,39.045669]}},{"properties":{"city":"Burnie","country":"Australia","geo_score":0.643,"id":"a68wyk9kbj0a","super league":1,"geo_precision":"city","state":"Tasmania"},"type":"Feature","geometry":{"type":"Point","coordinates":[-87.158612,33.716218]}},{"properties":{"city":"Byron Bay","country":"Australia","geo_score":0.589,"id":"a68wyk5a9lh3","super league":3,"geo_precision":"city","state":"New South Wales"},"type":"Feature","geometry":{"type":"Point","coordinates":[-92.564049,34.352039]}},{"properties":{"city":"Caboolture","country":"Australia","geo_score":0.0,"id":"a68wykdbhciv","super league":1,"geo_precision":"unmatched","state":"Queensland"},"type":"Feature","geometry":null},{"properties":{"city":"Cairns","country":"Australia","geo_score":0.69,"id":"a68wykd6oyeg","super league":19,"geo_precision":"city","state":"Queensland"},"type":"Feature","geometry":{"type":"Point","coordinates":[-85.974146,34.80925]}},{"properties":{"city":"Calgary","country":"Australia","geo_score":0.633,"id":"a68wyjzxjpk2","super league":1,"geo_precision":"city","state":"Alberta"},"type":"Feature","geometry":{"type":"Point","coordinates":[-111.893862,44.402136]}},{"properties":{"city":"Caloundra","country":"Australia","geo_score":0.614,"id":"a68wykbqs00d","super league":2,"geo_precision":"city","state":"Queensland"},"type":"Feature","geometry":{"type":"Point","coordinates":[-93.769694,45.578023]}},{"properties":{"city":"Cambridge","country":"New Zealand","geo_score":0.714,"id":"a68wyk7gpmgt","super league":1,"geo_precision":"city","state":"Waikato"},"type":"Feature","geometry":{"type":"Point","coordinates":[-85.616627,38.221737]}},{"properties":{"city":"Camden","country":"Australia","geo_score":0.714,"id":"a68wyk64d80g","super league":1,"geo_precision":"city","state":"New South Wales"},"type":"Feature","geometry":{"type":"Point","coordinates":[-75.11962,39.925946]}},{"properties":{"city":"Campbelltown","country":"Australia","geo_score":0.667,"id":"a68wykdmsijd","super league":3,"geo_precision":"city","state":"New South Wales"},"type":"Feature","geometry":{"type":"Point","coordinates":[-149.894167,61.171944]}},{"properties":{"city":"Canberra","country":"Australia","geo_score":0.625,"id":"a68wyk802ji1","super league":281,"geo_precision":"city","state":"Australian Capital Territory"},"type":"Feature","geometry":{"type":"Point","coordinates":[-95.487227,43.825795]}},{"properties":{"city":"Cannington","country":"Australia","geo_score":0.626,"id":"a68wyk6nzjh4","super league":1,"geo_precision":"city","state":"Western Australia"},"type":"Feature","geometry":{"type":"Point","coordinates":[-71.36422,41.561769]}},{"properties":{"city":"Carrara","country":"Australia","geo_score":0.612,"id":"a68wyk66lahz","super league":1,"geo_precision":"city","state":"Queensland"},"type":"Feature","geometry":{"type":"Point","coordinates":[-116.17514,46.3899]}},{"properties":{"city":"Casterton","country":"Australia","geo_score":0.635,"id":"a68wyka77s3m","super league":1,"geo_precision":"city","state":"Victoria"},"type":"Feature","geometry":{"type":"Point","coordinates":[-80.159228,41.530331]}},{"properties":{"city":"Castle Hill","country":"Australia","geo_score":0.6,"id":"a68wyk35ro0v","super league":3,"geo_precision":"city","state":"New South Wales"},"type":"Feature","geometry":{"type":"Point","coordinates":[-80.278106,25.857596]}},{"properties":{"city":"Castlemaine","country":"Australia","geo_score":0.648,"id":"a68wyk6k88px","super league":1,"geo_precision":"city","state":"Victoria"},"type":"Feature","geometry":{"type":"Point","coordinates":[-118.561194,34.042509]}},{"properties":{"city":"Chatswood","country":"Australia","geo_score":0.0,"id":"a68wyk00k0wr","super league":5,"geo_precision":"unmatched","state":"New South Wales"},"type":"Feature","geometry":null},{"properties":{"city":"Chelsea","country":"Australia","geo_score":0.714,"id":"a68wyk453wrz","super league":1,"geo_precision":"city","state":"Victoria"},"type":"Feature","geometry":{"type":"Point","coordinates":[-85.440237,34.523418]}},{"properties":{"city":"Christchurch","country":"New Zealand","geo_score":0.714,"id":"a68wyk4mmf50","super league":169,"geo_precision":"city","state":"Canterbury"},"type":"Feature","geometry":{"type":"Point","coordinates":[-76.447551,37.598391]}},{"properties":{"city":"Churchlands","country":"Australia","geo_score":0.701,"id":"a68wykalesvm","super league":1,"geo_precision":"city","state":"Western Australia"},"type":"Feature","geometry":{"type":"Point","coordinates":[-80.417556,35.78625]}},{"properties":{"city":"Cleveland","country":"Australia","geo_score":0.714,"id":"a68wykcbzqgv","super league":1,"geo_precision":"city","state":"Queensland"},"type":"Feature","geometry":{"type":"Point","coordinates":[-81.695409,41.499495]}},{"properties":{"city":"Coburg","country":"Australia","geo_score":0.714,"id":"a68wyk1wt07w","super league":1,"geo_precision":"city","state":"Victoria"},"type":"Feature","geometry":{"type":"Point","coordinates":[-95.264434,40.917494]}},{"properties":{"city":"Coffs Harbour","country":"Australia","geo_score":0.643,"id":"a68wyk0w9jrt","super league":4,"geo_precision":"city","state":"New South Wales"},"type":"Feature","geometry":{"type":"Point","coordinates":[-80.409233,41.035338]}},{"properties":{"city":"Concord","country":"Australia","geo_score":0.714,"id":"a68wykd8g2cb","super league":2,"geo_precision":"city","state":"New South Wales"},"type":"Feature","geometry":{"type":"Point","coordinates":[-71.537572,43.208137]}},{"properties":{"city":"Conder","country":"Australia","geo_score":0.667,"id":"a68wyk2hzykt","super league":1,"geo_precision":"city","state":"Australian Capital Territory"},"type":"Feature","geometry":{"type":"Point","coordinates":[-91.513199,42.97165]}},{"properties":{"city":"Coogee Beach","country":"Australia","geo_score":0.597,"id":"a68wyk4a7igs","super league":1,"geo_precision":"city","state":"New South Wales"},"type":"Feature","geometry":{"type":"Point","coordinates":[-87.861397,31.971263]}},{"properties":{"city":"Cooktown","country":"Australia","geo_score":0.714,"id":"a68wyjyfq8h7","super league":1,"geo_precision":"city","state":"Queensland"},"type":"Feature","geometry":{"type":"Point","coordinates":[-85.940812,36.834774]}},{"properties":{"city":"Coolangatta","country":"Australia","geo_score":0.649,"id":"a68wykdq6mor","super league":1,"geo_precision":"city","state":"Queensland"},"type":"Feature","geometry":{"type":"Point","coordinates":[-94.728558,35.275374]}},{"properties":{"city":"Coromandel","country":"New Zealand","geo_score":0.595,"id":"a68wykbdr15z","super league":1,"geo_precision":"city","state":"Waikato"},"type":"Feature","geometry":{"type":"Point","coordinates":[-111.473479,35.745831]}},{"properties":{"city":"Cowra","country":"Australia","geo_score":0.629,"id":"a68wyk6as4l3","super league":2,"geo_precision":"city","state":"New South Wales"},"type":"Feature","geometry":{"type":"Point","coordinates":[-150.011944,62.614722]}},{"properties":{"city":"Cranbourne","country":"Australia","geo_score":0.614,"id":"a68wyk9wkikm","super league":2,"geo_precision":"city","state":"Victoria"},"type":"Feature","geometry":{"type":"Point","coordinates":[-87.647528,34.832587]}},{"properties":{"city":"Cronulla","country":"Australia","geo_score":0.643,"id":"a68wyk9bneia","super league":3,"geo_precision":"city","state":"New South Wales"},"type":"Feature","geometry":{"type":"Point","coordinates":[-118.777868,34.11445]}},{"properties":{"city":"Croydon","country":"Australia","geo_score":0.612,"id":"a68wyjzabdhz","super league":1,"geo_precision":"city","state":"Victoria"},"type":"Feature","geometry":{"type":"Point","coordinates":[-88.183363,33.15679]}},{"properties":{"city":"Dapto","country":"Australia","geo_score":0.612,"id":"a68wyk8o5lz9","super league":1,"geo_precision":"city","state":"New South Wales"},"type":"Feature","geometry":{"type":"Point","coordinates":[-114.349734,39.868549]}},{"properties":{"city":"Darwin","country":"Australia","geo_score":0.714,"id":"a68wyk4t62uq","super league":8,"geo_precision":"city","state":"Northern Territory"},"type":"Feature","geometry":{"type":"Point","coordinates":[-87.61197,39.283372]}},{"properties":{"city":"Dee Why","country":"Australia","geo_score":0.619,"id":"a68wykdyhxd8","super league":3,"geo_precision":"city","state":"New South Wales"},"type":"Feature","geometry":{"type":"Point","coordinates":[-91.727645,36.238678]}},{"properties":{"city":"Derby","country":"Australia","geo_score":0.714,"id":"a68wyjy70cca","super league":1,"geo_precision":"city","state":"Western Australia"},"type":"Feature","geometry":{"type":"Point","coordinates":[-104.918589,39.83943]}},{"properties":{"city":"Devonport","country":"New Zealand","geo_score":0.683,"id":"a68wyk766x1q","super league":1,"geo_precision":"city","state":"Auckland"},"type":"Feature","geometry":{"type":"Point","coordinates":[-90.577637,41.523644]}},{"properties":{"city":"Dunedin","country":"New Zealand","geo_score":0.612,"id":"a68wykbgq0gt","super league":29,"geo_precision":"city","state":"Otago"},"type":"Feature","geometry":{"type":"Point","coordinates":[-109.898407,31.414267]}},{"properties":{"city":"Durack","country":"Australia","geo_score":0.667,"id":"a68wyjzfu49s","super league":1,"geo_precision":"city","state":"Queensland"},"type":"Feature","geometry":{"type":"Point","coordinates":[-94.831904,37.230614]}},{"properties":{"city":"East Fremantle","country":"Australia","geo_score":0.637,"id":"a68wyk7y6por","super league":1,"geo_precision":"city","state":"Western Australia"},"type":"Feature","geometry":{"type":"Point","coordinates":[-121.988572,37.54827]}},{"properties":{"city":"Elizabeth North","country":"Australia","geo_score":0.663,"id":"a68wyjywkdun","super league":1,"geo_precision":"city","state":"South Australia"},"type":"Feature","geometry":{"type":"Point","coordinates":[-74.210701,40.663992]}},{"properties":{"city":"Essendon","country":"Australia","geo_score":0.0,"id":"a68wyjzkg6qo","super league":1,"geo_precision":"unmatched","state":"Victoria"},"type":"Feature","geometry":null},{"properties":{"city":"Fairbairn Park","country":"Australia","geo_score":0.648,"id":"a68wyjytneaa","super league":1,"geo_precision":"city","state":"Victoria"},"type":"Feature","geometry":{"type":"Point","coordinates":[-89.037338,43.971091]}},{"properties":{"city":"Feilding","country":"New Zealand","geo_score":0.588,"id":"a68wyk7760s1","super league":3,"geo_precision":"city","state":"Manawatu-Wanganui"},"type":"Feature","geometry":{"type":"Point","coordinates":[-78.46111,36.256258]}},{"properties":{"city":"Footscray","country":"Australia","geo_score":0.655,"id":"a68wyk7ohceq","super league":1,"geo_precision":"city","state":"Victoria"},"type":"Feature","geometry":{"type":"Point","coordinates":[-77.677498,42.746453]}},{"properties":{"city":"Forbes","country":"Australia","geo_score":0.714,"id":"a68wyk7uj1qd","super league":1,"geo_precision":"city","state":"New South Wales"},"type":"Feature","geometry":{"type":"Point","coordinates":[-95.082751,39.902773]}},{"properties":{"city":"Forititude Valley","country":"Australia","geo_score":0.598,"id":"a68wyk5pbgfe","super league":1,"geo_precision":"city","state":"Queensland"},"type":"Feature","geometry":{"type":"Point","coordinates":[-92.820441,33.699554]}},{"properties":{"city":"Forster","country":"Australia","geo_score":0.696,"id":"a68wykbb6b9c","super league":1,"geo_precision":"city","state":"New South Wales"},"type":"Feature","geometry":{"type":"Point","coordinates":[-86.598034,32.437081]}},{"properties":{"city":"Foxton","country":"New Zealand","geo_score":0.651,"id":"a68wyk86nqo7","super league":1,"geo_precision":"city","state":"Manawatu-Wanganui"},"type":"Feature","geometry":{"type":"Point","coordinates":[-85.826906,32.9979]}},{"properties":{"city":"Fraser Island","country":"Australia","geo_score":0.619,"id":"a68wykatwqfi","super league":4,"geo_precision":"city","state":"Queensland"},"type":"Feature","geometry":{"type":"Point","coordinates":[-83.30266,32.349332]}},{"properties":{"city":"Fremantle","country":"Australia","geo_score":0.667,"id":"a68wyjzc98hb","super league":1,"geo_precision":"city","state":"Western Australia"},"type":"Feature","geometry":{"type":"Point","coordinates":[-121.988572,37.54827]}},{"properties":{"city":"French Forest","country":"Australia","geo_score":0.637,"id":"a68wyk2dmdz4","super league":1,"geo_precision":"city","state":"New South Wales"},"type":"Feature","geometry":{"type":"Point","coordinates":[-90.050106,38.600328]}},{"properties":{"city":"Freshwater","country":"Australia","geo_score":0.714,"id":"a68wykbjd9ol","super league":1,"geo_precision":"city","state":"Queensland"},"type":"Feature","geometry":{"type":"Point","coordinates":[-124.061724,40.761519]}},{"properties":{"city":"Fyshwick","country":"Australia","geo_score":0.0,"id":"a68wyk4760xi","super league":1,"geo_precision":"unmatched","state":"Australian Capital Territory"},"type":"Feature","geometry":null},{"properties":{"city":"Geelong","country":"Australia","geo_score":0.0,"id":"a68wyk6lx1kf","super league":19,"geo_precision":"unmatched","state":"Victoria"},"type":"Feature","geometry":null},{"properties":{"city":"Geraldton","country":"Australia","geo_score":0.0,"id":"a68wykc3eber","super league":1,"geo_precision":"unmatched","state":"Western Australia"},"type":"Feature","geometry":null},{"properties":{"city":"Gippsland","country":"Australia","geo_score":0.0,"id":"a68wyjy9473t","super league":1,"geo_precision":"unmatched","state":"Victoria"},"type":"Feature","geometry":null},{"properties":{"city":"Gisborne","country":"Australia","geo_score":0.0,"id":"a68wyk4w63x1","super league":1,"geo_precision":"unmatched","state":"Victoria"},"type":"Feature","geometry":null},{"properties":{"city":"Gisborne","country":"New Zealand","geo_score":0.0,"id":"a68wyk9iyy2r","super league":1,"geo_precision":"unmatched","state":"Gisborne"},"type":"Feature","geometry":null},{"properties":{"city":"Gold Coast","country":"Australia","geo_score":0.603,"id":"a68wyk4nqpvy","super league":237,"geo_precision":"city","state":"Queensland"},"type":"Feature","geometry":{"type":"Point","coordinates":[-86.07052,32.579022]}},{"properties":{"city":"Gore","country":"New Zealand","geo_score":0.6,"id":"a68wyke1e9tb","super league":1,"geo_precision":"city","state":"Southland"},"type":"Feature","geometry":{"type":"Point","coordinates":[-150.011944,62.614722]}},{"properties":{"city":"Gosford","country":"Australia","geo_score":0.0,"id":"a68wykayx6jk","super league":18,"geo_precision":"unmatched","state":"New South Wales"},"type":"Feature","geometry":null},{"properties":{"city":"Goulburn","country":"Australia","geo_score":0.643,"id":"a68wyk727hkq","super league":1,"geo_precision":"city","state":"New South Wales"},"type":"Feature","geometry":{"type":"Point","coordinates":[-85.778579,34.375923]}},{"properties":{"city":"Gregory Hills","country":"Australia","geo_score":0.607,"id":"a68wykcbjcld","super league":1,"geo_precision":"city","state":"New South Wales"},"type":"Feature","geometry":{"type":"Point","coordinates":[-132.636389,55.556667]}},{"properties":{"city":"Greymouth","country":"New Zealand","geo_score":0.0,"id":"a68wyjycapcz","super league":1,"geo_precision":"unmatched","state":"West Coast"},"type":"Feature","geometry":null},{"properties":{"city":"Griffith","country":"Australia","geo_score":0.714,"id":"a68wyk1ikw75","super league":1,"geo_precision":"city","state":"New South Wales"},"type":"Feature","geometry":{"type":"Point","coordinates":[-88.828109,33.635119]}},{"properties":{"city":"Grovedale","country":"Australia","geo_score":0.683,"id":"a68wyk1sblra","super league":1,"geo_precision":"city","state":"Victoria"},"type":"Feature","geometry":{"type":"Point","coordinates":[-76.129396,40.091487]}},{"properties":{"city":"Gulf Harbour","country":"New Zealand","geo_score":0.649,"id":"a68wyjym0fg7","super league":1,"geo_precision":"city","state":"Auckland"},"type":"Feature","geometry":{"type":"Point","coordinates":[-80.409233,41.035338]}},{"properties":{"city":"Hamilton","country":"New Zealand","geo_score":0.714,"id":"a68wyjyct7k3","super league":31,"geo_precision":"city","state":"Waikato"},"type":"Feature","geometry":{"type":"Point","coordinates":[-84.561336,39.399501]}},{"properties":{"city":"Hastings","country":"New Zealand","geo_score":0.0,"id":"a68wykdzi5im","super league":5,"geo_precision":"unmatched","state":null},"type":"Feature","geometry":null},{"properties":{"city":"Hastings Point","country":"Australia","geo_score":0.659,"id":"a68wykbtanhx","super league":1,"geo_precision":"city","state":"New South Wales"},"type":"Feature","geometry":{"type":"Point","coordinates":[-85.92944,41.383658]}},{"properties":{"city":"Hawthorn","country":"Australia","geo_score":0.714,"id":"a68wyk8apbbh","super league":2,"geo_precision":"city","state":"Victoria"},"type":"Feature","geometry":{"type":"Point","coordinates":[-88.088337,31.333225]}},{"properties":{"city":"Hervey Bay","country":"Australia","geo_score":0.587,"id":"a68wyk52mvyh","super league":5,"geo_precision":"city","state":"Queensland"},"type":"Feature","geometry":{"type":"Point","coordinates":[-92.564049,34.352039]}},{"properties":{"city":"Hillside","country":"Australia","geo_score":0.714,"id":"a68wyjyagehl","super league":1,"geo_precision":"city","state":"Victoria"},"type":"Feature","geometry":{"type":"Point","coordinates":[-112.91713,34.418357]}},{"properties":{"city":"Hobart","country":"Australia","geo_score":0.653,"id":"a68wyk4gtkyg","super league":7,"geo_precision":"city","state":"Tasmania"},"type":"Feature","geometry":{"type":"Point","coordinates":[-94.319933,35.90536]}},{"properties":{"city":"Homebush","country":"Australia","geo_score":0.0,"id":"a68wykcfdm1k","super league":1,"geo_precision":"unmatched","state":"New South Wales"},"type":"Feature","geometry":null},{"properties":{"city":"Horsham","country":"Australia","geo_score":0.714,"id":"a68wyk80kua2","super league":1,"geo_precision":"city","state":"Victoria"},"type":"Feature","geometry":{"type":"Point","coordinates":[-75.150577,40.191808]}},{"properties":{"city":"Illawarra","country":"Australia","geo_score":0.0,"id":"a68wyjyrcwor","super league":3,"geo_precision":"unmatched","state":"New South Wales"},"type":"Feature","geometry":null},{"properties":{"city":"Indooroopilly","country":"Australia","geo_score":0.0,"id":"a68wyk0ebrlk","super league":1,"geo_precision":"unmatched","state":"Queensland"},"type":"Feature","geometry":null},{"properties":{"city":"Invercargill","country":"New Zealand","geo_score":0.622,"id":"a68wyk37b4bf","super league":8,"geo_precision":"city","state":"Southland"},"type":"Feature","geometry":{"type":"Point","coordinates":[-93.042715,44.848022]}},{"properties":{"city":"Ipswich","country":"Australia","geo_score":0.714,"id":"a68wyk261zrp","super league":10,"geo_precision":"city","state":"Queensland"},"type":"Feature","geometry":{"type":"Point","coordinates":[-70.864132,42.68571]}},{"properties":{"city":"Island Bay","country":"New Zealand","geo_score":0.571,"id":"a68wyk6cuoct","super league":1,"geo_precision":"city","state":"Wellington"},"type":"Feature","geometry":{"type":"Point","coordinates":[-92.564049,34.352039]}},{"properties":{"city":"Jimboomba","country":"Australia","geo_score":0.0,"id":"a68wyk3qbcf2","super league":1,"geo_precision":"unmatched","state":"Queensland"},"type":"Feature","geometry":null},{"properties":{"city":"Kaitaia","country":"New Zealand","geo_score":0.633,"id":"a68wyjzjkca4","super league":1,"geo_precision":"city","state":"Northland"},"type":"Feature","geometry":{"type":"Point","coordinates":[-95.824396,29.785785]}},{"properties":{"city":"Kalgoorlie","country":"Australia","geo_score":0.0,"id":"a68wykbr0mot","super league":1,"geo_precision":"unmatched","state":"Western Australia"},"type":"Feature","geometry":null},{"properties":{"city":"Kallangur","country":"Australia","geo_score":0.619,"id":"a68wyk8u0ufx","super league":1,"geo_precision":"city","state":"Queensland"},"type":"Feature","geometry":{"type":"Point","coordinates":[-116.374628,48.22187]}},{"properties":{"city":"Kangaroo Point","country":"Australia","geo_score":0.626,"id":"a68wyka04hh0","super league":1,"geo_precision":"city","state":"Queensland"},"type":"Feature","geometry":{"type":"Point","coordinates":[-77.078034,39.031498]}},{"properties":{"city":"Kew","country":"Australia","geo_score":0.667,"id":"a68wyk1pypmm","super league":1,"geo_precision":"city","state":"Victoria"},"type":"Feature","geometry":{"type":"Point","coordinates":[-85.534404,34.102597]}},{"properties":{"city":"Kooyong","country":"Australia","geo_score":0.607,"id":"a68wyjzwxkr6","super league":1,"geo_precision":"city","state":"Victoria"},"type":"Feature","geometry":{"type":"Point","coordinates":[-77.16553,42.623958]}},{"properties":{"city":"Ku-ring-gai","country":"Australia","geo_score":0.635,"id":"a68wyk7sffyj","super league":1,"geo_precision":"city","state":"New South Wales"},"type":"Feature","geometry":{"type":"Point","coordinates":[-121.655517,38.784902]}},{"properties":{"city":"Launceston","country":"Australia","geo_score":0.0,"id":"a68wykblf1gc","super league":1,"geo_precision":"unmatched","state":"Tasmania"},"type":"Feature","geometry":null},{"properties":{"city":"Laverton North","country":"Australia","geo_score":0.0,"id":"a68wyk9vdafv","super league":1,"geo_precision":"unmatched","state":"Victoria"},"type":"Feature","geometry":null},{"properties":{"city":"Leichhardt","country":"Australia","geo_score":0.0,"id":"a68wyjziudut","super league":2,"geo_precision":"unmatched","state":"New South Wales"},"type":"Feature","geometry":null},{"properties":{"city":"Lethbridge","country":"Australia","geo_score":0.0,"id":"a68wyk67z98z","super league":1,"geo_precision":"unmatched","state":"Victoria"},"type":"Feature","geometry":null},{"properties":{"city":"Leumeah","country":"Australia","geo_score":0.633,"id":"a68wyjz73qz8","super league":1,"geo_precision":"city","state":"New South Wales"},"type":"Feature","geometry":{"type":"Point","coordinates":[-84.105226,40.742551]}},{"properties":{"city":"Loganholme","country":"Australia","geo_score":0.636,"id":"a68wykc3fzto","super league":1,"geo_precision":"city","state":"Queensland"},"type":"Feature","geometry":{"type":"Point","coordinates":[-117.715535,33.595714]}},{"properties":{"city":"Lower Hutt","country":"New Zealand","geo_score":0.587,"id":"a68wyk3vzlgp","super league":7,"geo_precision":"city","state":"Wellington"},"type":"Feature","geometry":{"type":"Point","coordinates":[-102.832712,40.135818]}},{"properties":{"city":"Lumsden","country":"New Zealand","geo_score":0.612,"id":"a68wyk0n0jap","super league":2,"geo_precision":"city","state":"Southland"},"type":"Feature","geometry":{"type":"Point","coordinates":[-75.666319,39.725112]}},{"properties":{"city":"Lyndoch","country":"Australia","geo_score":0.0,"id":"a68wyk537pcj","super league":1,"geo_precision":"unmatched","state":"South Australia"},"type":"Feature","geometry":null},{"properties":{"city":"Mackay","country":"Australia","geo_score":0.619,"id":"a68wyjyzld1t","super league":4,"geo_precision":"city","state":"Queensland"},"type":"Feature","geometry":{"type":"Point","coordinates":[-122.116076,38.025477]}},{"properties":{"city":"Mandurah","country":"Australia","geo_score":0.625,"id":"a68wyjxurna5","super league":2,"geo_precision":"city","state":"Victoria"},"type":"Feature","geometry":{"type":"Point","coordinates":[-86.881925,31.903483]}},{"properties":{"city":"Mango Hill","country":"Australia","geo_score":0.587,"id":"a68wyk9rpvlz","super league":1,"geo_precision":"city","state":"Queensland"},"type":"Feature","geometry":{"type":"Point","coordinates":[-80.278106,25.857596]}},{"properties":{"city":"Manly","country":"Australia","geo_score":0.633,"id":"a68wyk2da2h0","super league":3,"geo_precision":"city","state":"New South Wales"},"type":"Feature","geometry":{"type":"Point","coordinates":[-87.63388,31.279615]}},{"properties":{"city":"Manningham","country":"Australia","geo_score":0.714,"id":"a68wyk5omaoq","super league":1,"geo_precision":"city","state":"Victoria"},"type":"Feature","geometry":{"type":"Point","coordinates":[-86.746367,31.885984]}},{"properties":{"city":"McLaren Vale","country":"Australia","geo_score":0.597,"id":"a68wyk37rya1","super league":1,"geo_precision":"city","state":"South Australia"},"type":"Feature","geometry":{"type":"Point","coordinates":[-92.820441,33.699554]}},{"properties":{"city":"Meadowbank","country":"New Zealand","geo_score":0.0,"id":"a68wyk622zp6","super league":1,"geo_precision":"unmatched","state":"Auckland"},"type":"Feature","geometry":null},{"properties":{"city":"Melbourne","country":"Australia","geo_score":0.714,"id":"a68wyjyma30g","super league":609,"geo_precision":"city","state":"Victoria"},"type":"Feature","geometry":{"type":"Point","coordinates":[-80.608109,28.083627]}},{"properties":{"city":"Melton","country":"Australia","geo_score":0.69,"id":"a68wyjyq08uk","super league":1,"geo_precision":"city","state":"Victoria"},"type":"Feature","geometry":{"type":"Point","coordinates":[-86.807207,32.558744]}},{"properties":{"city":"Milford","country":"New Zealand","geo_score":0.714,"id":"a68wyk0m4izf","super league":1,"geo_precision":"city","state":"Auckland"},"type":"Feature","geometry":{"type":"Point","coordinates":[-94.085472,33.918727]}},{"properties":{"city":"Miranda","country":"Australia","geo_score":0.714,"id":"a68wykanyzxl","super league":1,"geo_precision":"city","state":"New South Wales"},"type":"Feature","geometry":{"type":"Point","coordinates":[-98.964272,44.971919]}},{"properties":{"city":"Mollymook","country":"Australia","geo_score":0.0,"id":"a68wyjzovgmu","super league":1,"geo_precision":"unmatched","state":"New South Wales"},"type":"Feature","geometry":null},{"properties":{"city":"Montmorency","country":"Australia","geo_score":0.649,"id":"a68wyk8yt30t","super league":1,"geo_precision":"city","state":"Victoria"},"type":"Feature","geometry":{"type":"Point","coordinates":[-93.691017,34.108996]}},{"properties":{"city":"Mooloolaba","country":"Australia","geo_score":0.0,"id":"a68wyk6ul266","super league":3,"geo_precision":"unmatched","state":"Queensland"},"type":"Feature","geometry":null},{"properties":{"city":"Moorabbin","country":"Australia","geo_score":0.629,"id":"a68wyka3gu6c","super league":1,"geo_precision":"city","state":"Victoria"},"type":"Feature","geometry":{"type":"Point","coordinates":[-87.006947,36.243111]}},{"properties":{"city":"Mornington Peninsula","country":"Australia","geo_score":0.632,"id":"a68wyk5zll4s","super league":1,"geo_precision":"city","state":"Victoria"},"type":"Feature","geometry":{"type":"Point","coordinates":[-86.665822,33.629547]}},{"properties":{"city":"Mosman","country":"Australia","geo_score":0.635,"id":"a68wykaq56mv","super league":1,"geo_precision":"city","state":"New South Wales"},"type":"Feature","geometry":{"type":"Point","coordinates":[-89.729261,43.190983]}},{"properties":{"city":"Mount Isa","country":"Australia","geo_score":0.589,"id":"a68wyjzg64yy","super league":1,"geo_precision":"city","state":"Queensland"},"type":"Feature","geometry":{"type":"Point","coordinates":[-82.86016,37.107598]}},{"properties":{"city":"Mount Maunganui","country":"New Zealand","geo_score":0.622,"id":"a68wyk7pjg92","super league":1,"geo_precision":"city","state":"Bay of Plenty"},"type":"Feature","geometry":{"type":"Point","coordinates":[-93.932452,42.016927]}},{"properties":{"city":"Napier","country":"New Zealand","geo_score":0.714,"id":"a68wyka70rlu","super league":9,"geo_precision":"city","state":"Hawke's Bay"},"type":"Feature","geometry":{"type":"Point","coordinates":[-93.718,41.979708]}},{"properties":{"city":"Nelson","country":"New Zealand","geo_score":0.714,"id":"a68wyk3x4h1g","super league":5,"geo_precision":"city","state":"Nelson"},"type":"Feature","geometry":{"type":"Point","coordinates":[-113.320209,35.51416]}},{"properties":{"city":"New England","country":"Australia","geo_score":0.657,"id":"a68wyjxms2pu","super league":1,"geo_precision":"city","state":"New South Wales"},"type":"Feature","geometry":{"type":"Point","coordinates":[-96.628106,48.48581]}},{"properties":{"city":"New Farm","country":"Australia","geo_score":0.612,"id":"a68wyka4393o","super league":1,"geo_precision":"city","state":"Queensland"},"type":"Feature","geometry":{"type":"Point","coordinates":[-93.714914,36.181741]}},{"properties":{"city":"New Plymouth","country":"New Zealand","geo_score":0.675,"id":"a68wykcph3cb","super league":10,"geo_precision":"city","state":"Taranaki"},"type":"Feature","geometry":{"type":"Point","coordinates":[-83.470213,42.371425]}},{"properties":{"city":"Newcastle","country":"Australia","geo_score":0.714,"id":"a68wyk4uw8ea","super league":72,"geo_precision":"city","state":"New South Wales"},"type":"Feature","geometry":{"type":"Point","coordinates":[-80.347009,41.003672]}},{"properties":{"city":"Newington","country":"Australia","geo_score":0.714,"id":"a68wyjy8hvb3","super league":1,"geo_precision":"city","state":"New South Wales"},"type":"Feature","geometry":{"type":"Point","coordinates":[-70.833667,43.100087]}},{"properties":{"city":"Newlands","country":"New Zealand","geo_score":0.714,"id":"a68wykbxc5qi","super league":2,"geo_precision":"city","state":"Wellington"},"type":"Feature","geometry":{"type":"Point","coordinates":[-76.276317,35.840442]}},{"properties":{"city":"Newstead","country":"Australia","geo_score":0.714,"id":"a68wyk4bbymj","super league":1,"geo_precision":"city","state":"Queensland"},"type":"Feature","geometry":{"type":"Point","coordinates":[-87.630291,36.799214]}},{"properties":{"city":"Newtown","country":"Australia","geo_score":0.714,"id":"a68wyk7t34bp","super league":6,"geo_precision":"city","state":"New South Wales"},"type":"Feature","geometry":{"type":"Point","coordinates":[-85.817475,34.873415]}},{"properties":{"city":"Noosa","country":"Australia","geo_score":0.629,"id":"a68wykcskz8c","super league":10,"geo_precision":"city","state":"Queensland"},"type":"Feature","geometry":{"type":"Point","coordinates":[-83.315155,34.077612]}},{"properties":{"city":"Noosa Heads","country":"Australia","geo_score":0.643,"id":"a68wyk3l08et","super league":1,"geo_precision":"city","state":"Queensland"},"type":"Feature","geometry":{"type":"Point","coordinates":[-90.846487,33.470672]}},{"properties":{"city":"North Bondi","country":"Australia","geo_score":0.614,"id":"a68wyk86ovcr","super league":1,"geo_precision":"city","state":"New South Wales"},"type":"Feature","geometry":{"type":"Point","coordinates":[-121.31531,44.058173]}},{"properties":{"city":"North Brisbane","country":"Australia","geo_score":0.637,"id":"a68wyjy23m38","super league":1,"geo_precision":"city","state":"Queensland"},"type":"Feature","geometry":{"type":"Point","coordinates":[-81.306221,31.917155]}},{"properties":{"city":"North Sydney","country":"Australia","geo_score":0.649,"id":"a68wyk53tszw","super league":1,"geo_precision":"city","state":"New South Wales"},"type":"Feature","geometry":{"type":"Point","coordinates":[-75.719101,39.761223]}},{"properties":{"city":"Northampton","country":"Australia","geo_score":0.702,"id":"a68wyk6423ot","super league":16,"geo_precision":"city","state":"Western Australia"},"type":"Feature","geometry":{"type":"Point","coordinates":[-89.538982,40.931148]}},{"properties":{"city":"Nowra","country":"Australia","geo_score":0.643,"id":"a68wyjxtzcj9","super league":1,"geo_precision":"city","state":"New South Wales"},"type":"Feature","geometry":{"type":"Point","coordinates":[-106.655589,39.324709]}},{"properties":{"city":"Onehunga","country":"New Zealand","geo_score":0.0,"id":"a68wyjy1h8xs","super league":1,"geo_precision":"unmatched","state":"Auckland"},"type":"Feature","geometry":null},{"properties":{"city":"Oranga","country":"Australia","geo_score":0.625,"id":"a68wyk2m3l7w","super league":1,"geo_precision":"city","state":"New South Wales"},"type":"Feature","geometry":{"type":"Point","coordinates":[-73.101498,41.247875]}},{"properties":{"city":"Orange","country":"Australia","geo_score":0.714,"id":"a68wyk8vwa6r","super league":2,"geo_precision":"city","state":"New South Wales"},"type":"Feature","geometry":{"type":"Point","coordinates":[-117.853112,33.787795]}},{"properties":{"city":"Paddington","country":"Australia","geo_score":0.0,"id":"a68wyk8wd61j","super league":2,"geo_precision":"unmatched","state":"New South Wales"},"type":"Feature","geometry":null},{"properties":{"city":"Pakenham","country":"Australia","geo_score":0.0,"id":"a68wykb4j88q","super league":2,"geo_precision":"unmatched","state":"Victoria"},"type":"Feature","geometry":null},{"properties":{"city":"Parkdale","country":"Australia","geo_score":0.714,"id":"a68wyk0pce3u","super league":1,"geo_precision":"city","state":"Victoria"},"type":"Feature","geometry":{"type":"Point","coordinates":[-86.112192,33.097896]}},{"properties":{"city":"Parramatta","country":"Australia","geo_score":0.629,"id":"a68wyjysxvze","super league":7,"geo_precision":"city","state":"New South Wales"},"type":"Feature","geometry":{"type":"Point","coordinates":[-119.701859,40.074906]}},{"properties":{"city":"Peakhurst","country":"Australia","geo_score":0.0,"id":"a68wyk4f4uew","super league":1,"geo_precision":"unmatched","state":"New South Wales"},"type":"Feature","geometry":null},{"properties":{"city":"Penrith","country":"Australia","geo_score":0.673,"id":"a68wyk1plxyk","super league":14,"geo_precision":"city","state":"New South Wales"},"type":"Feature","geometry":{"type":"Point","coordinates":[-75.5177,39.807057]}},{"properties":{"city":"Perth","country":"Australia","geo_score":0.714,"id":"a68wyk6v91ku","super league":220,"geo_precision":"city","state":"Western Australia"},"type":"Feature","geometry":{"type":"Point","coordinates":[-75.523811,39.803724]}},{"properties":{"city":"Pimpama","country":"Australia","geo_score":0.0,"id":"a68wykanqvfg","super league":1,"geo_precision":"unmatched","state":"Queensland"},"type":"Feature","geometry":null},{"properties":{"city":"Port Douglas","country":"Australia","geo_score":0.61,"id":"a68wyk0ln8p1","super league":1,"geo_precision":"city","state":"Queensland"},"type":"Feature","geometry":{"type":"Point","coordinates":[-93.244612,33.242351]}},{"properties":{"city":"Port Jackson","country":"Australia","geo_score":0.607,"id":"a68wykc2ig3w","super league":2,"geo_precision":"city","state":"New South Wales"},"type":"Feature","geometry":{"type":"Point","coordinates":[-81.655651,30.332184]}},{"properties":{"city":"Port Melbourne","country":"Australia","geo_score":0.67,"id":"a68wyk4s8tkr","super league":1,"geo_precision":"city","state":"Victoria"},"type":"Feature","geometry":{"type":"Point","coordinates":[-80.608109,28.083627]}},{"properties":{"city":"Potts Point","country":"Australia","geo_score":0.614,"id":"a68wyk17vw9o","super league":1,"geo_precision":"city","state":"New South Wales"},"type":"Feature","geometry":{"type":"Point","coordinates":[-91.912639,34.677314]}},{"properties":{"city":"Prahran","country":"Australia","geo_score":0.0,"id":"a68wyk7jdvf8","super league":1,"geo_precision":"unmatched","state":"Victoria"},"type":"Feature","geometry":null},{"properties":{"city":"Princes Park","country":"Australia","geo_score":0.61,"id":"a68wyk39ldig","super league":1,"geo_precision":"city","state":"Victoria"},"type":"Feature","geometry":{"type":"Point","coordinates":[-92.280706,34.286764]}},{"properties":{"city":"Pymble","country":"Australia","geo_score":0.0,"id":"a68wykc0h6te","super league":1,"geo_precision":"unmatched","state":"New South Wales"},"type":"Feature","geometry":null},{"properties":{"city":"Queanbeyan","country":"Australia","geo_score":0.0,"id":"a68wyk0547u7","super league":5,"geo_precision":"unmatched","state":"New South Wales"},"type":"Feature","geometry":null},{"properties":{"city":"Queenstown","country":"New Zealand","geo_score":0.714,"id":"a68wyk1u625q","super league":3,"geo_precision":"city","state":"Otago"},"type":"Feature","geometry":{"type":"Point","coordinates":[-86.621098,33.588159]}},{"properties":{"city":"Redfern","country":"Australia","geo_score":0.0,"id":"a68wykamftyf","super league":1,"geo_precision":"unmatched","state":"New South Wales"},"type":"Feature","geometry":null},{"properties":{"city":"Reservoir","country":"Australia","geo_score":0.714,"id":"a68wyk5mx8x9","super league":2,"geo_precision":"city","state":"Victoria"},"type":"Feature","geometry":{"type":"Point","coordinates":[-71.148387,42.33482]}},{"properties":{"city":"Richmond","country":"Australia","geo_score":0.714,"id":"a68wyk6okx7w","super league":3,"geo_precision":"city","state":"Victoria"},"type":"Feature","geometry":{"type":"Point","coordinates":[-122.347749,37.935758]}},{"properties":{"city":"Rockhampton","country":"Australia","geo_score":0.662,"id":"a68wyjzjl8w8","super league":3,"geo_precision":"city","state":"Queensland"},"type":"Feature","geometry":{"type":"Point","coordinates":[-98.882787,45.033056]}},{"properties":{"city":"Rotorua","country":"New Zealand","geo_score":0.612,"id":"a68wykbft6ae","super league":4,"geo_precision":"city","state":"Bay of Plenty"},"type":"Feature","geometry":{"type":"Point","coordinates":[-95.822795,43.244143]}},{"properties":{"city":"Rozelle","country":"Australia","geo_score":0.653,"id":"a68wyjxu40y6","super league":1,"geo_precision":"city","state":"New South Wales"},"type":"Feature","geometry":{"type":"Point","coordinates":[-85.768584,34.699805]}},{"properties":{"city":"Runaway Bay","country":"Australia","geo_score":0.586,"id":"a68wykagbdbo","super league":2,"geo_precision":"city","state":"Queensland"},"type":"Feature","geometry":{"type":"Point","coordinates":[-92.564049,34.352039]}},{"properties":{"city":"Ryde","country":"Australia","geo_score":0.607,"id":"a68wyk3qh5sr","super league":1,"geo_precision":"city","state":"New South Wales"},"type":"Feature","geometry":{"type":"Point","coordinates":[-87.038621,34.749256]}},{"properties":{"city":"Sale","country":"Australia","geo_score":0.657,"id":"a68wykdi9fue","super league":1,"geo_precision":"city","state":"Victoria"},"type":"Feature","geometry":{"type":"Point","coordinates":[-86.035245,33.013732]}},{"properties":{"city":"Sandy Bay","country":"Australia","geo_score":0.661,"id":"a68wyk9jjv0g","super league":1,"geo_precision":"city","state":"Tasmania"},"type":"Feature","geometry":{"type":"Point","coordinates":[-111.85254,40.569992]}},{"properties":{"city":"Seaford","country":"Australia","geo_score":0.653,"id":"a68wykbtvuls","super league":1,"geo_precision":"city","state":"South Australia"},"type":"Feature","geometry":{"type":"Point","coordinates":[-75.883537,40.288426]}},{"properties":{"city":"Somerville","country":"Australia","geo_score":0.649,"id":"a68wyk28ekxr","super league":1,"geo_precision":"city","state":"Victoria"},"type":"Feature","geometry":{"type":"Point","coordinates":[-87.041658,32.52069]}},{"properties":{"city":"South Auckland","country":"New Zealand","geo_score":0.604,"id":"a68wyk65p1a9","super league":1,"geo_precision":"city","state":"Auckland"},"type":"Feature","geometry":{"type":"Point","coordinates":[-113.324354,32.985324]}},{"properties":{"city":"South Coogee","country":"Australia","geo_score":0.571,"id":"a68wyk29ln32","super league":1,"geo_precision":"city","state":"New South Wales"},"type":"Feature","geometry":{"type":"Point","coordinates":[-83.84909,36.744252]}},{"properties":{"city":"South Johnstone","country":"Australia","geo_score":0.643,"id":"a68wykd6po20","super league":1,"geo_precision":"city","state":"Queensland"},"type":"Feature","geometry":{"type":"Point","coordinates":[-78.92197,40.326741]}},{"properties":{"city":"South Melbourne","country":"Australia","geo_score":0.663,"id":"a68wyk5m14as","super league":3,"geo_precision":"city","state":"Victoria"},"type":"Feature","geometry":{"type":"Point","coordinates":[-80.608109,28.083627]}},{"properties":{"city":"St Kilda","country":"Australia","geo_score":0.592,"id":"a68wyk06ks4e","super league":3,"geo_precision":"city","state":"Victoria"},"type":"Feature","geometry":{"type":"Point","coordinates":[-86.07052,32.579022]}},{"properties":{"city":"Stanmore","country":"Australia","geo_score":0.0,"id":"a68wyk5lfms3","super league":1,"geo_precision":"unmatched","state":"New South Wales"},"type":"Feature","geometry":null},{"properties":{"city":"Stanthorpe","country":"Australia","geo_score":0.0,"id":"a68wyk4i9pb7","super league":1,"geo_precision":"unmatched","state":"Queensland"},"type":"Feature","geometry":null},{"properties":{"city":"Stirling","country":"Australia","geo_score":0.643,"id":"a68wyk79i029","super league":1,"geo_precision":"city","state":"Australian Capital Territory"},"type":"Feature","geometry":{"type":"Point","coordinates":[-90.702057,35.923128]}},{"properties":{"city":"Stockleigh","country":"Australia","geo_score":0.657,"id":"a68wyk80ht5q","super league":1,"geo_precision":"city","state":"Queensland"},"type":"Feature","geometry":{"type":"Point","coordinates":[-87.82876,40.748087]}},{"properties":{"city":"Sunshine Coast","country":"Australia","geo_score":0.615,"id":"a68wykbekrv4","super league":37,"geo_precision":"city","state":"Queensland"},"type":"Feature","geometry":{"type":"Point","coordinates":[-85.873305,34.424256]}},{"properties":{"city":"Surfers Paradise","country":"Australia","geo_score":0.61,"id":"a68wykbxzn8f","super league":1,"geo_precision":"city","state":"Queensland"},"type":"Feature","geometry":{"type":"Point","coordinates":[-85.509664,31.830995]}},{"properties":{"city":"Sydney","country":"Australia","geo_score":0.69,"id":"a68wyk8xe8ur","super league":1334,"geo_precision":"city","state":"New South Wales"},"type":"Feature","geometry":{"type":"Point","coordinates":[-88.234451,31.067957]}},{"properties":{"city":"Tairua","country":"New Zealand","geo_score":0.619,"id":"a68wykdn88qa","super league":1,"geo_precision":"city","state":"Waikato"},"type":"Feature","geometry":{"type":"Point","coordinates":[-83.14993,42.605589]}},{"properties":{"city":"Tamworth","country":"Australia","geo_score":0.714,"id":"a68wyk2lzkjj","super league":2,"geo_precision":"city","state":"New South Wales"},"type":"Feature","geometry":{"type":"Point","coordinates":[-78.080833,37.648202]}},{"properties":{"city":"Tarneit","country":"Australia","geo_score":0.653,"id":"a68wyk52fzq2","super league":1,"geo_precision":"city","state":"Victoria"},"type":"Feature","geometry":{"type":"Point","coordinates":[-86.768002,33.594533]}},{"properties":{"city":"Taumarunui","country":"New Zealand","geo_score":0.629,"id":"a68wykbvu329","super league":1,"geo_precision":"city","state":"Manawatu-Wanganui"},"type":"Feature","geometry":{"type":"Point","coordinates":[-90.800405,39.218103]}},{"properties":{"city":"Taupo","country":"New Zealand","geo_score":0.571,"id":"a68wyk6qclbo","super league":3,"geo_precision":"city","state":"Waikato"},"type":"Feature","geometry":{"type":"Point","coordinates":[-94.542477,43.18413]}},{"properties":{"city":"Tauranga","country":"New Zealand","geo_score":0.625,"id":"a68wyjye23b1","super league":11,"geo_precision":"city","state":"Bay of Plenty"},"type":"Feature","geometry":{"type":"Point","coordinates":[-71.844523,43.073136]}},{"properties":{"city":"Terang","country":"Australia","geo_score":0.653,"id":"a68wyk0n8ijr","super league":1,"geo_precision":"city","state":"Victoria"},"type":"Feature","geometry":{"type":"Point","coordinates":[-71.844523,43.073136]}},{"properties":{"city":"The Rocks","country":"Australia","geo_score":0.625,"id":"a68wyk2ztris","super league":1,"geo_precision":"city","state":"New South Wales"},"type":"Feature","geometry":{"type":"Point","coordinates":[-81.669851,38.896472]}},{"properties":{"city":"Theodore","country":"Australia","geo_score":0.714,"id":"a68wykaffvo3","super league":1,"geo_precision":"city","state":"Australian Capital Territory"},"type":"Feature","geometry":{"type":"Point","coordinates":[-76.009947,39.638723]}},{"properties":{"city":"Thredbo","country":"Australia","geo_score":0.0,"id":"a68wyk4zb2l1","super league":1,"geo_precision":"unmatched","state":"Victoria"},"type":"Feature","geometry":null},{"properties":{"city":"Timaru","country":"New Zealand","geo_score":0.595,"id":"a68wyk0fye0i","super league":1,"geo_precision":"city","state":"Canterbury"},"type":"Feature","geometry":{"type":"Point","coordinates":[-89.118116,32.745412]}},{"properties":{"city":"Toowoomba","country":"Australia","geo_score":0.0,"id":"a68wyk0uzczb","super league":13,"geo_precision":"unmatched","state":"Queensland"},"type":"Feature","geometry":null},{"properties":{"city":"Townsville","country":"Australia","geo_score":0.7,"id":"a68wyk7l3fq6","super league":17,"geo_precision":"city","state":"Queensland"},"type":"Feature","geometry":{"type":"Point","coordinates":[-77.801661,39.548431]}},{"properties":{"city":"Tuggeranong","country":"Australia","geo_score":0.0,"id":"a68wykd84sbi","super league":1,"geo_precision":"unmatched","state":"Australian Capital Territory"},"type":"Feature","geometry":null},{"properties":{"city":"Upper Hutt","country":"New Zealand","geo_score":0.587,"id":"a68wykdiyn4c","super league":4,"geo_precision":"city","state":"Wellington"},"type":"Feature","geometry":{"type":"Point","coordinates":[-102.832712,40.135818]}},{"properties":{"city":"Upper Mt Gravatt","country":"Australia","geo_score":0.592,"id":"a68wyk43u7p5","super league":1,"geo_precision":"city","state":"Queensland"},"type":"Feature","geometry":{"type":"Point","coordinates":[-75.387693,39.916778]}},{"properties":{"city":"Vaucluse","country":"Australia","geo_score":0.714,"id":"a68wyk8aqcsh","super league":1,"geo_precision":"city","state":"New South Wales"},"type":"Feature","geometry":{"type":"Point","coordinates":[-78.246946,39.058163]}},{"properties":{"city":"Wagga Wagga","country":"Australia","geo_score":0.6,"id":"a68wykbvmh7b","super league":6,"geo_precision":"city","state":"New South Wales"},"type":"Feature","geometry":{"type":"Point","coordinates":[-97.14667,31.549333]}},{"properties":{"city":"Wainui","country":"New Zealand","geo_score":0.643,"id":"a68wyk7upywb","super league":1,"geo_precision":"city","state":"Auckland"},"type":"Feature","geometry":{"type":"Point","coordinates":[-87.917224,31.651827]}},{"properties":{"city":"Wainuiomata","country":"New Zealand","geo_score":0.0,"id":"a68wyk3ygwml","super league":6,"geo_precision":"unmatched","state":"Wellington"},"type":"Feature","geometry":null},{"properties":{"city":"Wairarapa","country":"New Zealand","geo_score":0.0,"id":"a68wykaxlgb4","super league":1,"geo_precision":"unmatched","state":"Wellington"},"type":"Feature","geometry":null},{"properties":{"city":"Waitakere City","country":"New Zealand","geo_score":0.615,"id":"a68wyjxqu28s","super league":2,"geo_precision":"city","state":"Auckland"},"type":"Feature","geometry":{"type":"Point","coordinates":[-94.077152,34.734825]}},{"properties":{"city":"Wamberal","country":"Australia","geo_score":0.661,"id":"a68wykc5av1v","super league":12,"geo_precision":"city","state":"New South Wales"},"type":"Feature","geometry":{"type":"Point","coordinates":[-88.24835,31.915152]}},{"properties":{"city":"Wanaka","country":"New Zealand","geo_score":0.619,"id":"a68wykcuw0f4","super league":4,"geo_precision":"city","state":"Otaga"},"type":"Feature","geometry":{"type":"Point","coordinates":[-93.464356,34.944815]}},{"properties":{"city":"Warkworth","country":"New Zealand","geo_score":0.0,"id":"a68wyk12maa3","super league":1,"geo_precision":"unmatched","state":"Auckland"},"type":"Feature","geometry":null},{"properties":{"city":"Warrnambool","country":"Australia","geo_score":0.0,"id":"a68wyk1biham","super league":3,"geo_precision":"unmatched","state":"Victoria"},"type":"Feature","geometry":null},{"properties":{"city":"Wellington","country":"New Zealand","geo_score":0.663,"id":"a68wykdx6xh5","super league":646,"geo_precision":"city","state":"Wellington"},"type":"Feature","geometry":{"type":"Point","coordinates":[-72.263968,41.875097]}},{"properties":{"city":"Wembley","country":"Australia","geo_score":0.0,"id":"a68wyk7irbss","super league":1,"geo_precision":"unmatched","state":"Western Australia"},"type":"Feature","geometry":null},{"properties":{"city":"West Auckland","country":"New Zealand","geo_score":0.595,"id":"a68wyk7zlqjx","super league":3,"geo_precision":"city","state":"Auckland"},"type":"Feature","geometry":{"type":"Point","coordinates":[-113.324354,32.985324]}},{"properties":{"city":"Whanganui","country":"New Zealand","geo_score":0.635,"id":"a68wyjz1mwf4","super league":10,"geo_precision":"city","state":"Manawatu-Wanganui"},"type":"Feature","geometry":{"type":"Point","coordinates":[-93.111314,40.209765]}},{"properties":{"city":"Whangapoua Beach","country":"New Zealand","geo_score":0.59,"id":"a68wyk7hwcsm","super league":1,"geo_precision":"city","state":"Waikato"},"type":"Feature","geometry":{"type":"Point","coordinates":[-87.861397,31.971263]}},{"properties":{"city":"Whyalla","country":"Australia","geo_score":0.0,"id":"a68wykauzoj5","super league":1,"geo_precision":"unmatched","state":"South Australia"},"type":"Feature","geometry":null},{"properties":{"city":"Wilberforce","country":"Australia","geo_score":0.714,"id":"a68wyjz25rl3","super league":1,"geo_precision":"city","state":"New South Wales"},"type":"Feature","geometry":{"type":"Point","coordinates":[-83.878088,39.712811]}},{"properties":{"city":"Willoughby","country":"Australia","geo_score":0.629,"id":"a68wyjy32cvm","super league":1,"geo_precision":"city","state":"New South Wales"},"type":"Feature","geometry":{"type":"Point","coordinates":[-104.959146,39.836653]}},{"properties":{"city":"Wollongong","country":"Australia","geo_score":0.0,"id":"a68wyk2uezqd","super league":19,"geo_precision":"unmatched","state":"New South Wales"},"type":"Feature","geometry":null},{"properties":{"city":"Woy Woy","country":"Australia","geo_score":0.595,"id":"a68wyjxvgav5","super league":1,"geo_precision":"city","state":"New South Wales"},"type":"Feature","geometry":{"type":"Point","coordinates":[-157.9625,21.393056]}}],"is_temporal":false,"author":{"url":"","metadata":"","contact_name":"","contact_address":"","source":"","contact_phone":""},"source":"","pagination":{"sort":null,"start":0,"total":252,"limit":1000000},"state":"complete","tags":"","published":"2010-11-23T17:00:00Z","id":79926}