{"type":"FeatureCollection","data_type":"Dataset","url_type":null,"permissions":[{"permissions":{"download":true,"view":true},"group_id":"everyone"}],"classification":null,"title":"hotel","count":44,"stream_id":80244,"contributor":{"url":"http://geocommons.com/users/18982","name":"michellewong0815"},"data_attributes":null,"calculation_params":null,"icon_link":null,"link":"http://geocommons.com/overlays/80244.json","extent":[-157.836,19.6313,-73.952,42.025],"geometry_types":["point"],"unique_name":null,"name":"hotel","feature_count":44,"description":"","next_feature":null,"is_raster":false,"short_classification":"Y","stats":{"geo_score":{"max":0.902,"mean":0.694590909090909,"variance":0.0374864334038055,"stdev":0.193614135340903,"min":0.0,"median":0.805}},"features":[{"properties":{"name":"Aloft Harlem","city":"New York","zipcode":"10027","country":"United States","geo_score":1.0,"street address":"2296 Frederick Douglass Boulevard","id":"a67q5yd483zs","geo_precision":"range","state":"New York"},"type":"Feature","geometry":{"type":"Point","coordinates":[-73.952009,40.809071]}},{"properties":{"name":"Cheeca Lodge &amp; Spa","city":"Islamorada","zipcode":"33036","country":"United States","geo_score":0.795,"street address":"81801 Overseas highway","id":"a67q5yaxlxni","geo_precision":"range","state":"Florida"},"type":"Feature","geometry":{"type":"Point","coordinates":[-80.634345,24.918898]}},{"properties":{"name":"Drake Hotel Chicago","city":"Chicago","zipcode":"60102","country":"United States","geo_score":0.515,"street address":"140 East Walton Place","id":"a67q5ye691li","geo_precision":"street","state":"Illinois"},"type":"Feature","geometry":{"type":"Point","coordinates":[-87.835914,41.896333]}},{"properties":{"name":"Element New York Times Square West","city":"New York","zipcode":"10018","country":"United States","geo_score":1.0,"street address":"311 West 39th Street","id":"a67q5yfw2995","geo_precision":"range","state":"New York"},"type":"Feature","geometry":{"type":"Point","coordinates":[-73.991397,40.755452]}},{"properties":{"name":"Elysian Chicago Hotel","city":"Chicago","zipcode":"60102","country":"United States","geo_score":0.501,"street address":"11 East Walton","id":"a67q5ypg5egl","geo_precision":"street","state":"Illinois"},"type":"Feature","geometry":{"type":"Point","coordinates":[-87.835914,41.896333]}},{"properties":{"name":"Farmhouse Inn, Restaurant &amp; Spa","city":"Forestville","zipcode":"23400","country":"United States","geo_score":0.526,"street address":"7871 River Road","id":"a67q5yhqvici","geo_precision":"street","state":"California"},"type":"Feature","geometry":{"type":"Point","coordinates":[-114.645033,34.895006]}},{"properties":{"name":"Four Points by Sheraton Midtown","city":"New York","zipcode":"10018","country":"United States","geo_score":1.0,"street address":"326 West 40th Street","id":"a67q5ym525dm","geo_precision":"range","state":"New York"},"type":"Feature","geometry":{"type":"Point","coordinates":[-73.991296,40.756267]}},{"properties":{"name":"Four Seasons Chicago","city":"Chicago","zipcode":"60102","country":"United States","geo_score":0.725,"street address":"120 East Delaware Place","id":"a67q5yjrxaen","geo_precision":"range","state":"Illinois"},"type":"Feature","geometry":{"type":"Point","coordinates":[-88.14835,42.024953]}},{"properties":{"name":"Four Seasons Philadelphia","city":"Philadelphia","zipcode":"19103","country":"United States","geo_score":0.878,"street address":"1 Logan Square (Center City (East of Broad St.))","id":"a67q5ykqhmpp","geo_precision":"street","state":"Pennsylvania"},"type":"Feature","geometry":{"type":"Point","coordinates":[-75.176651,39.957967]}},{"properties":{"name":"Halekulani","city":"Honolulu","zipcode":"96815-1988","country":"United States","geo_score":0.902,"street address":"2199 Kalia Road","id":"a67q5yaq29ee","geo_precision":"range","state":"Hawaii"},"type":"Feature","geometry":{"type":"Point","coordinates":[-157.831544,21.278312]}},{"properties":{"name":"Hawks Cay Resort","city":"Duck Key","zipcode":"33050","country":"United States","geo_score":1.0,"street address":"61 Hawks Cay Boulevard","id":"a67q5ynt48ck","geo_precision":"range","state":"Florida"},"type":"Feature","geometry":{"type":"Point","coordinates":[-80.913558,24.776563]}},{"properties":{"name":"Hilton Hawaiian Village","city":"Honolulu","zipcode":"96815","country":"United States","geo_score":0.902,"street address":"2005 Kalia Road","id":"a67q5yazam0e","geo_precision":"range","state":"Hawaii"},"type":"Feature","geometry":{"type":"Point","coordinates":[-157.835682,21.284886]}},{"properties":{"name":"Hilton Virginia Beach Oceanfront Hotel","city":"Virginia Beach","zipcode":"23400","country":"United States","geo_score":0.805,"street address":"3001 Atlantic Avenue","id":"a67q5ylbw2nd","geo_precision":"range","state":"Virginia"},"type":"Feature","geometry":{"type":"Point","coordinates":[-75.978057,36.858844]}},{"properties":{"name":"Intercontinental Chicago","city":"Chicago","zipcode":"60102","country":"United States","geo_score":0.805,"street address":"505 North Michigan Avenue","id":"a67q5ymho5qb","geo_precision":"range","state":"Illinois"},"type":"Feature","geometry":{"type":"Point","coordinates":[-87.984914,41.899471]}},{"properties":{"name":"JW Marriott Las Vegas Resort &amp; Spa at Summerlin","city":"Las Vegas","zipcode":"89145","country":"United States","geo_score":0.625,"street address":"221 N. Rampart Blvd.","id":"a67q5ynch5ee","geo_precision":"street","state":"Nevada"},"type":"Feature","geometry":{"type":"Point","coordinates":[-115.28706,36.174029]}},{"properties":{"name":"Kona Village Resort","city":"Honolulu","zipcode":"96740","country":"United States","geo_score":0.75,"street address":"Queen Kaahumanu Highway","id":"a67q5yklx6xb","geo_precision":"street","state":"Hawaii"},"type":"Feature","geometry":{"type":"Point","coordinates":[-155.976426,19.6313]}},{"properties":{"name":"Le Parker Meridien New York","city":"New York","zipcode":"10019","country":"United States","geo_score":1.0,"street address":"119 West 56th Street","id":"a67q5ylpb2xj","geo_precision":"range","state":"New York"},"type":"Feature","geometry":{"type":"Point","coordinates":[-73.97808,40.763865]}},{"properties":{"name":"Little Palm Island Resort &amp; Spa","city":"Little Torch Key","zipcode":"33042","country":"United States","geo_score":0.571,"street address":"28500 Overseas Highway Little Torch Key","id":"a67q5ydxqkry","geo_precision":"street","state":"Florida"},"type":"Feature","geometry":{"type":"Point","coordinates":[-81.44324,24.661279]}},{"properties":{"name":"Little River Inn","city":"Little River","zipcode":"23400","country":"United States","geo_score":0.335,"street address":"7901 Highway One","id":"a67q5y9eqh7g","geo_precision":"street","state":"California"},"type":"Feature","geometry":{"type":"Point","coordinates":[-116.16604,35.043079]}},{"properties":{"name":"Mauna Lani Bay Hotel and Bungalows","city":"Kona","zipcode":"96743","country":"United States","geo_score":0.922,"street address":"68-1400 Mauna Lani Drive","id":"a67q5ypbyqgb","geo_precision":"range","state":"Hawaii"},"type":"Feature","geometry":{"type":"Point","coordinates":[-155.857891,19.940541]}},{"properties":{"name":"Omni La Mansion del Rio Hotel","city":"San Antonio","zipcode":"78205","country":"United States","geo_score":1.0,"street address":"112 College Street","id":"a67q5y94z2ge","geo_precision":"range","state":"Texas"},"type":"Feature","geometry":{"type":"Point","coordinates":[-98.491157,29.425864]}},{"properties":{"name":"Palazzo Hotel Las Vegas","city":"Las Vegas","zipcode":"89109","country":"United States","geo_score":0.912,"street address":"3355 Las Vegas Blvd South","id":"a67q5ylhg6xx","geo_precision":"range","state":"Nevada"},"type":"Feature","geometry":{"type":"Point","coordinates":[-115.171439,36.122212]}},{"properties":{"name":"Park Hyatt Chicago","city":"Chicago","zipcode":"60102","country":"United States","geo_score":0.707,"street address":"800 North Michigan Avenue","id":"a67q5y9wsevc","geo_precision":"street","state":"Illinois"},"type":"Feature","geometry":{"type":"Point","coordinates":[-87.98509,41.905325]}},{"properties":{"name":"Pier House Resort &amp; Caribbean Spa","city":"Key West","zipcode":"33040","country":"United States","geo_score":0.87,"street address":"1 Duval St. (Lower Keys)","id":"a67q5y9mn6a2","geo_precision":"street","state":"Florida"},"type":"Feature","geometry":{"type":"Point","coordinates":[-81.806406,24.560655]}},{"properties":{"name":"Radisson Plaza Warwick Hotel Philadelphia","city":"Philadelphia","zipcode":"19103-6179","country":"United States","geo_score":1.0,"street address":"1701 Locust Street; Gps Directions 220 S 17TH ST (Center City (East of Broad St.))","id":"a67q5ygd9zg5","geo_precision":"street","state":"Pennsylvania"},"type":"Feature","geometry":{"type":"Point","coordinates":[-75.169339,39.948803]}},{"properties":{"name":"Red Rock Casino, Resort &amp; Spa","city":"Las Vegas","zipcode":"89135","country":"United States","geo_score":0.922,"street address":"11011 West Charleston","id":"a67q5ynbemko","geo_precision":"range","state":"Nevada"},"type":"Feature","geometry":{"type":"Point","coordinates":[-115.336336,36.158958]}},{"properties":{"name":"Rittenhouse 1715","city":"Philadelphia","zipcode":"19103","country":"United States","geo_score":0.637,"street address":"1715 Rittenhouse Square (Center City (East of Broad St.))","id":"a67q5ylabji3","geo_precision":"street","state":"Pennsylvania"},"type":"Feature","geometry":{"type":"Point","coordinates":[-75.169471,39.948208]}},{"properties":{"name":"Ritz-Carlton Lake Las Vegas","city":"Henderson","zipcode":"89011","country":"United States","geo_score":1.0,"street address":"1610 Lake Las Vegas Parkway","id":"a67q5yh93dlf","geo_precision":"range","state":"Nevada"},"type":"Feature","geometry":{"type":"Point","coordinates":[-114.932652,36.098975]}},{"properties":{"name":"Sonnenalp Resort of Vail","city":"Vail","zipcode":"81657","country":"United States","geo_score":0.951,"street address":"20 Vail Rd","id":"a67q5ylsr26i","geo_precision":"range","state":"Colorado"},"type":"Feature","geometry":{"type":"Point","coordinates":[-106.377949,39.640659]}},{"properties":{"name":"The Cliffs Resort","city":"Pismo Beach","zipcode":"93449","country":"United States","geo_score":0.951,"street address":"2757 Shell Beach Road","id":"a67q5ygc90uo","geo_precision":"range","state":"California"},"type":"Feature","geometry":{"type":"Point","coordinates":[-120.689117,35.165043]}},{"properties":{"name":"The Founders Inn","city":"Virginia Beach","zipcode":"23464","country":"United States","geo_score":0.88,"street address":"5641 Indian River Road","id":"a67q5ygzlsae","geo_precision":"range","state":"Virginia"},"type":"Feature","geometry":{"type":"Point","coordinates":[-76.188278,36.803883]}},{"properties":{"name":"The Inn at Morro Bay","city":"Morro Bay","zipcode":"93442","country":"United States","geo_score":1.0,"street address":"60 State Park Road","id":"a67q5yejo64i","geo_precision":"range","state":"California"},"type":"Feature","geometry":{"type":"Point","coordinates":[-120.843691,35.353526]}},{"properties":{"name":"The Inn at Penn, A Hilton Hotel","city":"Philadelphia","zipcode":"19104","country":"United States","geo_score":1.0,"street address":"3600 Sansom Street (Center City (West of Broad St.))","id":"a67q5yk9y6hm","geo_precision":"street","state":"Pennsylvania"},"type":"Feature","geometry":{"type":"Point","coordinates":[-75.191943,39.953567]}},{"properties":{"name":"The Lodge at Vail, A RockResort","city":"Vail","zipcode":"81657","country":"United States","geo_score":0.927,"street address":"174 East Gore Creek Drive","id":"a67q5ynmryp6","geo_precision":"range","state":"Colorado"},"type":"Feature","geometry":{"type":"Point","coordinates":[-106.375145,39.640637]}},{"properties":{"name":"The Manhattan at Times Square Hotel","city":"New York","zipcode":"10019","country":"United States","geo_score":0.69,"street address":"790 7th Avenue 51st Street","id":"a67q5yh8t30t","geo_precision":"street","state":"New York"},"type":"Feature","geometry":{"type":"Point","coordinates":[-73.996034,40.767303]}},{"properties":{"name":"The Reach Resort, The Waldorf Astoria Collection","city":"Key West","zipcode":"33040","country":"United States","geo_score":0.484,"street address":"1435 Simonton Street (Lower Keys)","id":"a67q5yam0r8e","geo_precision":"street","state":"Florida"},"type":"Feature","geometry":{"type":"Point","coordinates":[-81.804752,24.561027]}},{"properties":{"name":"The Ritz-Carlton, Philadelphia","city":"Philadelphia","zipcode":"19102","country":"United States","geo_score":0.614,"street address":"Ten Avenue of the Arts (Center City (East of Broad St.))","id":"a67q5ynraeb0","geo_precision":"street","state":"Pennsylvania"},"type":"Feature","geometry":{"type":"Point","coordinates":[-75.163936,39.951201]}},{"properties":{"name":"The St. Regis New York","city":"New York","zipcode":"10022","country":"United States","geo_score":0.857,"street address":"Two East 55th Street, at Fifth Avenue","id":"a67q5y9m9rkh","geo_precision":"street","state":"New York"},"type":"Feature","geometry":{"type":"Point","coordinates":[-73.976289,40.759786]}},{"properties":{"name":"The Venetian Las Vegas","city":"Las Vegas","zipcode":"89109","country":"United States","geo_score":0.912,"street address":"3355 Las Vegas Blvd South","id":"a67q5ynlyq80","geo_precision":"range","state":"Nevada"},"type":"Feature","geometry":{"type":"Point","coordinates":[-115.171439,36.122212]}},{"properties":{"name":"Tranquility Bay Beach House Resort","city":"Marathon","zipcode":"33050","country":"United States","geo_score":0.902,"street address":"2600 Overseas Highway","id":"a67q5yacw0ve","geo_precision":"range","state":"Florida"},"type":"Feature","geometry":{"type":"Point","coordinates":[-81.098458,24.710171]}},{"properties":{"name":"Vail Cascade Resort and Spa","city":"Vail","zipcode":"81657","country":"United States","geo_score":0.951,"street address":"1300 Westhaven Drive","id":"a67q5yg5jojm","geo_precision":"range","state":"Colorado"},"type":"Feature","geometry":{"type":"Point","coordinates":[-106.403025,39.637822]}},{"properties":{"name":"W New York","city":"New York","zipcode":"10036","country":"United States","geo_score":1.0,"street address":"1567 Broadway","id":"a67q5yahs0lo","geo_precision":"range","state":"New York"},"type":"Feature","geometry":{"type":"Point","coordinates":[-73.985154,40.759313]}},{"properties":{"name":"Watermark Hotel &amp; Spa","city":"San Antonio","zipcode":"78205","country":"United States","geo_score":1.0,"street address":"212 West Crockett Street","id":"a67q5yftyxjg","geo_precision":"range","state":"Texas"},"type":"Feature","geometry":{"type":"Point","coordinates":[-98.489869,29.424919]}},{"properties":{"name":"Westin La Cantera","city":"San Antonio","zipcode":"78256","country":"United States","geo_score":0.475,"street address":"16641 La Cantera Parkway","id":"a67q5ypm2e1x","geo_precision":"street","state":"Texas"},"type":"Feature","geometry":{"type":"Point","coordinates":[-98.482405,29.558626]}}],"is_temporal":false,"author":{"url":"","metadata":"","contact_name":"","contact_address":"","source":"","contact_phone":""},"source":"","pagination":{"sort":null,"start":0,"total":44,"limit":1000000},"state":"complete","tags":"homework","published":"2014-08-10T11:09:24-04:00","id":80244}