{"type":"FeatureCollection","data_type":"Dataset","url_type":null,"permissions":[{"permissions":{"download":true,"view":true},"group_id":"everyone"}],"classification":null,"title":"True-Var-Count","count":319,"stream_id":80400,"contributor":{"url":"http://geocommons.com/users/19539","name":"travis@moonblink.com"},"data_attributes":null,"calculation_params":null,"icon_link":null,"link":"http://geocommons.com/overlays/80400.json","extent":[-157.943,21.2906,-69.0342,61.1578],"geometry_types":["point"],"unique_name":null,"name":"True-Var-Count","feature_count":319,"description":"","next_feature":null,"is_raster":false,"short_classification":"Y","stats":{"geo_score":{"max":0.714,"mean":0.705047021943572,"variance":0.00633212042349318,"stdev":0.0795746217301294,"min":0.0,"median":0.714},"count":{"max":4,"mean":1.05956112852665,"variance":0.0813469765974646,"stdev":0.285213913751529,"min":1,"median":1}},"features":[{"properties":{"zip":"01460","geo_score":0.714,"count":1,"id":"a69kaln4so24","geo_precision":"zip"},"type":"Feature","geometry":{"type":"Point","coordinates":[-71.536455,42.551758]}},{"properties":{"zip":"01801","geo_score":0.714,"count":1,"id":"a69kalf398cd","geo_precision":"zip"},"type":"Feature","geometry":{"type":"Point","coordinates":[-71.128665,42.495928]}},{"properties":{"zip":"01810","geo_score":0.714,"count":1,"id":"a69kalitn7ot","geo_precision":"zip"},"type":"Feature","geometry":{"type":"Point","coordinates":[-71.158391,42.661203]}},{"properties":{"zip":"01824","geo_score":0.714,"count":1,"id":"a69kaln9oxni","geo_precision":"zip"},"type":"Feature","geometry":{"type":"Point","coordinates":[-71.341172,42.615369]}},{"properties":{"zip":"02559","geo_score":0.714,"count":1,"id":"a69kaligzkd0","geo_precision":"zip"},"type":"Feature","geometry":{"type":"Point","coordinates":[-70.620309,41.700106]}},{"properties":{"zip":"03109","geo_score":0.714,"count":1,"id":"a69kaltcj3k6","geo_precision":"zip"},"type":"Feature","geometry":{"type":"Point","coordinates":[-71.405283,42.970084]}},{"properties":{"zip":"03782","geo_score":0.714,"count":1,"id":"a69kalprnrao","geo_precision":"zip"},"type":"Feature","geometry":{"type":"Point","coordinates":[-72.070919,43.37563]}},{"properties":{"zip":"04856","geo_score":0.714,"count":1,"id":"a69kalftxkvx","geo_precision":"zip"},"type":"Feature","geometry":{"type":"Point","coordinates":[-69.03416,44.132144]}},{"properties":{"zip":"06026","geo_score":0.714,"count":1,"id":"a69kaloc05la","geo_precision":"zip"},"type":"Feature","geometry":{"type":"Point","coordinates":[-72.740538,41.939096]}},{"properties":{"zip":"06457","geo_score":0.714,"count":1,"id":"a69kalqrvwaq","geo_precision":"zip"},"type":"Feature","geometry":{"type":"Point","coordinates":[-72.700651,41.584821]}},{"properties":{"zip":"06516","geo_score":0.714,"count":1,"id":"a69kalhj3epf","geo_precision":"zip"},"type":"Feature","geometry":{"type":"Point","coordinates":[-72.970659,41.242319]}},{"properties":{"zip":"06831","geo_score":0.714,"count":1,"id":"a69kalq7sybs","geo_precision":"zip"},"type":"Feature","geometry":{"type":"Point","coordinates":[-73.65985,41.035375]}},{"properties":{"zip":"07004","geo_score":0.714,"count":1,"id":"a69kale2wffz","geo_precision":"zip"},"type":"Feature","geometry":{"type":"Point","coordinates":[-74.29681,40.875948]}},{"properties":{"zip":"07054","geo_score":0.714,"count":1,"id":"a69kallf8fsj","geo_precision":"zip"},"type":"Feature","geometry":{"type":"Point","coordinates":[-74.392096,40.852877]}},{"properties":{"zip":"07062","geo_score":0.714,"count":1,"id":"a69kalnwrmr9","geo_precision":"zip"},"type":"Feature","geometry":{"type":"Point","coordinates":[-74.412096,40.630658]}},{"properties":{"zip":"07410","geo_score":0.714,"count":1,"id":"a69kale6d9i7","geo_precision":"zip"},"type":"Feature","geometry":{"type":"Point","coordinates":[-74.116531,40.942598]}},{"properties":{"zip":"08002","geo_score":0.714,"count":1,"id":"a69kalfdr3up","geo_precision":"zip"},"type":"Feature","geometry":{"type":"Point","coordinates":[-74.981834,39.880669]}},{"properties":{"zip":"08057","geo_score":0.714,"count":1,"id":"a69kalqt7jwv","geo_precision":"zip"},"type":"Feature","geometry":{"type":"Point","coordinates":[-74.982391,39.962335]}},{"properties":{"zip":"08510","geo_score":0.714,"count":1,"id":"a69kalnarzba","geo_precision":"zip"},"type":"Feature","geometry":{"type":"Point","coordinates":[-74.442803,40.193311]}},{"properties":{"zip":"08742","geo_score":0.714,"count":1,"id":"a69kalfmfddo","geo_precision":"zip"},"type":"Feature","geometry":{"type":"Point","coordinates":[-74.060693,40.090671]}},{"properties":{"zip":"08836","geo_score":0.714,"count":1,"id":"a69kaloc10dh","geo_precision":"zip"},"type":"Feature","geometry":{"type":"Point","coordinates":[-74.5538,40.604352]}},{"properties":{"zip":"08854","geo_score":0.714,"count":1,"id":"a69kaleolucv","geo_precision":"zip"},"type":"Feature","geometry":{"type":"Point","coordinates":[-74.474598,40.515382]}},{"properties":{"zip":"08901","geo_score":0.714,"count":1,"id":"a69kalmyaev1","geo_precision":"zip"},"type":"Feature","geometry":{"type":"Point","coordinates":[-74.403206,40.484827]}},{"properties":{"zip":"10016","geo_score":0.714,"count":1,"id":"a69kalmimjbf","geo_precision":"zip"},"type":"Feature","geometry":{"type":"Point","coordinates":[-73.978449,40.745527]}},{"properties":{"zip":"10036","geo_score":0.714,"count":1,"id":"a69kalgrgygf","geo_precision":"zip"},"type":"Feature","geometry":{"type":"Point","coordinates":[-73.989847,40.75953]}},{"properties":{"zip":"10512","geo_score":0.714,"count":1,"id":"a69kaljq9pkt","geo_precision":"zip"},"type":"Feature","geometry":{"type":"Point","coordinates":[-73.670963,41.461483]}},{"properties":{"zip":"10601","geo_score":0.714,"count":1,"id":"a69kaln7u3nl","geo_precision":"zip"},"type":"Feature","geometry":{"type":"Point","coordinates":[-73.769626,41.031397]}},{"properties":{"zip":"10952","geo_score":0.714,"count":1,"id":"a69kalixj9uz","geo_precision":"zip"},"type":"Feature","geometry":{"type":"Point","coordinates":[-74.082365,41.136484]}},{"properties":{"zip":"11229","geo_score":0.714,"count":1,"id":"a69kalheb9nd","geo_precision":"zip"},"type":"Feature","geometry":{"type":"Point","coordinates":[-73.939998,40.600988]}},{"properties":{"zip":"11726","geo_score":0.714,"count":1,"id":"a69kalj21bbv","geo_precision":"zip"},"type":"Feature","geometry":{"type":"Point","coordinates":[-73.394762,40.68022]}},{"properties":{"zip":"11746","geo_score":0.714,"count":1,"id":"a69kalgvoatp","geo_precision":"zip"},"type":"Feature","geometry":{"type":"Point","coordinates":[-73.398731,40.82371]}},{"properties":{"zip":"11788","geo_score":0.714,"count":1,"id":"a69kale0d8ge","geo_precision":"zip"},"type":"Feature","geometry":{"type":"Point","coordinates":[-73.200669,40.855931]}},{"properties":{"zip":"12092","geo_score":0.714,"count":1,"id":"a69kalej1kvn","geo_precision":"zip"},"type":"Feature","geometry":{"type":"Point","coordinates":[-74.401248,42.686186]}},{"properties":{"zip":"13323","geo_score":0.714,"count":1,"id":"a69kalqmd0d4","geo_precision":"zip"},"type":"Feature","geometry":{"type":"Point","coordinates":[-75.431562,43.079792]}},{"properties":{"zip":"14606","geo_score":0.714,"count":1,"id":"a69kaleh5sc7","geo_precision":"zip"},"type":"Feature","geometry":{"type":"Point","coordinates":[-77.691577,43.173612]}},{"properties":{"zip":"15203","geo_score":0.714,"count":1,"id":"a69kaleme83n","geo_precision":"zip"},"type":"Feature","geometry":{"type":"Point","coordinates":[-79.979914,40.425369]}},{"properties":{"zip":"15218","geo_score":0.714,"count":1,"id":"a69kalib8ge8","geo_precision":"zip"},"type":"Feature","geometry":{"type":"Point","coordinates":[-79.881439,40.432013]}},{"properties":{"zip":"17036","geo_score":0.714,"count":1,"id":"a69kalpjw7e6","geo_precision":"zip"},"type":"Feature","geometry":{"type":"Point","coordinates":[-76.68247,40.240369]}},{"properties":{"zip":"18326","geo_score":0.714,"count":1,"id":"a69kalr25d4a","geo_precision":"zip"},"type":"Feature","geometry":{"type":"Point","coordinates":[-75.280738,41.122035]}},{"properties":{"zip":"18507","geo_score":0.714,"count":1,"id":"a69kallf1b8k","geo_precision":"zip"},"type":"Feature","geometry":{"type":"Point","coordinates":[-75.73547,41.348691]}},{"properties":{"zip":"19040","geo_score":0.714,"count":1,"id":"a69kallu7qzi","geo_precision":"zip"},"type":"Feature","geometry":{"type":"Point","coordinates":[-75.106265,40.182406]}},{"properties":{"zip":"19090","geo_score":0.714,"count":1,"id":"a69kalquravi","geo_precision":"zip"},"type":"Feature","geometry":{"type":"Point","coordinates":[-75.127951,40.135665]}},{"properties":{"zip":"19446","geo_score":0.714,"count":1,"id":"a69kalszcyld","geo_precision":"zip"},"type":"Feature","geometry":{"type":"Point","coordinates":[-75.302953,40.245106]}},{"properties":{"zip":"19901","geo_score":0.714,"count":1,"id":"a69kalit05j1","geo_precision":"zip"},"type":"Feature","geometry":{"type":"Point","coordinates":[-75.541313,39.173723]}},{"properties":{"zip":"20137","geo_score":0.714,"count":1,"id":"a69kalkfyg73","geo_precision":"zip"},"type":"Feature","geometry":{"type":"Point","coordinates":[-77.736814,38.819464]}},{"properties":{"zip":"20166","geo_score":0.714,"count":2,"id":"a69kalt4284y","geo_precision":"zip"},"type":"Feature","geometry":{"type":"Point","coordinates":[-77.472333,38.981387]}},{"properties":{"zip":"20723","geo_score":0.714,"count":1,"id":"a69kalpc4m85","geo_precision":"zip"},"type":"Feature","geometry":{"type":"Point","coordinates":[-76.86931,39.136535]}},{"properties":{"zip":"20770","geo_score":0.714,"count":1,"id":"a69kalm5bo3c","geo_precision":"zip"},"type":"Feature","geometry":{"type":"Point","coordinates":[-76.903029,39.002054]}},{"properties":{"zip":"21050","geo_score":0.714,"count":1,"id":"a69kaln31347","geo_precision":"zip"},"type":"Feature","geometry":{"type":"Point","coordinates":[-76.460242,39.565384]}},{"properties":{"zip":"21221","geo_score":0.714,"count":1,"id":"a69kaldixmkk","geo_precision":"zip"},"type":"Feature","geometry":{"type":"Point","coordinates":[-76.479685,39.338441]}},{"properties":{"zip":"22033","geo_score":0.714,"count":2,"id":"a69kalgqz5xx","geo_precision":"zip"},"type":"Feature","geometry":{"type":"Point","coordinates":[-77.378858,38.879466]}},{"properties":{"zip":"22079","geo_score":0.714,"count":1,"id":"a69kalldilqu","geo_precision":"zip"},"type":"Feature","geometry":{"type":"Point","coordinates":[-77.20276,38.717337]}},{"properties":{"zip":"22124","geo_score":0.714,"count":1,"id":"a69kaljpi8cx","geo_precision":"zip"},"type":"Feature","geometry":{"type":"Point","coordinates":[-77.348319,38.890945]}},{"properties":{"zip":"22306","geo_score":0.714,"count":1,"id":"a69kals5nzxo","geo_precision":"zip"},"type":"Feature","geometry":{"type":"Point","coordinates":[-77.081367,38.757336]}},{"properties":{"zip":"22315","geo_score":0.714,"count":1,"id":"a69kalla8sfn","geo_precision":"zip"},"type":"Feature","geometry":{"type":"Point","coordinates":[-77.147646,38.756466]}},{"properties":{"zip":"23233","geo_score":0.714,"count":1,"id":"a69kalmx01i4","geo_precision":"zip"},"type":"Feature","geometry":{"type":"Point","coordinates":[-77.662213,37.577369]}},{"properties":{"zip":"23452","geo_score":0.714,"count":1,"id":"a69kallwpcty","geo_precision":"zip"},"type":"Feature","geometry":{"type":"Point","coordinates":[-76.100489,36.829593]}},{"properties":{"zip":"24614","geo_score":0.714,"count":1,"id":"a69kallaqtt6","geo_precision":"zip"},"type":"Feature","geometry":{"type":"Point","coordinates":[-82.176248,37.329832]}},{"properties":{"zip":"24901","geo_score":0.714,"count":1,"id":"a69kalrykj5g","geo_precision":"zip"},"type":"Feature","geometry":{"type":"Point","coordinates":[-80.440352,37.770677]}},{"properties":{"zip":"27012","geo_score":0.714,"count":1,"id":"a69kalgypez2","geo_precision":"zip"},"type":"Feature","geometry":{"type":"Point","coordinates":[-80.416722,36.054304]}},{"properties":{"zip":"27295","geo_score":0.714,"count":1,"id":"a69kalfx26ud","geo_precision":"zip"},"type":"Feature","geometry":{"type":"Point","coordinates":[-80.277877,35.813292]}},{"properties":{"zip":"27501","geo_score":0.714,"count":1,"id":"a69kalssvsks","geo_precision":"zip"},"type":"Feature","geometry":{"type":"Point","coordinates":[-78.694181,35.468772]}},{"properties":{"zip":"28079","geo_score":0.714,"count":1,"id":"a69kaljvrrjp","geo_precision":"zip"},"type":"Feature","geometry":{"type":"Point","coordinates":[-80.630346,35.118757]}},{"properties":{"zip":"28345","geo_score":0.714,"count":1,"id":"a69kalm39sdu","geo_precision":"zip"},"type":"Feature","geometry":{"type":"Point","coordinates":[-79.653109,34.871267]}},{"properties":{"zip":"28405","geo_score":0.714,"count":1,"id":"a69kalsgewjb","geo_precision":"zip"},"type":"Feature","geometry":{"type":"Point","coordinates":[-77.818594,34.272392]}},{"properties":{"zip":"28625","geo_score":0.714,"count":1,"id":"a69kalhl1d93","geo_precision":"zip"},"type":"Feature","geometry":{"type":"Point","coordinates":[-80.89757,35.790866]}},{"properties":{"zip":"28714","geo_score":0.714,"count":1,"id":"a69kalkibfj3","geo_precision":"zip"},"type":"Feature","geometry":{"type":"Point","coordinates":[-82.254848,35.91817]}},{"properties":{"zip":"29505","geo_score":0.714,"count":1,"id":"a69kalmcbfm7","geo_precision":"zip"},"type":"Feature","geometry":{"type":"Point","coordinates":[-79.693907,34.049881]}},{"properties":{"zip":"29650","geo_score":0.714,"count":1,"id":"a69kalsj70pa","geo_precision":"zip"},"type":"Feature","geometry":{"type":"Point","coordinates":[-82.368415,34.948738]}},{"properties":{"zip":"30014","geo_score":0.714,"count":1,"id":"a69kalsu6sf5","geo_precision":"zip"},"type":"Feature","geometry":{"type":"Point","coordinates":[-83.849622,33.529341]}},{"properties":{"zip":"30043","geo_score":0.714,"count":1,"id":"a69kalf8qjnt","geo_precision":"zip"},"type":"Feature","geometry":{"type":"Point","coordinates":[-84.012608,34.00309]}},{"properties":{"zip":"30092","geo_score":0.714,"count":1,"id":"a69kaloikzlp","geo_precision":"zip"},"type":"Feature","geometry":{"type":"Point","coordinates":[-84.138468,33.910725]}},{"properties":{"zip":"31401","geo_score":0.714,"count":1,"id":"a69kalk9c8hy","geo_precision":"zip"},"type":"Feature","geometry":{"type":"Point","coordinates":[-81.14539,32.091873]}},{"properties":{"zip":"32080","geo_score":0.714,"count":1,"id":"a69kalme05fh","geo_precision":"zip"},"type":"Feature","geometry":{"type":"Point","coordinates":[-81.468125,29.199146]}},{"properties":{"zip":"32903","geo_score":0.714,"count":1,"id":"a69kalnhchfw","geo_precision":"zip"},"type":"Feature","geometry":{"type":"Point","coordinates":[-80.579625,28.107943]}},{"properties":{"zip":"32962","geo_score":0.714,"count":1,"id":"a69kali88stu","geo_precision":"zip"},"type":"Feature","geometry":{"type":"Point","coordinates":[-80.615886,28.164457]}},{"properties":{"zip":"33012","geo_score":0.714,"count":1,"id":"a69kalice910","geo_precision":"zip"},"type":"Feature","geometry":{"type":"Point","coordinates":[-80.302659,25.866021]}},{"properties":{"zip":"33026","geo_score":0.714,"count":1,"id":"a69kalnr530p","geo_precision":"zip"},"type":"Feature","geometry":{"type":"Point","coordinates":[-80.25357,26.153819]}},{"properties":{"zip":"33029","geo_score":0.714,"count":1,"id":"a69kals8slox","geo_precision":"zip"},"type":"Feature","geometry":{"type":"Point","coordinates":[-80.319019,26.097815]}},{"properties":{"zip":"33122","geo_score":0.714,"count":1,"id":"a69kalhovnw6","geo_precision":"zip"},"type":"Feature","geometry":{"type":"Point","coordinates":[-80.319002,25.799306]}},{"properties":{"zip":"33166","geo_score":0.714,"count":1,"id":"a69kalgrbw7k","geo_precision":"zip"},"type":"Feature","geometry":{"type":"Point","coordinates":[-80.193659,25.774266]}},{"properties":{"zip":"33178","geo_score":0.714,"count":1,"id":"a69kalcw83lv","geo_precision":"zip"},"type":"Feature","geometry":{"type":"Point","coordinates":[-80.381857,25.859963]}},{"properties":{"zip":"33185","geo_score":0.714,"count":1,"id":"a69kall8cawp","geo_precision":"zip"},"type":"Feature","geometry":{"type":"Point","coordinates":[-80.462518,25.738535]}},{"properties":{"zip":"33186","geo_score":0.714,"count":2,"id":"a69kalkvqlno","geo_precision":"zip"},"type":"Feature","geometry":{"type":"Point","coordinates":[-80.410144,25.656462]}},{"properties":{"zip":"33309","geo_score":0.714,"count":1,"id":"a69kallb22or","geo_precision":"zip"},"type":"Feature","geometry":{"type":"Point","coordinates":[-80.249771,26.212861]}},{"properties":{"zip":"33414","geo_score":0.714,"count":1,"id":"a69kall5vkhb","geo_precision":"zip"},"type":"Feature","geometry":{"type":"Point","coordinates":[-80.25144,26.645659]}},{"properties":{"zip":"33431","geo_score":0.714,"count":1,"id":"a69kalsaxb1s","geo_precision":"zip"},"type":"Feature","geometry":{"type":"Point","coordinates":[-80.104343,26.378704]}},{"properties":{"zip":"33496","geo_score":0.714,"count":1,"id":"a69kale1hmyy","geo_precision":"zip"},"type":"Feature","geometry":{"type":"Point","coordinates":[-80.162567,26.409333]}},{"properties":{"zip":"33596","geo_score":0.0,"count":1,"id":"a69kaln1zv35","geo_precision":"unmatched"},"type":"Feature","geometry":null},{"properties":{"zip":"33611","geo_score":0.714,"count":1,"id":"a69kalj4j3fr","geo_precision":"zip"},"type":"Feature","geometry":{"type":"Point","coordinates":[-82.512017,27.942099]}},{"properties":{"zip":"33701","geo_score":0.714,"count":1,"id":"a69kalgxx53b","geo_precision":"zip"},"type":"Feature","geometry":{"type":"Point","coordinates":[-82.64092,27.775654]}},{"properties":{"zip":"34221","geo_score":0.714,"count":1,"id":"a69kalfodf12","geo_precision":"zip"},"type":"Feature","geometry":{"type":"Point","coordinates":[-82.552597,27.578925]}},{"properties":{"zip":"34655","geo_score":0.714,"count":1,"id":"a69kalrx25xn","geo_precision":"zip"},"type":"Feature","geometry":{"type":"Point","coordinates":[-82.665933,28.212233]}},{"properties":{"zip":"35209","geo_score":0.714,"count":1,"id":"a69kale27kyu","geo_precision":"zip"},"type":"Feature","geometry":{"type":"Point","coordinates":[-86.800823,33.471773]}},{"properties":{"zip":"35758","geo_score":0.714,"count":1,"id":"a69kalef05qj","geo_precision":"zip"},"type":"Feature","geometry":{"type":"Point","coordinates":[-86.788611,34.597314]}},{"properties":{"zip":"35805","geo_score":0.714,"count":1,"id":"a69kalmw30b9","geo_precision":"zip"},"type":"Feature","geometry":{"type":"Point","coordinates":[-86.634439,34.749535]}},{"properties":{"zip":"35808","geo_score":0.714,"count":1,"id":"a69kalh8blc2","geo_precision":"zip"},"type":"Feature","geometry":{"type":"Point","coordinates":[-86.539157,34.553425]}},{"properties":{"zip":"37203","geo_score":0.714,"count":1,"id":"a69kalo7it7p","geo_precision":"zip"},"type":"Feature","geometry":{"type":"Point","coordinates":[-86.791598,36.150406]}},{"properties":{"zip":"38261","geo_score":0.714,"count":1,"id":"a69kalpk5fz1","geo_precision":"zip"},"type":"Feature","geometry":{"type":"Point","coordinates":[-88.976175,36.382842]}},{"properties":{"zip":"39158","geo_score":0.714,"count":1,"id":"a69kaljhc7uj","geo_precision":"zip"},"type":"Feature","geometry":{"type":"Point","coordinates":[-90.090683,32.642448]}},{"properties":{"zip":"39208","geo_score":0.714,"count":1,"id":"a69kalembby6","geo_precision":"zip"},"type":"Feature","geometry":{"type":"Point","coordinates":[-90.123142,32.246814]}},{"properties":{"zip":"39441","geo_score":0.714,"count":1,"id":"a69kalrbdkla","geo_precision":"zip"},"type":"Feature","geometry":{"type":"Point","coordinates":[-89.075482,31.727664]}},{"properties":{"zip":"40503","geo_score":0.714,"count":1,"id":"a69kals24xeq","geo_precision":"zip"},"type":"Feature","geometry":{"type":"Point","coordinates":[-84.530773,38.019522]}},{"properties":{"zip":"41048","geo_score":0.714,"count":1,"id":"a69kalkuggge","geo_precision":"zip"},"type":"Feature","geometry":{"type":"Point","coordinates":[-84.69328,39.099781]}},{"properties":{"zip":"41129","geo_score":0.714,"count":1,"id":"a69kalp36l22","geo_precision":"zip"},"type":"Feature","geometry":{"type":"Point","coordinates":[-82.597936,38.344249]}},{"properties":{"zip":"43223","geo_score":0.714,"count":1,"id":"a69kalr9qmtb","geo_precision":"zip"},"type":"Feature","geometry":{"type":"Point","coordinates":[-83.058241,39.925897]}},{"properties":{"zip":"44135","geo_score":0.714,"count":1,"id":"a69kalnkwb1m","geo_precision":"zip"},"type":"Feature","geometry":{"type":"Point","coordinates":[-81.850414,41.420327]}},{"properties":{"zip":"44512","geo_score":0.714,"count":1,"id":"a69kale7l913","geo_precision":"zip"},"type":"Feature","geometry":{"type":"Point","coordinates":[-80.662853,41.024226]}},{"properties":{"zip":"44685","geo_score":0.714,"count":1,"id":"a69kale8ovnv","geo_precision":"zip"},"type":"Feature","geometry":{"type":"Point","coordinates":[-81.423724,40.976168]}},{"properties":{"zip":"45331","geo_score":0.714,"count":1,"id":"a69kalf9irw5","geo_precision":"zip"},"type":"Feature","geometry":{"type":"Point","coordinates":[-84.677736,40.178381]}},{"properties":{"zip":"45414","geo_score":0.714,"count":1,"id":"a69kalrwapdb","geo_precision":"zip"},"type":"Feature","geometry":{"type":"Point","coordinates":[-84.199386,39.857835]}},{"properties":{"zip":"45431","geo_score":0.714,"count":1,"id":"a69kallucm03","geo_precision":"zip"},"type":"Feature","geometry":{"type":"Point","coordinates":[-84.057435,39.727837]}},{"properties":{"zip":"46140","geo_score":0.714,"count":1,"id":"a69kallc59lb","geo_precision":"zip"},"type":"Feature","geometry":{"type":"Point","coordinates":[-85.687755,39.750322]}},{"properties":{"zip":"47904","geo_score":0.714,"count":1,"id":"a69kalfnlrji","geo_precision":"zip"},"type":"Feature","geometry":{"type":"Point","coordinates":[-86.917273,40.482287]}},{"properties":{"zip":"47933","geo_score":0.714,"count":1,"id":"a69kaln1dtr2","geo_precision":"zip"},"type":"Feature","geometry":{"type":"Point","coordinates":[-86.980008,40.024766]}},{"properties":{"zip":"48118","geo_score":0.714,"count":1,"id":"a69kalest5xz","geo_precision":"zip"},"type":"Feature","geometry":{"type":"Point","coordinates":[-84.013999,42.31375]}},{"properties":{"zip":"48309","geo_score":0.714,"count":1,"id":"a69kallutfj7","geo_precision":"zip"},"type":"Feature","geometry":{"type":"Point","coordinates":[-83.183666,42.662644]}},{"properties":{"zip":"48312","geo_score":0.714,"count":1,"id":"a69kals4ob9h","geo_precision":"zip"},"type":"Feature","geometry":{"type":"Point","coordinates":[-83.028532,42.566338]}},{"properties":{"zip":"48326","geo_score":0.714,"count":2,"id":"a69kalga63ig","geo_precision":"zip"},"type":"Feature","geometry":{"type":"Point","coordinates":[-83.316605,42.698643]}},{"properties":{"zip":"49315","geo_score":0.714,"count":1,"id":"a69kalf8nxyu","geo_precision":"zip"},"type":"Feature","geometry":{"type":"Point","coordinates":[-85.663636,42.782808]}},{"properties":{"zip":"50219","geo_score":0.714,"count":1,"id":"a69kalr80f52","geo_precision":"zip"},"type":"Feature","geometry":{"type":"Point","coordinates":[-92.801306,41.461943]}},{"properties":{"zip":"50616","geo_score":0.714,"count":1,"id":"a69kalpfyt30","geo_precision":"zip"},"type":"Feature","geometry":{"type":"Point","coordinates":[-92.605464,43.005251]}},{"properties":{"zip":"52241","geo_score":0.714,"count":1,"id":"a69kaljgi6qf","geo_precision":"zip"},"type":"Feature","geometry":{"type":"Point","coordinates":[-91.6332,41.699942]}},{"properties":{"zip":"52401","geo_score":0.714,"count":1,"id":"a69kalhneuyq","geo_precision":"zip"},"type":"Feature","geometry":{"type":"Point","coordinates":[-91.643232,41.865285]}},{"properties":{"zip":"52402","geo_score":0.714,"count":1,"id":"a69kalq0c1h8","geo_precision":"zip"},"type":"Feature","geometry":{"type":"Point","coordinates":[-91.681029,42.020105]}},{"properties":{"zip":"53037","geo_score":0.714,"count":1,"id":"a69kalctmb7w","geo_precision":"zip"},"type":"Feature","geometry":{"type":"Point","coordinates":[-88.19676,43.329169]}},{"properties":{"zip":"55107","geo_score":0.714,"count":1,"id":"a69kalde6tqa","geo_precision":"zip"},"type":"Feature","geometry":{"type":"Point","coordinates":[-93.087967,44.932465]}},{"properties":{"zip":"58103","geo_score":0.714,"count":1,"id":"a69kalhmfjk3","geo_precision":"zip"},"type":"Feature","geometry":{"type":"Point","coordinates":[-96.825841,46.832152]}},{"properties":{"zip":"58849","geo_score":0.714,"count":1,"id":"a69kaljamntu","geo_precision":"zip"},"type":"Feature","geometry":{"type":"Point","coordinates":[-103.252408,48.29641]}},{"properties":{"zip":"59436","geo_score":0.714,"count":1,"id":"a69kalpnols1","geo_precision":"zip"},"type":"Feature","geometry":{"type":"Point","coordinates":[-111.859438,47.639953]}},{"properties":{"zip":"59715","geo_score":0.714,"count":1,"id":"a69kalluw8gw","geo_precision":"zip"},"type":"Feature","geometry":{"type":"Point","coordinates":[-111.168212,45.809998]}},{"properties":{"zip":"60012","geo_score":0.714,"count":1,"id":"a69kalnomfv5","geo_precision":"zip"},"type":"Feature","geometry":{"type":"Point","coordinates":[-88.361476,42.268356]}},{"properties":{"zip":"60047","geo_score":0.714,"count":2,"id":"a69kalt01q58","geo_precision":"zip"},"type":"Feature","geometry":{"type":"Point","coordinates":[-88.047853,42.170581]}},{"properties":{"zip":"60050","geo_score":0.714,"count":1,"id":"a69kalsn36yj","geo_precision":"zip"},"type":"Feature","geometry":{"type":"Point","coordinates":[-88.226198,42.389465]}},{"properties":{"zip":"60053","geo_score":0.714,"count":1,"id":"a69kalpelhh4","geo_precision":"zip"},"type":"Feature","geometry":{"type":"Point","coordinates":[-87.793815,42.039329]}},{"properties":{"zip":"60178","geo_score":0.714,"count":1,"id":"a69kalt7afh1","geo_precision":"zip"},"type":"Feature","geometry":{"type":"Point","coordinates":[-88.631477,42.066415]}},{"properties":{"zip":"60445","geo_score":0.714,"count":1,"id":"a69kalnfiyg9","geo_precision":"zip"},"type":"Feature","geometry":{"type":"Point","coordinates":[-87.752551,41.661144]}},{"properties":{"zip":"60477","geo_score":0.714,"count":1,"id":"a69kali4io6a","geo_precision":"zip"},"type":"Feature","geometry":{"type":"Point","coordinates":[-87.843108,41.585311]}},{"properties":{"zip":"60502","geo_score":0.0,"count":1,"id":"a69kalryrizt","geo_precision":"unmatched"},"type":"Feature","geometry":null},{"properties":{"zip":"60527","geo_score":0.714,"count":1,"id":"a69kalt509a3","geo_precision":"zip"},"type":"Feature","geometry":{"type":"Point","coordinates":[-88.088716,41.839679]}},{"properties":{"zip":"60631","geo_score":0.714,"count":1,"id":"a69kaldyc96z","geo_precision":"zip"},"type":"Feature","geometry":{"type":"Point","coordinates":[-87.808611,42.00583]}},{"properties":{"zip":"63026","geo_score":0.714,"count":1,"id":"a69kalt7qn87","geo_precision":"zip"},"type":"Feature","geometry":{"type":"Point","coordinates":[-90.487066,38.490332]}},{"properties":{"zip":"63376","geo_score":0.714,"count":1,"id":"a69kalkuyr70","geo_precision":"zip"},"type":"Feature","geometry":{"type":"Point","coordinates":[-90.661514,38.760608]}},{"properties":{"zip":"66111","geo_score":0.714,"count":1,"id":"a69kalsmt4dy","geo_precision":"zip"},"type":"Feature","geometry":{"type":"Point","coordinates":[-94.801629,39.062504]}},{"properties":{"zip":"68144","geo_score":0.714,"count":1,"id":"a69kalhjzwsk","geo_precision":"zip"},"type":"Feature","geometry":{"type":"Point","coordinates":[-96.118847,41.233498]}},{"properties":{"zip":"68434","geo_score":0.714,"count":1,"id":"a69kalhas5ao","geo_precision":"zip"},"type":"Feature","geometry":{"type":"Point","coordinates":[-97.225042,40.893899]}},{"properties":{"zip":"70001","geo_score":0.714,"count":1,"id":"a69kalg0e8pd","geo_precision":"zip"},"type":"Feature","geometry":{"type":"Point","coordinates":[-90.161821,29.984643]}},{"properties":{"zip":"71635","geo_score":0.714,"count":1,"id":"a69kalomi9dl","geo_precision":"zip"},"type":"Feature","geometry":{"type":"Point","coordinates":[-91.995687,33.014014]}},{"properties":{"zip":"73103","geo_score":0.714,"count":1,"id":"a69kalqmb9fe","geo_precision":"zip"},"type":"Feature","geometry":{"type":"Point","coordinates":[-97.486407,35.549197]}},{"properties":{"zip":"73703","geo_score":0.714,"count":1,"id":"a69kals1rnvw","geo_precision":"zip"},"type":"Feature","geometry":{"type":"Point","coordinates":[-97.943813,36.398065]}},{"properties":{"zip":"74012","geo_score":0.714,"count":1,"id":"a69kalqcxf3p","geo_precision":"zip"},"type":"Feature","geometry":{"type":"Point","coordinates":[-95.864712,36.073708]}},{"properties":{"zip":"74019","geo_score":0.0,"count":1,"id":"a69kalp3xenk","geo_precision":"unmatched"},"type":"Feature","geometry":null},{"properties":{"zip":"74076","geo_score":0.714,"count":2,"id":"a69kalso0p5u","geo_precision":"zip"},"type":"Feature","geometry":{"type":"Point","coordinates":[-97.055141,36.072372]}},{"properties":{"zip":"74135","geo_score":0.714,"count":1,"id":"a69kalrdi1mb","geo_precision":"zip"},"type":"Feature","geometry":{"type":"Point","coordinates":[-95.923175,36.092236]}},{"properties":{"zip":"74136","geo_score":0.714,"count":1,"id":"a69kalhk0lnt","geo_precision":"zip"},"type":"Feature","geometry":{"type":"Point","coordinates":[-95.920371,36.053498]}},{"properties":{"zip":"74146","geo_score":0.714,"count":1,"id":"a69kalmcucve","geo_precision":"zip"},"type":"Feature","geometry":{"type":"Point","coordinates":[-95.846066,36.097046]}},{"properties":{"zip":"75074","geo_score":0.714,"count":1,"id":"a69kalknwwic","geo_precision":"zip"},"type":"Feature","geometry":{"type":"Point","coordinates":[-96.794723,33.027344]}},{"properties":{"zip":"75082","geo_score":0.714,"count":1,"id":"a69kaldb2siw","geo_precision":"zip"},"type":"Feature","geometry":{"type":"Point","coordinates":[-96.69137,32.979315]}},{"properties":{"zip":"75165","geo_score":0.714,"count":1,"id":"a69kalkkkc4h","geo_precision":"zip"},"type":"Feature","geometry":{"type":"Point","coordinates":[-96.831387,32.474028]}},{"properties":{"zip":"75238","geo_score":0.714,"count":1,"id":"a69kaljs9y3b","geo_precision":"zip"},"type":"Feature","geometry":{"type":"Point","coordinates":[-96.704725,32.878923]}},{"properties":{"zip":"75601","geo_score":0.714,"count":1,"id":"a69kalf5kawy","geo_precision":"zip"},"type":"Feature","geometry":{"type":"Point","coordinates":[-94.807991,32.537368]}},{"properties":{"zip":"76248","geo_score":0.714,"count":1,"id":"a69kalk21b9u","geo_precision":"zip"},"type":"Feature","geometry":{"type":"Point","coordinates":[-97.195014,32.991235]}},{"properties":{"zip":"76903","geo_score":0.714,"count":1,"id":"a69kalnsndya","geo_precision":"zip"},"type":"Feature","geometry":{"type":"Point","coordinates":[-100.301959,31.505333]}},{"properties":{"zip":"77002","geo_score":0.714,"count":1,"id":"a69kalhvf6f2","geo_precision":"zip"},"type":"Feature","geometry":{"type":"Point","coordinates":[-95.302435,29.91189]}},{"properties":{"zip":"77208","geo_score":0.714,"count":1,"id":"a69kalks3dql","geo_precision":"zip"},"type":"Feature","geometry":{"type":"Point","coordinates":[-95.434241,29.83399]}},{"properties":{"zip":"77234","geo_score":0.714,"count":1,"id":"a69kalngrka6","geo_precision":"zip"},"type":"Feature","geometry":{"type":"Point","coordinates":[-95.434241,29.83399]}},{"properties":{"zip":"77566","geo_score":0.714,"count":1,"id":"a69kalgscyqh","geo_precision":"zip"},"type":"Feature","geometry":{"type":"Point","coordinates":[-95.471609,29.057746]}},{"properties":{"zip":"78041","geo_score":0.714,"count":1,"id":"a69kalk07q0k","geo_precision":"zip"},"type":"Feature","geometry":{"type":"Point","coordinates":[-99.475079,27.556714]}},{"properties":{"zip":"78043","geo_score":0.714,"count":1,"id":"a69kalmeqh1l","geo_precision":"zip"},"type":"Feature","geometry":{"type":"Point","coordinates":[-99.480042,27.364189]}},{"properties":{"zip":"78521","geo_score":0.714,"count":1,"id":"a69kalikvg1a","geo_precision":"zip"},"type":"Feature","geometry":{"type":"Point","coordinates":[-97.5069,26.098629]}},{"properties":{"zip":"78701","geo_score":0.714,"count":1,"id":"a69kalizcdpx","geo_precision":"zip"},"type":"Feature","geometry":{"type":"Point","coordinates":[-97.741382,30.268335]}},{"properties":{"zip":"79424","geo_score":0.714,"count":1,"id":"a69kalj9ykc9","geo_precision":"zip"},"type":"Feature","geometry":{"type":"Point","coordinates":[-101.983125,33.492483]}},{"properties":{"zip":"79912","geo_score":0.714,"count":1,"id":"a69kalm1b8nr","geo_precision":"zip"},"type":"Feature","geometry":{"type":"Point","coordinates":[-106.364151,31.741777]}},{"properties":{"zip":"80111","geo_score":0.714,"count":1,"id":"a69kalscqn42","geo_precision":"zip"},"type":"Feature","geometry":{"type":"Point","coordinates":[-104.864703,39.666811]}},{"properties":{"zip":"80234","geo_score":0.714,"count":1,"id":"a69kalmwotxu","geo_precision":"zip"},"type":"Feature","geometry":{"type":"Point","coordinates":[-105.08665,39.920541]}},{"properties":{"zip":"80516","geo_score":0.714,"count":1,"id":"a69kaloctsmt","geo_precision":"zip"},"type":"Feature","geometry":{"type":"Point","coordinates":[-104.923481,40.062204]}},{"properties":{"zip":"80517","geo_score":0.714,"count":1,"id":"a69kalodpcu4","geo_precision":"zip"},"type":"Feature","geometry":{"type":"Point","coordinates":[-105.544444,40.364428]}},{"properties":{"zip":"80907","geo_score":0.714,"count":1,"id":"a69kalo91nox","geo_precision":"zip"},"type":"Feature","geometry":{"type":"Point","coordinates":[-104.81942,38.873604]}},{"properties":{"zip":"81224","geo_score":0.714,"count":1,"id":"a69kaljggqcx","geo_precision":"zip"},"type":"Feature","geometry":{"type":"Point","coordinates":[-106.94868,38.880713]}},{"properties":{"zip":"81230","geo_score":0.714,"count":1,"id":"a69kalo2xpxq","geo_precision":"zip"},"type":"Feature","geometry":{"type":"Point","coordinates":[-106.609477,38.45166]}},{"properties":{"zip":"81611","geo_score":0.714,"count":1,"id":"a69kalpvaao1","geo_precision":"zip"},"type":"Feature","geometry":{"type":"Point","coordinates":[-106.776744,39.169324]}},{"properties":{"zip":"81632","geo_score":0.714,"count":1,"id":"a69kallkcu24","geo_precision":"zip"},"type":"Feature","geometry":{"type":"Point","coordinates":[-106.620644,39.638166]}},{"properties":{"zip":"81657","geo_score":0.714,"count":1,"id":"a69kalmbkubl","geo_precision":"zip"},"type":"Feature","geometry":{"type":"Point","coordinates":[-106.414752,39.630264]}},{"properties":{"zip":"82901","geo_score":0.714,"count":1,"id":"a69kalo4xxt8","geo_precision":"zip"},"type":"Feature","geometry":{"type":"Point","coordinates":[-108.817058,40.918017]}},{"properties":{"zip":"83001","geo_score":0.714,"count":1,"id":"a69kalgd4unf","geo_precision":"zip"},"type":"Feature","geometry":{"type":"Point","coordinates":[-110.739266,43.452793]}},{"properties":{"zip":"83816","geo_score":0.714,"count":1,"id":"a69kalgr9s6f","geo_precision":"zip"},"type":"Feature","geometry":{"type":"Point","coordinates":[-116.682718,47.678798]}},{"properties":{"zip":"84092","geo_score":0.714,"count":1,"id":"a69kaljf0e1n","geo_precision":"zip"},"type":"Feature","geometry":{"type":"Point","coordinates":[-111.637979,40.588839]}},{"properties":{"zip":"84603","geo_score":0.714,"count":1,"id":"a69kaldx6ffy","geo_precision":"zip"},"type":"Feature","geometry":{"type":"Point","coordinates":[-111.626081,40.203908]}},{"properties":{"zip":"84720","geo_score":0.714,"count":1,"id":"a69kalg0lru3","geo_precision":"zip"},"type":"Feature","geometry":{"type":"Point","coordinates":[-113.431632,38.007469]}},{"properties":{"zip":"85014","geo_score":0.714,"count":1,"id":"a69kalf816b1","geo_precision":"zip"},"type":"Feature","geometry":{"type":"Point","coordinates":[-112.18717,33.276539]}},{"properties":{"zip":"85027","geo_score":0.714,"count":1,"id":"a69kalrxeu55","geo_precision":"zip"},"type":"Feature","geometry":{"type":"Point","coordinates":[-112.135991,33.915869]}},{"properties":{"zip":"85038","geo_score":0.714,"count":1,"id":"a69kalnz4hgh","geo_precision":"zip"},"type":"Feature","geometry":{"type":"Point","coordinates":[-112.18717,33.276539]}},{"properties":{"zip":"85040","geo_score":0.714,"count":2,"id":"a69kaliq4arf","geo_precision":"zip"},"type":"Feature","geometry":{"type":"Point","coordinates":[-112.066878,33.367267]}},{"properties":{"zip":"85044","geo_score":0.714,"count":1,"id":"a69kalewresf","geo_precision":"zip"},"type":"Feature","geometry":{"type":"Point","coordinates":[-111.984033,33.341714]}},{"properties":{"zip":"85283","geo_score":0.714,"count":2,"id":"a69kalgcrpz1","geo_precision":"zip"},"type":"Feature","geometry":{"type":"Point","coordinates":[-111.962922,33.37088]}},{"properties":{"zip":"85284","geo_score":0.714,"count":1,"id":"a69kaljkjpv8","geo_precision":"zip"},"type":"Feature","geometry":{"type":"Point","coordinates":[-111.914127,33.343546]}},{"properties":{"zip":"85323","geo_score":0.714,"count":1,"id":"a69kalkl2uu9","geo_precision":"zip"},"type":"Feature","geometry":{"type":"Point","coordinates":[-112.18717,33.276539]}},{"properties":{"zip":"85390","geo_score":0.714,"count":1,"id":"a69kallmr89l","geo_precision":"zip"},"type":"Feature","geometry":{"type":"Point","coordinates":[-112.18717,33.276539]}},{"properties":{"zip":"85621","geo_score":0.714,"count":1,"id":"a69kalmv6dxy","geo_precision":"zip"},"type":"Feature","geometry":{"type":"Point","coordinates":[-110.188411,31.723146]}},{"properties":{"zip":"85752","geo_score":0.714,"count":1,"id":"a69kali5ceen","geo_precision":"zip"},"type":"Feature","geometry":{"type":"Point","coordinates":[-111.890713,31.970131]}},{"properties":{"zip":"86334","geo_score":0.714,"count":1,"id":"a69kallc7vsv","geo_precision":"zip"},"type":"Feature","geometry":{"type":"Point","coordinates":[-112.376282,34.981407]}},{"properties":{"zip":"86401","geo_score":0.714,"count":1,"id":"a69kalkuyvsx","geo_precision":"zip"},"type":"Feature","geometry":{"type":"Point","coordinates":[-114.25968,35.396939]}},{"properties":{"zip":"86404","geo_score":0.714,"count":1,"id":"a69kaljfkxdc","geo_precision":"zip"},"type":"Feature","geometry":{"type":"Point","coordinates":[-114.330704,34.557533]}},{"properties":{"zip":"87015","geo_score":0.714,"count":1,"id":"a69kalj1ego1","geo_precision":"zip"},"type":"Feature","geometry":{"type":"Point","coordinates":[-106.125117,35.134731]}},{"properties":{"zip":"87103","geo_score":0.714,"count":1,"id":"a69kalqfrpyy","geo_precision":"zip"},"type":"Feature","geometry":{"type":"Point","coordinates":[-106.672872,35.044339]}},{"properties":{"zip":"88001","geo_score":0.714,"count":1,"id":"a69kalnt2875","geo_precision":"zip"},"type":"Feature","geometry":{"type":"Point","coordinates":[-106.854065,32.41467]}},{"properties":{"zip":"88007","geo_score":0.714,"count":1,"id":"a69kaljwoai9","geo_precision":"zip"},"type":"Feature","geometry":{"type":"Point","coordinates":[-106.944511,32.424266]}},{"properties":{"zip":"89102","geo_score":0.714,"count":1,"id":"a69kalhu52bj","geo_precision":"zip"},"type":"Feature","geometry":{"type":"Point","coordinates":[-115.390646,36.281327]}},{"properties":{"zip":"89117","geo_score":0.714,"count":2,"id":"a69kaleytxdw","geo_precision":"zip"},"type":"Feature","geometry":{"type":"Point","coordinates":[-115.217932,36.130992]}},{"properties":{"zip":"89120","geo_score":0.714,"count":1,"id":"a69kalqw6ijg","geo_precision":"zip"},"type":"Feature","geometry":{"type":"Point","coordinates":[-115.367158,36.310827]}},{"properties":{"zip":"89502","geo_score":0.714,"count":1,"id":"a69kalji4f85","geo_precision":"zip"},"type":"Feature","geometry":{"type":"Point","coordinates":[-119.717965,39.491856]}},{"properties":{"zip":"89721","geo_score":0.714,"count":1,"id":"a69kalkdqtxu","geo_precision":"zip"},"type":"Feature","geometry":{"type":"Point","coordinates":[-119.776409,39.167833]}},{"properties":{"zip":"90010","geo_score":0.714,"count":1,"id":"a69kalntbu6o","geo_precision":"zip"},"type":"Feature","geometry":{"type":"Point","coordinates":[-118.298662,33.786594]}},{"properties":{"zip":"90025","geo_score":0.714,"count":1,"id":"a69kallas1e0","geo_precision":"zip"},"type":"Feature","geometry":{"type":"Point","coordinates":[-118.448135,34.046399]}},{"properties":{"zip":"90248","geo_score":0.714,"count":1,"id":"a69kalke92uu","geo_precision":"zip"},"type":"Feature","geometry":{"type":"Point","coordinates":[-118.269605,33.877165]}},{"properties":{"zip":"90401","geo_score":0.714,"count":1,"id":"a69kalfv2433","geo_precision":"zip"},"type":"Feature","geometry":{"type":"Point","coordinates":[-118.298662,33.786594]}},{"properties":{"zip":"90504","geo_score":0.714,"count":1,"id":"a69kalqilf1w","geo_precision":"zip"},"type":"Feature","geometry":{"type":"Point","coordinates":[-118.298662,33.786594]}},{"properties":{"zip":"90602","geo_score":0.714,"count":1,"id":"a69kalsdbm1g","geo_precision":"zip"},"type":"Feature","geometry":{"type":"Point","coordinates":[-118.036578,33.971839]}},{"properties":{"zip":"90630","geo_score":0.714,"count":1,"id":"a69kalh9nfie","geo_precision":"zip"},"type":"Feature","geometry":{"type":"Point","coordinates":[-118.023952,33.82446]}},{"properties":{"zip":"90703","geo_score":0.714,"count":1,"id":"a69kalhotijx","geo_precision":"zip"},"type":"Feature","geometry":{"type":"Point","coordinates":[-118.068648,33.866914]}},{"properties":{"zip":"90807","geo_score":0.714,"count":1,"id":"a69kalm653vj","geo_precision":"zip"},"type":"Feature","geometry":{"type":"Point","coordinates":[-118.181102,33.831466]}},{"properties":{"zip":"91302","geo_score":0.714,"count":1,"id":"a69kalg6f0bu","geo_precision":"zip"},"type":"Feature","geometry":{"type":"Point","coordinates":[-118.687031,34.08084]}},{"properties":{"zip":"91355","geo_score":0.714,"count":1,"id":"a69kalmmg7qn","geo_precision":"zip"},"type":"Feature","geometry":{"type":"Point","coordinates":[-118.298662,33.786594]}},{"properties":{"zip":"91406","geo_score":0.714,"count":1,"id":"a69kaldy6nf9","geo_precision":"zip"},"type":"Feature","geometry":{"type":"Point","coordinates":[-118.298662,33.786594]}},{"properties":{"zip":"91505","geo_score":0.714,"count":1,"id":"a69kalegw3oc","geo_precision":"zip"},"type":"Feature","geometry":{"type":"Point","coordinates":[-118.347301,34.167784]}},{"properties":{"zip":"91506","geo_score":0.714,"count":1,"id":"a69kaln3p3pu","geo_precision":"zip"},"type":"Feature","geometry":{"type":"Point","coordinates":[-118.298662,33.786594]}},{"properties":{"zip":"91702","geo_score":0.714,"count":1,"id":"a69kalp9w6kl","geo_precision":"zip"},"type":"Feature","geometry":{"type":"Point","coordinates":[-118.298662,33.786594]}},{"properties":{"zip":"91710","geo_score":0.714,"count":1,"id":"a69kalgpm43a","geo_precision":"zip"},"type":"Feature","geometry":{"type":"Point","coordinates":[-117.778668,33.947792]}},{"properties":{"zip":"91724","geo_score":0.714,"count":1,"id":"a69kaleq7ovb","geo_precision":"zip"},"type":"Feature","geometry":{"type":"Point","coordinates":[-117.845894,34.103065]}},{"properties":{"zip":"91750","geo_score":0.714,"count":1,"id":"a69kals79qms","geo_precision":"zip"},"type":"Feature","geometry":{"type":"Point","coordinates":[-118.298662,33.786594]}},{"properties":{"zip":"91768","geo_score":0.714,"count":1,"id":"a69kalj98fs8","geo_precision":"zip"},"type":"Feature","geometry":{"type":"Point","coordinates":[-118.298662,33.786594]}},{"properties":{"zip":"91911","geo_score":0.714,"count":1,"id":"a69kalhrkbnt","geo_precision":"zip"},"type":"Feature","geometry":{"type":"Point","coordinates":[-117.034012,32.615983]}},{"properties":{"zip":"92007","geo_score":0.714,"count":1,"id":"a69kalsvwktw","geo_precision":"zip"},"type":"Feature","geometry":{"type":"Point","coordinates":[-117.274469,33.023042]}},{"properties":{"zip":"92008","geo_score":0.714,"count":1,"id":"a69kalpq2rvi","geo_precision":"zip"},"type":"Feature","geometry":{"type":"Point","coordinates":[-116.846046,33.016928]}},{"properties":{"zip":"92038","geo_score":0.714,"count":1,"id":"a69kalsoh21m","geo_precision":"zip"},"type":"Feature","geometry":{"type":"Point","coordinates":[-116.846046,33.016928]}},{"properties":{"zip":"92056","geo_score":0.714,"count":1,"id":"a69kalj2auj0","geo_precision":"zip"},"type":"Feature","geometry":{"type":"Point","coordinates":[-116.846046,33.016928]}},{"properties":{"zip":"92071","geo_score":0.714,"count":1,"id":"a69kalhtf883","geo_precision":"zip"},"type":"Feature","geometry":{"type":"Point","coordinates":[-116.994511,32.843956]}},{"properties":{"zip":"92084","geo_score":0.714,"count":1,"id":"a69kaleq01b8","geo_precision":"zip"},"type":"Feature","geometry":{"type":"Point","coordinates":[-116.846046,33.016928]}},{"properties":{"zip":"92121","geo_score":0.714,"count":3,"id":"a69kalsvhah0","geo_precision":"zip"},"type":"Feature","geometry":{"type":"Point","coordinates":[-117.207828,32.90391]}},{"properties":{"zip":"92126","geo_score":0.714,"count":1,"id":"a69kaljc9yz2","geo_precision":"zip"},"type":"Feature","geometry":{"type":"Point","coordinates":[-117.143923,32.915602]}},{"properties":{"zip":"92131","geo_score":0.714,"count":1,"id":"a69kalmt26uj","geo_precision":"zip"},"type":"Feature","geometry":{"type":"Point","coordinates":[-117.088322,32.874916]}},{"properties":{"zip":"92395","geo_score":0.0,"count":1,"id":"a69kald1c5ib","geo_precision":"unmatched"},"type":"Feature","geometry":null},{"properties":{"zip":"92562","geo_score":0.714,"count":1,"id":"a69kalgzt40l","geo_precision":"zip"},"type":"Feature","geometry":{"type":"Point","coordinates":[-116.861027,33.44204]}},{"properties":{"zip":"92614","geo_score":0.714,"count":1,"id":"a69kalf5f0vb","geo_precision":"zip"},"type":"Feature","geometry":{"type":"Point","coordinates":[-117.827913,33.685319]}},{"properties":{"zip":"92618","geo_score":0.714,"count":1,"id":"a69kalr1lovt","geo_precision":"zip"},"type":"Feature","geometry":{"type":"Point","coordinates":[-117.73269,33.641579]}},{"properties":{"zip":"92672","geo_score":0.714,"count":1,"id":"a69kalgnayee","geo_precision":"zip"},"type":"Feature","geometry":{"type":"Point","coordinates":[-117.573102,33.381141]}},{"properties":{"zip":"92673","geo_score":0.714,"count":1,"id":"a69kalswv2u6","geo_precision":"zip"},"type":"Feature","geometry":{"type":"Point","coordinates":[-117.625076,33.459745]}},{"properties":{"zip":"92705","geo_score":0.714,"count":1,"id":"a69kalpnrj2n","geo_precision":"zip"},"type":"Feature","geometry":{"type":"Point","coordinates":[-117.79811,33.777795]}},{"properties":{"zip":"92799","geo_score":0.714,"count":1,"id":"a69kals1i2ej","geo_precision":"zip"},"type":"Feature","geometry":{"type":"Point","coordinates":[-117.769442,33.640302]}},{"properties":{"zip":"92806","geo_score":0.714,"count":1,"id":"a69kalpp44hw","geo_precision":"zip"},"type":"Feature","geometry":{"type":"Point","coordinates":[-117.769442,33.640302]}},{"properties":{"zip":"92807","geo_score":0.714,"count":1,"id":"a69kalg144rx","geo_precision":"zip"},"type":"Feature","geometry":{"type":"Point","coordinates":[-117.777277,33.84446]}},{"properties":{"zip":"92833","geo_score":0.714,"count":1,"id":"a69kalrucpo8","geo_precision":"zip"},"type":"Feature","geometry":{"type":"Point","coordinates":[-117.769442,33.640302]}},{"properties":{"zip":"93003","geo_score":0.714,"count":1,"id":"a69kalevn9xk","geo_precision":"zip"},"type":"Feature","geometry":{"type":"Point","coordinates":[-119.221299,34.230353]}},{"properties":{"zip":"93006","geo_score":0.714,"count":1,"id":"a69kalo6li21","geo_precision":"zip"},"type":"Feature","geometry":{"type":"Point","coordinates":[-119.1343,34.032383]}},{"properties":{"zip":"93010","geo_score":0.714,"count":1,"id":"a69kalm8svtd","geo_precision":"zip"},"type":"Feature","geometry":{"type":"Point","coordinates":[-119.095938,34.22056]}},{"properties":{"zip":"93012","geo_score":0.714,"count":1,"id":"a69kaleegwny","geo_precision":"zip"},"type":"Feature","geometry":{"type":"Point","coordinates":[-118.974355,34.204429]}},{"properties":{"zip":"93021","geo_score":0.714,"count":2,"id":"a69kalinvok0","geo_precision":"zip"},"type":"Feature","geometry":{"type":"Point","coordinates":[-118.858429,34.28778]}},{"properties":{"zip":"93023","geo_score":0.714,"count":1,"id":"a69kalejly55","geo_precision":"zip"},"type":"Feature","geometry":{"type":"Point","coordinates":[-119.291503,34.508047]}},{"properties":{"zip":"93111","geo_score":0.714,"count":1,"id":"a69kalsn9dhh","geo_precision":"zip"},"type":"Feature","geometry":{"type":"Point","coordinates":[-119.798472,34.453046]}},{"properties":{"zip":"93117","geo_score":0.714,"count":1,"id":"a69kalfbpd0v","geo_precision":"zip"},"type":"Feature","geometry":{"type":"Point","coordinates":[-120.22904,34.508044]}},{"properties":{"zip":"93268","geo_score":0.714,"count":1,"id":"a69kalnku7ee","geo_precision":"zip"},"type":"Feature","geometry":{"type":"Point","coordinates":[-119.406783,35.206076]}},{"properties":{"zip":"93401","geo_score":0.714,"count":2,"id":"a69kalqc0d2h","geo_precision":"zip"},"type":"Feature","geometry":{"type":"Point","coordinates":[-120.846846,35.318308]}},{"properties":{"zip":"93422","geo_score":0.714,"count":1,"id":"a69kalr7lrqs","geo_precision":"zip"},"type":"Feature","geometry":{"type":"Point","coordinates":[-120.606279,35.418029]}},{"properties":{"zip":"93436","geo_score":0.714,"count":1,"id":"a69kalq1nidp","geo_precision":"zip"},"type":"Feature","geometry":{"type":"Point","coordinates":[-120.467664,34.708316]}},{"properties":{"zip":"93444","geo_score":0.714,"count":1,"id":"a69kalstkqc8","geo_precision":"zip"},"type":"Feature","geometry":{"type":"Point","coordinates":[-120.494812,35.048397]}},{"properties":{"zip":"93465","geo_score":0.714,"count":1,"id":"a69kalnj0mc8","geo_precision":"zip"},"type":"Feature","geometry":{"type":"Point","coordinates":[-120.65385,35.517781]}},{"properties":{"zip":"93644","geo_score":0.714,"count":1,"id":"a69kalgzozqw","geo_precision":"zip"},"type":"Feature","geometry":{"type":"Point","coordinates":[-119.634318,37.441051]}},{"properties":{"zip":"93902","geo_score":0.714,"count":1,"id":"a69kalkplj89","geo_precision":"zip"},"type":"Feature","geometry":{"type":"Point","coordinates":[-121.132928,36.35433]}},{"properties":{"zip":"93940","geo_score":0.714,"count":1,"id":"a69kalir4yjz","geo_precision":"zip"},"type":"Feature","geometry":{"type":"Point","coordinates":[-121.902177,36.614682]}},{"properties":{"zip":"94018","geo_score":0.714,"count":1,"id":"a69kalnbnbzw","geo_precision":"zip"},"type":"Feature","geometry":{"type":"Point","coordinates":[-122.486922,37.504941]}},{"properties":{"zip":"94025","geo_score":0.714,"count":1,"id":"a69kalf9ma8s","geo_precision":"zip"},"type":"Feature","geometry":{"type":"Point","coordinates":[-122.203021,37.43355]}},{"properties":{"zip":"94035","geo_score":0.714,"count":2,"id":"a69kalilrakk","geo_precision":"zip"},"type":"Feature","geometry":{"type":"Point","coordinates":[-121.705327,37.189396]}},{"properties":{"zip":"94043","geo_score":0.714,"count":1,"id":"a69kals9dv8e","geo_precision":"zip"},"type":"Feature","geometry":{"type":"Point","coordinates":[-121.705327,37.189396]}},{"properties":{"zip":"94063","geo_score":0.714,"count":1,"id":"a69kalhqs8xd","geo_precision":"zip"},"type":"Feature","geometry":{"type":"Point","coordinates":[-122.212846,37.490387]}},{"properties":{"zip":"94065","geo_score":0.714,"count":1,"id":"a69kale25rsu","geo_precision":"zip"},"type":"Feature","geometry":{"type":"Point","coordinates":[-122.247806,37.53256]}},{"properties":{"zip":"94066","geo_score":0.714,"count":1,"id":"a69kalhplkfq","geo_precision":"zip"},"type":"Feature","geometry":{"type":"Point","coordinates":[-122.404417,37.616602]}},{"properties":{"zip":"94107","geo_score":0.714,"count":1,"id":"a69kallgi8mt","geo_precision":"zip"},"type":"Feature","geometry":{"type":"Point","coordinates":[-122.393681,37.769029]}},{"properties":{"zip":"94109","geo_score":0.714,"count":1,"id":"a69kaloh88vt","geo_precision":"zip"},"type":"Feature","geometry":{"type":"Point","coordinates":[-122.420782,37.795219]}},{"properties":{"zip":"94133","geo_score":0.714,"count":1,"id":"a69kaledxcuz","geo_precision":"zip"},"type":"Feature","geometry":{"type":"Point","coordinates":[-122.412193,37.805762]}},{"properties":{"zip":"94403","geo_score":0.714,"count":1,"id":"a69kalog6miz","geo_precision":"zip"},"type":"Feature","geometry":{"type":"Point","coordinates":[-122.304079,37.541486]}},{"properties":{"zip":"94501","geo_score":0.714,"count":1,"id":"a69kalg56aeu","geo_precision":"zip"},"type":"Feature","geometry":{"type":"Point","coordinates":[-122.264779,37.770563]}},{"properties":{"zip":"94538","geo_score":0.714,"count":4,"id":"a69kalm5cxh0","geo_precision":"zip"},"type":"Feature","geometry":{"type":"Point","coordinates":[-121.95832,37.509453]}},{"properties":{"zip":"94556","geo_score":0.714,"count":1,"id":"a69kalibgy2q","geo_precision":"zip"},"type":"Feature","geometry":{"type":"Point","coordinates":[-122.099224,37.838926]}},{"properties":{"zip":"94579","geo_score":0.714,"count":1,"id":"a69kalqj2z8g","geo_precision":"zip"},"type":"Feature","geometry":{"type":"Point","coordinates":[-122.147425,37.688518]}},{"properties":{"zip":"94583","geo_score":0.714,"count":2,"id":"a69kaljk8oey","geo_precision":"zip"},"type":"Feature","geometry":{"type":"Point","coordinates":[-121.975531,37.768556]}},{"properties":{"zip":"94585","geo_score":0.714,"count":1,"id":"a69kalmimnwg","geo_precision":"zip"},"type":"Feature","geometry":{"type":"Point","coordinates":[-122.122191,38.244082]}},{"properties":{"zip":"94949","geo_score":0.714,"count":1,"id":"a69kalh3md3t","geo_precision":"zip"},"type":"Feature","geometry":{"type":"Point","coordinates":[-122.549702,38.06881]}},{"properties":{"zip":"94954","geo_score":0.714,"count":1,"id":"a69kalhigwr5","geo_precision":"zip"},"type":"Feature","geometry":{"type":"Point","coordinates":[-122.574526,38.225816]}},{"properties":{"zip":"94965","geo_score":0.714,"count":1,"id":"a69kallazmh4","geo_precision":"zip"},"type":"Feature","geometry":{"type":"Point","coordinates":[-122.581367,37.862149]}},{"properties":{"zip":"95014","geo_score":0.714,"count":1,"id":"a69kalfg7brj","geo_precision":"zip"},"type":"Feature","geometry":{"type":"Point","coordinates":[-122.003015,37.314942]}},{"properties":{"zip":"95020","geo_score":0.714,"count":1,"id":"a69kalkyx7cd","geo_precision":"zip"},"type":"Feature","geometry":{"type":"Point","coordinates":[-121.592165,37.054114]}},{"properties":{"zip":"95035","geo_score":0.714,"count":2,"id":"a69kalhl5wsx","geo_precision":"zip"},"type":"Feature","geometry":{"type":"Point","coordinates":[-121.861989,37.436454]}},{"properties":{"zip":"95112","geo_score":0.714,"count":1,"id":"a69kalhoran1","geo_precision":"zip"},"type":"Feature","geometry":{"type":"Point","coordinates":[-121.892093,37.37004]}},{"properties":{"zip":"95125","geo_score":0.714,"count":1,"id":"a69kalj7md7l","geo_precision":"zip"},"type":"Feature","geometry":{"type":"Point","coordinates":[-121.705327,37.189396]}},{"properties":{"zip":"95127","geo_score":0.714,"count":1,"id":"a69kalr7bg2f","geo_precision":"zip"},"type":"Feature","geometry":{"type":"Point","coordinates":[-121.817453,37.381051]}},{"properties":{"zip":"95132","geo_score":0.714,"count":1,"id":"a69kalkc42br","geo_precision":"zip"},"type":"Feature","geometry":{"type":"Point","coordinates":[-121.721615,37.198833]}},{"properties":{"zip":"95135","geo_score":0.714,"count":1,"id":"a69kals5ez9t","geo_precision":"zip"},"type":"Feature","geometry":{"type":"Point","coordinates":[-121.723862,37.272289]}},{"properties":{"zip":"95203","geo_score":0.714,"count":1,"id":"a69kalivhgsx","geo_precision":"zip"},"type":"Feature","geometry":{"type":"Point","coordinates":[-121.321707,37.954573]}},{"properties":{"zip":"95304","geo_score":0.714,"count":1,"id":"a69kalr6u367","geo_precision":"zip"},"type":"Feature","geometry":{"type":"Point","coordinates":[-121.253872,37.889849]}},{"properties":{"zip":"95373","geo_score":0.714,"count":1,"id":"a69kalsfs597","geo_precision":"zip"},"type":"Feature","geometry":{"type":"Point","coordinates":[-120.241412,37.986377]}},{"properties":{"zip":"95610","geo_score":0.714,"count":1,"id":"a69kalg92m71","geo_precision":"zip"},"type":"Feature","geometry":{"type":"Point","coordinates":[-121.26736,38.689802]}},{"properties":{"zip":"95619","geo_score":0.714,"count":1,"id":"a69kalidc20b","geo_precision":"zip"},"type":"Feature","geometry":{"type":"Point","coordinates":[-120.820021,38.629821]}},{"properties":{"zip":"95631","geo_score":0.714,"count":1,"id":"a69kalnhfqej","geo_precision":"zip"},"type":"Feature","geometry":{"type":"Point","coordinates":[-120.851602,38.997954]}},{"properties":{"zip":"95762","geo_score":0.714,"count":1,"id":"a69kaldog0rv","geo_precision":"zip"},"type":"Feature","geometry":{"type":"Point","coordinates":[-121.044846,38.686847]}},{"properties":{"zip":"95841","geo_score":0.714,"count":1,"id":"a69kalgowvmm","geo_precision":"zip"},"type":"Feature","geometry":{"type":"Point","coordinates":[-121.351144,38.678773]}},{"properties":{"zip":"96701","geo_score":0.714,"count":1,"id":"a69kalmll8fj","geo_precision":"zip"},"type":"Feature","geometry":{"type":"Point","coordinates":[-157.943333,21.404722]}},{"properties":{"zip":"96814","geo_score":0.714,"count":1,"id":"a69kalqyxsk2","geo_precision":"zip"},"type":"Feature","geometry":{"type":"Point","coordinates":[-157.829167,21.290556]}},{"properties":{"zip":"96819","geo_score":0.714,"count":1,"id":"a69kalmswq11","geo_precision":"zip"},"type":"Feature","geometry":{"type":"Point","coordinates":[-157.901979,21.373179]}},{"properties":{"zip":"97062","geo_score":0.714,"count":1,"id":"a69kalhn83wx","geo_precision":"zip"},"type":"Feature","geometry":{"type":"Point","coordinates":[-122.753984,45.359286]}},{"properties":{"zip":"97223","geo_score":0.714,"count":1,"id":"a69kalie2mp6","geo_precision":"zip"},"type":"Feature","geometry":{"type":"Point","coordinates":[-122.753431,45.465951]}},{"properties":{"zip":"97756","geo_score":0.714,"count":1,"id":"a69kalfmcb5v","geo_precision":"zip"},"type":"Feature","geometry":{"type":"Point","coordinates":[-121.45282,44.291227]}},{"properties":{"zip":"97761","geo_score":0.714,"count":1,"id":"a69kalhst5vi","geo_precision":"zip"},"type":"Feature","geometry":{"type":"Point","coordinates":[-121.350061,44.972894]}},{"properties":{"zip":"98001","geo_score":0.714,"count":1,"id":"a69kale08w9v","geo_precision":"zip"},"type":"Feature","geometry":{"type":"Point","coordinates":[-122.252065,47.27899]}},{"properties":{"zip":"98057","geo_score":0.714,"count":1,"id":"a69kalphiri7","geo_precision":"zip"},"type":"Feature","geometry":{"type":"Point","coordinates":[-121.803388,47.432251]}},{"properties":{"zip":"98093","geo_score":0.714,"count":1,"id":"a69kalfi7sx1","geo_precision":"zip"},"type":"Feature","geometry":{"type":"Point","coordinates":[-122.113791,47.311041]}},{"properties":{"zip":"98188","geo_score":0.714,"count":1,"id":"a69kalsqk2bq","geo_precision":"zip"},"type":"Feature","geometry":{"type":"Point","coordinates":[-122.294568,47.484266]}},{"properties":{"zip":"98424","geo_score":0.714,"count":1,"id":"a69kaljmlkfg","geo_precision":"zip"},"type":"Feature","geometry":{"type":"Point","coordinates":[-122.394567,47.240655]}},{"properties":{"zip":"99114","geo_score":0.714,"count":1,"id":"a69kalqhrsdi","geo_precision":"zip"},"type":"Feature","geometry":{"type":"Point","coordinates":[-117.650533,48.829635]}},{"properties":{"zip":"99518","geo_score":0.714,"count":1,"id":"a69kalrshia3","geo_precision":"zip"},"type":"Feature","geometry":{"type":"Point","coordinates":[-149.894338,61.157813]}}],"is_temporal":false,"author":{"url":"","metadata":"","contact_name":"","contact_address":"","source":"","contact_phone":""},"source":"","pagination":{"sort":null,"start":0,"total":319,"limit":1000000},"state":"complete","tags":"","published":"2014-08-10T11:16:06-04:00","id":80400}