{"type":"FeatureCollection","data_type":"Dataset","url_type":null,"permissions":[{"permissions":{"download":true,"view":true},"group_id":"everyone"}],"classification":null,"title":"Kaiser","count":6,"stream_id":80654,"contributor":{"url":"http://geocommons.com/users/15085","name":"tramdotcom"},"data_attributes":null,"calculation_params":null,"icon_link":null,"link":"http://geocommons.com/overlays/80654.json","extent":[-122.082,34.2382,-119.034,37.3891],"geometry_types":["point"],"unique_name":null,"name":"Kaiser","feature_count":6,"description":"","next_feature":null,"is_raster":false,"short_classification":"Y","stats":{"geo_score":{"max":1.0,"mean":0.893666666666667,"variance":0.0376442666666667,"stdev":0.194021304672107,"min":0.505,"median":0.992}},"features":[{"properties":{"name":"Campbell","city":"Campbell","geo_score":1.0,"zip code":"95008","id":"a694zjfo3jil","address":"200 East Hacienda Avenue","geo_precision":"range","state":"CA"},"type":"Feature","geometry":{"type":"Point","coordinates":[-121.95347,37.26791]}},{"properties":{"name":"Gilroy","city":"Gilroy","geo_score":0.902,"zip code":"95020","id":"a694zjh4bxvc","address":"7520 Arroyo Circle","geo_precision":"range","state":"CA"},"type":"Feature","geometry":{"type":"Point","coordinates":[-121.55708,37.012019]}},{"properties":{"name":"Milpitas","city":"Milpitas","geo_score":0.505,"zip code":"93035","id":"a694zjjg8hm9","address":"770 East Calaveras Boulevard","geo_precision":"street","state":"CA"},"type":"Feature","geometry":{"type":"Point","coordinates":[-119.034257,34.238189]}},{"properties":{"name":"Mountain View","city":"Moutain View","geo_score":0.992,"zip code":"94041","id":"a694zjtar216","address":"555 Castro Street","geo_precision":"range","state":"CA"},"type":"Feature","geometry":{"type":"Point","coordinates":[-122.081865,37.389109]}},{"properties":{"name":"San Jose","city":"San Jose","geo_score":0.963,"zip code":"95119","id":"a694zjn7lakp","address":"270 Internation Circle","geo_precision":"range","state":"CA"},"type":"Feature","geometry":{"type":"Point","coordinates":[-121.802131,37.239391]}},{"properties":{"name":"Santa Clara","city":"Santa Clara","geo_score":1.0,"zip code":"95051","id":"a694zjplnp3e","address":"700 Lawrence Expressway","geo_precision":"range","state":"CA"},"type":"Feature","geometry":{"type":"Point","coordinates":[-121.99539,37.331279]}}],"is_temporal":false,"author":{"url":"","metadata":"","contact_name":"","contact_address":"","source":"","contact_phone":""},"source":"","pagination":{"sort":null,"start":0,"total":6,"limit":1000000},"state":"complete","tags":"","published":"2014-08-10T11:33:06-04:00","id":80654}