{"type":"FeatureCollection","data_type":"Dataset","url_type":null,"permissions":[{"permissions":{"download":true,"view":true},"group_id":"everyone"}],"classification":null,"title":"Sheetz Stores","count":370,"stream_id":81557,"contributor":{"url":"http://geocommons.com/users/19917","name":"diethrick@gmail.com"},"data_attributes":null,"calculation_params":null,"icon_link":null,"link":"http://geocommons.com/overlays/81557.json","extent":[-82.4867,35.5523,-75.4169,42.1508],"geometry_types":["point"],"unique_name":null,"name":"Sheetz Stores","feature_count":370,"description":"","next_feature":null,"is_raster":false,"short_classification":"Y","stats":{"store":{"max":701,"mean":245.483783783784,"variance":14590.5430967553,"stdev":120.7913204529,"min":3,"median":253},"lat":{"max":42.1508,"mean":39.719677054054,"variance":2.26926891565986,"stdev":1.50640927893447,"min":35.5523,"median":40.1866},"long":{"max":-75.4169,"mean":-78.669767054054,"variance":2.30662535437314,"stdev":1.51875783269524,"min":-82.4867,"median":-78.7089}},"features":[{"properties":{"city":"Huntington","store":427,"id":"a6hcqsivm0zi","lat":38.4097,"address":"432 18TH ST W","long":-82.4867,"state":"WV"},"type":"Feature","geometry":{"type":"Point","coordinates":[-82.4867,38.4097]}},{"properties":{"city":"Barboursville","store":419,"id":"a6hcqsocixib","lat":38.4164,"address":"4 Mall Road","long":-82.2608,"state":"WV"},"type":"Feature","geometry":{"type":"Point","coordinates":[-82.2608,38.4164]}},{"properties":{"city":"Milton","store":424,"id":"a6hcqslevdjd","lat":38.4355,"address":"1304 JOHNS CREEK RD","long":-82.1235,"state":"WV"},"type":"Feature","geometry":{"type":"Point","coordinates":[-82.1235,38.4355]}},{"properties":{"city":"Zanesville","store":406,"id":"a6hcqsq3sryv","lat":39.9098,"address":"225 North Maysville Avenue","long":-82.017,"state":"OH"},"type":"Feature","geometry":{"type":"Point","coordinates":[-82.017,39.9098]}},{"properties":{"city":"Hurricane","store":433,"id":"a6hcqsfjjmw4","lat":38.436,"address":"104 St. Rt. 19","long":-82.0155,"state":"WV"},"type":"Feature","geometry":{"type":"Point","coordinates":[-82.0155,38.436]}},{"properties":{"city":"North Ridgeville","store":347,"id":"a6hcqsjmpycl","lat":41.3856,"address":"32390 Lorain Road","long":-81.9769,"state":"OH"},"type":"Feature","geometry":{"type":"Point","coordinates":[-81.9769,41.3856]}},{"properties":{"city":"Strongsville","store":422,"id":"a6hcqstyze6a","lat":41.3127,"address":"21034 ROYALTON RD","long":-81.8588,"state":"OH"},"type":"Feature","geometry":{"type":"Point","coordinates":[-81.8588,41.3127]}},{"properties":{"city":"Wadsworth","store":324,"id":"a6hcqsnfve7x","lat":41.1366,"address":"5100 Ridge Rd.","long":-81.7356,"state":"OH"},"type":"Feature","geometry":{"type":"Point","coordinates":[-81.7356,41.1366]}},{"properties":{"city":"Cambridge","store":387,"id":"a6hcqsonh1fi","lat":40.004,"address":"2101 Southgate Parkway","long":-81.5756,"state":"OH"},"type":"Feature","geometry":{"type":"Point","coordinates":[-81.5756,40.004]}},{"properties":{"city":"Akron","store":311,"id":"a6hcqsl6b5za","lat":41.028,"address":"20 West Waterloo Road","long":-81.5275,"state":"OH"},"type":"Feature","geometry":{"type":"Point","coordinates":[-81.5275,41.028]}},{"properties":{"city":"Cuyahoga Falls","store":317,"id":"a6hcqsofzmxd","lat":41.1197,"address":"1210 Main Street","long":-81.4848,"state":"OH"},"type":"Feature","geometry":{"type":"Point","coordinates":[-81.4848,41.1197]}},{"properties":{"city":"Stow","store":296,"id":"a6hcqsmz46nf","lat":41.181,"address":"950 East Steels Corner Road","long":-81.4743,"state":"OH"},"type":"Feature","geometry":{"type":"Point","coordinates":[-81.4743,41.181]}},{"properties":{"city":"New Philadelphia","store":357,"id":"a6hcqsnjkhhn","lat":40.4937,"address":"1281 West High Ave","long":-81.4738,"state":"OH"},"type":"Feature","geometry":{"type":"Point","coordinates":[-81.4738,40.4937]}},{"properties":{"city":"Green","store":368,"id":"a6hcqsrnv687","lat":40.9748,"address":"1651 East Turkeyfoot Lake Rd","long":-81.4643,"state":"OH"},"type":"Feature","geometry":{"type":"Point","coordinates":[-81.4643,40.9748]}},{"properties":{"city":"Twinsburg","store":393,"id":"a6hcqsv40u9q","lat":41.3119,"address":"2495 East Aurora Road","long":-81.4486,"state":"OH"},"type":"Feature","geometry":{"type":"Point","coordinates":[-81.4486,41.3119]}},{"properties":{"city":"Canton","store":342,"id":"a6hcqsrat27p","lat":40.793,"address":"5057 Tuscarawas Street West","long":-81.4457,"state":"OH"},"type":"Feature","geometry":{"type":"Point","coordinates":[-81.4457,40.793]}},{"properties":{"city":"Canton","store":389,"id":"a6hcqsucgwee","lat":40.8324,"address":"2939 Whipple Avenue, NW","long":-81.425,"state":"OH"},"type":"Feature","geometry":{"type":"Point","coordinates":[-81.425,40.8324]}},{"properties":{"city":"North Canton","store":431,"id":"a6hcqsjqfbza","lat":40.8912,"address":"1415 Pittsburg Avenue NW","long":-81.4199,"state":"OH"},"type":"Feature","geometry":{"type":"Point","coordinates":[-81.4199,40.8912]}},{"properties":{"city":"Mentor","store":394,"id":"a6hcqsfo0n8z","lat":41.6595,"address":"7777 Reynolds Road","long":-81.3777,"state":"OH"},"type":"Feature","geometry":{"type":"Point","coordinates":[-81.3777,41.6595]}},{"properties":{"city":"Streetsboro","store":266,"id":"a6hcqsfy1iq0","lat":41.2503,"address":"9745 State Route 14","long":-81.3645,"state":"OH"},"type":"Feature","geometry":{"type":"Point","coordinates":[-81.3645,41.2503]}},{"properties":{"city":"Kent","store":390,"id":"a6hcqssv191t","lat":41.1544,"address":"1762 East Main Street","long":-81.3308,"state":"OH"},"type":"Feature","geometry":{"type":"Point","coordinates":[-81.3308,41.1544]}},{"properties":{"city":"Ravenna","store":301,"id":"a6hcqsj5ghwi","lat":41.1798,"address":"6941 State Route 44","long":-81.2468,"state":"OH"},"type":"Feature","geometry":{"type":"Point","coordinates":[-81.2468,41.1798]}},{"properties":{"city":"Chardon","store":435,"id":"a6hcqsihtcmn","lat":41.5806,"address":"435 Water Street","long":-81.2122,"state":"OH"},"type":"Feature","geometry":{"type":"Point","coordinates":[-81.2122,41.5806]}},{"properties":{"city":"Perry","store":404,"id":"a6hcqsg40q3b","lat":41.7661,"address":"2800 North Ridge Road","long":-81.1805,"state":"OH"},"type":"Feature","geometry":{"type":"Point","coordinates":[-81.1805,41.7661]}},{"properties":{"city":"Alliance","store":375,"id":"a6hcqsovwvo7","lat":40.9015,"address":"236 West State St.","long":-81.1091,"state":"OH"},"type":"Feature","geometry":{"type":"Point","coordinates":[-81.1091,40.9015]}},{"properties":{"city":"Wytheville","store":407,"id":"a6hcqsi3djsd","lat":36.9592,"address":"1340 North 4th Street","long":-81.0959,"state":"VA"},"type":"Feature","geometry":{"type":"Point","coordinates":[-81.0959,36.9592]}},{"properties":{"city":"Statesville","store":405,"id":"a6hcqsraqdoc","lat":35.8029,"address":"1244 Wilkesboro Highway","long":-80.9061,"state":"NC"},"type":"Feature","geometry":{"type":"Point","coordinates":[-80.9061,35.8029]}},{"properties":{"city":"Warren","store":294,"id":"a6hcqspdm5f9","lat":41.2654,"address":"3379 Elm Road","long":-80.7836,"state":"OH"},"type":"Feature","geometry":{"type":"Point","coordinates":[-80.7836,41.2654]}},{"properties":{"city":"Ashtabula","store":274,"id":"a6hcqstzbz7e","lat":41.8761,"address":"2411 North Ridge Road East","long":-80.7642,"state":"OH"},"type":"Feature","geometry":{"type":"Point","coordinates":[-80.7642,41.8761]}},{"properties":{"city":"Austintown","store":281,"id":"a6hcqspojktl","lat":41.0992,"address":"5499 Mahoning Avenue","long":-80.7635,"state":"OH"},"type":"Feature","geometry":{"type":"Point","coordinates":[-80.7635,41.0992]}},{"properties":{"city":"Warren","store":282,"id":"a6hcqslhe8ht","lat":41.2256,"address":"1162 Niles-Cortland Road","long":-80.741,"state":"OH"},"type":"Feature","geometry":{"type":"Point","coordinates":[-80.741,41.2256]}},{"properties":{"city":"Canfield","store":328,"id":"a6hcqslvosqe","lat":41.0245,"address":"4585 Boardman-Canfield Rd","long":-80.7365,"state":"OH"},"type":"Feature","geometry":{"type":"Point","coordinates":[-80.7365,41.0245]}},{"properties":{"city":"Girard","store":248,"id":"a6hcqshkqvim","lat":41.1433,"address":"2721 Salt Springs Road","long":-80.7216,"state":"OH"},"type":"Feature","geometry":{"type":"Point","coordinates":[-80.7216,41.1433]}},{"properties":{"city":"Wheeling","store":362,"id":"a6hcqshi4jeu","lat":40.0777,"address":"887 National Road","long":-80.6932,"state":"WV"},"type":"Feature","geometry":{"type":"Point","coordinates":[-80.6932,40.0777]}},{"properties":{"city":"North Lima","store":310,"id":"a6hcqsjdkgix","lat":40.9877,"address":"9010 Market Street","long":-80.6631,"state":"OH"},"type":"Feature","geometry":{"type":"Point","coordinates":[-80.6631,40.9877]}},{"properties":{"city":"Triadelphia","store":429,"id":"a6hcqsuucpzi","lat":40.0606,"address":"6 CABELA DR","long":-80.5964,"state":"WV"},"type":"Feature","geometry":{"type":"Point","coordinates":[-80.5964,40.0606]}},{"properties":{"city":"Radford","store":358,"id":"a6hcqsib01bb","lat":37.1472,"address":"7335 Lee Highway","long":-80.5865,"state":"VA"},"type":"Feature","geometry":{"type":"Point","coordinates":[-80.5865,37.1472]}},{"properties":{"city":"East Liverpool","store":251,"id":"a6hcqsl9lmyz","lat":40.6732,"address":"15744 St Clair Avenue","long":-80.5757,"state":"OH"},"type":"Feature","geometry":{"type":"Point","coordinates":[-80.5757,40.6732]}},{"properties":{"city":"Weirton","store":234,"id":"a6hcqsuu9p4b","lat":40.4072,"address":"341 Penco Road","long":-80.5479,"state":"WV"},"type":"Feature","geometry":{"type":"Point","coordinates":[-80.5479,40.4072]}},{"properties":{"city":"Hermitage","store":202,"id":"a6hcqsm9rqfz","lat":41.2013,"address":"2381 South Hermitage Rd.","long":-80.4561,"state":"PA"},"type":"Feature","geometry":{"type":"Point","coordinates":[-80.4561,41.2013]}},{"properties":{"city":"Hermitage","store":382,"id":"a6hcqsntg3yc","lat":41.2559,"address":"1650 North Hermitage Road","long":-80.4517,"state":"PA"},"type":"Feature","geometry":{"type":"Point","coordinates":[-80.4517,41.2559]}},{"properties":{"city":"Christiansburg","store":320,"id":"a6hcqsul9tf6","lat":37.1572,"address":"2000 N. Franklin St.","long":-80.4181,"state":"VA"},"type":"Feature","geometry":{"type":"Point","coordinates":[-80.4181,37.1572]}},{"properties":{"city":"Weston","store":206,"id":"a6hcqsui9oxn","lat":39.0194,"address":"Route 3 Box 67K","long":-80.4169,"state":"WV"},"type":"Feature","geometry":{"type":"Point","coordinates":[-80.4169,39.0194]}},{"properties":{"city":"Transfer","store":188,"id":"a6hcqss65nn4","lat":41.3296,"address":"270 Edgewood Drive","long":-80.4136,"state":"PA"},"type":"Feature","geometry":{"type":"Point","coordinates":[-80.4136,41.3296]}},{"properties":{"city":"Greenville","store":139,"id":"a6hcqsniltcj","lat":41.4072,"address":"294 Main Street","long":-80.383,"state":"PA"},"type":"Feature","geometry":{"type":"Point","coordinates":[-80.383,41.4072]}},{"properties":{"city":"New Castle","store":381,"id":"a6hcqsu8iwuf","lat":41.0648,"address":"3450 Wilmington Road","long":-80.3595,"state":"PA"},"type":"Feature","geometry":{"type":"Point","coordinates":[-80.3595,41.0648]}},{"properties":{"city":"Winston-Salem","store":385,"id":"a6hcqst35noa","lat":36.049,"address":"2505 Somerset Center Drive","long":-80.3275,"state":"NC"},"type":"Feature","geometry":{"type":"Point","coordinates":[-80.3275,36.049]}},{"properties":{"city":"Beaver Falls","store":152,"id":"a6hcqsjj9ta0","lat":40.7779,"address":"3611 Fourth Avenue","long":-80.3249,"state":"PA"},"type":"Feature","geometry":{"type":"Point","coordinates":[-80.3249,40.7779]}},{"properties":{"city":"Conneaut Lake","store":159,"id":"a6hcqso53xph","lat":41.603,"address":"315 Water St","long":-80.3046,"state":"PA"},"type":"Feature","geometry":{"type":"Point","coordinates":[-80.3046,41.603]}},{"properties":{"city":"Rochester","store":128,"id":"a6hcqsuno5s1","lat":40.7047,"address":"494 Adams Street","long":-80.2783,"state":"PA"},"type":"Feature","geometry":{"type":"Point","coordinates":[-80.2783,40.7047]}},{"properties":{"city":"Bridgeport","store":182,"id":"a6hcqsqantc3","lat":39.3002,"address":"1220 Johnson Avenue","long":-80.2775,"state":"WV"},"type":"Feature","geometry":{"type":"Point","coordinates":[-80.2775,39.3002]}},{"properties":{"city":"Winston-Salem","store":411,"id":"a6hcqstbuuk2","lat":35.995,"address":"12290 North NC Highway 150","long":-80.2675,"state":"NC"},"type":"Feature","geometry":{"type":"Point","coordinates":[-80.2675,35.995]}},{"properties":{"city":"New Castle","store":246,"id":"a6hcqsmgbofq","lat":40.9742,"address":"3208 US 422","long":-80.2665,"state":"PA"},"type":"Feature","geometry":{"type":"Point","coordinates":[-80.2665,40.9742]}},{"properties":{"city":"Mercer","store":136,"id":"a6hcqsohlr7n","lat":41.2272,"address":"105 North Erie Street","long":-80.2405,"state":"PA"},"type":"Feature","geometry":{"type":"Point","coordinates":[-80.2405,41.2272]}},{"properties":{"city":"Buckhannon","store":214,"id":"a6hcqsu4ywef","lat":38.9991,"address":"4 Clarksburg Road","long":-80.2333,"state":"WV"},"type":"Feature","geometry":{"type":"Point","coordinates":[-80.2333,38.9991]}},{"properties":{"city":"Baden","store":223,"id":"a6hcqsstkqpw","lat":40.6267,"address":"100 Ohio River Blvd","long":-80.2288,"state":"PA"},"type":"Feature","geometry":{"type":"Point","coordinates":[-80.2288,40.6267]}},{"properties":{"city":"Moon Township","store":379,"id":"a6hcqsrikwst","lat":40.5029,"address":"9002 University Blvd.","long":-80.2227,"state":"PA"},"type":"Feature","geometry":{"type":"Point","coordinates":[-80.2227,40.5029]}},{"properties":{"city":"Meadville","store":337,"id":"a6hcqsosdvk7","lat":41.623,"address":"16590 Conneaut Lake Road","long":-80.2042,"state":"PA"},"type":"Feature","geometry":{"type":"Point","coordinates":[-80.2042,41.623]}},{"properties":{"city":"Erie","store":245,"id":"a6hcqsiuiggo","lat":42.0725,"address":"4662 West Ridge Road","long":-80.182,"state":"PA"},"type":"Feature","geometry":{"type":"Point","coordinates":[-80.182,42.0725]}},{"properties":{"city":"Edinboro","store":334,"id":"a6hcqsi5jxup","lat":41.8804,"address":"5930 Rt. 6N West","long":-80.173,"state":"PA"},"type":"Feature","geometry":{"type":"Point","coordinates":[-80.173,41.8804]}},{"properties":{"city":"Canonsburg","store":279,"id":"a6hcqslco2zo","lat":40.2526,"address":"2401 Washington Road","long":-80.171,"state":"PA"},"type":"Feature","geometry":{"type":"Point","coordinates":[-80.171,40.2526]}},{"properties":{"city":"Meadville","store":153,"id":"a6hcqsk3hwuk","lat":41.6203,"address":"18425 Smock Highway","long":-80.1689,"state":"PA"},"type":"Feature","geometry":{"type":"Point","coordinates":[-80.1689,41.6203]}},{"properties":{"city":"Waynesburg","store":284,"id":"a6hcqsrf3qpt","lat":39.8969,"address":"102 School Road","long":-80.1615,"state":"PA"},"type":"Feature","geometry":{"type":"Point","coordinates":[-80.1615,39.8969]}},{"properties":{"city":"Pittsburgh","store":353,"id":"a6hcqsqhtz4t","lat":40.4482,"address":"5410 Campbells Run Road","long":-80.1576,"state":"PA"},"type":"Feature","geometry":{"type":"Point","coordinates":[-80.1576,40.4482]}},{"properties":{"city":"Grove City","store":299,"id":"a6hcqsksr7wq","lat":41.144,"address":"1931 Butler Pike","long":-80.1573,"state":"PA"},"type":"Feature","geometry":{"type":"Point","coordinates":[-80.1573,41.144]}},{"properties":{"city":"Walkertown","store":355,"id":"a6hcqsnteids","lat":36.1646,"address":"5198 Reidsville Road","long":-80.1371,"state":"NC"},"type":"Feature","geometry":{"type":"Point","coordinates":[-80.1371,36.1646]}},{"properties":{"city":"Grove City","store":298,"id":"a6hcqsfwsn8y","lat":41.1678,"address":"1525 West Main Street","long":-80.1104,"state":"PA"},"type":"Feature","geometry":{"type":"Point","coordinates":[-80.1104,41.1678]}},{"properties":{"city":"Mars","store":133,"id":"a6hcqslt0jn6","lat":40.6851,"address":"1338 New Freedom Road","long":-80.1045,"state":"PA"},"type":"Feature","geometry":{"type":"Point","coordinates":[-80.1045,40.6851]}},{"properties":{"city":"Salem","store":333,"id":"a6hcqsmi03fq","lat":37.2894,"address":"1340 West Main St","long":-80.0797,"state":"VA"},"type":"Feature","geometry":{"type":"Point","coordinates":[-80.0797,37.2894]}},{"properties":{"city":"Kernersville","store":436,"id":"a6hcqsovfhrx","lat":36.12878,"address":"790 North Main Street","long":-80.06038,"state":"NC"},"type":"Feature","geometry":{"type":"Point","coordinates":[-80.06038,36.12878]}},{"properties":{"city":"Wexford","store":277,"id":"a6hcqsvto8vl","lat":40.6342,"address":"12000 Perry Highway","long":-80.0599,"state":"PA"},"type":"Feature","geometry":{"type":"Point","coordinates":[-80.0599,40.6342]}},{"properties":{"city":"Slippery Rock","store":75,"id":"a6hcqspagaqf","lat":41.062,"address":"304 South Main Street","long":-80.0543,"state":"PA"},"type":"Feature","geometry":{"type":"Point","coordinates":[-80.0543,41.062]}},{"properties":{"city":"Philippi","store":171,"id":"a6hcqsl9uzih","lat":39.1531,"address":"125 North Main Street","long":-80.0416,"state":"WV"},"type":"Feature","geometry":{"type":"Point","coordinates":[-80.0416,39.1531]}},{"properties":{"city":"Pittsburgh","store":115,"id":"a6hcqstpztvp","lat":40.5616,"address":"8607 Perry Highway","long":-80.0396,"state":"PA"},"type":"Feature","geometry":{"type":"Point","coordinates":[-80.0396,40.5616]}},{"properties":{"city":"Salem","store":325,"id":"a6hcqsi7wfaf","lat":37.2718,"address":"1435 Apperson Drive","long":-80.0372,"state":"VA"},"type":"Feature","geometry":{"type":"Point","coordinates":[-80.0372,37.2718]}},{"properties":{"city":"Trinity","store":418,"id":"a6hcqss799io","lat":35.8685,"address":"5905 Finch Farm Road","long":-80.0369,"state":"NC"},"type":"Feature","geometry":{"type":"Point","coordinates":[-80.0369,35.8685]}},{"properties":{"city":"Harrisville","store":121,"id":"a6hcqsrz64mv","lat":41.1369,"address":"103 North Main St","long":-80.0088,"state":"PA"},"type":"Feature","geometry":{"type":"Point","coordinates":[-80.0088,41.1369]}},{"properties":{"city":"Roanoke","store":295,"id":"a6hcqspwlwie","lat":37.3157,"address":"2703 Peters Creek Road","long":-80.0041,"state":"VA"},"type":"Feature","geometry":{"type":"Point","coordinates":[-80.0041,37.3157]}},{"properties":{"city":"Morgantown","store":275,"id":"a6hcqshl6eu3","lat":39.659,"address":"One Chaplin Road","long":-80.0007,"state":"WV"},"type":"Feature","geometry":{"type":"Point","coordinates":[-80.0007,39.659]}},{"properties":{"city":"Erie","store":367,"id":"a6hcqsv7duv1","lat":42.1508,"address":"4816 Buffalo Rd","long":-79.9943,"state":"PA"},"type":"Feature","geometry":{"type":"Point","coordinates":[-79.9943,42.1508]}},{"properties":{"city":"Pittsburgh","store":253,"id":"a6hcqstx5aw7","lat":40.3362,"address":"251 Curry Hollow Road","long":-79.9712,"state":"PA"},"type":"Feature","geometry":{"type":"Point","coordinates":[-79.9712,40.3362]}},{"properties":{"city":"Butler","store":335,"id":"a6hcqsv0hpqs","lat":40.8619,"address":"499 Evans City Road","long":-79.9674,"state":"PA"},"type":"Feature","geometry":{"type":"Point","coordinates":[-79.9674,40.8619]}},{"properties":{"city":"High Point","store":414,"id":"a6hcqsgtp8pq","lat":36.0598,"address":"2980 NC 68 SOUTH","long":-79.9604,"state":"NC"},"type":"Feature","geometry":{"type":"Point","coordinates":[-79.9604,36.0598]}},{"properties":{"city":"Morgantown","store":254,"id":"a6hcqsjpyzlq","lat":39.6577,"address":"900 Chestnut Ridge Road","long":-79.9548,"state":"WV"},"type":"Feature","geometry":{"type":"Point","coordinates":[-79.9548,39.6577]}},{"properties":{"city":"Carmichaels","store":230,"id":"a6hcqsjw36e0","lat":39.8608,"address":"RD 1 Box 83","long":-79.9546,"state":"PA"},"type":"Feature","geometry":{"type":"Point","coordinates":[-79.9546,39.8608]}},{"properties":{"city":"Butler","store":250,"id":"a6hcqshf911g","lat":40.8775,"address":"356 New Castle Road","long":-79.9489,"state":"PA"},"type":"Feature","geometry":{"type":"Point","coordinates":[-79.9489,40.8775]}},{"properties":{"city":"Gibsonia","store":123,"id":"a6hcqspnksug","lat":40.614,"address":"5300 Route 8","long":-79.9468,"state":"PA"},"type":"Feature","geometry":{"type":"Point","coordinates":[-79.9468,40.614]}},{"properties":{"city":"Pittsburgh","store":376,"id":"a6hcqsuu4d33","lat":40.3204,"address":"1000 Clairton Blvd.","long":-79.9427,"state":"PA"},"type":"Feature","geometry":{"type":"Point","coordinates":[-79.9427,40.3204]}},{"properties":{"city":"Belington","store":174,"id":"a6hcqsqmu9nw","lat":39.0284,"address":"103 Crim Avenue","long":-79.9344,"state":"WV"},"type":"Feature","geometry":{"type":"Point","coordinates":[-79.9344,39.0284]}},{"properties":{"city":"Roanoke","store":300,"id":"a6hcqskrm6oq","lat":37.2828,"address":"1212 Williamson Road","long":-79.9336,"state":"VA"},"type":"Feature","geometry":{"type":"Point","coordinates":[-79.9336,37.2828]}},{"properties":{"city":"Morgantown","store":349,"id":"a6hcqsisyju1","lat":39.62,"address":"1901 Earl Core Road","long":-79.9232,"state":"WV"},"type":"Feature","geometry":{"type":"Point","coordinates":[-79.9232,39.62]}},{"properties":{"city":"Monongahela","store":92,"id":"a6hcqsfl0v4y","lat":40.2002,"address":"100 East Main Street","long":-79.9222,"state":"PA"},"type":"Feature","geometry":{"type":"Point","coordinates":[-79.9222,40.2002]}},{"properties":{"city":"Greensboro","store":366,"id":"a6hcqsl6ttza","lat":36.0594,"address":"5421 Hornaday Road","long":-79.9092,"state":"NC"},"type":"Feature","geometry":{"type":"Point","coordinates":[-79.9092,36.0594]}},{"properties":{"city":"Jamestown","store":432,"id":"a6hcqsnfy9r1","lat":36.0014,"address":"1001 GARDNER HILL DR","long":-79.9077,"state":"NC"},"type":"Feature","geometry":{"type":"Point","coordinates":[-79.9077,36.0014]}},{"properties":{"city":"Greensboro","store":356,"id":"a6hcqsuiv515","lat":36.0567,"address":"4319 West Wendover Avenue","long":-79.8885,"state":"NC"},"type":"Feature","geometry":{"type":"Point","coordinates":[-79.8885,36.0567]}},{"properties":{"city":"Butler","store":217,"id":"a6hcqsmihyl0","lat":40.8441,"address":"100 Freeport Road","long":-79.8804,"state":"PA"},"type":"Feature","geometry":{"type":"Point","coordinates":[-79.8804,40.8441]}},{"properties":{"city":"Rocky Mount","store":329,"id":"a6hcqsusv3no","lat":37.0125,"address":"265 Old Franklin Turnpike","long":-79.8695,"state":"VA"},"type":"Feature","geometry":{"type":"Point","coordinates":[-79.8695,37.0125]}},{"properties":{"city":"Ridgeway","store":308,"id":"a6hcqsm25kks","lat":36.6004,"address":"6758 Greensboro Road","long":-79.8632,"state":"VA"},"type":"Feature","geometry":{"type":"Point","coordinates":[-79.8632,36.6004]}},{"properties":{"city":"Franklin","store":84,"id":"a6hcqsmoalr0","lat":41.3952,"address":"1107 Liberty Street","long":-79.827,"state":"PA"},"type":"Feature","geometry":{"type":"Point","coordinates":[-79.827,41.3952]}},{"properties":{"city":"Belle Vernon","store":377,"id":"a6hcqsjoada9","lat":40.1866,"address":"4692 Route 51 South","long":-79.818,"state":"PA"},"type":"Feature","geometry":{"type":"Point","coordinates":[-79.818,40.1866]}},{"properties":{"city":"Springdale","store":189,"id":"a6hcqsmqlo5g","lat":40.5414,"address":"627 Pittsburgh Street","long":-79.7833,"state":"PA"},"type":"Feature","geometry":{"type":"Point","coordinates":[-79.7833,40.5414]}},{"properties":{"city":"Creighton","store":130,"id":"a6hcqsfz5z0v","lat":40.5818,"address":"899 Freeport Road","long":-79.7786,"state":"PA"},"type":"Feature","geometry":{"type":"Point","coordinates":[-79.7786,40.5818]}},{"properties":{"city":"Monroeville","store":360,"id":"a6hcqsvl3icx","lat":40.4379,"address":"3954 William Penn Highway","long":-79.7744,"state":"PA"},"type":"Feature","geometry":{"type":"Point","coordinates":[-79.7744,40.4379]}},{"properties":{"city":"Monroeville","store":327,"id":"a6hcqspcakwe","lat":40.3976,"address":"2100 Mosside Drive","long":-79.7689,"state":"PA"},"type":"Feature","geometry":{"type":"Point","coordinates":[-79.7689,40.3976]}},{"properties":{"city":"North Huntingdon","store":313,"id":"a6hcqslbuah6","lat":40.3457,"address":"13700 Rt 30","long":-79.765,"state":"PA"},"type":"Feature","geometry":{"type":"Point","coordinates":[-79.765,40.3457]}},{"properties":{"city":"New Kensington","store":99,"id":"a6hcqsvttycn","lat":40.5624,"address":"700 Seventh Street","long":-79.763,"state":"PA"},"type":"Feature","geometry":{"type":"Point","coordinates":[-79.763,40.5624]}},{"properties":{"city":"Uniontown","store":278,"id":"a6hcqssd9322","lat":39.912,"address":"10 New Salem Road","long":-79.7476,"state":"PA"},"type":"Feature","geometry":{"type":"Point","coordinates":[-79.7476,39.912]}},{"properties":{"city":"Eden","store":428,"id":"a6hcqsoi2gdg","lat":36.502,"address":"102 N VAN BUREN RD","long":-79.7429,"state":"NC"},"type":"Feature","geometry":{"type":"Point","coordinates":[-79.7429,36.502]}},{"properties":{"city":"Sarver","store":402,"id":"a6hcqskrigl9","lat":40.6998,"address":"717 South Pike Road","long":-79.7199,"state":"PA"},"type":"Feature","geometry":{"type":"Point","coordinates":[-79.7199,40.6998]}},{"properties":{"city":"Pittsburgh","store":190,"id":"a6hcqsp2l6ft","lat":40.455,"address":"2003 Golden Mile Highway","long":-79.7114,"state":"PA"},"type":"Feature","geometry":{"type":"Point","coordinates":[-79.7114,40.455]}},{"properties":{"city":"Cranberry","store":260,"id":"a6hcqsv23trq","lat":41.3498,"address":"Rt 322 &amp; Rt 257","long":-79.7109,"state":"PA"},"type":"Feature","geometry":{"type":"Point","coordinates":[-79.7109,41.3498]}},{"properties":{"city":"Parsons","store":175,"id":"a6hcqsp4uu7t","lat":39.0966,"address":"200 First Street","long":-79.6802,"state":"WV"},"type":"Feature","geometry":{"type":"Point","coordinates":[-79.6802,39.0966]}},{"properties":{"city":"Irwin","store":229,"id":"a6hcqsh2h86u","lat":40.3141,"address":"7821 Route 30","long":-79.6719,"state":"PA"},"type":"Feature","geometry":{"type":"Point","coordinates":[-79.6719,40.3141]}},{"properties":{"city":"Murrysville","store":204,"id":"a6hcqsma8rys","lat":40.424,"address":"4701 William Penn Highway","long":-79.6668,"state":"PA"},"type":"Feature","geometry":{"type":"Point","coordinates":[-79.6668,40.424]}},{"properties":{"city":"New Stanton","store":239,"id":"a6hcqslpbvcz","lat":40.2187,"address":"205 North Center Avenue","long":-79.6096,"state":"PA"},"type":"Feature","geometry":{"type":"Point","coordinates":[-79.6096,40.2187]}},{"properties":{"city":"Connellsville","store":124,"id":"a6hcqsq511me","lat":40.0165,"address":"1002 West Crawford Avenue","long":-79.6,"state":"PA"},"type":"Feature","geometry":{"type":"Point","coordinates":[-79.6,40.0165]}},{"properties":{"city":"Scottsdale","store":87,"id":"a6hcqsv2h69o","lat":40.1,"address":"5 South Broadway","long":-79.5871,"state":"PA"},"type":"Feature","geometry":{"type":"Point","coordinates":[-79.5871,40.1]}},{"properties":{"city":"Youngwood","store":72,"id":"a6hcqsukk7pb","lat":40.2429,"address":"301 North Third Street","long":-79.5763,"state":"PA"},"type":"Feature","geometry":{"type":"Point","coordinates":[-79.5763,40.2429]}},{"properties":{"city":"Connellsville","store":183,"id":"a6hcqsrw0hof","lat":40.0554,"address":"2601 Memorial Boulevard","long":-79.5611,"state":"PA"},"type":"Feature","geometry":{"type":"Point","coordinates":[-79.5611,40.0554]}},{"properties":{"city":"Greensburg","store":154,"id":"a6hcqsidw5xz","lat":40.3078,"address":"211 Harvey Avenue","long":-79.5387,"state":"PA"},"type":"Feature","geometry":{"type":"Point","coordinates":[-79.5387,40.3078]}},{"properties":{"city":"Ford City","store":101,"id":"a6hcqsviipdf","lat":40.7648,"address":"503 Main Street","long":-79.528,"state":"PA"},"type":"Feature","geometry":{"type":"Point","coordinates":[-79.528,40.7648]}},{"properties":{"city":"Kittanning","store":114,"id":"a6hcqsllie5u","lat":40.8098,"address":"100 Walnut Street","long":-79.5168,"state":"PA"},"type":"Feature","geometry":{"type":"Point","coordinates":[-79.5168,40.8098]}},{"properties":{"city":"Burlington","store":417,"id":"a6hcqshn34to","lat":36.0671,"address":"2628 Alamance Road","long":-79.4678,"state":"NC"},"type":"Feature","geometry":{"type":"Point","coordinates":[-79.4678,36.0671]}},{"properties":{"city":"Danville","store":306,"id":"a6hcqsiwwjnc","lat":36.5831,"address":"3425 Riverside Drive","long":-79.4275,"state":"VA"},"type":"Feature","geometry":{"type":"Point","coordinates":[-79.4275,36.5831]}},{"properties":{"city":"New Alexandria","store":314,"id":"a6hcqsnfn1xy","lat":40.3986,"address":"US Rt. 22 &amp; St Rt. 981","long":-79.4216,"state":"PA"},"type":"Feature","geometry":{"type":"Point","coordinates":[-79.4216,40.3986]}},{"properties":{"city":"Oakland","store":147,"id":"a6hcqsjq0yfz","lat":39.4104,"address":"5 North Third Street","long":-79.4053,"state":"MD"},"type":"Feature","geometry":{"type":"Point","coordinates":[-79.4053,39.4104]}},{"properties":{"city":"Latrobe","store":59,"id":"a6hcqshwpfz3","lat":40.3004,"address":"2840 Ligonier Street","long":-79.3712,"state":"PA"},"type":"Feature","geometry":{"type":"Point","coordinates":[-79.3712,40.3004]}},{"properties":{"city":"Clarion","store":58,"id":"a6hcqsk7ldwt","lat":41.2091,"address":"1281 East Main Street","long":-79.3685,"state":"PA"},"type":"Feature","geometry":{"type":"Point","coordinates":[-79.3685,41.2091]}},{"properties":{"city":"Forest","store":261,"id":"a6hcqsp37zqg","lat":37.3055,"address":"12259 East Lynchburg-Salem Turnpike","long":-79.3081,"state":"VA"},"type":"Feature","geometry":{"type":"Point","coordinates":[-79.3081,37.3055]}},{"properties":{"city":"Mebane","store":380,"id":"a6hcqsoxrvap","lat":36.0699,"address":"1237 South Mebane Oaks Road","long":-79.2703,"state":"NC"},"type":"Feature","geometry":{"type":"Point","coordinates":[-79.2703,36.0699]}},{"properties":{"city":"Blairsville","store":29,"id":"a6hcqsvai1ff","lat":40.4313,"address":"5 East Market Street","long":-79.2645,"state":"PA"},"type":"Feature","geometry":{"type":"Point","coordinates":[-79.2645,40.4313]}},{"properties":{"city":"Lynchburg","store":271,"id":"a6hcqssj7sdt","lat":37.3963,"address":"2630 Lakeside Drive","long":-79.229,"state":"VA"},"type":"Feature","geometry":{"type":"Point","coordinates":[-79.229,37.3963]}},{"properties":{"city":"Ligonier","store":173,"id":"a6hcqsvk431t","lat":40.2615,"address":"3832 Route 711","long":-79.1971,"state":"PA"},"type":"Feature","geometry":{"type":"Point","coordinates":[-79.1971,40.2615]}},{"properties":{"city":"Lynchburg","store":265,"id":"a6hcqsvn0856","lat":37.3255,"address":"14480 Wards Road","long":-79.1909,"state":"VA"},"type":"Feature","geometry":{"type":"Point","coordinates":[-79.1909,37.3255]}},{"properties":{"city":"Indiana","store":170,"id":"a6hcqsl7wa8g","lat":40.6108,"address":"525 Ben Franklin Road South","long":-79.1886,"state":"PA"},"type":"Feature","geometry":{"type":"Point","coordinates":[-79.1886,40.6108]}},{"properties":{"city":"Lynchburg","store":403,"id":"a6hcqsh4uehg","lat":37.3492,"address":"3927 Wards Road","long":-79.1854,"state":"VA"},"type":"Feature","geometry":{"type":"Point","coordinates":[-79.1854,37.3492]}},{"properties":{"city":"Homer City","store":369,"id":"a6hcqspwt4k3","lat":40.5534,"address":"2260 Route 19 Highway South","long":-79.1596,"state":"PA"},"type":"Feature","geometry":{"type":"Point","coordinates":[-79.1596,40.5534]}},{"properties":{"city":"Indiana","store":19,"id":"a6hcqss4dmdn","lat":40.6184,"address":"768 Wayne Avenue","long":-79.1532,"state":"PA"},"type":"Feature","geometry":{"type":"Point","coordinates":[-79.1532,40.6184]}},{"properties":{"city":"Indiana","store":31,"id":"a6hcqslwnzns","lat":40.6222,"address":"380 Philadelphia Street","long":-79.1453,"state":"PA"},"type":"Feature","geometry":{"type":"Point","coordinates":[-79.1453,40.6222]}},{"properties":{"city":"Petersburg","store":212,"id":"a6hcqsng89dv","lat":39.0001,"address":"299 Bryan Street","long":-79.1285,"state":"WV"},"type":"Feature","geometry":{"type":"Point","coordinates":[-79.1285,39.0001]}},{"properties":{"city":"Madison Heights","store":272,"id":"a6hcqsmqi41q","lat":37.4663,"address":"4089 S Amherst Highway","long":-79.1178,"state":"VA"},"type":"Feature","geometry":{"type":"Point","coordinates":[-79.1178,37.4663]}},{"properties":{"city":"Brookville","store":66,"id":"a6hcqsfmzpyk","lat":41.1645,"address":"300 West Main Street","long":-79.0983,"state":"PA"},"type":"Feature","geometry":{"type":"Point","coordinates":[-79.0983,41.1645]}},{"properties":{"city":"Somerset","store":60,"id":"a6hcqsk6wzl9","lat":40.0077,"address":"118 South Rosina Avenue","long":-79.0831,"state":"PA"},"type":"Feature","geometry":{"type":"Point","coordinates":[-79.0831,40.0077]}},{"properties":{"city":"Somerset","store":179,"id":"a6hcqsjguvno","lat":40.0218,"address":"1212 North Center Avenue","long":-79.0768,"state":"PA"},"type":"Feature","geometry":{"type":"Point","coordinates":[-79.0768,40.0218]}},{"properties":{"city":"Somerset","store":57,"id":"a6hcqshbrjh5","lat":40.0074,"address":"457 East Main Street","long":-79.0705,"state":"PA"},"type":"Feature","geometry":{"type":"Point","coordinates":[-79.0705,40.0074]}},{"properties":{"city":"Staunton","store":302,"id":"a6hcqsuw0021","lat":38.1334,"address":"1250 Richmond Road","long":-79.0432,"state":"VA"},"type":"Feature","geometry":{"type":"Point","coordinates":[-79.0432,38.1334]}},{"properties":{"city":"Meyersdale","store":89,"id":"a6hcqsttmkm3","lat":39.8128,"address":"One Beachley St.","long":-79.0256,"state":"PA"},"type":"Feature","geometry":{"type":"Point","coordinates":[-79.0256,39.8128]}},{"properties":{"city":"Clymer","store":61,"id":"a6hcqsvxth7k","lat":40.6654,"address":"825 Franklin Street","long":-79.0145,"state":"PA"},"type":"Feature","geometry":{"type":"Point","coordinates":[-79.0145,40.6654]}},{"properties":{"city":"Fisherville","store":364,"id":"a6hcqspezxe7","lat":38.0807,"address":"726 Tinkling Spring Road","long":-78.991,"state":"VA"},"type":"Feature","geometry":{"type":"Point","coordinates":[-78.991,38.0807]}},{"properties":{"city":"Keyser","store":168,"id":"a6hcqsjjurqj","lat":39.434,"address":"438 South Mineral Street","long":-78.9844,"state":"WV"},"type":"Feature","geometry":{"type":"Point","coordinates":[-78.9844,39.434]}},{"properties":{"city":"Moorefield","store":144,"id":"a6hcqsto0vyi","lat":39.072,"address":"701 North Main Street","long":-78.9671,"state":"WV"},"type":"Feature","geometry":{"type":"Point","coordinates":[-78.9671,39.072]}},{"properties":{"city":"Punxsutawney","store":79,"id":"a6hcqsr3hsqn","lat":40.95,"address":"100 Elk Run Avenue","long":-78.9636,"state":"PA"},"type":"Feature","geometry":{"type":"Point","coordinates":[-78.9636,40.95]}},{"properties":{"city":"Johnstown","store":86,"id":"a6hcqsuzq86m","lat":40.3221,"address":"1757 Goucher Street","long":-78.9548,"state":"PA"},"type":"Feature","geometry":{"type":"Point","coordinates":[-78.9548,40.3221]}},{"properties":{"city":"Johnstown","store":65,"id":"a6hcqsq9pp7o","lat":40.3433,"address":"1000 Broad Street","long":-78.9341,"state":"PA"},"type":"Feature","geometry":{"type":"Point","coordinates":[-78.9341,40.3433]}},{"properties":{"city":"Johnstown","store":22,"id":"a6hcqsj5esz9","lat":40.3212,"address":"208 Haynes Street","long":-78.919,"state":"PA"},"type":"Feature","geometry":{"type":"Point","coordinates":[-78.919,40.3212]}},{"properties":{"city":"Waynesboro","store":408,"id":"a6hcqsiok5wn","lat":38.0764,"address":"2156 West Main Street","long":-78.9161,"state":"VA"},"type":"Feature","geometry":{"type":"Point","coordinates":[-78.9161,38.0764]}},{"properties":{"city":"Frostburg","store":62,"id":"a6hcqssfoqq2","lat":39.6501,"address":"10601 New George's Creek Road, Suite 1","long":-78.9116,"state":"MD"},"type":"Feature","geometry":{"type":"Point","coordinates":[-78.9116,39.6501]}},{"properties":{"city":"Johnstown","store":21,"id":"a6hcqsvzcjn4","lat":40.2996,"address":"490 Central Avenue","long":-78.9115,"state":"PA"},"type":"Feature","geometry":{"type":"Point","coordinates":[-78.9115,40.2996]}},{"properties":{"city":"South Boston","store":340,"id":"a6hcqsiqoaep","lat":36.687,"address":"1007 Philpott Road","long":-78.9002,"state":"VA"},"type":"Feature","geometry":{"type":"Point","coordinates":[-78.9002,36.687]}},{"properties":{"city":"Harrisonburg","store":222,"id":"a6hcqskw00c2","lat":38.4254,"address":"1825 South Main Street","long":-78.8894,"state":"VA"},"type":"Feature","geometry":{"type":"Point","coordinates":[-78.8894,38.4254]}},{"properties":{"city":"Johnstown","store":162,"id":"a6hcqsjhulm8","lat":40.2694,"address":"1500 Scalp Avenue","long":-78.8574,"state":"PA"},"type":"Feature","geometry":{"type":"Point","coordinates":[-78.8574,40.2694]}},{"properties":{"city":"Harrisonburg","store":218,"id":"a6hcqsm1cmku","lat":38.4294,"address":"533 University Blvd","long":-78.8559,"state":"VA"},"type":"Feature","geometry":{"type":"Point","coordinates":[-78.8559,38.4294]}},{"properties":{"city":"Harrisonburg","store":332,"id":"a6hcqsqzdw4k","lat":38.4465,"address":"798 East Market St","long":-78.8532,"state":"VA"},"type":"Feature","geometry":{"type":"Point","coordinates":[-78.8532,38.4465]}},{"properties":{"city":"Durham","store":398,"id":"a6hcqsrnlnrl","lat":35.9244,"address":"3021 South Miami Boulevard","long":-78.8458,"state":"NC"},"type":"Feature","geometry":{"type":"Point","coordinates":[-78.8458,35.9244]}},{"properties":{"city":"Johnstown","store":227,"id":"a6hcqsuwgk7z","lat":40.2922,"address":"405 Galleria Drive","long":-78.8386,"state":"PA"},"type":"Feature","geometry":{"type":"Point","coordinates":[-78.8386,40.2922]}},{"properties":{"city":"Nanty Glo","store":48,"id":"a6hcqsl9zo5j","lat":40.4501,"address":"115 Pace Street","long":-78.8373,"state":"PA"},"type":"Feature","geometry":{"type":"Point","coordinates":[-78.8373,40.4501]}},{"properties":{"city":"Windber","store":27,"id":"a6hcqss388qu","lat":40.2392,"address":"901 Graham Avenue","long":-78.8355,"state":"PA"},"type":"Feature","geometry":{"type":"Point","coordinates":[-78.8355,40.2392]}},{"properties":{"city":"Cresaptown","store":46,"id":"a6hcqsgtgmmi","lat":39.5944,"address":"14606 McMullen Highway SW","long":-78.8307,"state":"MD"},"type":"Feature","geometry":{"type":"Point","coordinates":[-78.8307,39.5944]}},{"properties":{"city":"Morrisville","store":399,"id":"a6hcqsh3iqi7","lat":35.855,"address":"1600 Aviation Parkway","long":-78.7954,"state":"NC"},"type":"Feature","geometry":{"type":"Point","coordinates":[-78.7954,35.855]}},{"properties":{"city":"Corriganville","store":167,"id":"a6hcqsrd2t77","lat":39.6932,"address":"100 East Main St","long":-78.791,"state":"MD"},"type":"Feature","geometry":{"type":"Point","coordinates":[-78.791,39.6932]}},{"properties":{"city":"Brockway","store":146,"id":"a6hcqskiwr1x","lat":41.2467,"address":"1408 Main Street","long":-78.7872,"state":"PA"},"type":"Feature","geometry":{"type":"Point","coordinates":[-78.7872,41.2467]}},{"properties":{"city":"Falls Creek","store":194,"id":"a6hcqssnzc0q","lat":41.1414,"address":"1867 Rich Highway","long":-78.785,"state":"PA"},"type":"Feature","geometry":{"type":"Point","coordinates":[-78.785,41.1414]}},{"properties":{"city":"Dubois","store":148,"id":"a6hcqsjb0hdu","lat":41.083,"address":"2125 Blinker Parkway Road","long":-78.784,"state":"PA"},"type":"Feature","geometry":{"type":"Point","coordinates":[-78.784,41.083]}},{"properties":{"city":"Northern Cambria","store":55,"id":"a6hcqsn57c0v","lat":40.66,"address":"3909 Bigler Avenue","long":-78.783,"state":"PA"},"type":"Feature","geometry":{"type":"Point","coordinates":[-78.783,40.66]}},{"properties":{"city":"Cumberland","store":51,"id":"a6hcqspv281c","lat":39.6501,"address":"210 Greene Street","long":-78.77,"state":"MD"},"type":"Feature","geometry":{"type":"Point","coordinates":[-78.77,39.6501]}},{"properties":{"city":"Cumberland","store":129,"id":"a6hcqsi7sie3","lat":39.634,"address":"429 Virginia Avenue","long":-78.7647,"state":"MD"},"type":"Feature","geometry":{"type":"Point","coordinates":[-78.7647,39.634]}},{"properties":{"city":"Fuquay-Varina","store":365,"id":"a6hcqsodu7w2","lat":35.597,"address":"1655 North Main St","long":-78.7598,"state":"NC"},"type":"Feature","geometry":{"type":"Point","coordinates":[-78.7598,35.597]}},{"properties":{"city":"Dubois","store":149,"id":"a6hcqsfk1apl","lat":41.1191,"address":"124 North Brady Street","long":-78.7598,"state":"PA"},"type":"Feature","geometry":{"type":"Point","coordinates":[-78.7598,41.1191]}},{"properties":{"city":"Cumberland","store":41,"id":"a6hcqsrq4qhn","lat":39.6576,"address":"361 Frederick Street","long":-78.7586,"state":"MD"},"type":"Feature","geometry":{"type":"Point","coordinates":[-78.7586,39.6576]}},{"properties":{"city":"Ebensburg","store":430,"id":"a6hcqstv0zgh","lat":40.4674,"address":"4375 Admiral Peary Highway","long":-78.7569,"state":"PA"},"type":"Feature","geometry":{"type":"Point","coordinates":[-78.7569,40.4674]}},{"properties":{"city":"Romney","store":180,"id":"a6hcqsr1dvif","lat":39.3411,"address":"136 East Main Street","long":-78.7555,"state":"WV"},"type":"Feature","geometry":{"type":"Point","coordinates":[-78.7555,39.3411]}},{"properties":{"city":"Sidman","store":113,"id":"a6hcqskl5zzz","lat":40.3298,"address":"101 Forest Hills Drive","long":-78.7474,"state":"PA"},"type":"Feature","geometry":{"type":"Point","coordinates":[-78.7474,40.3298]}},{"properties":{"city":"Dubois","store":63,"id":"a6hcqsui3mqz","lat":41.125,"address":"603 East Dubois Avenue","long":-78.742,"state":"PA"},"type":"Feature","geometry":{"type":"Point","coordinates":[-78.742,41.125]}},{"properties":{"city":"Ebensburg","store":45,"id":"a6hcqsinr8ou","lat":40.4816,"address":"948 West High Street","long":-78.7354,"state":"PA"},"type":"Feature","geometry":{"type":"Point","coordinates":[-78.7354,40.4816]}},{"properties":{"city":"Ridgway","store":96,"id":"a6hcqsryrk1n","lat":41.4245,"address":"138 N. Broad Street","long":-78.7304,"state":"PA"},"type":"Feature","geometry":{"type":"Point","coordinates":[-78.7304,41.4245]}},{"properties":{"city":"Carrolltown","store":127,"id":"a6hcqskbj3l2","lat":40.6016,"address":"Rt 219 and Scanlon Street","long":-78.7089,"state":"PA"},"type":"Feature","geometry":{"type":"Point","coordinates":[-78.7089,40.6016]}},{"properties":{"city":"Portage","store":49,"id":"a6hcqshcpfyd","lat":40.3898,"address":"411 Main Street","long":-78.6719,"state":"PA"},"type":"Feature","geometry":{"type":"Point","coordinates":[-78.6719,40.3898]}},{"properties":{"city":"Patton","store":52,"id":"a6hcqsv867oo","lat":40.6341,"address":"304 Magee Avenue","long":-78.6455,"state":"PA"},"type":"Feature","geometry":{"type":"Point","coordinates":[-78.6455,40.6341]}},{"properties":{"city":"Mount Jackson","store":701,"id":"a6hcqsvyzzsl","lat":38.7608,"address":"227 CONICVILLE BLVD","long":-78.6322,"state":"VA"},"type":"Feature","geometry":{"type":"Point","coordinates":[-78.6322,38.7608]}},{"properties":{"city":"Cresson","store":196,"id":"a6hcqsnim4y5","lat":40.4593,"address":"7551 Admiral Perry Highway","long":-78.5929,"state":"PA"},"type":"Feature","geometry":{"type":"Point","coordinates":[-78.5929,40.4593]}},{"properties":{"city":"St. Marys","store":400,"id":"a6hcqsstqoof","lat":41.4278,"address":"117 South Michael Street","long":-78.5589,"state":"PA"},"type":"Feature","geometry":{"type":"Point","coordinates":[-78.5589,41.4278]}},{"properties":{"city":"Raleigh","store":361,"id":"a6hcqstvg1le","lat":35.8987,"address":"4801 Thornton Road","long":-78.5569,"state":"NC"},"type":"Feature","geometry":{"type":"Point","coordinates":[-78.5569,35.8987]}},{"properties":{"city":"Raleigh","store":371,"id":"a6hcqsse3sxy","lat":35.7933,"address":"5200 New Bern Ave","long":-78.5486,"state":"NC"},"type":"Feature","geometry":{"type":"Point","coordinates":[-78.5486,35.7933]}},{"properties":{"city":"Woodstock","store":198,"id":"a6hcqsi9c9l8","lat":38.8672,"address":"111 West Reservoir Road","long":-78.519,"state":"VA"},"type":"Feature","geometry":{"type":"Point","coordinates":[-78.519,38.8672]}},{"properties":{"city":"Bedford","store":352,"id":"a6hcqst91h0g","lat":40.0526,"address":"4354 Business 220","long":-78.5105,"state":"PA"},"type":"Feature","geometry":{"type":"Point","coordinates":[-78.5105,40.0526]}},{"properties":{"city":"Youngsville","store":383,"id":"a6hcqsugc0ow","lat":36.0256,"address":"564 US 1 Highway","long":-78.5083,"state":"NC"},"type":"Feature","geometry":{"type":"Point","coordinates":[-78.5083,36.0256]}},{"properties":{"city":"Bedford","store":28,"id":"a6hcqsgpqfi5","lat":40.0159,"address":"9402 Lincoln Highway","long":-78.4673,"state":"PA"},"type":"Feature","geometry":{"type":"Point","coordinates":[-78.4673,40.0159]}},{"properties":{"city":"Clearfield","store":73,"id":"a6hcqsn67dab","lat":41.0278,"address":"101 Nichols Street","long":-78.4404,"state":"PA"},"type":"Feature","geometry":{"type":"Point","coordinates":[-78.4404,41.0278]}},{"properties":{"city":"Altoona","store":7,"id":"a6hcqsi81h7o","lat":40.4726,"address":"5700 Sixth Avenue","long":-78.4253,"state":"PA"},"type":"Feature","geometry":{"type":"Point","coordinates":[-78.4253,40.4726]}},{"properties":{"city":"East Freedom","store":169,"id":"a6hcqsrpm0xd","lat":40.3616,"address":"RR 1 Box 88","long":-78.4202,"state":"PA"},"type":"Feature","geometry":{"type":"Point","coordinates":[-78.4202,40.3616]}},{"properties":{"city":"Altoona","store":14,"id":"a6hcqsgdmy1c","lat":40.494,"address":"3315 Beale Avenue","long":-78.4165,"state":"PA"},"type":"Feature","geometry":{"type":"Point","coordinates":[-78.4165,40.494]}},{"properties":{"city":"Duncansville","store":35,"id":"a6hcqsgg6b77","lat":40.4365,"address":"1371 Old 220 N. Bus.","long":-78.4132,"state":"PA"},"type":"Feature","geometry":{"type":"Point","coordinates":[-78.4132,40.4365]}},{"properties":{"city":"Clearfield","store":252,"id":"a6hcqshv48ve","lat":41.0338,"address":"14259 Clearfield/Shawvill Hwy","long":-78.4045,"state":"PA"},"type":"Feature","geometry":{"type":"Point","coordinates":[-78.4045,41.0338]}},{"properties":{"city":"Altoona","store":11,"id":"a6hcqsrll24f","lat":40.5174,"address":"1230 14th Avenue","long":-78.404,"state":"PA"},"type":"Feature","geometry":{"type":"Point","coordinates":[-78.404,40.5174]}},{"properties":{"city":"Altoona","store":187,"id":"a6hcqsjwiita","lat":40.4786,"address":"509 East Plank Road","long":-78.4031,"state":"PA"},"type":"Feature","geometry":{"type":"Point","coordinates":[-78.4031,40.4786]}},{"properties":{"city":"Farmville","store":395,"id":"a6hcqsr4yudf","lat":37.2721,"address":"2016 South Main St","long":-78.4024,"state":"VA"},"type":"Feature","geometry":{"type":"Point","coordinates":[-78.4024,37.2721]}},{"properties":{"city":"Altoona","store":38,"id":"a6hcqsph33vo","lat":40.5345,"address":"405 East 25th Avenue","long":-78.4015,"state":"PA"},"type":"Feature","geometry":{"type":"Point","coordinates":[-78.4015,40.5345]}},{"properties":{"city":"Altoona","store":34,"id":"a6hcqsk2r84m","lat":40.5082,"address":"1701 Seventh Avenue","long":-78.4008,"state":"PA"},"type":"Feature","geometry":{"type":"Point","coordinates":[-78.4008,40.5082]}},{"properties":{"city":"Altoona","store":354,"id":"a6hcqsjwu0cs","lat":40.4993,"address":"1915 Pleasant Valley Blvd.","long":-78.3919,"state":"PA"},"type":"Feature","geometry":{"type":"Point","coordinates":[-78.3919,40.4993]}},{"properties":{"city":"Ruckersville","store":238,"id":"a6hcqso5pwhq","lat":38.2079,"address":"7020 Seminole Trail","long":-78.3854,"state":"VA"},"type":"Feature","geometry":{"type":"Point","coordinates":[-78.3854,38.2079]}},{"properties":{"city":"Hollidaysburg","store":3,"id":"a6hcqslb71lf","lat":40.4297,"address":"1100 Blair Street Extension","long":-78.3849,"state":"PA"},"type":"Feature","geometry":{"type":"Point","coordinates":[-78.3849,40.4297]}},{"properties":{"city":"Altoona","store":5,"id":"a6hcqsqzhk9y","lat":40.5372,"address":"528 Fourth Avenue, Juniata","long":-78.382,"state":"PA"},"type":"Feature","geometry":{"type":"Point","coordinates":[-78.382,40.5372]}},{"properties":{"city":"Everett","store":23,"id":"a6hcqsuqh6td","lat":40.0111,"address":"11 West Main Street","long":-78.3737,"state":"PA"},"type":"Feature","geometry":{"type":"Point","coordinates":[-78.3737,40.0111]}},{"properties":{"city":"Altoona","store":420,"id":"a6hcqsksng9d","lat":40.5364,"address":"1015 Old Sixth Avenue Road","long":-78.3736,"state":"PA"},"type":"Feature","geometry":{"type":"Point","coordinates":[-78.3736,40.5364]}},{"properties":{"city":"Altoona","store":100,"id":"a6hcqsovcrjz","lat":40.5402,"address":"1661 East Pleasant Valley Blvd","long":-78.3544,"state":"PA"},"type":"Feature","geometry":{"type":"Point","coordinates":[-78.3544,40.5402]}},{"properties":{"city":"Zebulon","store":416,"id":"a6hcqsgzhr9q","lat":35.8392,"address":"1406 N. Arendell Avenue","long":-78.3248,"state":"NC"},"type":"Feature","geometry":{"type":"Point","coordinates":[-78.3248,35.8392]}},{"properties":{"city":"Altoona","store":33,"id":"a6hcqsthkoe1","lat":40.6001,"address":"RR7 Box 555E","long":-78.3216,"state":"PA"},"type":"Feature","geometry":{"type":"Point","coordinates":[-78.3216,40.6001]}},{"properties":{"city":"Madison","store":303,"id":"a6hcqsthpcj1","lat":38.3468,"address":"2902 South Seminole Trail","long":-78.286,"state":"VA"},"type":"Feature","geometry":{"type":"Point","coordinates":[-78.286,38.3468]}},{"properties":{"city":"Port Allegany","store":166,"id":"a6hcqstwz8y0","lat":41.811,"address":"1 South Main Street","long":-78.2797,"state":"PA"},"type":"Feature","geometry":{"type":"Point","coordinates":[-78.2797,41.811]}},{"properties":{"city":"Emporium","store":151,"id":"a6hcqsq1e8ls","lat":41.5113,"address":"1 West Fourth Street","long":-78.238,"state":"PA"},"type":"Feature","geometry":{"type":"Point","coordinates":[-78.238,41.5113]}},{"properties":{"city":"Breezewood","store":225,"id":"a6hcqsogbo94","lat":39.9997,"address":"RT 30 &amp; SR 1013","long":-78.2374,"state":"PA"},"type":"Feature","geometry":{"type":"Point","coordinates":[-78.2374,39.9997]}},{"properties":{"city":"Tyrone","store":15,"id":"a6hcqspf3zaa","lat":40.676,"address":"1400 Logan Avenue","long":-78.2372,"state":"PA"},"type":"Feature","geometry":{"type":"Point","coordinates":[-78.2372,40.676]}},{"properties":{"city":"Berkeley Springs","store":126,"id":"a6hcqsr1friz","lat":39.6235,"address":"245 South Washington Street","long":-78.2294,"state":"WV"},"type":"Feature","geometry":{"type":"Point","coordinates":[-78.2294,39.6235]}},{"properties":{"city":"Philipsburg","store":64,"id":"a6hcqsh9k1t1","lat":40.9031,"address":"808 North Front Street","long":-78.229,"state":"PA"},"type":"Feature","geometry":{"type":"Point","coordinates":[-78.229,40.9031]}},{"properties":{"city":"Stephens City","store":197,"id":"a6hcqsqoliey","lat":39.082,"address":"747 Fairfax Street","long":-78.2169,"state":"VA"},"type":"Feature","geometry":{"type":"Point","coordinates":[-78.2169,39.082]}},{"properties":{"city":"Winchester","store":203,"id":"a6hcqsflfu1q","lat":39.1605,"address":"2311 Valley Avenue","long":-78.1857,"state":"VA"},"type":"Feature","geometry":{"type":"Point","coordinates":[-78.1857,39.1605]}},{"properties":{"city":"Hancock","store":43,"id":"a6hcqsjwnj4k","lat":39.7,"address":"192 West Main Street","long":-78.1844,"state":"MD"},"type":"Feature","geometry":{"type":"Point","coordinates":[-78.1844,39.7]}},{"properties":{"city":"Winchester","store":186,"id":"a6hcqsmu8t0k","lat":39.2095,"address":"1503 North Frederick Pike","long":-78.1795,"state":"VA"},"type":"Feature","geometry":{"type":"Point","coordinates":[-78.1795,39.2095]}},{"properties":{"city":"Winchester","store":208,"id":"a6hcqsobpaf6","lat":39.1674,"address":"601 Millwood Avenue","long":-78.1633,"state":"VA"},"type":"Feature","geometry":{"type":"Point","coordinates":[-78.1633,39.1674]}},{"properties":{"city":"Winchester","store":309,"id":"a6hcqsswkqev","lat":39.2157,"address":"1574 Martinsburg Pike","long":-78.1406,"state":"VA"},"type":"Feature","geometry":{"type":"Point","coordinates":[-78.1406,39.2157]}},{"properties":{"city":"Winchester","store":207,"id":"a6hcqsstkhac","lat":39.1871,"address":"1683 Berryville Pike","long":-78.1258,"state":"VA"},"type":"Feature","geometry":{"type":"Point","coordinates":[-78.1258,39.1871]}},{"properties":{"city":"Orange","store":285,"id":"a6hcqsq1jmuh","lat":38.2526,"address":"322 North Madison Road","long":-78.1146,"state":"VA"},"type":"Feature","geometry":{"type":"Point","coordinates":[-78.1146,38.2526]}},{"properties":{"city":"Boyce","store":192,"id":"a6hcqsp4qjku","lat":39.084,"address":"12582 Lord Fairfax Highway","long":-78.0843,"state":"VA"},"type":"Feature","geometry":{"type":"Point","coordinates":[-78.0843,39.084]}},{"properties":{"city":"Inwood","store":143,"id":"a6hcqsvtaxp7","lat":39.3581,"address":"7899 Winchester Avenue","long":-78.0392,"state":"WV"},"type":"Feature","geometry":{"type":"Point","coordinates":[-78.0392,39.3581]}},{"properties":{"city":"Coudersport","store":165,"id":"a6hcqsjtx24b","lat":41.7698,"address":"208 South Main Street","long":-78.0221,"state":"PA"},"type":"Feature","geometry":{"type":"Point","coordinates":[-78.0221,41.7698]}},{"properties":{"city":"Altoona","store":10,"id":"a6hcqst8xl8b","lat":40.4949,"address":"130 East Sixth Avenue","long":-78.0165,"state":"PA"},"type":"Feature","geometry":{"type":"Point","coordinates":[-78.0165,40.4949]}},{"properties":{"city":"Huntingdon","store":215,"id":"a6hcqsl4o7nl","lat":40.4793,"address":"RD 1 Box 353 B","long":-78.0133,"state":"PA"},"type":"Feature","geometry":{"type":"Point","coordinates":[-78.0133,40.4793]}},{"properties":{"city":"McConnellsburg","store":32,"id":"a6hcqsmeuyq2","lat":39.9296,"address":"720 Lincoln Way East","long":-77.9896,"state":"PA"},"type":"Feature","geometry":{"type":"Point","coordinates":[-77.9896,39.9296]}},{"properties":{"city":"Martinsburg","store":155,"id":"a6hcqsl2q40l","lat":39.4636,"address":"1617 West King Street","long":-77.9879,"state":"WV"},"type":"Feature","geometry":{"type":"Point","coordinates":[-77.9879,39.4636]}},{"properties":{"city":"Martinsburg","store":241,"id":"a6hcqsnss56f","lat":39.4425,"address":"14686 Apple Harvest Drive","long":-77.9857,"state":"WV"},"type":"Feature","geometry":{"type":"Point","coordinates":[-77.9857,39.4425]}},{"properties":{"city":"Martinsburg","store":220,"id":"a6hcqsmjwxbe","lat":39.4849,"address":"1465 Edwin Miller Blvd","long":-77.9573,"state":"WV"},"type":"Feature","geometry":{"type":"Point","coordinates":[-77.9573,39.4849]}},{"properties":{"city":"Wilson","store":396,"id":"a6hcqsk1h0c3","lat":35.7083,"address":"2835 Forest Hills Road SW","long":-77.9515,"state":"NC"},"type":"Feature","geometry":{"type":"Point","coordinates":[-77.9515,35.7083]}},{"properties":{"city":"Martinsburg","store":425,"id":"a6hcqsqkql4r","lat":39.5561,"address":"5715 HAMMONDS MILL RD","long":-77.9388,"state":"WV"},"type":"Feature","geometry":{"type":"Point","coordinates":[-77.9388,39.5561]}},{"properties":{"city":"State College","store":287,"id":"a6hcqsr8fhs4","lat":40.8114,"address":"101 Valley Vista Drive","long":-77.9226,"state":"PA"},"type":"Feature","geometry":{"type":"Point","coordinates":[-77.9226,40.8114]}},{"properties":{"city":"State College","store":122,"id":"a6hcqsom3t78","lat":40.809,"address":"1781 North Atherton Street","long":-77.9013,"state":"PA"},"type":"Feature","geometry":{"type":"Point","coordinates":[-77.9013,40.809]}},{"properties":{"city":"Kearneysville","store":137,"id":"a6hcqsuzpqsw","lat":39.388,"address":"Rt 9 &amp; Rt 480","long":-77.8858,"state":"WV"},"type":"Feature","geometry":{"type":"Point","coordinates":[-77.8858,39.388]}},{"properties":{"city":"Mount Union","store":40,"id":"a6hcqsg0vjdd","lat":40.3872,"address":"201 Jefferson Street","long":-77.8829,"state":"PA"},"type":"Feature","geometry":{"type":"Point","coordinates":[-77.8829,40.3872]}},{"properties":{"city":"Charles Town","store":240,"id":"a6hcqsvgmapy","lat":39.2958,"address":"51 Flowering Springs Road","long":-77.8442,"state":"WV"},"type":"Feature","geometry":{"type":"Point","coordinates":[-77.8442,39.2958]}},{"properties":{"city":"Powhatan","store":331,"id":"a6hcqskf1dsf","lat":37.523,"address":"2600 Anderson Highway","long":-77.8232,"state":"VA"},"type":"Feature","geometry":{"type":"Point","coordinates":[-77.8232,37.523]}},{"properties":{"city":"Williamsport","store":68,"id":"a6hcqshxdz68","lat":39.6003,"address":"100 East Potomac Street","long":-77.8187,"state":"MD"},"type":"Feature","geometry":{"type":"Point","coordinates":[-77.8187,39.6003]}},{"properties":{"city":"State College","store":150,"id":"a6hcqsvope3f","lat":40.818,"address":"2000 East College Avenue","long":-77.818,"state":"PA"},"type":"Feature","geometry":{"type":"Point","coordinates":[-77.818,40.818]}},{"properties":{"city":"Bellefonte","store":181,"id":"a6hcqsojd0wd","lat":40.935,"address":"820 S. Eagle Valley Rd","long":-77.8148,"state":"PA"},"type":"Feature","geometry":{"type":"Point","coordinates":[-77.8148,40.935]}},{"properties":{"city":"Shepardstown","store":160,"id":"a6hcqsgx84l6","lat":39.4333,"address":"8332 Martinsburg Pike","long":-77.8134,"state":"WV"},"type":"Feature","geometry":{"type":"Point","coordinates":[-77.8134,39.4333]}},{"properties":{"city":"State College","store":339,"id":"a6hcqsoh6uw2","lat":40.8363,"address":"765 Benner Pike","long":-77.8018,"state":"PA"},"type":"Feature","geometry":{"type":"Point","coordinates":[-77.8018,40.8363]}},{"properties":{"city":"Hagerstown","store":184,"id":"a6hcqspg99hk","lat":39.6519,"address":"12404 Lauger Avenue","long":-77.801,"state":"MD"},"type":"Feature","geometry":{"type":"Point","coordinates":[-77.801,39.6519]}},{"properties":{"city":"Bealton","store":221,"id":"a6hcqshjefpa","lat":38.62,"address":"10101 James Madison Highway","long":-77.8001,"state":"VA"},"type":"Feature","geometry":{"type":"Point","coordinates":[-77.8001,38.62]}},{"properties":{"city":"Warrenton","store":243,"id":"a6hcqsmhc112","lat":38.7282,"address":"600 Blackwell Road","long":-77.7914,"state":"VA"},"type":"Feature","geometry":{"type":"Point","coordinates":[-77.7914,38.7282]}},{"properties":{"city":"Hagerstown","store":163,"id":"a6hcqsi4hhgo","lat":39.6206,"address":"17550 Virginia Avenue","long":-77.7592,"state":"MD"},"type":"Feature","geometry":{"type":"Point","coordinates":[-77.7592,39.6206]}},{"properties":{"city":"Hagerstown","store":262,"id":"a6hcqskfuhfj","lat":39.6127,"address":"1396 South Potomac Street","long":-77.7306,"state":"MD"},"type":"Feature","geometry":{"type":"Point","coordinates":[-77.7306,39.6127]}},{"properties":{"city":"Greencastle","store":116,"id":"a6hcqst00yhb","lat":39.7912,"address":"215 West Baltimore St.","long":-77.7305,"state":"PA"},"type":"Feature","geometry":{"type":"Point","coordinates":[-77.7305,39.7912]}},{"properties":{"city":"Locust Grove","store":323,"id":"a6hcqsop1wq9","lat":38.3262,"address":"5504 Germanna Highway","long":-77.7291,"state":"VA"},"type":"Feature","geometry":{"type":"Point","coordinates":[-77.7291,38.3262]}},{"properties":{"city":"Hagerstown","store":145,"id":"a6hcqstdkc6f","lat":39.6858,"address":"18717 Longmeadow Road","long":-77.72,"state":"MD"},"type":"Feature","geometry":{"type":"Point","coordinates":[-77.72,39.6858]}},{"properties":{"city":"Hagerstown","store":82,"id":"a6hcqsgptnqd","lat":39.6392,"address":"301 East Washington Street","long":-77.7146,"state":"MD"},"type":"Feature","geometry":{"type":"Point","coordinates":[-77.7146,39.6392]}},{"properties":{"city":"Hagerstown","store":74,"id":"a6hcqsvfz56t","lat":39.6506,"address":"700 Potomac Avenue","long":-77.7121,"state":"MD"},"type":"Feature","geometry":{"type":"Point","coordinates":[-77.7121,39.6506]}},{"properties":{"city":"Chambersburg","store":69,"id":"a6hcqsgb1mew","lat":39.9367,"address":"169 Lincoln Way West","long":-77.672,"state":"PA"},"type":"Feature","geometry":{"type":"Point","coordinates":[-77.672,39.9367]}},{"properties":{"city":"Chambersburg","store":185,"id":"a6hcqsg9q2i2","lat":39.9153,"address":"900 Wayne Avenue","long":-77.6545,"state":"PA"},"type":"Feature","geometry":{"type":"Point","coordinates":[-77.6545,39.9153]}},{"properties":{"city":"Boonsboro","store":209,"id":"a6hcqsn8mtch","lat":39.5712,"address":"20723 National Pike","long":-77.6468,"state":"MD"},"type":"Feature","geometry":{"type":"Point","coordinates":[-77.6468,39.5712]}},{"properties":{"city":"Haymarket","store":205,"id":"a6hcqsp0s2s6","lat":38.8152,"address":"15315 Washington Street","long":-77.643,"state":"VA"},"type":"Feature","geometry":{"type":"Point","coordinates":[-77.643,38.8152]}},{"properties":{"city":"Knoxville","store":176,"id":"a6hcqsoa072e","lat":39.3372,"address":"3842 Burkittsville Road","long":-77.64,"state":"MD"},"type":"Feature","geometry":{"type":"Point","coordinates":[-77.64,39.3372]}},{"properties":{"city":"Chambersburg","store":392,"id":"a6hcqsuswd2y","lat":39.9424,"address":"875 Norland Avenue","long":-77.6335,"state":"PA"},"type":"Feature","geometry":{"type":"Point","coordinates":[-77.6335,39.9424]}},{"properties":{"city":"Chambersburg","store":76,"id":"a6hcqslf6w14","lat":39.9278,"address":"1315 Lincoln Way East","long":-77.6296,"state":"PA"},"type":"Feature","geometry":{"type":"Point","coordinates":[-77.6296,39.9278]}},{"properties":{"city":"Richmond","store":322,"id":"a6hcqsoe9nx6","lat":37.5212,"address":"2053 Huguenot Road","long":-77.6129,"state":"VA"},"type":"Feature","geometry":{"type":"Point","coordinates":[-77.6129,37.5212]}},{"properties":{"city":"Chambersburg","store":178,"id":"a6hcqsoshjn8","lat":39.9922,"address":"5234 Philadelphia Avenue","long":-77.6072,"state":"PA"},"type":"Feature","geometry":{"type":"Point","coordinates":[-77.6072,39.9922]}},{"properties":{"city":"Lewistown","store":158,"id":"a6hcqsgih9h7","lat":40.5957,"address":"113 Juniata Street","long":-77.5805,"state":"PA"},"type":"Feature","geometry":{"type":"Point","coordinates":[-77.5805,40.5957]}},{"properties":{"city":"Richmond","store":341,"id":"a6hcqsfs9zp8","lat":37.448,"address":"9401 Amberdale Drive","long":-77.5688,"state":"VA"},"type":"Feature","geometry":{"type":"Point","coordinates":[-77.5688,37.448]}},{"properties":{"city":"Richmond","store":338,"id":"a6hcqsq57189","lat":37.4966,"address":"20 South Providence Rd","long":-77.5472,"state":"VA"},"type":"Feature","geometry":{"type":"Point","coordinates":[-77.5472,37.4966]}},{"properties":{"city":"Leesburg","store":267,"id":"a6hcqsr277xk","lat":39.1132,"address":"915 Edwards Ferry Road","long":-77.5392,"state":"VA"},"type":"Feature","geometry":{"type":"Point","coordinates":[-77.5392,39.1132]}},{"properties":{"city":"Waynesboro","store":401,"id":"a6hcqsnjza61","lat":39.7385,"address":"13030 Washington Township Blvd","long":-77.527,"state":"PA"},"type":"Feature","geometry":{"type":"Point","coordinates":[-77.527,39.7385]}},{"properties":{"city":"Richmond","store":350,"id":"a6hcqsq3hr50","lat":37.6104,"address":"7035 West Broad Street","long":-77.52,"state":"VA"},"type":"Feature","geometry":{"type":"Point","coordinates":[-77.52,37.6104]}},{"properties":{"city":"Shippensburg","store":70,"id":"a6hcqsm1kyy9","lat":40.0548,"address":"359 East King Street","long":-77.5133,"state":"PA"},"type":"Feature","geometry":{"type":"Point","coordinates":[-77.5133,40.0548]}},{"properties":{"city":"Fredericksburg","store":346,"id":"a6hcqshev817","lat":38.3102,"address":"2001 Carl D. Silver Parkway","long":-77.5132,"state":"VA"},"type":"Feature","geometry":{"type":"Point","coordinates":[-77.5132,38.3102]}},{"properties":{"city":"Chantilly","store":304,"id":"a6hcqsh6g0mv","lat":38.9198,"address":"25224 Poland Road","long":-77.4963,"state":"VA"},"type":"Feature","geometry":{"type":"Point","coordinates":[-77.4963,38.9198]}},{"properties":{"city":"Mill Hall","store":280,"id":"a6hcqsheql75","lat":41.1148,"address":"288 Hogan Blvd","long":-77.4791,"state":"PA"},"type":"Feature","geometry":{"type":"Point","coordinates":[-77.4791,41.1148]}},{"properties":{"city":"Ashland","store":315,"id":"a6hcqsqj629w","lat":37.746,"address":"12341 North Washington Highway","long":-77.4717,"state":"VA"},"type":"Feature","geometry":{"type":"Point","coordinates":[-77.4717,37.746]}},{"properties":{"city":"Manassas Park","store":270,"id":"a6hcqshq7t6c","lat":38.7704,"address":"8504 Centreville Road","long":-77.4534,"state":"VA"},"type":"Feature","geometry":{"type":"Point","coordinates":[-77.4534,38.7704]}},{"properties":{"city":"Ashland","store":286,"id":"a6hcqsnm0a6g","lat":37.6914,"address":"10036 Sliding Hill Road","long":-77.4407,"state":"VA"},"type":"Feature","geometry":{"type":"Point","coordinates":[-77.4407,37.6914]}},{"properties":{"city":"Fredericksburg","store":264,"id":"a6hcqsnpb6r0","lat":38.2865,"address":"10 Washington Square Plaza","long":-77.4372,"state":"VA"},"type":"Feature","geometry":{"type":"Point","coordinates":[-77.4372,38.2865]}},{"properties":{"city":"Frederick","store":242,"id":"a6hcqskq70ka","lat":39.4265,"address":"1600 Rosemont Avenue","long":-77.4307,"state":"MD"},"type":"Feature","geometry":{"type":"Point","coordinates":[-77.4307,39.4265]}},{"properties":{"city":"Thurmont","store":200,"id":"a6hcqss6v6ik","lat":39.6337,"address":"428 North Church Street","long":-77.4102,"state":"MD"},"type":"Feature","geometry":{"type":"Point","coordinates":[-77.4102,39.6337]}},{"properties":{"city":"Frederick","store":161,"id":"a6hcqslwizea","lat":39.3868,"address":"5601 Buckeystown Pike","long":-77.4088,"state":"MD"},"type":"Feature","geometry":{"type":"Point","coordinates":[-77.4088,39.3868]}},{"properties":{"city":"Winterville","store":409,"id":"a6hcqsumg58s","lat":35.5523,"address":"650 Whitley Drive","long":-77.4052,"state":"NC"},"type":"Feature","geometry":{"type":"Point","coordinates":[-77.4052,35.5523]}},{"properties":{"city":"Colonial Heights","store":321,"id":"a6hcqsmhrna8","lat":37.2598,"address":"2711 Conduit Road","long":-77.3952,"state":"VA"},"type":"Feature","geometry":{"type":"Point","coordinates":[-77.3952,37.2598]}},{"properties":{"city":"Frederick","store":249,"id":"a6hcqsjfi1kz","lat":39.407,"address":"1300 East Patrick Street","long":-77.3882,"state":"MD"},"type":"Feature","geometry":{"type":"Point","coordinates":[-77.3882,39.407]}},{"properties":{"city":"Greenville","store":397,"id":"a6hcqsottsmc","lat":35.6054,"address":"1000 Charles Boulevard","long":-77.3726,"state":"NC"},"type":"Feature","geometry":{"type":"Point","coordinates":[-77.3726,35.6054]}},{"properties":{"city":"Mifflintown","store":193,"id":"a6hcqshd5iaz","lat":40.5828,"address":"HCR 63, Box 64","long":-77.37,"state":"PA"},"type":"Feature","geometry":{"type":"Point","coordinates":[-77.37,40.5828]}},{"properties":{"city":"Walkersville","store":210,"id":"a6hcqsg9jt76","lat":39.4647,"address":"8408 Woodsboro Pike","long":-77.3645,"state":"MD"},"type":"Feature","geometry":{"type":"Point","coordinates":[-77.3645,39.4647]}},{"properties":{"city":"Chester","store":386,"id":"a6hcqsuzcikr","lat":37.348,"address":"231 East Hundred Road","long":-77.3563,"state":"VA"},"type":"Feature","geometry":{"type":"Point","coordinates":[-77.3563,37.348]}},{"properties":{"city":"Greenville","store":391,"id":"a6hcqslrhy0d","lat":35.5651,"address":"2100 County Home Road","long":-77.356,"state":"NC"},"type":"Feature","geometry":{"type":"Point","coordinates":[-77.356,35.5651]}},{"properties":{"city":"Dale City","store":244,"id":"a6hcqsuajz2j","lat":38.6665,"address":"4021 Prince William Parkway","long":-77.3329,"state":"VA"},"type":"Feature","geometry":{"type":"Point","coordinates":[-77.3329,38.6665]}},{"properties":{"city":"Greenville","store":415,"id":"a6hcqsurd0ib","lat":35.5834,"address":"1201 Portertown Road","long":-77.3112,"state":"NC"},"type":"Feature","geometry":{"type":"Point","coordinates":[-77.3112,35.5834]}},{"properties":{"city":"Carlisle","store":263,"id":"a6hcqsiw5i8o","lat":40.1908,"address":"1900 Ritner Highway","long":-77.2411,"state":"PA"},"type":"Feature","geometry":{"type":"Point","coordinates":[-77.2411,40.1908]}},{"properties":{"city":"Gettysburg","store":326,"id":"a6hcqstp0orc","lat":39.8444,"address":"30 Camp Letterman Rd.","long":-77.1997,"state":"PA"},"type":"Feature","geometry":{"type":"Point","coordinates":[-77.1997,39.8444]}},{"properties":{"city":"Mt Holly Springs","store":232,"id":"a6hcqsvzhl13","lat":40.1211,"address":"420 North Baltimore Avenue","long":-77.19,"state":"PA"},"type":"Feature","geometry":{"type":"Point","coordinates":[-77.19,40.1211]}},{"properties":{"city":"Taneytown","store":132,"id":"a6hcqsmx44kz","lat":39.6555,"address":"226 East Baltimore Street","long":-77.1715,"state":"MD"},"type":"Feature","geometry":{"type":"Point","coordinates":[-77.1715,39.6555]}},{"properties":{"city":"Carlisle","store":191,"id":"a6hcqsfxknz9","lat":40.2213,"address":"1098 Harrisburg Pike","long":-77.1627,"state":"PA"},"type":"Feature","geometry":{"type":"Point","coordinates":[-77.1627,40.2213]}},{"properties":{"city":"Carlisle","store":426,"id":"a6hcqsnonjdl","lat":40.1993,"address":"1796 W TRINDLE ROAD","long":-77.1541,"state":"PA"},"type":"Feature","geometry":{"type":"Point","coordinates":[-77.1541,40.1993]}},{"properties":{"city":"King George","store":307,"id":"a6hcqsuie2bx","lat":38.2392,"address":"11449 Kings Highway","long":-77.1496,"state":"VA"},"type":"Feature","geometry":{"type":"Point","coordinates":[-77.1496,38.2392]}},{"properties":{"city":"Littlestown","store":141,"id":"a6hcqstaxfdv","lat":39.7449,"address":"35 East King Street","long":-77.0869,"state":"PA"},"type":"Feature","geometry":{"type":"Point","coordinates":[-77.0869,39.7449]}},{"properties":{"city":"King George","store":259,"id":"a6hcqsvx6pmo","lat":38.353,"address":"17188 Owens Drive","long":-77.0484,"state":"VA"},"type":"Feature","geometry":{"type":"Point","coordinates":[-77.0484,38.353]}},{"properties":{"city":"Dillsburg","store":413,"id":"a6hcqsplfvz6","lat":40.1168,"address":"493 N US Route 15","long":-77.0388,"state":"PA"},"type":"Feature","geometry":{"type":"Point","coordinates":[-77.0388,40.1168]}},{"properties":{"city":"Mifflinburg","store":276,"id":"a6hcqsq5x758","lat":40.9238,"address":"240 East Chestnut Street","long":-77.031,"state":"PA"},"type":"Feature","geometry":{"type":"Point","coordinates":[-77.031,40.9238]}},{"properties":{"city":"Mechanicsburg","store":195,"id":"a6hcqsp3ewra","lat":40.2466,"address":"6558 Carlisle Pike","long":-77.0288,"state":"PA"},"type":"Feature","geometry":{"type":"Point","coordinates":[-77.0288,40.2466]}},{"properties":{"city":"Williamsport","store":336,"id":"a6hcqskutptv","lat":41.2332,"address":"105 Maynard Street","long":-77.0196,"state":"PA"},"type":"Feature","geometry":{"type":"Point","coordinates":[-77.0196,41.2332]}},{"properties":{"city":"Hanover","store":199,"id":"a6hcqslvgis8","lat":39.8232,"address":"1191 Carlisle Street","long":-76.9973,"state":"PA"},"type":"Feature","geometry":{"type":"Point","coordinates":[-76.9973,39.8232]}},{"properties":{"city":"Mechanicsburg","store":201,"id":"a6hcqsrdpa5n","lat":40.1936,"address":"1415 South Market Street","long":-76.9922,"state":"PA"},"type":"Feature","geometry":{"type":"Point","coordinates":[-76.9922,40.1936]}},{"properties":{"city":"Westminster","store":164,"id":"a6hcqsh9koar","lat":39.566,"address":"304 East Main Street","long":-76.987,"state":"MD"},"type":"Feature","geometry":{"type":"Point","coordinates":[-76.987,39.566]}},{"properties":{"city":"Duncannon","store":288,"id":"a6hcqsqwmxle","lat":40.3558,"address":"1550 State Road","long":-76.9867,"state":"PA"},"type":"Feature","geometry":{"type":"Point","coordinates":[-76.9867,40.3558]}},{"properties":{"city":"Williamsport","store":283,"id":"a6hcqsv8jjmr","lat":41.248,"address":"330 Westminster Drive","long":-76.9586,"state":"PA"},"type":"Feature","geometry":{"type":"Point","coordinates":[-76.9586,41.248]}},{"properties":{"city":"Halifax","store":228,"id":"a6hcqstdijb2","lat":40.4492,"address":"3625 Peters Mountain Road","long":-76.929,"state":"PA"},"type":"Feature","geometry":{"type":"Point","coordinates":[-76.929,40.4492]}},{"properties":{"city":"Manchester","store":177,"id":"a6hcqsktjhuz","lat":39.6644,"address":"3281 Main Street","long":-76.8861,"state":"MD"},"type":"Feature","geometry":{"type":"Point","coordinates":[-76.8861,39.6644]}},{"properties":{"city":"Lewisburg","store":378,"id":"a6hcqsgx7z5e","lat":40.989,"address":"260 International Drive","long":-76.8778,"state":"PA"},"type":"Feature","geometry":{"type":"Point","coordinates":[-76.8778,40.989]}},{"properties":{"city":"Tappahannock","store":290,"id":"a6hcqsua91j0","lat":37.9034,"address":"1804 Tappahannock Blvd","long":-76.8663,"state":"VA"},"type":"Feature","geometry":{"type":"Point","coordinates":[-76.8663,37.9034]}},{"properties":{"city":"Selinsgrove","store":235,"id":"a6hcqslnotvp","lat":40.8215,"address":"RR 4 Box 28","long":-76.8492,"state":"PA"},"type":"Feature","geometry":{"type":"Point","coordinates":[-76.8492,40.8215]}},{"properties":{"city":"Harrisburg","store":219,"id":"a6hcqsmqsh9x","lat":40.3366,"address":"2300 Colonial Road","long":-76.8262,"state":"PA"},"type":"Feature","geometry":{"type":"Point","coordinates":[-76.8262,40.3366]}},{"properties":{"city":"Harrisburg","store":374,"id":"a6hcqsgvgwt3","lat":40.2533,"address":"3695 Paxton St.","long":-76.8244,"state":"PA"},"type":"Feature","geometry":{"type":"Point","coordinates":[-76.8244,40.2533]}},{"properties":{"city":"York","store":348,"id":"a6hcqsp2soxq","lat":39.933,"address":"4025 West Market Street","long":-76.8086,"state":"PA"},"type":"Feature","geometry":{"type":"Point","coordinates":[-76.8086,39.933]}},{"properties":{"city":"Harrisburg","store":412,"id":"a6hcqssjtduc","lat":40.3247,"address":"6290 Allentown Boulevard","long":-76.7822,"state":"PA"},"type":"Feature","geometry":{"type":"Point","coordinates":[-76.7822,40.3247]}},{"properties":{"city":"York","store":255,"id":"a6hcqslbblf2","lat":39.9671,"address":"1484 Carlisle Road","long":-76.7778,"state":"PA"},"type":"Feature","geometry":{"type":"Point","coordinates":[-76.7778,39.9671]}},{"properties":{"city":"Manchester","store":233,"id":"a6hcqsqvl195","lat":40.0482,"address":"4309 North George Street","long":-76.7232,"state":"PA"},"type":"Feature","geometry":{"type":"Point","coordinates":[-76.7232,40.0482]}},{"properties":{"city":"York","store":373,"id":"a6hcqspyp7yy","lat":39.9367,"address":"2068 S. Queen St.","long":-76.6931,"state":"PA"},"type":"Feature","geometry":{"type":"Point","coordinates":[-76.6931,39.9367]}},{"properties":{"city":"Hummelstown","store":351,"id":"a6hcqspo8uje","lat":40.2684,"address":"685 East Main Street","long":-76.691,"state":"PA"},"type":"Feature","geometry":{"type":"Point","coordinates":[-76.691,40.2684]}},{"properties":{"city":"York","store":224,"id":"a6hcqstzi9hn","lat":39.9789,"address":"405 Memory Lane","long":-76.6814,"state":"PA"},"type":"Feature","geometry":{"type":"Point","coordinates":[-76.6814,39.9789]}},{"properties":{"city":"York","store":305,"id":"a6hcqsmxig6k","lat":39.9076,"address":"2721 South Queen Street","long":-76.68,"state":"PA"},"type":"Feature","geometry":{"type":"Point","coordinates":[-76.68,39.9076]}},{"properties":{"city":"York","store":423,"id":"a6hcqsppl70k","lat":39.9922,"address":"3998 E MARKET ST","long":-76.636,"state":"PA"},"type":"Feature","geometry":{"type":"Point","coordinates":[-76.636,39.9922]}},{"properties":{"city":"Red Lion","store":268,"id":"a6hcqspz38bn","lat":39.9156,"address":"3200 Cape Horn Road","long":-76.6295,"state":"PA"},"type":"Feature","geometry":{"type":"Point","coordinates":[-76.6295,39.9156]}},{"properties":{"city":"Palmyra","store":211,"id":"a6hcqstsyuta","lat":40.3134,"address":"811 East Main Street","long":-76.5847,"state":"PA"},"type":"Feature","geometry":{"type":"Point","coordinates":[-76.5847,40.3134]}},{"properties":{"city":"Danville","store":372,"id":"a6hcqsr8zxcu","lat":40.9603,"address":"116 Woodbine Lane","long":-76.5762,"state":"PA"},"type":"Feature","geometry":{"type":"Point","coordinates":[-76.5762,40.9603]}},{"properties":{"city":"Elysburg","store":216,"id":"a6hcqsve1brk","lat":40.8611,"address":"38 South Market Street","long":-76.5493,"state":"PA"},"type":"Feature","geometry":{"type":"Point","coordinates":[-76.5493,40.8611]}},{"properties":{"city":"Marietta","store":236,"id":"a6hcqshr42x4","lat":40.0634,"address":"1158 River Road","long":-76.5417,"state":"PA"},"type":"Feature","geometry":{"type":"Point","coordinates":[-76.5417,40.0634]}},{"properties":{"city":"Great Mills","store":318,"id":"a6hcqstp41iu","lat":38.2371,"address":"20760 Old Great Mills Road","long":-76.4965,"state":"MD"},"type":"Feature","geometry":{"type":"Point","coordinates":[-76.4965,38.2371]}},{"properties":{"city":"California","store":292,"id":"a6hcqsqhd2se","lat":38.291,"address":"22711 Three Notch Road","long":-76.4934,"state":"MD"},"type":"Feature","geometry":{"type":"Point","coordinates":[-76.4934,38.291]}},{"properties":{"city":"Mt Joy","store":312,"id":"a6hcqsvrwj64","lat":40.1122,"address":"1455 East Main Street","long":-76.4521,"state":"PA"},"type":"Feature","geometry":{"type":"Point","coordinates":[-76.4521,40.1122]}},{"properties":{"city":"Lebanon","store":370,"id":"a6hcqsh3iiri","lat":40.3049,"address":"195 Rocherty Road","long":-76.4235,"state":"PA"},"type":"Feature","geometry":{"type":"Point","coordinates":[-76.4235,40.3049]}},{"properties":{"city":"Bloomsburg","store":213,"id":"a6hcqsucn9hz","lat":41.0123,"address":"2511 New Berwick Highway","long":-76.4108,"state":"PA"},"type":"Feature","geometry":{"type":"Point","coordinates":[-76.4108,41.0123]}},{"properties":{"city":"Lancaster","store":388,"id":"a6hcqsh0h8q5","lat":40.0417,"address":"3101 Columbia Avenue","long":-76.3915,"state":"PA"},"type":"Feature","geometry":{"type":"Point","coordinates":[-76.3915,40.0417]}},{"properties":{"city":"Joppa","store":316,"id":"a6hcqshs9mah","lat":39.4287,"address":"601 Pulaski Highway","long":-76.3552,"state":"MD"},"type":"Feature","geometry":{"type":"Point","coordinates":[-76.3552,39.4287]}},{"properties":{"city":"Lancaster","store":421,"id":"a6hcqsvi05xs","lat":40.0587,"address":"1180 Manheim Pike","long":-76.3192,"state":"PA"},"type":"Feature","geometry":{"type":"Point","coordinates":[-76.3192,40.0587]}},{"properties":{"city":"Lititz","store":237,"id":"a6hcqsn6akqo","lat":40.1759,"address":"701 Furnace Hills Pike","long":-76.3086,"state":"PA"},"type":"Feature","geometry":{"type":"Point","coordinates":[-76.3086,40.1759]}},{"properties":{"city":"Lancaster","store":257,"id":"a6hcqsvh53u3","lat":40.0699,"address":"1699 Oregon Pike","long":-76.3013,"state":"PA"},"type":"Feature","geometry":{"type":"Point","coordinates":[-76.3013,40.0699]}},{"properties":{"city":"Berwick","store":434,"id":"a6hcqsrl4pre","lat":41.04683,"address":"2100 West Front Street","long":-76.27363,"state":"PA"},"type":"Feature","geometry":{"type":"Point","coordinates":[-76.27363,41.04683]}},{"properties":{"city":"Pottsville","store":258,"id":"a6hcqsv1z27g","lat":40.6726,"address":"900 Gordon Nagle Trail","long":-76.2349,"state":"PA"},"type":"Feature","geometry":{"type":"Point","coordinates":[-76.2349,40.6726]}},{"properties":{"city":"Brownstown","store":269,"id":"a6hcqsgy9oaf","lat":40.131,"address":"4179 Oregon Pike","long":-76.2177,"state":"PA"},"type":"Feature","geometry":{"type":"Point","coordinates":[-76.2177,40.131]}},{"properties":{"city":"SCHUYLKILL HAVEN","store":410,"id":"a6hcqsr00wi0","lat":40.6413,"address":"270 Route 61 S","long":-76.1588,"state":"PA"},"type":"Feature","geometry":{"type":"Point","coordinates":[-76.1588,40.6413]}},{"properties":{"city":"New Holland","store":231,"id":"a6hcqsr7vs3h","lat":40.094,"address":"698 West Main Street","long":-76.1127,"state":"PA"},"type":"Feature","geometry":{"type":"Point","coordinates":[-76.1127,40.094]}},{"properties":{"city":"Sinking Spring","store":289,"id":"a6hcqsuxqdda","lat":40.3272,"address":"4661 Penn Avenue","long":-76.0396,"state":"PA"},"type":"Feature","geometry":{"type":"Point","coordinates":[-76.0396,40.3272]}},{"properties":{"city":"Hazleton","store":291,"id":"a6hcqsmn3yb7","lat":40.9916,"address":"999 Airport Road","long":-75.9842,"state":"PA"},"type":"Feature","geometry":{"type":"Point","coordinates":[-75.9842,40.9916]}},{"properties":{"city":"Shoemakersville","store":256,"id":"a6hcqsihltak","lat":40.5014,"address":"544 Shoemaker Avenue","long":-75.9639,"state":"PA"},"type":"Feature","geometry":{"type":"Point","coordinates":[-75.9639,40.5014]}},{"properties":{"city":"Leesport","store":293,"id":"a6hcqsmcx8u1","lat":40.4446,"address":"5515 Pottsville Pike","long":-75.9548,"state":"PA"},"type":"Feature","geometry":{"type":"Point","coordinates":[-75.9548,40.4446]}},{"properties":{"city":"Trucksville","store":319,"id":"a6hcqsrk7ie5","lat":41.3056,"address":"163 South Memorial Highway","long":-75.9334,"state":"PA"},"type":"Feature","geometry":{"type":"Point","coordinates":[-75.9334,41.3056]}},{"properties":{"city":"Reading","store":226,"id":"a6hcqsljw7s2","lat":40.387,"address":"501 East Bellevue Avenue","long":-75.9268,"state":"PA"},"type":"Feature","geometry":{"type":"Point","coordinates":[-75.9268,40.387]}},{"properties":{"city":"Morgantown","store":345,"id":"a6hcqsusmg9e","lat":40.1555,"address":"3830 Main Street","long":-75.8741,"state":"PA"},"type":"Feature","geometry":{"type":"Point","coordinates":[-75.8741,40.1555]}},{"properties":{"city":"Wilkes Barre","store":297,"id":"a6hcqsvs79zz","lat":41.2342,"address":"464 Wilkes Barre Township Blvd","long":-75.8665,"state":"PA"},"type":"Feature","geometry":{"type":"Point","coordinates":[-75.8665,41.2342]}},{"properties":{"city":"Fleetwood","store":247,"id":"a6hcqsja9crp","lat":40.4855,"address":"14350 Kutztown Road","long":-75.8383,"state":"PA"},"type":"Feature","geometry":{"type":"Point","coordinates":[-75.8383,40.4855]}},{"properties":{"city":"Birdsboro","store":273,"id":"a6hcqsho5sc3","lat":40.2879,"address":"6600 Perkiomen Avenue","long":-75.8187,"state":"PA"},"type":"Feature","geometry":{"type":"Point","coordinates":[-75.8187,40.2879]}},{"properties":{"city":"Plains Township","store":344,"id":"a6hcqss1a3bp","lat":41.2632,"address":"1233 Highway 315","long":-75.8159,"state":"PA"},"type":"Feature","geometry":{"type":"Point","coordinates":[-75.8159,41.2632]}},{"properties":{"city":"Clarks Summit","store":363,"id":"a6hcqsl9e8ss","lat":41.4856,"address":"1109 Northern Boulevard","long":-75.6946,"state":"PA"},"type":"Feature","geometry":{"type":"Point","coordinates":[-75.6946,41.4856]}},{"properties":{"city":"Scranton","store":359,"id":"a6hcqsq8g371","lat":41.4638,"address":"610 Scranton-Carbondale Highway","long":-75.6511,"state":"PA"},"type":"Feature","geometry":{"type":"Point","coordinates":[-75.6511,41.4638]}},{"properties":{"city":"Dunmore","store":343,"id":"a6hcqsodxplp","lat":41.4377,"address":"1101 Oneill Highway","long":-75.6194,"state":"PA"},"type":"Feature","geometry":{"type":"Point","coordinates":[-75.6194,41.4377]}},{"properties":{"city":"Whitehall","store":330,"id":"a6hcqspsi51w","lat":40.6736,"address":"5001 MacArthur Rd","long":-75.5164,"state":"PA"},"type":"Feature","geometry":{"type":"Point","coordinates":[-75.5164,40.6736]}},{"properties":{"city":"Bethlehem","store":384,"id":"a6hcqstysdu5","lat":40.6556,"address":"3201 Schoenersville Road","long":-75.4169,"state":"PA"},"type":"Feature","geometry":{"type":"Point","coordinates":[-75.4169,40.6556]}}],"is_temporal":false,"author":{"url":"http://www.sheetz.com/main/locations/gps.cfm","metadata":"http://www.sheetz.com/main/locations/downloads/sheetz_poi_csv.zip","contact_name":"","contact_address":"","source":"Sheetz, inc.","contact_phone":""},"source":"http://www.sheetz.com/main/locations/gps.cfm","pagination":{"sort":null,"start":0,"total":370,"limit":1000000},"state":"complete","tags":"","published":"2014-08-10T12:37:10-04:00","id":81557}