{"type":"FeatureCollection","data_type":"Dataset","url_type":null,"permissions":[{"permissions":{"download":true,"view":true},"group_id":"everyone"}],"classification":null,"title":"NE-Hydro-Market-CA","count":42,"stream_id":82803,"contributor":{"url":"http://geocommons.com/users/20166","name":"mtsweetleaf"},"data_attributes":null,"calculation_params":null,"icon_link":null,"link":"http://geocommons.com/overlays/82803.json","extent":[-169.512,-14.2267,-69.9525,44.1581],"geometry_types":["point"],"unique_name":null,"name":"NE-Hydro-Market-CA","feature_count":42,"description":"","next_feature":null,"is_raster":false,"short_classification":"Y","stats":{"geo_score":{"max":0.732,"mean":0.45697619047619,"variance":0.053731487224158,"stdev":0.231800533269788,"min":0.0,"median":0.512}},"features":[{"properties":{"aaname":"All Grow Hydroponics Ltd","city":"Oshawa","zemail":null,"country":"Canada","zweb":"www.allgrow.org","geo_score":0.707,"zdistributors":"Advanced Nutrients","id":"a6vagddxtl6v","address":"391 Marwood Dr. #14","province":"Ontario","zphone":"(905) 435-3686","geo_precision":"street"},"type":"Feature","geometry":{"type":"Point","coordinates":[-93.972134,44.158148]}},{"properties":{"aaname":"Amazonia","city":"St-Eustache","zemail":null,"country":"Canada","zweb":null,"geo_score":0.0,"zdistributors":"Advanced Nutrients","id":"a6vagdgwm61a","address":"394 Boul. Arthur Sauve","province":"Quebec","zphone":"(450) 623-2790","geo_precision":"unmatched"},"type":"Feature","geometry":null},{"properties":{"aaname":"B and S Electrical Supplies Inc.","city":"Montreal","zemail":null,"country":"Canada","zweb":"www.bselectrical.com","geo_score":0.335,"zdistributors":"Advanced Nutrients","id":"a6vagd21d79a","address":"2240 Rue Pitt","province":"Quebec","zphone":"(514) 931-3817","geo_precision":"street"},"type":"Feature","geometry":{"type":"Point","coordinates":[-93.853764,35.14833]}},{"properties":{"aaname":"BMA Hydroponics","city":"Belleville","zemail":null,"country":"Canada","zweb":"www.bmahydroponics.com","geo_score":0.488,"zdistributors":"General Hydro | Advanced Nutrients","id":"a6vagdc23oi7","address":"404 Maitland Dr. #2","province":"Ontario","zphone":"(613) 697-9888","geo_precision":"city"},"type":"Feature","geometry":{"type":"Point","coordinates":[-87.109144,31.429888]}},{"properties":{"aaname":"Boutique High Times","city":"Laval","zemail":null,"country":"Canada","zweb":null,"geo_score":0.661,"zdistributors":"Advanced Nutrients","id":"a6vagd46y309","address":"1533 Boul. Cure-Labelle","province":"Quebec","zphone":"(450) 688-4848","geo_precision":"city"},"type":"Feature","geometry":{"type":"Point","coordinates":[-105.347787,37.101964]}},{"properties":{"aaname":"Brite Lites Indoor Garden Centre","city":"Gloucester","zemail":null,"country":"Canada","zweb":null,"geo_score":0.42,"zdistributors":"Advanced Nutrients","id":"a6vagd81qyaa","address":"1671 Cyrville Road","province":"Ontario","zphone":"(613) 842-8999","geo_precision":"city"},"type":"Feature","geometry":{"type":"Point","coordinates":[-97.2886,29.407186]}},{"properties":{"aaname":"Centre Hydroponique","city":"St-Hubert","zemail":null,"country":"Canada","zweb":null,"geo_score":0.498,"zdistributors":"Advanced Nutrients","id":"a6vagdcvekpo","address":"3239 Montee St-Hubert","province":"Quebec","zphone":"(450) 812-0747","geo_precision":"street"},"type":"Feature","geometry":{"type":"Point","coordinates":[-69.952542,43.917548]}},{"properties":{"aaname":"Centre Jardinage De Loutaouis","city":"Gatineau","zemail":null,"country":"Canada","zweb":null,"geo_score":0.683,"zdistributors":"Advanced Nutrients","id":"a6vagda5e80e","address":"360 Boulevard Maloney Ouest","province":"Quebec","zphone":"(819) 669-7711","geo_precision":"range"},"type":"Feature","geometry":{"type":"Point","coordinates":[-86.677364,33.63612]}},{"properties":{"aaname":"Chez Jack","city":"Saint-Jean-sur-Richelieu","zemail":null,"country":"Canada","zweb":null,"geo_score":0.633,"zdistributors":"Advanced Nutrients","id":"a6vagdeptsub","address":"747 St-Jacques, Local H","province":"Quebec","zphone":"(450) 358-5016","geo_precision":"city"},"type":"Feature","geometry":{"type":"Point","coordinates":[-81.431181,29.42303]}},{"properties":{"aaname":"Country Garden","city":"Scarborough","zemail":null,"country":"Canada","zweb":null,"geo_score":0.673,"zdistributors":"Advanced Nutrients","id":"a6vagd6eefxy","address":"180 Nantucket Blvd. Unit 2","province":"Ontario","zphone":"(647) 436-9012","geo_precision":"street"},"type":"Feature","geometry":{"type":"Point","coordinates":[-84.613289,33.95811]}},{"properties":{"aaname":"Fleuriste Messager du Ciel","city":"Ormstown","zemail":null,"country":"Canada","zweb":null,"geo_score":0.0,"zdistributors":"Advanced Nutrients","id":"a6vagdetbn8f","address":"1420 Quebec 201","province":"Quebec","zphone":"(450) 829-3209","geo_precision":"unmatched"},"type":"Feature","geometry":null},{"properties":{"aaname":"Franks Magic Crops","city":"Burlington","zemail":null,"country":"Canada","zweb":null,"geo_score":0.347,"zdistributors":"Advanced Nutrients","id":"a6vagdfb5az9","address":"480 Guelph Line","province":"Ontario","zphone":"(905) 333-3282","geo_precision":"street"},"type":"Feature","geometry":{"type":"Point","coordinates":[-85.891926,32.532043]}},{"properties":{"aaname":"General Garden Equipment","city":"Ottawa","zemail":null,"country":"Canada","zweb":null,"geo_score":0.601,"zdistributors":"Advanced Nutrients","id":"a6vagd20kusf","address":"868 Campbell Ave.","province":"Ontario","zphone":"(613) 747-8687","geo_precision":"street"},"type":"Feature","geometry":{"type":"Point","coordinates":[-84.578197,37.612262]}},{"properties":{"aaname":"Green Acres","city":"Burlington","zemail":null,"country":"Canada","zweb":null,"geo_score":0.608,"zdistributors":"Advanced Nutrients","id":"a6vagd2qx9pk","address":"5109 Harvester Rd. #8A","province":"Ontario","zphone":"(905) 333-0130","geo_precision":"street"},"type":"Feature","geometry":{"type":"Point","coordinates":[-86.551456,31.846601]}},{"properties":{"aaname":"Green Thumbs Hydroponics","city":"Toronto","zemail":null,"country":"Canada","zweb":null,"geo_score":0.649,"zdistributors":"Advanced Nutrients","id":"a6vagd4e8xtz","address":"338 Kingston Rd.","province":"Ontario","zphone":"(647) 345-4769","geo_precision":"street"},"type":"Feature","geometry":{"type":"Point","coordinates":[-86.842704,33.368032]}},{"properties":{"aaname":"Growers Choice","city":"Whitby","zemail":null,"country":"Canada","zweb":null,"geo_score":0.376,"zdistributors":"General Hydro","id":"a6vagd5nsrb8","address":"1621 McEwen Dr Unit 14","province":"Ontario","zphone":"(905) 725-4769","geo_precision":"street"},"type":"Feature","geometry":{"type":"Point","coordinates":[-89.065509,31.95609]}},{"properties":{"aaname":"HomeTown Hydroponics","city":"Lincoln","zemail":null,"country":"Canada","zweb":null,"geo_score":0.512,"zdistributors":"Advanced Nutrients","id":"a6vagd6jyo6n","address":"5386 Green Lane Rd.","province":"Ontario","zphone":"(905) 563-6121","geo_precision":"street"},"type":"Feature","geometry":{"type":"Point","coordinates":[-96.735012,40.793447]}},{"properties":{"aaname":"Hydro Sciences","city":"St Laurent","zemail":null,"country":"Canada","zweb":null,"geo_score":0.434,"zdistributors":"Sunlight","id":"a6vagddjlb39","address":"4800 Cote-Vertu BLVD","province":"Quebec","zphone":"(541) 331-9090","geo_precision":"city"},"type":"Feature","geometry":{"type":"Point","coordinates":[-90.527875,34.135943]}},{"properties":{"aaname":"HydroSciences","city":"St-Laurent","zemail":null,"country":"Canada","zweb":null,"geo_score":0.0,"zdistributors":"Advanced Nutrients","id":"a6vagdd4dg1i","address":"4800 Boul. de la Cote-Vertu","province":"Quebec","zphone":"(450) 331-9090","geo_precision":"unmatched"},"type":"Feature","geometry":null},{"properties":{"aaname":"Hydromax","city":"Gatineau","zemail":null,"country":"Canada","zweb":null,"geo_score":0.427,"zdistributors":"Advanced Nutrients","id":"a6vagdei0ekn","address":"1695 Atmec","province":"Quebec","zphone":"(819) 663-7470","geo_precision":"city"},"type":"Feature","geometry":{"type":"Point","coordinates":[-86.765268,33.605381]}},{"properties":{"aaname":"Hydromax Laval","city":"Laval","zemail":null,"country":"Canada","zweb":"www.hydromax.ca","geo_score":0.661,"zdistributors":"Advanced Nutrients","id":"a6vagda9d7q6","address":"295 Boul. Cure-Labelle","province":"Quebec","zphone":"(450) 628-8380","geo_precision":"city"},"type":"Feature","geometry":{"type":"Point","coordinates":[-105.347787,37.101964]}},{"properties":{"aaname":"Hydrotech Hydroponics","city":"Toronto","zemail":null,"country":"Canada","zweb":null,"geo_score":0.649,"zdistributors":"Advanced Nutrients","id":"a6vagdfh1y9z","address":"2434 Kingston Road","province":"Ontario","zphone":"(416) 267-4769","geo_precision":"street"},"type":"Feature","geometry":{"type":"Point","coordinates":[-86.842136,33.369774]}},{"properties":{"aaname":"Indoor Gardens","city":"Smithville","zemail":null,"country":"Canada","zweb":null,"geo_score":0.545,"zdistributors":"General Hydro","id":"a6vagdgf6a6v","address":"2952 Thompson Rd PO Box 689","province":"Ontario","zphone":"(905) 704-1373","geo_precision":"street"},"type":"Feature","geometry":{"type":"Point","coordinates":[-90.021273,40.562788]}},{"properties":{"aaname":"International Hydroponic","city":"Montreal","zemail":null,"country":"Canada","zweb":null,"geo_score":0.488,"zdistributors":"Advanced Nutrients","id":"a6vagdgwu676","address":"5478 Rue Hochelaga","province":"Quebec","zphone":"(514) 255-2525","geo_precision":"city"},"type":"Feature","geometry":{"type":"Point","coordinates":[-94.348548,35.117596]}},{"properties":{"aaname":"Iron Legends","city":"Kingston","zemail":null,"country":"Canada","zweb":"www.ironlegends.com","geo_score":0.678,"zdistributors":"Advanced Nutrients","id":"a6vagd5y5bfp","address":"432 Princess St.","province":"Ontario","zphone":"(613) 544-0947","geo_precision":"street"},"type":"Feature","geometry":{"type":"Point","coordinates":[-93.161354,35.269217]}},{"properties":{"aaname":"Iron Legends","city":"Smith Falls","zemail":null,"country":"Canada","zweb":null,"geo_score":0.586,"zdistributors":"Advanced Nutrients","id":"a6vagd3gket2","address":"34 Beckwith St. N","province":"Ontario","zphone":"(613) 282-0947","geo_precision":"city"},"type":"Feature","geometry":{"type":"Point","coordinates":[-169.512222,-14.226667]}},{"properties":{"aaname":"Jardin Hydroponique","city":"Longueuil","zemail":null,"country":"Canada","zweb":null,"geo_score":0.476,"zdistributors":"Advanced Nutrients","id":"a6vagddrnu2g","address":"1337 Boul. Cure Poirier Ouest","province":"Quebec","zphone":"(450) 646-6105","geo_precision":"street"},"type":"Feature","geometry":{"type":"Point","coordinates":[-97.560739,38.828621]}},{"properties":{"aaname":"Les Serres La Tour","city":"Valleyfield","zemail":null,"country":"Canada","zweb":null,"geo_score":0.524,"zdistributors":"Advanced Nutrients","id":"a6vagd1qv7ro","address":"6600 Boul. Hebert","province":"Quebec","zphone":"(450) 371-7096","geo_precision":"street"},"type":"Feature","geometry":{"type":"Point","coordinates":[-80.944668,32.273269]}},{"properties":{"aaname":"Lite it Up","city":"St Catharines","zemail":null,"country":"Canada","zweb":null,"geo_score":0.0,"zdistributors":"General Hydro","id":"a6vagdbv4evv","address":"463 Cushman Rd Unit 17","province":"Ontario","zphone":"(905) 704-1584","geo_precision":"unmatched"},"type":"Feature","geometry":null},{"properties":{"aaname":"Natural Alternatives","city":"Cornwall","zemail":null,"country":"Canada","zweb":null,"geo_score":0.648,"zdistributors":"Advanced Nutrients","id":"a6vagde1nc3c","address":"832 Tollgate Rd. W","province":"Ontario","zphone":"(613) 662-3889","geo_precision":"city"},"type":"Feature","geometry":{"type":"Point","coordinates":[-85.587184,34.240649]}},{"properties":{"aaname":"New Tek","city":"Scarborough","zemail":null,"country":"Canada","zweb":null,"geo_score":0.553,"zdistributors":"General Hydro","id":"a6vagdfkuzmf","address":"63 Silverstar Blvd Unit C8","province":"Ontario","zphone":"(416) 297-7888","geo_precision":"street"},"type":"Feature","geometry":{"type":"Point","coordinates":[-84.135318,33.756005]}},{"properties":{"aaname":"Northern Lights Hydroponics","city":"Fonthill","zemail":null,"country":"Canada","zweb":null,"geo_score":0.488,"zdistributors":"General Hydro","id":"a6vagdggd3dk","address":"1938 Hwy 20","province":"Ontario","zphone":"(905) 892-3743","geo_precision":"city"},"type":"Feature","geometry":{"type":"Point","coordinates":[-85.003565,37.083959]}},{"properties":{"aaname":"Northern Lights Hydroponics","city":"Thorold","zemail":null,"country":"Canada","zweb":"www.northernlightshydroponics.com","geo_score":0.0,"zdistributors":"Advanced Nutrients","id":"a6vagd4jq0s1","address":"1938 Canboro Rd.","province":"Ontario","zphone":"(905) 892-3743","geo_precision":"unmatched"},"type":"Feature","geometry":null},{"properties":{"aaname":"Northstar Hydroponics","city":"Peterborough","zemail":null,"country":"Canada","zweb":null,"geo_score":0.319,"zdistributors":"General Hydro","id":"a6vagd1usgwx","address":"69 County Rd Unit 4","province":"Ontario","zphone":"(705) 741-5060","geo_precision":"street"},"type":"Feature","geometry":{"type":"Point","coordinates":[-90.149918,38.334016]}},{"properties":{"aaname":"Ottawa Garden Equipment","city":"Ottawa","zemail":null,"country":"Canada","zweb":null,"geo_score":0.563,"zdistributors":"Advanced Nutrients","id":"a6vagd5ws5fm","address":"15 Grenfell Cres. #3","province":"Ontario","zphone":"(613) 252-5588","geo_precision":"street"},"type":"Feature","geometry":{"type":"Point","coordinates":[-84.766258,37.666181]}},{"properties":{"aaname":"PPM Hydroponique Inc.","city":"St-Eustache","zemail":null,"country":"Canada","zweb":"www.ppmhydroponique.ca","geo_score":0.0,"zdistributors":"Advanced Nutrients","id":"a6vagdfz788v","address":"504 Rue du Parc","province":"Quebec","zphone":"(450) 491-2444","geo_precision":"unmatched"},"type":"Feature","geometry":null},{"properties":{"aaname":"Peterborough Hydroponics","city":"Peterborough","zemail":null,"country":"Canada","zweb":null,"geo_score":0.732,"zdistributors":"General Hydro","id":"a6vagdgchrcx","address":"347 Pido Rd Unit 32","province":"Ontario","zphone":"(705) 745-6868","geo_precision":"range"},"type":"Feature","geometry":{"type":"Point","coordinates":[-89.576109,37.806443]}},{"properties":{"aaname":"Reves et Jardins","city":"Brome Lake","zemail":null,"country":"Canada","zweb":null,"geo_score":0.619,"zdistributors":"Advanced Nutrients","id":"a6vagd4gsfz2","address":"1080 Ch. Knowlton","province":"Quebec","zphone":"(450) 266-3820","geo_precision":"city"},"type":"Feature","geometry":{"type":"Point","coordinates":[-114.260318,43.12935]}},{"properties":{"aaname":"SOC Sub Organic Culture","city":"St. Catherines","zemail":null,"country":"Canada","zweb":null,"geo_score":0.673,"zdistributors":"Advanced Nutrients","id":"a6vagd83sc5c","address":"15 Helena St.","province":"Ontario","zphone":"(905) 937-8064","geo_precision":"street"},"type":"Feature","geometry":{"type":"Point","coordinates":[-93.068292,34.492444]}},{"properties":{"aaname":"Second Nature Hydroponics","city":"Mississauga","zemail":null,"country":"Canada","zweb":null,"geo_score":0.0,"zdistributors":"Advanced Nutrients","id":"a6vagddjt8ft","address":"2133 Royal Windsor Dr. #4","province":"Ontario","zphone":"(905) 403-4769","geo_precision":"unmatched"},"type":"Feature","geometry":null},{"properties":{"aaname":"Univert 4 Saison","city":"Montreal","zemail":null,"country":"Canada","zweb":null,"geo_score":0.505,"zdistributors":"Advanced Nutrients","id":"a6vagd99bq2m","address":"2100 Rue Ontario Est","province":"Quebec","zphone":"(514) 527-2226","geo_precision":"street"},"type":"Feature","geometry":{"type":"Point","coordinates":[-94.210391,35.474724]}},{"properties":{"aaname":"XXXL Hydroponics","city":"Scarborough","zemail":null,"country":"Canada","zweb":null,"geo_score":0.434,"zdistributors":"Advanced Nutrients","id":"a6vagd7a7vb0","address":"60 Barbados Blvd. #7","province":"Ontario","zphone":"(416) 499-9505","geo_precision":"city"},"type":"Feature","geometry":{"type":"Point","coordinates":[-84.218809,33.630665]}}],"is_temporal":false,"author":{"url":"","metadata":"","contact_name":"","contact_address":"","source":"","contact_phone":""},"source":"","pagination":{"sort":null,"start":0,"total":42,"limit":1000000},"state":"complete","tags":"","published":"2014-08-10T14:33:04-04:00","id":82803}