{"type":"FeatureCollection","data_type":"Dataset","url_type":null,"permissions":[{"permissions":{"download":true,"view":true},"group_id":"everyone"}],"classification":null,"title":"map plant","count":27,"stream_id":83273,"contributor":{"url":"http://geocommons.com/users/17604","name":"brutewilliam"},"data_attributes":null,"calculation_params":null,"icon_link":null,"link":"http://geocommons.com/overlays/83273.json","extent":[104.38,23.02,130.22,47.28],"geometry_types":["point"],"unique_name":null,"name":"map plant","feature_count":27,"description":"map plant","next_feature":null,"is_raster":false,"short_classification":"Y","stats":{"latitude":{"max":47.28,"mean":35.0855555555556,"variance":65.2572102564102,"stdev":8.07819350204056,"min":23.02,"median":30.56},"longitude":{"max":130.22,"mean":120.025925925926,"variance":43.0590173789174,"stdev":6.56193701424491,"min":104.38,"median":120.39}},"features":[{"properties":{"city":"Changchun","latitude":43.54,"longitude":125.19,"id":"a6734y0d0l1c"},"type":"Feature","geometry":{"type":"Point","coordinates":[125.19,43.54]}},{"properties":{"city":"Changsha","latitude":28.12,"longitude":112.59,"id":"a6734xv6n9ie"},"type":"Feature","geometry":{"type":"Point","coordinates":[112.59,28.12]}},{"properties":{"city":"Daqing","latitude":46.36,"longitude":125.01,"id":"a6734xt7ymt2"},"type":"Feature","geometry":{"type":"Point","coordinates":[125.01,46.36]}},{"properties":{"city":"Foshan","latitude":23.02,"longitude":113.06,"id":"a6734y70cgoj"},"type":"Feature","geometry":{"type":"Point","coordinates":[113.06,23.02]}},{"properties":{"city":"Harbin","latitude":45.44,"longitude":126.36,"id":"a6734xu6qrpw"},"type":"Feature","geometry":{"type":"Point","coordinates":[126.36,45.44]}},{"properties":{"city":"Hegang","latitude":47.2,"longitude":130.16,"id":"a6734y10viog"},"type":"Feature","geometry":{"type":"Point","coordinates":[130.16,47.2]}},{"properties":{"city":"Helen","latitude":47.28,"longitude":126.57,"id":"a6734y1uhqjb"},"type":"Feature","geometry":{"type":"Point","coordinates":[126.57,47.28]}},{"properties":{"city":"Jiamusi","latitude":46.47,"longitude":130.22,"id":"a6734y2qf96c"},"type":"Feature","geometry":{"type":"Point","coordinates":[130.22,46.47]}},{"properties":{"city":"Jinzhou","latitude":41.07,"longitude":121.09,"id":"a6734y75he6d"},"type":"Feature","geometry":{"type":"Point","coordinates":[121.09,41.07]}},{"properties":{"city":"Mudanjiang","latitude":44.35,"longitude":129.36,"id":"a6734xt0p0qz"},"type":"Feature","geometry":{"type":"Point","coordinates":[129.36,44.35]}},{"properties":{"city":"Nanchang","latitude":28.4,"longitude":115.55,"id":"a6734xyh3k47"},"type":"Feature","geometry":{"type":"Point","coordinates":[115.55,28.4]}},{"properties":{"city":"Nanjing","latitude":32.03,"longitude":118.46,"id":"a6734y0gjcv1"},"type":"Feature","geometry":{"type":"Point","coordinates":[118.46,32.03]}},{"properties":{"city":"Ningbo","latitude":29.52,"longitude":121.33,"id":"a6734xxe6uue"},"type":"Feature","geometry":{"type":"Point","coordinates":[121.33,29.52]}},{"properties":{"city":"Putian","latitude":24.26,"longitude":119.01,"id":"a6734y370vjv"},"type":"Feature","geometry":{"type":"Point","coordinates":[119.01,24.26]}},{"properties":{"city":"Quzhou","latitude":28.58,"longitude":118.52,"id":"a6734y54hzbq"},"type":"Feature","geometry":{"type":"Point","coordinates":[118.52,28.58]}},{"properties":{"city":"Sanming","latitude":26.13,"longitude":117.36,"id":"a6734xumicdh"},"type":"Feature","geometry":{"type":"Point","coordinates":[117.36,26.13]}},{"properties":{"city":"Shenyang","latitude":41.48,"longitude":123.25,"id":"a6734xwl82p8"},"type":"Feature","geometry":{"type":"Point","coordinates":[123.25,41.48]}},{"properties":{"city":"Taizhou","latitude":28.41,"longitude":121.27,"id":"a6734y1fo3zb"},"type":"Feature","geometry":{"type":"Point","coordinates":[121.27,28.41]}},{"properties":{"city":"Tangshan","latitude":39.36,"longitude":118.11,"id":"a6734y1wb3od"},"type":"Feature","geometry":{"type":"Point","coordinates":[118.11,39.36]}},{"properties":{"city":"Wenzhou","latitude":28.01,"longitude":120.39,"id":"a6734y0bezfx"},"type":"Feature","geometry":{"type":"Point","coordinates":[120.39,28.01]}},{"properties":{"city":"Wuhan","latitude":30.35,"longitude":114.17,"id":"a6734y56seqe"},"type":"Feature","geometry":{"type":"Point","coordinates":[114.17,30.35]}},{"properties":{"city":"Xiaogan","latitude":30.56,"longitude":113.54,"id":"a6734xvpxil2"},"type":"Feature","geometry":{"type":"Point","coordinates":[113.54,30.56]}},{"properties":{"city":"Xinmi","latitude":34.31,"longitude":113.22,"id":"a6734xu08kuu"},"type":"Feature","geometry":{"type":"Point","coordinates":[113.22,34.31]}},{"properties":{"city":"Yanji","latitude":42.54,"longitude":129.3,"id":"a6734y50byyu"},"type":"Feature","geometry":{"type":"Point","coordinates":[129.3,42.54]}},{"properties":{"city":"Yichang","latitude":30.42,"longitude":111.17,"id":"a6734y0va6b6"},"type":"Feature","geometry":{"type":"Point","coordinates":[111.17,30.42]}},{"properties":{"city":"Zhoushan","latitude":30.01,"longitude":122.06,"id":"a6734xttovdm"},"type":"Feature","geometry":{"type":"Point","coordinates":[122.06,30.01]}},{"properties":{"city":"Ziyang","latitude":30.09,"longitude":104.38,"id":"a6734y5h2tt2"},"type":"Feature","geometry":{"type":"Point","coordinates":[104.38,30.09]}}],"is_temporal":false,"author":{"url":"","metadata":"","contact_name":"","contact_address":"","source":"","contact_phone":""},"source":"","pagination":{"sort":null,"start":0,"total":27,"limit":1000000},"state":"complete","tags":"map,plant","published":"2014-08-10T15:16:09-04:00","id":83273}