{"type":"FeatureCollection","data_type":"Dataset","url_type":null,"permissions":[{"permissions":{"download":true,"view":true},"group_id":"everyone"}],"classification":null,"title":"volume","count":15,"stream_id":83274,"contributor":{"url":"http://geocommons.com/users/17604","name":"brutewilliam"},"data_attributes":null,"calculation_params":null,"icon_link":null,"link":"http://geocommons.com/overlays/83274.json","extent":[111.47,23.02,122.06,32.03],"geometry_types":["point"],"unique_name":null,"name":"volume","feature_count":15,"description":"","next_feature":null,"is_raster":false,"short_classification":"Y","stats":{"latitude":{"max":32.03,"mean":28.5946666666667,"variance":6.2640980952381,"stdev":2.50281803078811,"min":23.02,"median":28.58},"volume":{"max":9565,"mean":2345.33333333333,"variance":5738579.80952381,"stdev":2395.53330378098,"min":210,"median":1536},"longitude":{"max":122.06,"mean":116.726666666667,"variance":13.7870380952381,"stdev":3.71309010060867,"min":111.47,"median":117.36}},"features":[{"properties":{"city":"Changsha","latitude":28.12,"volume":1191,"longitude":112.59,"id":"a6p7026zhxde"},"type":"Feature","geometry":{"type":"Point","coordinates":[112.59,28.12]}},{"properties":{"city":"DangYang","latitude":30.5,"volume":210,"longitude":111.47,"id":"a6p702cuqyw6"},"type":"Feature","geometry":{"type":"Point","coordinates":[111.47,30.5]}},{"properties":{"city":"Foshan","latitude":23.02,"volume":2974,"longitude":113.06,"id":"a6p7023spuq0"},"type":"Feature","geometry":{"type":"Point","coordinates":[113.06,23.02]}},{"properties":{"city":"Jinmen","latitude":31.02,"volume":2191,"longitude":112.12,"id":"a6p702ac08or"},"type":"Feature","geometry":{"type":"Point","coordinates":[112.12,31.02]}},{"properties":{"city":"Nanchang","latitude":28.4,"volume":1487,"longitude":115.55,"id":"a6p702brtqzl"},"type":"Feature","geometry":{"type":"Point","coordinates":[115.55,28.4]}},{"properties":{"city":"Nanjing","latitude":32.03,"volume":879,"longitude":118.46,"id":"a6p7022armgq"},"type":"Feature","geometry":{"type":"Point","coordinates":[118.46,32.03]}},{"properties":{"city":"Ningbo","latitude":29.52,"volume":1617,"longitude":121.33,"id":"a6p7022pdnie"},"type":"Feature","geometry":{"type":"Point","coordinates":[121.33,29.52]}},{"properties":{"city":"Putian 1","latitude":24.26,"volume":9565,"longitude":119.01,"id":"a6p7020ptkir"},"type":"Feature","geometry":{"type":"Point","coordinates":[119.01,24.26]}},{"properties":{"city":"Quzhou","latitude":28.58,"volume":820,"longitude":118.52,"id":"a6p7027vycds"},"type":"Feature","geometry":{"type":"Point","coordinates":[118.52,28.58]}},{"properties":{"city":"Sanming","latitude":26.13,"volume":1536,"longitude":117.36,"id":"a6p7027tcnn6"},"type":"Feature","geometry":{"type":"Point","coordinates":[117.36,26.13]}},{"properties":{"city":"Taizhou","latitude":28.41,"volume":3042,"longitude":121.27,"id":"a6p701yyz36m"},"type":"Feature","geometry":{"type":"Point","coordinates":[121.27,28.41]}},{"properties":{"city":"Wenzhou","latitude":28.01,"volume":4800,"longitude":120.39,"id":"a6p702b7zawk"},"type":"Feature","geometry":{"type":"Point","coordinates":[120.39,28.01]}},{"properties":{"city":"Wuhan","latitude":30.35,"volume":3843,"longitude":114.17,"id":"a6p702863mpp"},"type":"Feature","geometry":{"type":"Point","coordinates":[114.17,30.35]}},{"properties":{"city":"Xiaogan","latitude":30.56,"volume":643,"longitude":113.54,"id":"a6p702039gtk"},"type":"Feature","geometry":{"type":"Point","coordinates":[113.54,30.56]}},{"properties":{"city":"Zhoushan","latitude":30.01,"volume":382,"longitude":122.06,"id":"a6p7021mxmrq"},"type":"Feature","geometry":{"type":"Point","coordinates":[122.06,30.01]}}],"is_temporal":false,"author":{"url":"","metadata":"","contact_name":"","contact_address":"","source":"","contact_phone":""},"source":"","pagination":{"sort":null,"start":0,"total":15,"limit":1000000},"state":"complete","tags":"","published":"2014-08-10T15:16:09-04:00","id":83274}