{"type":"FeatureCollection","data_type":"Dataset","url_type":null,"permissions":[{"permissions":{"download":true,"view":true},"group_id":"everyone"}],"classification":null,"title":"Kate Ellis on Twitter","count":357,"stream_id":83405,"contributor":{"url":"http://geocommons.com/users/12003","name":"LauraHale"},"data_attributes":null,"calculation_params":null,"icon_link":null,"link":"http://geocommons.com/overlays/83405.json","extent":[-123.114,-45.8745,174.822,55.9542],"geometry_types":["point"],"unique_name":null,"name":"Kate Ellis on Twitter","feature_count":357,"description":"Twitter location data for Kate Ellis","next_feature":null,"is_raster":false,"short_classification":"Y","stats":{"latitude":{"max":55.954155,"mean":-24.6682827843137,"variance":624.143829905456,"stdev":24.9828707298712,"min":-45.8745,"median":-34.175369},"ellis":{"max":1076,"mean":12.8739495798319,"variance":8302.00934755925,"stdev":91.1153628514931,"min":1,"median":1},"longitude":{"max":174.821631,"mean":123.540813957983,"variance":3525.34983578315,"stdev":59.3746565108645,"min":-123.114034,"median":144.969482}},"features":[{"properties":{"city":"Adelaide","latitude":-34.926102,"country":"Australia","ellis":701,"longitude":138.599884,"id":"a68lui5s6lqk","state":"South Australia"},"type":"Feature","geometry":{"type":"Point","coordinates":[138.599884,-34.926102]}},{"properties":{"city":"Ahmedabad","latitude":23.01632,"country":"India","ellis":2,"longitude":72.61359,"id":"a68luie5w0cn","state":"Gujarat"},"type":"Feature","geometry":{"type":"Point","coordinates":[72.61359,23.01632]}},{"properties":{"city":"Albany","latitude":-35.023911,"country":"Australia","ellis":1,"longitude":117.882584,"id":"a68luibvvubs","state":"Western Australia"},"type":"Feature","geometry":{"type":"Point","coordinates":[117.882584,-35.023911]}},{"properties":{"city":"Albert Park","latitude":-37.844269,"country":"Australia","ellis":2,"longitude":144.951111,"id":"a68lui3rg6ft","state":"Victoria"},"type":"Feature","geometry":{"type":"Point","coordinates":[144.951111,-37.844269]}},{"properties":{"city":"Albury","latitude":0.0,"country":"Australia","ellis":1,"longitude":0.0,"id":"a68luia3cgyp","state":"Victoria"},"type":"Feature","geometry":{"type":"Point","coordinates":[0.0,0.0]}},{"properties":{"city":"Albury","latitude":-36.081032,"country":"Australia","ellis":4,"longitude":146.918488,"id":"a68lui9de6fn","state":"New South Wales"},"type":"Feature","geometry":{"type":"Point","coordinates":[146.918488,-36.081032]}},{"properties":{"city":"Alice Springs","latitude":-23.703329,"country":"Australia","ellis":4,"longitude":133.880936,"id":"a68luhyyl8st","state":"Northern Territory"},"type":"Feature","geometry":{"type":"Point","coordinates":[133.880936,-23.703329]}},{"properties":{"city":"Ararat","latitude":-37.491089,"country":"Australia","ellis":1,"longitude":142.822556,"id":"a68lui321wc5","state":"Victoria"},"type":"Feature","geometry":{"type":"Point","coordinates":[142.822556,-37.491089]}},{"properties":{"city":"Armidale","latitude":-30.51615,"country":"Australia","ellis":1,"longitude":151.668259,"id":"a68lui41wd90","state":"New South Wales"},"type":"Feature","geometry":{"type":"Point","coordinates":[151.668259,-30.51615]}},{"properties":{"city":"Armidale","latitude":-37.32,"country":"Australia","ellis":1,"longitude":141.702454,"id":"a68luibocweo","state":"Victoria"},"type":"Feature","geometry":{"type":"Point","coordinates":[141.702454,-37.32]}},{"properties":{"city":"Ashfield","latitude":-33.88921,"country":"Australia","ellis":1,"longitude":151.125412,"id":"a68lui27uhfx","state":"New South Wales"},"type":"Feature","geometry":{"type":"Point","coordinates":[151.125412,-33.88921]}},{"properties":{"city":"Astrayah","latitude":-32.0289,"country":"Australia","ellis":1,"longitude":135.002151,"id":"a68luhyw14ks","state":"South Australia"},"type":"Feature","geometry":{"type":"Point","coordinates":[135.002151,-32.0289]}},{"properties":{"city":"Athens","latitude":37.97615,"country":"Greece","ellis":1,"longitude":23.736415,"id":"a68lui9j65w9","state":null},"type":"Feature","geometry":{"type":"Point","coordinates":[23.736415,37.97615]}},{"properties":{"city":"Athol Park","latitude":-34.855068,"country":"Australia","ellis":1,"longitude":138.542587,"id":"a68luibr84bv","state":"South Australia"},"type":"Feature","geometry":{"type":"Point","coordinates":[138.542587,-34.855068]}},{"properties":{"city":"Auckland","latitude":-37.006059,"country":"New Zealand","ellis":3,"longitude":174.784505,"id":"a68lui3b9gm6","state":"Auckland"},"type":"Feature","geometry":{"type":"Point","coordinates":[174.784505,-37.006059]}},{"properties":{"city":"Austin","latitude":30.267605,"country":"United States","ellis":1,"longitude":-97.742984,"id":"a68luidmk8hf","state":"Texas"},"type":"Feature","geometry":{"type":"Point","coordinates":[-97.742984,30.267605]}},{"properties":{"city":"Bacchus Marsh","latitude":-37.67474,"country":"Australia","ellis":1,"longitude":144.435562,"id":"a68lui7bbw6m","state":"Victoria"},"type":"Feature","geometry":{"type":"Point","coordinates":[144.435562,-37.67474]}},{"properties":{"city":"Balcolyn","latitude":-33.09549,"country":"Australia","ellis":1,"longitude":151.552216,"id":"a68luiaudo0b","state":"New South Wales"},"type":"Feature","geometry":{"type":"Point","coordinates":[151.552216,-33.09549]}},{"properties":{"city":"Bali","latitude":-8.45535,"country":"Indonesia","ellis":2,"longitude":115.07206,"id":"a68lui8a2paq","state":null},"type":"Feature","geometry":{"type":"Point","coordinates":[115.07206,-8.45535]}},{"properties":{"city":"Ballarat","latitude":-37.562351,"country":"Australia","ellis":13,"longitude":143.847137,"id":"a68luibp4e5j","state":"Victoria"},"type":"Feature","geometry":{"type":"Point","coordinates":[143.847137,-37.562351]}},{"properties":{"city":"Ballina","latitude":-28.86788,"country":"Australia","ellis":1,"longitude":153.554962,"id":"a68luidgi9rj","state":"New South Wales"},"type":"Feature","geometry":{"type":"Point","coordinates":[153.554962,-28.86788]}},{"properties":{"city":"Balmain","latitude":-33.856022,"country":"Australia","ellis":2,"longitude":151.175995,"id":"a68lui1s1yb2","state":"New South Wales"},"type":"Feature","geometry":{"type":"Point","coordinates":[151.175995,-33.856022]}},{"properties":{"city":"Balmoral","latitude":-37.248482,"country":"Australia","ellis":1,"longitude":141.841278,"id":"a68luhzm92rn","state":"Victoria"},"type":"Feature","geometry":{"type":"Point","coordinates":[141.841278,-37.248482]}},{"properties":{"city":"Bangalore","latitude":12.97092,"country":"India","ellis":1,"longitude":77.60482,"id":"a68luhz881xd","state":null},"type":"Feature","geometry":{"type":"Point","coordinates":[77.60482,12.97092]}},{"properties":{"city":"Bangalow","latitude":-28.68228,"country":"Australia","ellis":1,"longitude":153.533157,"id":"a68lui9bvxim","state":"New South Wales"},"type":"Feature","geometry":{"type":"Point","coordinates":[153.533157,-28.68228]}},{"properties":{"city":"Bangkok","latitude":13.75333,"country":"Thailand","ellis":4,"longitude":100.504822,"id":"a68lui2xixfd","state":null},"type":"Feature","geometry":{"type":"Point","coordinates":[100.504822,13.75333]}},{"properties":{"city":"Bathurst","latitude":-33.41074,"country":"Australia","ellis":9,"longitude":149.578293,"id":"a68lui33aafe","state":"New South Wales"},"type":"Feature","geometry":{"type":"Point","coordinates":[149.578293,-33.41074]}},{"properties":{"city":"Bayside","latitude":-37.944351,"country":"Australia","ellis":2,"longitude":145.013687,"id":"a68lui68679w","state":"Victoria"},"type":"Feature","geometry":{"type":"Point","coordinates":[145.013687,-37.944351]}},{"properties":{"city":"Beechworth","latitude":-36.365589,"country":"Australia","ellis":1,"longitude":146.681976,"id":"a68luhz57ox8","state":"Victoria"},"type":"Feature","geometry":{"type":"Point","coordinates":[146.681976,-36.365589]}},{"properties":{"city":"Beijing","latitude":39.90601,"country":"China","ellis":5,"longitude":116.387909,"id":"a68lui112ys9","state":null},"type":"Feature","geometry":{"type":"Point","coordinates":[116.387909,39.90601]}},{"properties":{"city":"Belgrade","latitude":44.811877,"country":"Serbia","ellis":1,"longitude":20.464145,"id":"a68lui9os4i5","state":null},"type":"Feature","geometry":{"type":"Point","coordinates":[20.464145,44.811877]}},{"properties":{"city":"Bendigo","latitude":-36.7575,"country":"Australia","ellis":9,"longitude":144.281403,"id":"a68lui60ifdp","state":"Victoria"},"type":"Feature","geometry":{"type":"Point","coordinates":[144.281403,-36.7575]}},{"properties":{"city":"Berlin","latitude":52.516074,"country":"Germany","ellis":1,"longitude":13.376987,"id":"a68luicno014","state":null},"type":"Feature","geometry":{"type":"Point","coordinates":[13.376987,52.516074]}},{"properties":{"city":"Berri","latitude":-34.281719,"country":"Australia","ellis":1,"longitude":140.598846,"id":"a68lui0nks62","state":"South Australia"},"type":"Feature","geometry":{"type":"Point","coordinates":[140.598846,-34.281719]}},{"properties":{"city":"Blackburn","latitude":-37.818489,"country":"Australia","ellis":1,"longitude":145.154007,"id":"a68lui0wqse8","state":"Victoria"},"type":"Feature","geometry":{"type":"Point","coordinates":[145.154007,-37.818489]}},{"properties":{"city":"Blackwood","latitude":-35.020851,"country":"Australia","ellis":1,"longitude":138.611435,"id":"a68luicfpoyf","state":"South Australia"},"type":"Feature","geometry":{"type":"Point","coordinates":[138.611435,-35.020851]}},{"properties":{"city":"Blue Mountains","latitude":-34.016811,"country":"Australia","ellis":4,"longitude":150.269394,"id":"a68lui7or6wt","state":"New South Wales"},"type":"Feature","geometry":{"type":"Point","coordinates":[150.269394,-34.016811]}},{"properties":{"city":"Bombay","latitude":19.076191,"country":"India","ellis":2,"longitude":72.875877,"id":"a68lui3cbfdg","state":null},"type":"Feature","geometry":{"type":"Point","coordinates":[72.875877,19.076191]}},{"properties":{"city":"Bondi","latitude":-33.893799,"country":"Australia","ellis":2,"longitude":151.263,"id":"a68lui9ba5ps","state":"New South Wales"},"type":"Feature","geometry":{"type":"Point","coordinates":[151.263,-33.893799]}},{"properties":{"city":"Bondi Beach","latitude":-33.89307,"country":"Australia","ellis":3,"longitude":151.276596,"id":"a68lui80mf0k","state":"New South Wales"},"type":"Feature","geometry":{"type":"Point","coordinates":[151.276596,-33.89307]}},{"properties":{"city":"Boondall","latitude":-27.352949,"country":"Australia","ellis":1,"longitude":153.061279,"id":"a68lui6m1lgr","state":"Queensland"},"type":"Feature","geometry":{"type":"Point","coordinates":[153.061279,-27.352949]}},{"properties":{"city":"Boston","latitude":42.358635,"country":"United States","ellis":1,"longitude":-71.056699,"id":"a68lui9dt2lg","state":"Massachusetts"},"type":"Feature","geometry":{"type":"Point","coordinates":[-71.056699,42.358635]}},{"properties":{"city":"Brighton","latitude":50.828481,"country":"United Kingdom","ellis":1,"longitude":-0.134429,"id":"a68lui7pj3pa","state":"England"},"type":"Feature","geometry":{"type":"Point","coordinates":[-0.134429,50.828481]}},{"properties":{"city":"Brighton","latitude":-37.91008,"country":"Australia","ellis":2,"longitude":144.998276,"id":"a68lui6383gv","state":"Victoria"},"type":"Feature","geometry":{"type":"Point","coordinates":[144.998276,-37.91008]}},{"properties":{"city":"Brisbane","latitude":-27.46888,"country":"Australia","ellis":348,"longitude":153.022827,"id":"a68luhzmch8j","state":"Queensland"},"type":"Feature","geometry":{"type":"Point","coordinates":[153.022827,-27.46888]}},{"properties":{"city":"Bristol","latitude":51.45373,"country":"United Kingdom","ellis":1,"longitude":-2.591564,"id":"a68luhyza1jy","state":"England"},"type":"Feature","geometry":{"type":"Point","coordinates":[-2.591564,51.45373]}},{"properties":{"city":"Broken Hill","latitude":-31.95833,"country":"Australia","ellis":1,"longitude":141.465485,"id":"a68lui67pzeb","state":"New South Wales"},"type":"Feature","geometry":{"type":"Point","coordinates":[141.465485,-31.95833]}},{"properties":{"city":"Brookfield","latitude":-37.69968,"country":"Australia","ellis":1,"longitude":144.547607,"id":"a68lui7pnns3","state":"Victoria"},"type":"Feature","geometry":{"type":"Point","coordinates":[144.547607,-37.69968]}},{"properties":{"city":"Brooklyn","latitude":40.692455,"country":"United States","ellis":1,"longitude":-73.990364,"id":"a68lui0d85hh","state":"New York"},"type":"Feature","geometry":{"type":"Point","coordinates":[-73.990364,40.692455]}},{"properties":{"city":"Brooklyn Park","latitude":-34.928478,"country":"Australia","ellis":1,"longitude":138.550537,"id":"a68lui537o3a","state":"South Australia"},"type":"Feature","geometry":{"type":"Point","coordinates":[138.550537,-34.928478]}},{"properties":{"city":"Brunswick","latitude":-33.252102,"country":"Australia","ellis":3,"longitude":115.839691,"id":"a68lui7j43tc","state":"Western Australia"},"type":"Feature","geometry":{"type":"Point","coordinates":[115.839691,-33.252102]}},{"properties":{"city":"Brunswick West","latitude":-37.761532,"country":"Australia","ellis":1,"longitude":144.944366,"id":"a68lui5qi7jk","state":"Victoria"},"type":"Feature","geometry":{"type":"Point","coordinates":[144.944366,-37.761532]}},{"properties":{"city":"Brussels","latitude":50.848385,"country":"Belgium","ellis":1,"longitude":4.349685,"id":"a68luibayj3s","state":null},"type":"Feature","geometry":{"type":"Point","coordinates":[4.349685,50.848385]}},{"properties":{"city":"Bunbury","latitude":-33.321659,"country":"Australia","ellis":1,"longitude":115.636909,"id":"a68luiczr9il","state":"Western Australia"},"type":"Feature","geometry":{"type":"Point","coordinates":[115.636909,-33.321659]}},{"properties":{"city":"Bundaberg","latitude":-24.86705,"country":"Australia","ellis":3,"longitude":152.346695,"id":"a68lui901bvp","state":"Queensland"},"type":"Feature","geometry":{"type":"Point","coordinates":[152.346695,-24.86705]}},{"properties":{"city":"Bunyip","latitude":-38.077599,"country":"Australia","ellis":1,"longitude":145.70668,"id":"a68lui1rcgy0","state":"Victoria"},"type":"Feature","geometry":{"type":"Point","coordinates":[145.70668,-38.077599]}},{"properties":{"city":"Burbank","latitude":34.18147,"country":"United States","ellis":1,"longitude":-118.308124,"id":"a68lui58qlt2","state":"California"},"type":"Feature","geometry":{"type":"Point","coordinates":[-118.308124,34.18147]}},{"properties":{"city":"Burleigh Heads","latitude":-28.08791,"country":"Australia","ellis":1,"longitude":153.449753,"id":"a68lui50xbw7","state":"Queensland"},"type":"Feature","geometry":{"type":"Point","coordinates":[153.449753,-28.08791]}},{"properties":{"city":"Burnside","latitude":-34.935902,"country":"Australia","ellis":1,"longitude":138.659973,"id":"a68lui7qzkji","state":"South Australia"},"type":"Feature","geometry":{"type":"Point","coordinates":[138.659973,-34.935902]}},{"properties":{"city":"Burwood","latitude":-33.87817,"country":"Australia","ellis":3,"longitude":151.103546,"id":"a68lui3gme6x","state":"New South Wales"},"type":"Feature","geometry":{"type":"Point","coordinates":[151.103546,-33.87817]}},{"properties":{"city":"Byron Bay","latitude":-28.646891,"country":"Australia","ellis":4,"longitude":153.612823,"id":"a68lui3emw6m","state":"New South Wales"},"type":"Feature","geometry":{"type":"Point","coordinates":[153.612823,-28.646891]}},{"properties":{"city":"Caboolture","latitude":-27.070721,"country":"Australia","ellis":3,"longitude":152.950287,"id":"a68lui0rgb7i","state":"Queensland"},"type":"Feature","geometry":{"type":"Point","coordinates":[152.950287,-27.070721]}},{"properties":{"city":"Cairns","latitude":-16.92646,"country":"Australia","ellis":13,"longitude":145.77597,"id":"a68luhzpxmw4","state":"Queensland"},"type":"Feature","geometry":{"type":"Point","coordinates":[145.77597,-16.92646]}},{"properties":{"city":"Caloundra","latitude":-26.793619,"country":"Australia","ellis":1,"longitude":153.124756,"id":"a68luhzz3zdd","state":"Queensland"},"type":"Feature","geometry":{"type":"Point","coordinates":[153.124756,-26.793619]}},{"properties":{"city":"Cambridge","latitude":52.20987,"country":"United Kingdom","ellis":1,"longitude":0.111565,"id":"a68lui2dkvej","state":"England"},"type":"Feature","geometry":{"type":"Point","coordinates":[0.111565,52.20987]}},{"properties":{"city":"Cambridge","latitude":42.36679,"country":"United States","ellis":1,"longitude":-71.106019,"id":"a68lui1cc3lb","state":"Massachusetts"},"type":"Feature","geometry":{"type":"Point","coordinates":[-71.106019,42.36679]}},{"properties":{"city":"Campbelltown","latitude":-34.064098,"country":"Australia","ellis":2,"longitude":150.816589,"id":"a68lui12bgd7","state":"New South Wales"},"type":"Feature","geometry":{"type":"Point","coordinates":[150.816589,-34.064098]}},{"properties":{"city":"Canberra","latitude":-35.306541,"country":"Australia","ellis":477,"longitude":149.126556,"id":"a68lui6t8cly","state":"Australian Capital Territory"},"type":"Feature","geometry":{"type":"Point","coordinates":[149.126556,-35.306541]}},{"properties":{"city":"Cape Town","latitude":-33.919104,"country":"South Africa","ellis":1,"longitude":18.42197,"id":"a68lui93bn7n","state":null},"type":"Feature","geometry":{"type":"Point","coordinates":[18.42197,-33.919104]}},{"properties":{"city":"Carlton","latitude":-37.801041,"country":"Australia","ellis":6,"longitude":144.969482,"id":"a68luib8futf","state":"Victoria"},"type":"Feature","geometry":{"type":"Point","coordinates":[144.969482,-37.801041]}},{"properties":{"city":"Caroline Springs","latitude":-37.744991,"country":"Australia","ellis":1,"longitude":144.735199,"id":"a68luid0qpbk","state":"Victoria"},"type":"Feature","geometry":{"type":"Point","coordinates":[144.735199,-37.744991]}},{"properties":{"city":"Castlemaine","latitude":-37.066929,"country":"Australia","ellis":1,"longitude":144.216553,"id":"a68luie11j0n","state":"Victoria"},"type":"Feature","geometry":{"type":"Point","coordinates":[144.216553,-37.066929]}},{"properties":{"city":"Cebu City","latitude":10.31009,"country":"Philippines","ellis":1,"longitude":123.894638,"id":"a68luie03yg5","state":null},"type":"Feature","geometry":{"type":"Point","coordinates":[123.894638,10.31009]}},{"properties":{"city":"Cessnock","latitude":-32.832569,"country":"Australia","ellis":1,"longitude":151.354935,"id":"a68lui3cjjy9","state":"New South Wales"},"type":"Feature","geometry":{"type":"Point","coordinates":[151.354935,-32.832569]}},{"properties":{"city":"Chatswood","latitude":-33.79607,"country":"Australia","ellis":1,"longitude":151.183853,"id":"a68lui1q119m","state":"New South Wales"},"type":"Feature","geometry":{"type":"Point","coordinates":[151.183853,-33.79607]}},{"properties":{"city":"Chelsea","latitude":-38.048111,"country":"Australia","ellis":1,"longitude":145.113953,"id":"a68lui0uq6r5","state":"Victoria"},"type":"Feature","geometry":{"type":"Point","coordinates":[145.113953,-38.048111]}},{"properties":{"city":"Cheltenham","latitude":-37.967621,"country":"Australia","ellis":1,"longitude":145.073853,"id":"a68lui0u94du","state":"Victoria"},"type":"Feature","geometry":{"type":"Point","coordinates":[145.073853,-37.967621]}},{"properties":{"city":"Chennai","latitude":13.06397,"country":"India","ellis":2,"longitude":80.24311,"id":"a68lui0d6kqk","state":null},"type":"Feature","geometry":{"type":"Point","coordinates":[80.24311,13.06397]}},{"properties":{"city":"Cherry Gardens","latitude":-35.06329,"country":"Australia","ellis":1,"longitude":138.65506,"id":"a68luhz9xtdb","state":"South Australia"},"type":"Feature","geometry":{"type":"Point","coordinates":[138.65506,-35.06329]}},{"properties":{"city":"Chicago","latitude":41.88415,"country":"United States","ellis":3,"longitude":-87.632409,"id":"a68luic7dyrg","state":"Illinois"},"type":"Feature","geometry":{"type":"Point","coordinates":[-87.632409,41.88415]}},{"properties":{"city":"Chittaway Bay","latitude":-33.32658,"country":"Australia","ellis":1,"longitude":151.430542,"id":"a68luiajycnj","state":"New South Wales"},"type":"Feature","geometry":{"type":"Point","coordinates":[151.430542,-33.32658]}},{"properties":{"city":"Cincinnati","latitude":39.106614,"country":"United States","ellis":1,"longitude":-84.504552,"id":"a68lui87v1m1","state":"Ohio"},"type":"Feature","geometry":{"type":"Point","coordinates":[-84.504552,39.106614]}},{"properties":{"city":"Clayton","latitude":-37.925491,"country":"Australia","ellis":1,"longitude":145.119659,"id":"a68luichvnuv","state":"Victoria"},"type":"Feature","geometry":{"type":"Point","coordinates":[145.119659,-37.925491]}},{"properties":{"city":"Cleveland","latitude":-41.804359,"country":"Australia","ellis":1,"longitude":147.403687,"id":"a68lui6sbcn1","state":"Tasmania"},"type":"Feature","geometry":{"type":"Point","coordinates":[147.403687,-41.804359]}},{"properties":{"city":"Coburg","latitude":-37.74139,"country":"Australia","ellis":1,"longitude":144.96727,"id":"a68lui071vh3","state":"Victoria"},"type":"Feature","geometry":{"type":"Point","coordinates":[144.96727,-37.74139]}},{"properties":{"city":"Coburg North","latitude":-37.723721,"country":"Australia","ellis":1,"longitude":144.983109,"id":"a68lui1txxgg","state":"Victoria"},"type":"Feature","geometry":{"type":"Point","coordinates":[144.983109,-37.723721]}},{"properties":{"city":"Coffs Harbour","latitude":-30.29701,"country":"Australia","ellis":4,"longitude":153.115158,"id":"a68luhzhqofx","state":"New South Wales"},"type":"Feature","geometry":{"type":"Point","coordinates":[153.115158,-30.29701]}},{"properties":{"city":"Collingwood","latitude":-37.79929,"country":"Australia","ellis":2,"longitude":144.987564,"id":"a68lui4qfdr1","state":"Victoria"},"type":"Feature","geometry":{"type":"Point","coordinates":[144.987564,-37.79929]}},{"properties":{"city":"Concord","latitude":-33.856079,"country":"Australia","ellis":1,"longitude":151.103256,"id":"a68luidloacc","state":"New South Wales"},"type":"Feature","geometry":{"type":"Point","coordinates":[151.103256,-33.856079]}},{"properties":{"city":"Conder","latitude":-35.45776,"country":"Australia","ellis":1,"longitude":149.097336,"id":"a68luicmo7sw","state":"Australian Capital Territory"},"type":"Feature","geometry":{"type":"Point","coordinates":[149.097336,-35.45776]}},{"properties":{"city":"Coogee","latitude":-33.920731,"country":"Australia","ellis":1,"longitude":151.256012,"id":"a68luhzjytxo","state":"New South Wales"},"type":"Feature","geometry":{"type":"Point","coordinates":[151.256012,-33.920731]}},{"properties":{"city":"Coolbellup","latitude":-32.081348,"country":"Australia","ellis":1,"longitude":115.804787,"id":"a68lui5tdijo","state":"Western Australia"},"type":"Feature","geometry":{"type":"Point","coordinates":[115.804787,-32.081348]}},{"properties":{"city":"Coolum Beach","latitude":-26.53533,"country":"Australia","ellis":1,"longitude":153.075439,"id":"a68lui6g9u2e","state":"Queensland"},"type":"Feature","geometry":{"type":"Point","coordinates":[153.075439,-26.53533]}},{"properties":{"city":"Corlette","latitude":-32.718842,"country":"Australia","ellis":1,"longitude":152.10849,"id":"a68luiacv5mu","state":"New South Wales"},"type":"Feature","geometry":{"type":"Point","coordinates":[152.10849,-32.718842]}},{"properties":{"city":"Cottesloe","latitude":-31.99605,"country":"Australia","ellis":1,"longitude":115.757278,"id":"a68lui4o1irh","state":"Western Australia"},"type":"Feature","geometry":{"type":"Point","coordinates":[115.757278,-31.99605]}},{"properties":{"city":"Cremorne","latitude":-33.829849,"country":"Australia","ellis":1,"longitude":151.227356,"id":"a68luicjmc1x","state":"New South Wales"},"type":"Feature","geometry":{"type":"Point","coordinates":[151.227356,-33.829849]}},{"properties":{"city":"Cronulla","latitude":-34.055229,"country":"Australia","ellis":2,"longitude":151.153366,"id":"a68lui6wq3wz","state":"New South Wales"},"type":"Feature","geometry":{"type":"Point","coordinates":[151.153366,-34.055229]}},{"properties":{"city":"Dapto","latitude":-34.49773,"country":"Australia","ellis":1,"longitude":150.791656,"id":"a68lui7wpi0h","state":"New South Wales"},"type":"Feature","geometry":{"type":"Point","coordinates":[150.791656,-34.49773]}},{"properties":{"city":"Darwin","latitude":-12.4675,"country":"Australia","ellis":21,"longitude":130.843155,"id":"a68lui0o2qyz","state":"Northern Territory"},"type":"Feature","geometry":{"type":"Point","coordinates":[130.843155,-12.4675]}},{"properties":{"city":"Delhi","latitude":28.643999,"country":"India","ellis":2,"longitude":77.091003,"id":"a68lui6lma7j","state":null},"type":"Feature","geometry":{"type":"Point","coordinates":[77.091003,28.643999]}},{"properties":{"city":"Deniliquin","latitude":-35.535961,"country":"Australia","ellis":1,"longitude":144.970688,"id":"a68luhyeyogc","state":"New South Wales"},"type":"Feature","geometry":{"type":"Point","coordinates":[144.970688,-35.535961]}},{"properties":{"city":"Derby","latitude":-17.34487,"country":"Australia","ellis":1,"longitude":123.665222,"id":"a68luhzdiubk","state":"Western Australia"},"type":"Feature","geometry":{"type":"Point","coordinates":[123.665222,-17.34487]}},{"properties":{"city":"Devonport","latitude":-41.179859,"country":"Australia","ellis":2,"longitude":146.348587,"id":"a68luibchpkx","state":"Tasmania"},"type":"Feature","geometry":{"type":"Point","coordinates":[146.348587,-41.179859]}},{"properties":{"city":"Doncaster East","latitude":-37.763519,"country":"Australia","ellis":1,"longitude":145.173035,"id":"a68luibdy9ze","state":"Victoria"},"type":"Feature","geometry":{"type":"Point","coordinates":[145.173035,-37.763519]}},{"properties":{"city":"Drouin","latitude":-38.136688,"country":"Australia","ellis":1,"longitude":145.858124,"id":"a68luhzilh5v","state":"Victoria"},"type":"Feature","geometry":{"type":"Point","coordinates":[145.858124,-38.136688]}},{"properties":{"city":"Drysdale","latitude":-38.153461,"country":"Australia","ellis":1,"longitude":144.590103,"id":"a68luhz0mljr","state":"Victoria"},"type":"Feature","geometry":{"type":"Point","coordinates":[144.590103,-38.153461]}},{"properties":{"city":"Dubbo","latitude":-32.247871,"country":"Australia","ellis":1,"longitude":148.601181,"id":"a68lui59ighm","state":"New South Wales"},"type":"Feature","geometry":{"type":"Point","coordinates":[148.601181,-32.247871]}},{"properties":{"city":"Dunedin","latitude":-45.8745,"country":"New Zealand","ellis":1,"longitude":170.503845,"id":"a68luiafflsm","state":"Otago"},"type":"Feature","geometry":{"type":"Point","coordinates":[170.503845,-45.8745]}},{"properties":{"city":"Durban","latitude":-29.855744,"country":"South Africa","ellis":2,"longitude":31.035125,"id":"a68lui0vee1z","state":null},"type":"Feature","geometry":{"type":"Point","coordinates":[31.035125,-29.855744]}},{"properties":{"city":"East Devonport","latitude":-41.18784,"country":"Australia","ellis":1,"longitude":146.371094,"id":"a68lui18y55g","state":"Tasmania"},"type":"Feature","geometry":{"type":"Point","coordinates":[146.371094,-41.18784]}},{"properties":{"city":"East Fremantle","latitude":-32.040699,"country":"Australia","ellis":1,"longitude":115.769127,"id":"a68luibm7lxx","state":"Western Australia"},"type":"Feature","geometry":{"type":"Point","coordinates":[115.769127,-32.040699]}},{"properties":{"city":"East Gosford","latitude":-33.438019,"country":"Australia","ellis":1,"longitude":151.353745,"id":"a68luiacijeu","state":"New South Wales"},"type":"Feature","geometry":{"type":"Point","coordinates":[151.353745,-33.438019]}},{"properties":{"city":"East Melbourne","latitude":-37.811562,"country":"Australia","ellis":1,"longitude":144.977966,"id":"a68lui1natsx","state":"Victoria"},"type":"Feature","geometry":{"type":"Point","coordinates":[144.977966,-37.811562]}},{"properties":{"city":"Edinburgh","latitude":55.954155,"country":"United Kingdom","ellis":1,"longitude":-3.202774,"id":"a68lui4xqius","state":"Scotland"},"type":"Feature","geometry":{"type":"Point","coordinates":[-3.202774,55.954155]}},{"properties":{"city":"Elizabeth Bay","latitude":-33.870331,"country":"Australia","ellis":1,"longitude":151.225372,"id":"a68luhy1c1s4","state":"New South Wales"},"type":"Feature","geometry":{"type":"Point","coordinates":[151.225372,-33.870331]}},{"properties":{"city":"Eltham","latitude":-37.714539,"country":"Australia","ellis":1,"longitude":145.150116,"id":"a68lui3t35ug","state":"Victoria"},"type":"Feature","geometry":{"type":"Point","coordinates":[145.150116,-37.714539]}},{"properties":{"city":"Elwood","latitude":-37.882401,"country":"Australia","ellis":1,"longitude":144.984512,"id":"a68lui98ihlv","state":"Victoria"},"type":"Feature","geometry":{"type":"Point","coordinates":[144.984512,-37.882401]}},{"properties":{"city":"Essendon","latitude":-37.751541,"country":"Australia","ellis":1,"longitude":144.909515,"id":"a68lui4fzww8","state":"Victoria"},"type":"Feature","geometry":{"type":"Point","coordinates":[144.909515,-37.751541]}},{"properties":{"city":"Exeter","latitude":-34.842091,"country":"Australia","ellis":1,"longitude":138.4897,"id":"a68lui9fcnxy","state":"South Australia"},"type":"Feature","geometry":{"type":"Point","coordinates":[138.4897,-34.842091]}},{"properties":{"city":"Fairbairn Park","latitude":-37.774342,"country":"Australia","ellis":1,"longitude":144.899094,"id":"a68lui3wi47n","state":"Victoria"},"type":"Feature","geometry":{"type":"Point","coordinates":[144.899094,-37.774342]}},{"properties":{"city":"Fairy Meadow","latitude":-34.399879,"country":"Australia","ellis":1,"longitude":150.891876,"id":"a68luibj2scx","state":"New South Wales"},"type":"Feature","geometry":{"type":"Point","coordinates":[150.891876,-34.399879]}},{"properties":{"city":"Ferntree Gully","latitude":-37.882702,"country":"Australia","ellis":1,"longitude":145.295242,"id":"a68luhzqgdm1","state":"Victoria"},"type":"Feature","geometry":{"type":"Point","coordinates":[145.295242,-37.882702]}},{"properties":{"city":"Fitzroy","latitude":-37.798389,"country":"Australia","ellis":1,"longitude":144.979004,"id":"a68luidbdpln","state":"Victoria"},"type":"Feature","geometry":{"type":"Point","coordinates":[144.979004,-37.798389]}},{"properties":{"city":"Fitzroy North","latitude":-37.783691,"country":"Australia","ellis":1,"longitude":144.983505,"id":"a68luhzwd84u","state":"Victoria"},"type":"Feature","geometry":{"type":"Point","coordinates":[144.983505,-37.783691]}},{"properties":{"city":"Flagstaff Hill","latitude":-35.050579,"country":"Australia","ellis":1,"longitude":138.589554,"id":"a68lui58az6d","state":"South Australia"},"type":"Feature","geometry":{"type":"Point","coordinates":[138.589554,-35.050579]}},{"properties":{"city":"Flemington","latitude":-37.786461,"country":"Australia","ellis":1,"longitude":144.92157,"id":"a68lui003916","state":"Victoria"},"type":"Feature","geometry":{"type":"Point","coordinates":[144.92157,-37.786461]}},{"properties":{"city":"Flinders","latitude":-38.473961,"country":"Australia","ellis":1,"longitude":145.017532,"id":"a68lui01o703","state":"Victoria"},"type":"Feature","geometry":{"type":"Point","coordinates":[145.017532,-38.473961]}},{"properties":{"city":"Footscray","latitude":-37.791698,"country":"Australia","ellis":3,"longitude":144.891251,"id":"a68lui3zn12a","state":"Victoria"},"type":"Feature","geometry":{"type":"Point","coordinates":[144.891251,-37.791698]}},{"properties":{"city":"Forititude Valley","latitude":-19.93272,"country":"Australia","ellis":1,"longitude":145.774063,"id":"a68lui9tob95","state":"Queensland"},"type":"Feature","geometry":{"type":"Point","coordinates":[145.774063,-19.93272]}},{"properties":{"city":"Frankston","latitude":-38.141571,"country":"Australia","ellis":2,"longitude":145.121826,"id":"a68lui4kn43y","state":"Victoria"},"type":"Feature","geometry":{"type":"Point","coordinates":[145.121826,-38.141571]}},{"properties":{"city":"Fremantle","latitude":-32.05286,"country":"Australia","ellis":6,"longitude":115.748238,"id":"a68lui0qyyaw","state":"Western Australia"},"type":"Feature","geometry":{"type":"Point","coordinates":[115.748238,-32.05286]}},{"properties":{"city":"Fullarton","latitude":-34.95433,"country":"Australia","ellis":1,"longitude":138.625595,"id":"a68lui33s7g2","state":"South Australia"},"type":"Feature","geometry":{"type":"Point","coordinates":[138.625595,-34.95433]}},{"properties":{"city":"Geelong","latitude":-38.148769,"country":"Australia","ellis":28,"longitude":144.360046,"id":"a68lui8lmzl6","state":"Victoria"},"type":"Feature","geometry":{"type":"Point","coordinates":[144.360046,-38.148769]}},{"properties":{"city":"Geelong West","latitude":-38.140362,"country":"Australia","ellis":1,"longitude":144.348373,"id":"a68luibnpohj","state":"Victoria"},"type":"Feature","geometry":{"type":"Point","coordinates":[144.348373,-38.140362]}},{"properties":{"city":"Gembrook","latitude":-37.952499,"country":"Australia","ellis":1,"longitude":145.550461,"id":"a68luhy7igti","state":"Victoria"},"type":"Feature","geometry":{"type":"Point","coordinates":[145.550461,-37.952499]}},{"properties":{"city":"Gippsland","latitude":-36.419399,"country":"Australia","ellis":2,"longitude":148.613495,"id":"a68lui77i478","state":"Victoria"},"type":"Feature","geometry":{"type":"Point","coordinates":[148.613495,-36.419399]}},{"properties":{"city":"Gladstone","latitude":-23.843821,"country":"Australia","ellis":2,"longitude":151.253555,"id":"a68luidyz6ob","state":"Queensland"},"type":"Feature","geometry":{"type":"Point","coordinates":[151.253555,-23.843821]}},{"properties":{"city":"Glasgow","latitude":55.857809,"country":"United Kingdom","ellis":1,"longitude":-4.242511,"id":"a68lui98awes","state":"Scotland"},"type":"Feature","geometry":{"type":"Point","coordinates":[-4.242511,55.857809]}},{"properties":{"city":"Glebe","latitude":-42.874859,"country":"Australia","ellis":1,"longitude":147.325989,"id":"a68lui3kff8r","state":"Tasmania"},"type":"Feature","geometry":{"type":"Point","coordinates":[147.325989,-42.874859]}},{"properties":{"city":"Glenelg","latitude":-34.980148,"country":"Australia","ellis":1,"longitude":138.517715,"id":"a68luiag8knl","state":"South Australia"},"type":"Feature","geometry":{"type":"Point","coordinates":[138.517715,-34.980148]}},{"properties":{"city":"Glenelg South","latitude":-34.985401,"country":"Australia","ellis":1,"longitude":138.513184,"id":"a68lui7sjxo2","state":"South Australia"},"type":"Feature","geometry":{"type":"Point","coordinates":[138.513184,-34.985401]}},{"properties":{"city":"Gold Coast","latitude":-28.04583,"country":"Australia","ellis":38,"longitude":153.397751,"id":"a68luhy8obqb","state":"Queensland"},"type":"Feature","geometry":{"type":"Point","coordinates":[153.397751,-28.04583]}},{"properties":{"city":"Gordon","latitude":-33.75761,"country":"Australia","ellis":1,"longitude":151.153336,"id":"a68luicaf7u8","state":"New South Wales"},"type":"Feature","geometry":{"type":"Point","coordinates":[151.153336,-33.75761]}},{"properties":{"city":"Gosford","latitude":-33.42321,"country":"Australia","ellis":13,"longitude":151.342606,"id":"a68lui182qxi","state":"New South Wales"},"type":"Feature","geometry":{"type":"Point","coordinates":[151.342606,-33.42321]}},{"properties":{"city":"Goulburn","latitude":-34.757179,"country":"Australia","ellis":1,"longitude":149.716263,"id":"a68lui56xil9","state":"New South Wales"},"type":"Feature","geometry":{"type":"Point","coordinates":[149.716263,-34.757179]}},{"properties":{"city":"Griffith","latitude":-34.28944,"country":"Australia","ellis":1,"longitude":146.050323,"id":"a68luicwg7pi","state":"New South Wales"},"type":"Feature","geometry":{"type":"Point","coordinates":[146.050323,-34.28944]}},{"properties":{"city":"Grovedale","latitude":-38.205669,"country":"Australia","ellis":1,"longitude":144.340515,"id":"a68luhztjudw","state":"Victoria"},"type":"Feature","geometry":{"type":"Point","coordinates":[144.340515,-38.205669]}},{"properties":{"city":"Hamilton","latitude":-37.742229,"country":"Australia","ellis":1,"longitude":142.021576,"id":"a68lui4ly2eo","state":"Victoria"},"type":"Feature","geometry":{"type":"Point","coordinates":[142.021576,-37.742229]}},{"properties":{"city":"Hanoi","latitude":21.03195,"country":"Vietnam","ellis":1,"longitude":105.819908,"id":"a68luie46hyo","state":null},"type":"Feature","geometry":{"type":"Point","coordinates":[105.819908,21.03195]}},{"properties":{"city":"Happy Valley","latitude":-35.083111,"country":"Australia","ellis":1,"longitude":138.575867,"id":"a68luia4xwb5","state":"South Australia"},"type":"Feature","geometry":{"type":"Point","coordinates":[138.575867,-35.083111]}},{"properties":{"city":"Harvey","latitude":-33.082569,"country":"Australia","ellis":1,"longitude":115.905678,"id":"a68lui6yn7i8","state":"Western Australia"},"type":"Feature","geometry":{"type":"Point","coordinates":[115.905678,-33.082569]}},{"properties":{"city":"Hawthorn","latitude":-37.822861,"country":"Australia","ellis":1,"longitude":145.035294,"id":"a68lui22yv6x","state":"Victoria"},"type":"Feature","geometry":{"type":"Point","coordinates":[145.035294,-37.822861]}},{"properties":{"city":"Hazeldene","latitude":-37.36578,"country":"Australia","ellis":1,"longitude":145.286331,"id":"a68lui0fkc56","state":"Victoria"},"type":"Feature","geometry":{"type":"Point","coordinates":[145.286331,-37.36578]}},{"properties":{"city":"Hervey Bay","latitude":-25.287661,"country":"Australia","ellis":1,"longitude":152.838257,"id":"a68lui8debz7","state":"Queensland"},"type":"Feature","geometry":{"type":"Point","coordinates":[152.838257,-25.287661]}},{"properties":{"city":"Hillside","latitude":-37.688641,"country":"Australia","ellis":1,"longitude":144.744736,"id":"a68lui67gxgp","state":"Victoria"},"type":"Feature","geometry":{"type":"Point","coordinates":[144.744736,-37.688641]}},{"properties":{"city":"Hobart","latitude":-42.88163,"country":"Australia","ellis":28,"longitude":147.331589,"id":"a68lui3r5q8s","state":"Tasmania"},"type":"Feature","geometry":{"type":"Point","coordinates":[147.331589,-42.88163]}},{"properties":{"city":"Homebush Bay","latitude":-33.8437,"country":"Australia","ellis":1,"longitude":151.070648,"id":"a68luhy25k9q","state":"New South Wales"},"type":"Feature","geometry":{"type":"Point","coordinates":[151.070648,-33.8437]}},{"properties":{"city":"Hong Kong","latitude":22.411249,"country":"China","ellis":4,"longitude":114.153542,"id":"a68lui6l620o","state":null},"type":"Feature","geometry":{"type":"Point","coordinates":[114.153542,22.411249]}},{"properties":{"city":"Horsham","latitude":-36.71093,"country":"Australia","ellis":3,"longitude":142.197372,"id":"a68lui1ej8g0","state":"Victoria"},"type":"Feature","geometry":{"type":"Point","coordinates":[142.197372,-36.71093]}},{"properties":{"city":"Hughesdale","latitude":-37.900188,"country":"Australia","ellis":1,"longitude":145.080841,"id":"a68luicpxjrh","state":"Victoria"},"type":"Feature","geometry":{"type":"Point","coordinates":[145.080841,-37.900188]}},{"properties":{"city":"Hyde Park","latitude":-34.955189,"country":"Australia","ellis":1,"longitude":138.600082,"id":"a68luidvxjs1","state":"South Australia"},"type":"Feature","geometry":{"type":"Point","coordinates":[138.600082,-34.955189]}},{"properties":{"city":"Illawarra","latitude":-33.838345,"country":"Australia","ellis":2,"longitude":151.235687,"id":"a68luhzf21wm","state":"New South Wales"},"type":"Feature","geometry":{"type":"Point","coordinates":[151.235687,-33.838345]}},{"properties":{"city":"Inglewood","latitude":-31.92061,"country":"Australia","ellis":1,"longitude":115.886818,"id":"a68luid92mzf","state":"Western Australia"},"type":"Feature","geometry":{"type":"Point","coordinates":[115.886818,-31.92061]}},{"properties":{"city":"Inverloch","latitude":-38.62727,"country":"Australia","ellis":1,"longitude":145.720123,"id":"a68lui613ksz","state":"Victoria"},"type":"Feature","geometry":{"type":"Point","coordinates":[145.720123,-38.62727]}},{"properties":{"city":"Ipswich","latitude":-27.616489,"country":"Australia","ellis":1,"longitude":152.765274,"id":"a68lui4j2rxb","state":"Queensland"},"type":"Feature","geometry":{"type":"Point","coordinates":[152.765274,-27.616489]}},{"properties":{"city":"Jacksonville","latitude":30.33138,"country":"United States","ellis":1,"longitude":-81.655799,"id":"a68luic5fys2","state":"Florida"},"type":"Feature","geometry":{"type":"Point","coordinates":[-81.655799,30.33138]}},{"properties":{"city":"Jakarta","latitude":-6.17144,"country":"Indonesia","ellis":2,"longitude":106.82782,"id":"a68luic14ekr","state":null},"type":"Feature","geometry":{"type":"Point","coordinates":[106.82782,-6.17144]}},{"properties":{"city":"Jerusalem","latitude":-33.974041,"country":"Australia","ellis":1,"longitude":137.708511,"id":"a68lui9bd1ah","state":"South Australia"},"type":"Feature","geometry":{"type":"Point","coordinates":[137.708511,-33.974041]}},{"properties":{"city":"Kalgoorlie","latitude":-30.748171,"country":"Australia","ellis":3,"longitude":121.471718,"id":"a68luhznvwzy","state":"Western Australia"},"type":"Feature","geometry":{"type":"Point","coordinates":[121.471718,-30.748171]}},{"properties":{"city":"Kallangur","latitude":-27.240919,"country":"Australia","ellis":1,"longitude":152.992584,"id":"a68lui7e977l","state":"Queensland"},"type":"Feature","geometry":{"type":"Point","coordinates":[152.992584,-27.240919]}},{"properties":{"city":"Kapunda","latitude":-34.339489,"country":"Australia","ellis":1,"longitude":138.916367,"id":"a68lui7drtjl","state":"South Australia"},"type":"Feature","geometry":{"type":"Point","coordinates":[138.916367,-34.339489]}},{"properties":{"city":"Kellyville Ridge","latitude":-33.701111,"country":"Australia","ellis":1,"longitude":150.925644,"id":"a68lui2v0c0a","state":"New South Wales"},"type":"Feature","geometry":{"type":"Point","coordinates":[150.925644,-33.701111]}},{"properties":{"city":"Kensington","latitude":-37.794159,"country":"Australia","ellis":1,"longitude":144.927628,"id":"a68luid45a29","state":"Victoria"},"type":"Feature","geometry":{"type":"Point","coordinates":[144.927628,-37.794159]}},{"properties":{"city":"Kent Town","latitude":-34.920898,"country":"Australia","ellis":2,"longitude":138.617584,"id":"a68lui65zv2e","state":"South Australia"},"type":"Feature","geometry":{"type":"Point","coordinates":[138.617584,-34.920898]}},{"properties":{"city":"Kilsyth","latitude":-37.80265,"country":"Australia","ellis":1,"longitude":145.314972,"id":"a68luicd0d1v","state":"Victoria"},"type":"Feature","geometry":{"type":"Point","coordinates":[145.314972,-37.80265]}},{"properties":{"city":"Kogarah","latitude":-33.963169,"country":"Australia","ellis":1,"longitude":151.132675,"id":"a68luhykypxc","state":"New South Wales"},"type":"Feature","geometry":{"type":"Point","coordinates":[151.132675,-33.963169]}},{"properties":{"city":"Kooyong","latitude":-37.844212,"country":"Australia","ellis":1,"longitude":145.035004,"id":"a68lui0i5w6a","state":"Victoria"},"type":"Feature","geometry":{"type":"Point","coordinates":[145.035004,-37.844212]}},{"properties":{"city":"Kuala Lumpur","latitude":3.13601,"country":"Kuala Lumpur","ellis":1,"longitude":101.62976,"id":"a68lui6khsdh","state":null},"type":"Feature","geometry":{"type":"Point","coordinates":[101.62976,3.13601]}},{"properties":{"city":"Kuitpo","latitude":-35.235191,"country":"Australia","ellis":1,"longitude":138.678894,"id":"a68lui4nbsjc","state":"South Australia"},"type":"Feature","geometry":{"type":"Point","coordinates":[138.678894,-35.235191]}},{"properties":{"city":"Kununurra","latitude":-15.77267,"country":"Australia","ellis":1,"longitude":128.739365,"id":"a68lui25q4fa","state":"Western Australia"},"type":"Feature","geometry":{"type":"Point","coordinates":[128.739365,-15.77267]}},{"properties":{"city":"Laidley","latitude":-27.64517,"country":"Australia","ellis":1,"longitude":152.38942,"id":"a68lui4jh3r2","state":"Queensland"},"type":"Feature","geometry":{"type":"Point","coordinates":[152.38942,-27.64517]}},{"properties":{"city":"Launceston","latitude":-41.436008,"country":"Australia","ellis":7,"longitude":147.137802,"id":"a68luidz97l7","state":"Tasmania"},"type":"Feature","geometry":{"type":"Point","coordinates":[147.137802,-41.436008]}},{"properties":{"city":"Lilydale","latitude":-37.757561,"country":"Australia","ellis":1,"longitude":145.351028,"id":"a68lui3raogd","state":"Victoria"},"type":"Feature","geometry":{"type":"Point","coordinates":[145.351028,-37.757561]}},{"properties":{"city":"Lithgow","latitude":-33.482792,"country":"Australia","ellis":1,"longitude":150.152588,"id":"a68luichphjl","state":"New South Wales"},"type":"Feature","geometry":{"type":"Point","coordinates":[150.152588,-33.482792]}},{"properties":{"city":"Logan","latitude":-36.622131,"country":"Australia","ellis":1,"longitude":143.490936,"id":"a68lui95kwyu","state":"Victoria"},"type":"Feature","geometry":{"type":"Point","coordinates":[143.490936,-36.622131]}},{"properties":{"city":"Logan City","latitude":-27.640329,"country":"Australia","ellis":1,"longitude":153.107452,"id":"a68luia11cv6","state":"Queensland"},"type":"Feature","geometry":{"type":"Point","coordinates":[153.107452,-27.640329]}},{"properties":{"city":"London","latitude":51.506325,"country":"United Kingdom","ellis":34,"longitude":-0.127144,"id":"a68lui05t6yb","state":"England"},"type":"Feature","geometry":{"type":"Point","coordinates":[-0.127144,51.506325]}},{"properties":{"city":"Los Angeles","latitude":34.05349,"country":"United States","ellis":4,"longitude":-118.245319,"id":"a68lui9gmiia","state":"California"},"type":"Feature","geometry":{"type":"Point","coordinates":[-118.245319,34.05349]}},{"properties":{"city":"Lyndoch","latitude":-34.599701,"country":"Australia","ellis":2,"longitude":138.888916,"id":"a68lui9ap1vq","state":"South Australia"},"type":"Feature","geometry":{"type":"Point","coordinates":[138.888916,-34.599701]}},{"properties":{"city":"Mackay","latitude":-21.142309,"country":"Australia","ellis":2,"longitude":149.178711,"id":"a68luibru8pr","state":"Queensland"},"type":"Feature","geometry":{"type":"Point","coordinates":[149.178711,-21.142309]}},{"properties":{"city":"Maitland","latitude":-32.727951,"country":"Australia","ellis":1,"longitude":151.543823,"id":"a68lui9o2tkj","state":"New South Wales"},"type":"Feature","geometry":{"type":"Point","coordinates":[151.543823,-32.727951]}},{"properties":{"city":"Mallala","latitude":-34.437969,"country":"Australia","ellis":1,"longitude":138.509964,"id":"a68lui9a5r7n","state":"South Australia"},"type":"Feature","geometry":{"type":"Point","coordinates":[138.509964,-34.437969]}},{"properties":{"city":"Manchester","latitude":42.991175,"country":"United States","ellis":1,"longitude":-71.463089,"id":"a68luibkgbmz","state":"New Hampshire"},"type":"Feature","geometry":{"type":"Point","coordinates":[-71.463089,42.991175]}},{"properties":{"city":"Mandurah","latitude":-32.534771,"country":"Australia","ellis":2,"longitude":115.720444,"id":"a68lui218rh7","state":"Western Australia"},"type":"Feature","geometry":{"type":"Point","coordinates":[115.720444,-32.534771]}},{"properties":{"city":"Manly","latitude":-33.795238,"country":"Australia","ellis":2,"longitude":151.287369,"id":"a68lui8b6hp5","state":"New South Wales"},"type":"Feature","geometry":{"type":"Point","coordinates":[151.287369,-33.795238]}},{"properties":{"city":"Manly","latitude":-27.454229,"country":"Australia","ellis":3,"longitude":153.185837,"id":"a68lui6qmrlo","state":"Queensland"},"type":"Feature","geometry":{"type":"Point","coordinates":[153.185837,-27.454229]}},{"properties":{"city":"Mansfield","latitude":-37.051071,"country":"Australia","ellis":1,"longitude":146.080093,"id":"a68luidd37wo","state":"Victoria"},"type":"Feature","geometry":{"type":"Point","coordinates":[146.080093,-37.051071]}},{"properties":{"city":"Marden","latitude":-34.89687,"country":"Australia","ellis":1,"longitude":138.638702,"id":"a68lui31ss0t","state":"South Australia"},"type":"Feature","geometry":{"type":"Point","coordinates":[138.638702,-34.89687]}},{"properties":{"city":"Margaret River","latitude":-33.909199,"country":"Australia","ellis":1,"longitude":115.251221,"id":"a68lui12mtjj","state":"Western Australia"},"type":"Feature","geometry":{"type":"Point","coordinates":[115.251221,-33.909199]}},{"properties":{"city":"Maribyrnong","latitude":-37.769112,"country":"Australia","ellis":1,"longitude":144.886475,"id":"a68lui223jq2","state":"Victoria"},"type":"Feature","geometry":{"type":"Point","coordinates":[144.886475,-37.769112]}},{"properties":{"city":"Maroochydore","latitude":-26.65271,"country":"Australia","ellis":2,"longitude":153.089737,"id":"a68lui0ndw82","state":"Queensland"},"type":"Feature","geometry":{"type":"Point","coordinates":[153.089737,-26.65271]}},{"properties":{"city":"Mawson Lakes","latitude":-34.81105,"country":"Australia","ellis":1,"longitude":138.611633,"id":"a68lui1py2n0","state":"South Australia"},"type":"Feature","geometry":{"type":"Point","coordinates":[138.611633,-34.81105]}},{"properties":{"city":"McLaren Vale","latitude":-35.215511,"country":"Australia","ellis":2,"longitude":138.538147,"id":"a68lui1x8q5l","state":"South Australia"},"type":"Feature","geometry":{"type":"Point","coordinates":[138.538147,-35.215511]}},{"properties":{"city":"Melbourne","latitude":-37.817532,"country":"Australia","ellis":988,"longitude":144.967148,"id":"a68lui0exyul","state":"Victoria"},"type":"Feature","geometry":{"type":"Point","coordinates":[144.967148,-37.817532]}},{"properties":{"city":"Middle Swan","latitude":-31.849159,"country":"Australia","ellis":1,"longitude":116.014931,"id":"a68lui8od3df","state":"Western Australia"},"type":"Feature","geometry":{"type":"Point","coordinates":[116.014931,-31.849159]}},{"properties":{"city":"Mildura","latitude":-34.18605,"country":"Australia","ellis":1,"longitude":142.161713,"id":"a68lui1vqi4q","state":"Victoria"},"type":"Feature","geometry":{"type":"Point","coordinates":[142.161713,-34.18605]}},{"properties":{"city":"Millicent","latitude":-37.593342,"country":"Australia","ellis":1,"longitude":140.351334,"id":"a68luhyco32b","state":"South Australia"},"type":"Feature","geometry":{"type":"Point","coordinates":[140.351334,-37.593342]}},{"properties":{"city":"Minneapolis","latitude":31.315203,"country":"United States","ellis":1,"longitude":-83.910862,"id":"a68luid25ii8","state":"Minnesotta"},"type":"Feature","geometry":{"type":"Point","coordinates":[-83.910862,31.315203]}},{"properties":{"city":"Mississauga","latitude":43.588285,"country":"Canada","ellis":1,"longitude":-79.643724,"id":"a68lui31cmzp","state":"Ontario"},"type":"Feature","geometry":{"type":"Point","coordinates":[-79.643724,43.588285]}},{"properties":{"city":"Mitchell Park","latitude":-35.011181,"country":"Australia","ellis":1,"longitude":138.562454,"id":"a68lui1z68qx","state":"South Australia"},"type":"Feature","geometry":{"type":"Point","coordinates":[138.562454,-35.011181]}},{"properties":{"city":"Mitt","latitude":-32.831032,"country":"Australia","ellis":1,"longitude":147.319046,"id":"a68lui1s6dh1","state":"New South Wales"},"type":"Feature","geometry":{"type":"Point","coordinates":[147.319046,-32.831032]}},{"properties":{"city":"Mollymook","latitude":-35.341301,"country":"Australia","ellis":1,"longitude":150.473816,"id":"a68luhyfy20e","state":"New South Wales"},"type":"Feature","geometry":{"type":"Point","coordinates":[150.473816,-35.341301]}},{"properties":{"city":"Moonee Ponds","latitude":-37.763649,"country":"Australia","ellis":1,"longitude":144.922668,"id":"a68luia3mapa","state":"Victoria"},"type":"Feature","geometry":{"type":"Point","coordinates":[144.922668,-37.763649]}},{"properties":{"city":"Moorooka","latitude":-27.532841,"country":"Australia","ellis":1,"longitude":153.025085,"id":"a68lui1ibkux","state":"Queensland"},"type":"Feature","geometry":{"type":"Point","coordinates":[153.025085,-27.532841]}},{"properties":{"city":"Mordialloc","latitude":-38.001171,"country":"Australia","ellis":2,"longitude":145.093719,"id":"a68luie8vulu","state":"Victoria"},"type":"Feature","geometry":{"type":"Point","coordinates":[145.093719,-38.001171]}},{"properties":{"city":"Morwell","latitude":-38.238152,"country":"Australia","ellis":1,"longitude":146.403534,"id":"a68lui9u0qpa","state":"Victoria"},"type":"Feature","geometry":{"type":"Point","coordinates":[146.403534,-38.238152]}},{"properties":{"city":"Mosman","latitude":-33.829079,"country":"Australia","ellis":2,"longitude":151.244095,"id":"a68lui99kjir","state":"New South Wales"},"type":"Feature","geometry":{"type":"Point","coordinates":[151.244095,-33.829079]}},{"properties":{"city":"Mount Barker","latitude":-35.073711,"country":"Australia","ellis":4,"longitude":138.867966,"id":"a68luhzrdfu2","state":"South Australia"},"type":"Feature","geometry":{"type":"Point","coordinates":[138.867966,-35.073711]}},{"properties":{"city":"Mount Gambier","latitude":-37.828159,"country":"Australia","ellis":2,"longitude":140.780823,"id":"a68lui34p2ql","state":"South Australia"},"type":"Feature","geometry":{"type":"Point","coordinates":[140.780823,-37.828159]}},{"properties":{"city":"Mount Isa","latitude":-20.73167,"country":"Australia","ellis":1,"longitude":139.481979,"id":"a68lui3rtc9z","state":"Queensland"},"type":"Feature","geometry":{"type":"Point","coordinates":[139.481979,-20.73167]}},{"properties":{"city":"Mt Austin","latitude":-35.133869,"country":"Australia","ellis":1,"longitude":147.352768,"id":"a68luiczcb2z","state":"New South Wales"},"type":"Feature","geometry":{"type":"Point","coordinates":[147.352768,-35.133869]}},{"properties":{"city":"Mulgrave","latitude":-37.91798,"country":"Australia","ellis":1,"longitude":145.158905,"id":"a68lui36o2dm","state":"Victoria"},"type":"Feature","geometry":{"type":"Point","coordinates":[145.158905,-37.91798]}},{"properties":{"city":"Murdoch","latitude":-32.063122,"country":"Australia","ellis":1,"longitude":115.836212,"id":"a68luhz3bxwd","state":"Western Australia"},"type":"Feature","geometry":{"type":"Point","coordinates":[115.836212,-32.063122]}},{"properties":{"city":"Murray Bridge","latitude":-35.118729,"country":"Australia","ellis":1,"longitude":139.275986,"id":"a68luibb7z05","state":"South Australia"},"type":"Feature","geometry":{"type":"Point","coordinates":[139.275986,-35.118729]}},{"properties":{"city":"Nailsworth","latitude":-34.881672,"country":"Australia","ellis":1,"longitude":138.607056,"id":"a68lui17g52i","state":"South Australia"},"type":"Feature","geometry":{"type":"Point","coordinates":[138.607056,-34.881672]}},{"properties":{"city":"Narre Warren South","latitude":-38.06609,"country":"Australia","ellis":1,"longitude":145.29895,"id":"a68luhz935bi","state":"Victoria"},"type":"Feature","geometry":{"type":"Point","coordinates":[145.29895,-38.06609]}},{"properties":{"city":"New Delhi","latitude":24.7338,"country":"India","ellis":1,"longitude":81.33463,"id":"a68luibqbk4g","state":null},"type":"Feature","geometry":{"type":"Point","coordinates":[81.33463,24.7338]}},{"properties":{"city":"New England","latitude":-33.949642,"country":"Australia","ellis":1,"longitude":151.092957,"id":"a68luie7w6xh","state":"New South Wales"},"type":"Feature","geometry":{"type":"Point","coordinates":[151.092957,-33.949642]}},{"properties":{"city":"New York City","latitude":40.71455,"country":"United States","ellis":10,"longitude":-74.007124,"id":"a68lui65ai6h","state":"New York"},"type":"Feature","geometry":{"type":"Point","coordinates":[-74.007124,40.71455]}},{"properties":{"city":"Newcastle","latitude":-32.928089,"country":"Australia","ellis":66,"longitude":151.772324,"id":"a68luhzky12e","state":"New South Wales"},"type":"Feature","geometry":{"type":"Point","coordinates":[151.772324,-32.928089]}},{"properties":{"city":"Newtown","latitude":-33.89859,"country":"Australia","ellis":1,"longitude":151.175812,"id":"a68luib2g16z","state":"New South Wales"},"type":"Feature","geometry":{"type":"Point","coordinates":[151.175812,-33.89859]}},{"properties":{"city":"Newtown","latitude":-38.15387,"country":"Australia","ellis":3,"longitude":144.344955,"id":"a68lui9epbqq","state":"Victoria"},"type":"Feature","geometry":{"type":"Point","coordinates":[144.344955,-38.15387]}},{"properties":{"city":"Noosa","latitude":-26.399019,"country":"Australia","ellis":3,"longitude":153.086105,"id":"a68lui8f4oy9","state":"Queensland"},"type":"Feature","geometry":{"type":"Point","coordinates":[153.086105,-26.399019]}},{"properties":{"city":"Noosaville","latitude":-26.402969,"country":"Australia","ellis":1,"longitude":153.050476,"id":"a68luieaf4ma","state":"Queensland"},"type":"Feature","geometry":{"type":"Point","coordinates":[153.050476,-26.402969]}},{"properties":{"city":"Norman Park","latitude":-27.4741,"country":"Australia","ellis":1,"longitude":153.055923,"id":"a68lui7e258q","state":"Queensland"},"type":"Feature","geometry":{"type":"Point","coordinates":[153.055923,-27.4741]}},{"properties":{"city":"North Adelaide","latitude":-34.909061,"country":"Australia","ellis":2,"longitude":138.592163,"id":"a68lui1gzl7b","state":"South Australia"},"type":"Feature","geometry":{"type":"Point","coordinates":[138.592163,-34.909061]}},{"properties":{"city":"North Melbourne","latitude":-37.800659,"country":"Australia","ellis":5,"longitude":144.947205,"id":"a68lui485zwj","state":"Victoria"},"type":"Feature","geometry":{"type":"Point","coordinates":[144.947205,-37.800659]}},{"properties":{"city":"North Sydney","latitude":-33.83989,"country":"Australia","ellis":2,"longitude":151.207779,"id":"a68luiaylh1n","state":"New South Wales"},"type":"Feature","geometry":{"type":"Point","coordinates":[151.207779,-33.83989]}},{"properties":{"city":"Northfield","latitude":-34.853779,"country":"Australia","ellis":1,"longitude":138.626724,"id":"a68luiaiipz0","state":"South Australia"},"type":"Feature","geometry":{"type":"Point","coordinates":[138.626724,-34.853779]}},{"properties":{"city":"Nottingham","latitude":52.949225,"country":"United Kingdom","ellis":1,"longitude":-1.143924,"id":"a68lui88eiws","state":"England"},"type":"Feature","geometry":{"type":"Point","coordinates":[-1.143924,52.949225]}},{"properties":{"city":"O'Connor","latitude":-35.444626,"country":"Australia","ellis":1,"longitude":149.109512,"id":"a68luic40te7","state":"Australian Capital Territory"},"type":"Feature","geometry":{"type":"Point","coordinates":[149.109512,-35.444626]}},{"properties":{"city":"Oakleigh","latitude":-37.900261,"country":"Australia","ellis":1,"longitude":145.090942,"id":"a68lui2xsjqy","state":"Victoria"},"type":"Feature","geometry":{"type":"Point","coordinates":[145.090942,-37.900261]}},{"properties":{"city":"Ocean Grove","latitude":-38.268299,"country":"Australia","ellis":1,"longitude":144.521729,"id":"a68luhzz4rho","state":"Victoria"},"type":"Feature","geometry":{"type":"Point","coordinates":[144.521729,-38.268299]}},{"properties":{"city":"Olympic Park","latitude":-33.821651,"country":"Australia","ellis":1,"longitude":151.118423,"id":"a68lui7pc31u","state":"New South Wales"},"type":"Feature","geometry":{"type":"Point","coordinates":[151.118423,-33.821651]}},{"properties":{"city":"Ottawa","latitude":45.4215,"country":"Canada","ellis":2,"longitude":-75.691894,"id":"a68lui2kcwha","state":"Ontario"},"type":"Feature","geometry":{"type":"Point","coordinates":[-75.691894,45.4215]}},{"properties":{"city":"Ovingham","latitude":-34.8979,"country":"Australia","ellis":1,"longitude":138.585007,"id":"a68luiay5pwb","state":"South Australia"},"type":"Feature","geometry":{"type":"Point","coordinates":[138.585007,-34.8979]}},{"properties":{"city":"Paradise","latitude":-33.385929,"country":"Australia","ellis":1,"longitude":115.744308,"id":"a68lui6uxky9","state":"Western Australia"},"type":"Feature","geometry":{"type":"Point","coordinates":[115.744308,-33.385929]}},{"properties":{"city":"Paralowie","latitude":-34.744019,"country":"Australia","ellis":1,"longitude":138.611633,"id":"a68luidznj1e","state":"South Australia"},"type":"Feature","geometry":{"type":"Point","coordinates":[138.611633,-34.744019]}},{"properties":{"city":"Paris","latitude":48.85693,"country":"France","ellis":2,"longitude":2.3412,"id":"a68lui00uesb","state":null},"type":"Feature","geometry":{"type":"Point","coordinates":[2.3412,48.85693]}},{"properties":{"city":"Parkdale","latitude":-37.991421,"country":"Australia","ellis":1,"longitude":145.080154,"id":"a68lui7w1486","state":"Victoria"},"type":"Feature","geometry":{"type":"Point","coordinates":[145.080154,-37.991421]}},{"properties":{"city":"Parkville","latitude":-37.793129,"country":"Australia","ellis":1,"longitude":144.958176,"id":"a68lui2rsjjp","state":"Victoria"},"type":"Feature","geometry":{"type":"Point","coordinates":[144.958176,-37.793129]}},{"properties":{"city":"Parramatta","latitude":-33.81731,"country":"Australia","ellis":3,"longitude":151.00354,"id":"a68lui4zswq1","state":"New South Wales"},"type":"Feature","geometry":{"type":"Point","coordinates":[151.00354,-33.81731]}},{"properties":{"city":"Patterson Lakes","latitude":-38.074131,"country":"Australia","ellis":1,"longitude":145.145187,"id":"a68lui3dq4qw","state":"Victoria"},"type":"Feature","geometry":{"type":"Point","coordinates":[145.145187,-38.074131]}},{"properties":{"city":"Peakhurst","latitude":-33.962551,"country":"Australia","ellis":1,"longitude":151.058105,"id":"a68luhzlzqlm","state":"New South Wales"},"type":"Feature","geometry":{"type":"Point","coordinates":[151.058105,-33.962551]}},{"properties":{"city":"Penrith","latitude":-33.753819,"country":"Australia","ellis":8,"longitude":150.698563,"id":"a68luhzfykoa","state":"New South Wales"},"type":"Feature","geometry":{"type":"Point","coordinates":[150.698563,-33.753819]}},{"properties":{"city":"Perth","latitude":-31.95302,"country":"Australia","ellis":170,"longitude":115.857239,"id":"a68lui8ax0vy","state":"Western Australia"},"type":"Feature","geometry":{"type":"Point","coordinates":[115.857239,-31.95302]}},{"properties":{"city":"Philadelphia","latitude":39.95227,"country":"United States","ellis":2,"longitude":-75.162369,"id":"a68lui1wyq4z","state":"Pennsylvania"},"type":"Feature","geometry":{"type":"Point","coordinates":[-75.162369,39.95227]}},{"properties":{"city":"Point Cook","latitude":-37.89584,"country":"Australia","ellis":1,"longitude":144.753525,"id":"a68luhyw8c1t","state":"Victoria"},"type":"Feature","geometry":{"type":"Point","coordinates":[144.753525,-37.89584]}},{"properties":{"city":"Pomona","latitude":-26.39089,"country":"Australia","ellis":1,"longitude":152.855392,"id":"a68lui8w18u9","state":"Queensland"},"type":"Feature","geometry":{"type":"Point","coordinates":[152.855392,-26.39089]}},{"properties":{"city":"Port Adelaide","latitude":-34.84449,"country":"Australia","ellis":2,"longitude":138.50412,"id":"a68lui43fii0","state":"South Australia"},"type":"Feature","geometry":{"type":"Point","coordinates":[138.50412,-34.84449]}},{"properties":{"city":"Port Augusta","latitude":-32.492111,"country":"Australia","ellis":1,"longitude":137.762527,"id":"a68lui71adqw","state":"South Australia"},"type":"Feature","geometry":{"type":"Point","coordinates":[137.762527,-32.492111]}},{"properties":{"city":"Port Elliot","latitude":-35.53191,"country":"Australia","ellis":1,"longitude":138.669815,"id":"a68lui033ahz","state":"South Australia"},"type":"Feature","geometry":{"type":"Point","coordinates":[138.669815,-35.53191]}},{"properties":{"city":"Port Lincoln","latitude":-34.721958,"country":"Australia","ellis":1,"longitude":135.857956,"id":"a68luidbhjyd","state":"South Australia"},"type":"Feature","geometry":{"type":"Point","coordinates":[135.857956,-34.721958]}},{"properties":{"city":"Port Macquarie","latitude":-31.4296,"country":"Australia","ellis":1,"longitude":152.908173,"id":"a68lui2cg36e","state":"New South Wales"},"type":"Feature","geometry":{"type":"Point","coordinates":[152.908173,-31.4296]}},{"properties":{"city":"Port Pirie South","latitude":-33.190338,"country":"Australia","ellis":2,"longitude":138.015427,"id":"a68lui0in44w","state":"South Australia"},"type":"Feature","geometry":{"type":"Point","coordinates":[138.015427,-33.190338]}},{"properties":{"city":"Port Sorell","latitude":-41.168072,"country":"Australia","ellis":1,"longitude":146.522507,"id":"a68lui9d7k5h","state":"Tasmania"},"type":"Feature","geometry":{"type":"Point","coordinates":[146.522507,-41.168072]}},{"properties":{"city":"Port Stephens","latitude":-32.681301,"country":"Australia","ellis":1,"longitude":152.169693,"id":"a68luibytesp","state":"New South Wales"},"type":"Feature","geometry":{"type":"Point","coordinates":[152.169693,-32.681301]}},{"properties":{"city":"Preston","latitude":-37.74157,"country":"Australia","ellis":1,"longitude":145.003403,"id":"a68lui0bykc2","state":"Victoria"},"type":"Feature","geometry":{"type":"Point","coordinates":[145.003403,-37.74157]}},{"properties":{"city":"Princes Park","latitude":-37.78484,"country":"Australia","ellis":1,"longitude":144.961517,"id":"a68luickstgu","state":"Victoria"},"type":"Feature","geometry":{"type":"Point","coordinates":[144.961517,-37.78484]}},{"properties":{"city":"Pyrmont","latitude":-33.870838,"country":"Australia","ellis":1,"longitude":151.195465,"id":"a68lui2zxo9u","state":"New South Wales"},"type":"Feature","geometry":{"type":"Point","coordinates":[151.195465,-33.870838]}},{"properties":{"city":"Quakers Hill","latitude":-33.726421,"country":"Australia","ellis":1,"longitude":150.886612,"id":"a68lui01xz3f","state":"New South Wales"},"type":"Feature","geometry":{"type":"Point","coordinates":[150.886612,-33.726421]}},{"properties":{"city":"Queanbeyan","latitude":-35.355091,"country":"Australia","ellis":3,"longitude":149.232651,"id":"a68lui59tgl8","state":"New South Wales"},"type":"Feature","geometry":{"type":"Point","coordinates":[149.232651,-35.355091]}},{"properties":{"city":"Queenscliff","latitude":-38.267632,"country":"Australia","ellis":2,"longitude":144.660965,"id":"a68luhy4pf59","state":"Victoria"},"type":"Feature","geometry":{"type":"Point","coordinates":[144.660965,-38.267632]}},{"properties":{"city":"Randwick","latitude":-33.91399,"country":"Australia","ellis":2,"longitude":151.239914,"id":"a68lui4exhgr","state":"New South Wales"},"type":"Feature","geometry":{"type":"Point","coordinates":[151.239914,-33.91399]}},{"properties":{"city":"Rarrnameool","latitude":-36.558651,"country":"Australia","ellis":1,"longitude":145.468994,"id":"a68lui0hftp2","state":"Victoria"},"type":"Feature","geometry":{"type":"Point","coordinates":[145.468994,-36.558651]}},{"properties":{"city":"Red Cliffs","latitude":-34.307709,"country":"Australia","ellis":1,"longitude":142.186523,"id":"a68luie203sj","state":"Victoria"},"type":"Feature","geometry":{"type":"Point","coordinates":[142.186523,-34.307709]}},{"properties":{"city":"Redcliffe","latitude":-27.22217,"country":"Australia","ellis":1,"longitude":153.107224,"id":"a68luibw8dqf","state":"Queensland"},"type":"Feature","geometry":{"type":"Point","coordinates":[153.107224,-27.22217]}},{"properties":{"city":"Redfern","latitude":-33.893169,"country":"Australia","ellis":2,"longitude":151.206818,"id":"a68luico34yo","state":"New South Wales"},"type":"Feature","geometry":{"type":"Point","coordinates":[151.206818,-33.893169]}},{"properties":{"city":"Renmark","latitude":-34.175369,"country":"Australia","ellis":1,"longitude":140.745544,"id":"a68lui2tts36","state":"South Australia"},"type":"Feature","geometry":{"type":"Point","coordinates":[140.745544,-34.175369]}},{"properties":{"city":"Reservoir","latitude":-37.708099,"country":"Australia","ellis":1,"longitude":145.000687,"id":"a68luhz1oh7u","state":"Victoria"},"type":"Feature","geometry":{"type":"Point","coordinates":[145.000687,-37.708099]}},{"properties":{"city":"Richmond","latitude":-37.81702,"country":"Australia","ellis":3,"longitude":144.999451,"id":"a68luiblllge","state":"Victoria"},"type":"Feature","geometry":{"type":"Point","coordinates":[144.999451,-37.81702]}},{"properties":{"city":"Rockhampton","latitude":-23.374241,"country":"Australia","ellis":1,"longitude":150.503662,"id":"a68luhzqxmfn","state":"Queensland"},"type":"Feature","geometry":{"type":"Point","coordinates":[150.503662,-23.374241]}},{"properties":{"city":"Roma","latitude":-26.573429,"country":"Australia","ellis":1,"longitude":148.787323,"id":"a68lui8utl5q","state":"Queensland"},"type":"Feature","geometry":{"type":"Point","coordinates":[148.787323,-26.573429]}},{"properties":{"city":"Rostrevor","latitude":-34.889912,"country":"Australia","ellis":1,"longitude":138.6922,"id":"a68luib8kf1w","state":"South Australia"},"type":"Feature","geometry":{"type":"Point","coordinates":[138.6922,-34.889912]}},{"properties":{"city":"Rouse Hill","latitude":-33.67923,"country":"Australia","ellis":1,"longitude":150.922348,"id":"a68lui2dh80w","state":"New South Wales"},"type":"Feature","geometry":{"type":"Point","coordinates":[150.922348,-33.67923]}},{"properties":{"city":"Roverland","latitude":-32.0289,"country":"Australia","ellis":1,"longitude":135.002151,"id":"a68lui0u94a1","state":"South Australia"},"type":"Feature","geometry":{"type":"Point","coordinates":[135.002151,-32.0289]}},{"properties":{"city":"Ryde","latitude":-33.81332,"country":"Australia","ellis":1,"longitude":151.105469,"id":"a68lui0rjfhx","state":"New South Wales"},"type":"Feature","geometry":{"type":"Point","coordinates":[151.105469,-33.81332]}},{"properties":{"city":"Rye","latitude":-38.37014,"country":"Australia","ellis":1,"longitude":144.820755,"id":"a68luiaq7pk4","state":"Victoria"},"type":"Feature","geometry":{"type":"Point","coordinates":[144.820755,-38.37014]}},{"properties":{"city":"Salisbury South","latitude":-34.786152,"country":"Australia","ellis":1,"longitude":138.638077,"id":"a68luidsd1mp","state":"South Australia"},"type":"Feature","geometry":{"type":"Point","coordinates":[138.638077,-34.786152]}},{"properties":{"city":"Sandgate","latitude":-27.3158,"country":"Australia","ellis":2,"longitude":153.066299,"id":"a68luhxvn31u","state":"Queensland"},"type":"Feature","geometry":{"type":"Point","coordinates":[153.066299,-27.3158]}},{"properties":{"city":"Sandy Bay","latitude":-42.901249,"country":"Australia","ellis":1,"longitude":147.332809,"id":"a68luid8hppn","state":"Tasmania"},"type":"Feature","geometry":{"type":"Point","coordinates":[147.332809,-42.901249]}},{"properties":{"city":"Seattle","latitude":47.60356,"country":"United States","ellis":1,"longitude":-122.329439,"id":"a68lui95p3fg","state":"Washington"},"type":"Feature","geometry":{"type":"Point","coordinates":[-122.329439,47.60356]}},{"properties":{"city":"Shepparton","latitude":-36.381401,"country":"Australia","ellis":3,"longitude":145.401749,"id":"a68lui2bzida","state":"Victoria"},"type":"Feature","geometry":{"type":"Point","coordinates":[145.401749,-36.381401]}},{"properties":{"city":"Silverwater","latitude":-33.83543,"country":"Australia","ellis":1,"longitude":151.045486,"id":"a68lui4zytib","state":"New South Wales"},"type":"Feature","geometry":{"type":"Point","coordinates":[151.045486,-33.83543]}},{"properties":{"city":"Singapore","latitude":1.29378,"country":"Singapore","ellis":2,"longitude":103.853256,"id":"a68lui3nm400","state":null},"type":"Feature","geometry":{"type":"Point","coordinates":[103.853256,1.29378]}},{"properties":{"city":"Sippy Downs","latitude":-26.715059,"country":"Australia","ellis":1,"longitude":153.059402,"id":"a68lui8xvccb","state":"Queensland"},"type":"Feature","geometry":{"type":"Point","coordinates":[153.059402,-26.715059]}},{"properties":{"city":"Somerville","latitude":-38.22234,"country":"Australia","ellis":1,"longitude":145.17453,"id":"a68luieavsib","state":"Victoria"},"type":"Feature","geometry":{"type":"Point","coordinates":[145.17453,-38.22234]}},{"properties":{"city":"South Caulfield","latitude":-37.910824,"country":"Australia","ellis":1,"longitude":145.061035,"id":"a68lui9hiodw","state":"Victoria"},"type":"Feature","geometry":{"type":"Point","coordinates":[145.061035,-37.910824]}},{"properties":{"city":"South Melbourne","latitude":-37.834549,"country":"Australia","ellis":5,"longitude":144.960175,"id":"a68luiaqechm","state":"Victoria"},"type":"Feature","geometry":{"type":"Point","coordinates":[144.960175,-37.834549]}},{"properties":{"city":"South Perth","latitude":-31.97521,"country":"Australia","ellis":1,"longitude":115.855759,"id":"a68luhzd7osq","state":"Western Australia"},"type":"Feature","geometry":{"type":"Point","coordinates":[115.855759,-31.97521]}},{"properties":{"city":"South Yarra","latitude":-37.839531,"country":"Australia","ellis":1,"longitude":144.995895,"id":"a68luhz7v7qu","state":"Victoria"},"type":"Feature","geometry":{"type":"Point","coordinates":[144.995895,-37.839531]}},{"properties":{"city":"Southbank","latitude":-37.825401,"country":"Australia","ellis":1,"longitude":144.960709,"id":"a68lui71ztnd","state":"Victoria"},"type":"Feature","geometry":{"type":"Point","coordinates":[144.960709,-37.825401]}},{"properties":{"city":"Springwood","latitude":-27.61746,"country":"Australia","ellis":1,"longitude":153.132095,"id":"a68luhy9e2pp","state":"Queensland"},"type":"Feature","geometry":{"type":"Point","coordinates":[153.132095,-27.61746]}},{"properties":{"city":"St Andrews","latitude":-37.60136,"country":"Australia","ellis":1,"longitude":145.272537,"id":"a68lui0ngl91","state":"Victoria"},"type":"Feature","geometry":{"type":"Point","coordinates":[145.272537,-37.60136]}},{"properties":{"city":"St Kilda","latitude":-37.85812,"country":"Australia","ellis":3,"longitude":144.980133,"id":"a68luicw0br0","state":"Victoria"},"type":"Feature","geometry":{"type":"Point","coordinates":[144.980133,-37.85812]}},{"properties":{"city":"St Kilda East","latitude":-37.861488,"country":"Australia","ellis":1,"longitude":144.996826,"id":"a68luido3hiy","state":"Victoria"},"type":"Feature","geometry":{"type":"Point","coordinates":[144.996826,-37.861488]}},{"properties":{"city":"St Marys","latitude":-41.579689,"country":"Australia","ellis":1,"longitude":148.185638,"id":"a68lui7el2le","state":"Tasmania"},"type":"Feature","geometry":{"type":"Point","coordinates":[148.185638,-41.579689]}},{"properties":{"city":"St Peters","latitude":-34.90472,"country":"Australia","ellis":1,"longitude":138.623505,"id":"a68luhzmxu3f","state":"South Australia"},"type":"Feature","geometry":{"type":"Point","coordinates":[138.623505,-34.90472]}},{"properties":{"city":"Staffordshire","latitude":52.82476,"country":"United Kingdom","ellis":1,"longitude":-2.02817,"id":"a68lui03izut","state":"England"},"type":"Feature","geometry":{"type":"Point","coordinates":[-2.02817,52.82476]}},{"properties":{"city":"Strathalbyn","latitude":-35.25872,"country":"Australia","ellis":1,"longitude":138.89212,"id":"a68lui5xebxc","state":"South Australia"},"type":"Feature","geometry":{"type":"Point","coordinates":[138.89212,-35.25872]}},{"properties":{"city":"Subiaco","latitude":-31.946831,"country":"Australia","ellis":2,"longitude":115.82399,"id":"a68lui3rmusq","state":"Western Australia"},"type":"Feature","geometry":{"type":"Point","coordinates":[115.82399,-31.946831]}},{"properties":{"city":"Sunbury","latitude":-37.58007,"country":"Australia","ellis":1,"longitude":144.72908,"id":"a68luib7sjrr","state":"Victoria"},"type":"Feature","geometry":{"type":"Point","coordinates":[144.72908,-37.58007]}},{"properties":{"city":"Sunshine Coast","latitude":-26.544279,"country":"Australia","ellis":12,"longitude":153.025314,"id":"a68lui6h4spu","state":"Queensland"},"type":"Feature","geometry":{"type":"Point","coordinates":[153.025314,-26.544279]}},{"properties":{"city":"Surfers Paradise","latitude":-28.002331,"country":"Australia","ellis":1,"longitude":153.428543,"id":"a68luidd53x5","state":"Queensland"},"type":"Feature","geometry":{"type":"Point","coordinates":[153.428543,-28.002331]}},{"properties":{"city":"Surry Hills","latitude":-33.879051,"country":"Australia","ellis":3,"longitude":151.212982,"id":"a68lui6h51jj","state":"New South Wales"},"type":"Feature","geometry":{"type":"Point","coordinates":[151.212982,-33.879051]}},{"properties":{"city":"Swan Hill","latitude":-35.102482,"country":"Australia","ellis":1,"longitude":143.172058,"id":"a68luia1due0","state":"Victoria"},"type":"Feature","geometry":{"type":"Point","coordinates":[143.172058,-35.102482]}},{"properties":{"city":"Sydney","latitude":-33.869629,"country":"Australia","ellis":1076,"longitude":151.206955,"id":"a68luibjajls","state":"New South Wales"},"type":"Feature","geometry":{"type":"Point","coordinates":[151.206955,-33.869629]}},{"properties":{"city":"Tamworth","latitude":-31.090639,"country":"Australia","ellis":3,"longitude":150.928528,"id":"a68lui21j50p","state":"New South Wales"},"type":"Feature","geometry":{"type":"Point","coordinates":[150.928528,-31.090639]}},{"properties":{"city":"Tarneit","latitude":-37.817719,"country":"Australia","ellis":1,"longitude":144.675354,"id":"a68lui3lfneu","state":"Victoria"},"type":"Feature","geometry":{"type":"Point","coordinates":[144.675354,-37.817719]}},{"properties":{"city":"Tehran","latitude":35.67194,"country":"Iran","ellis":3,"longitude":51.424438,"id":"a68luhyv8xzs","state":null},"type":"Feature","geometry":{"type":"Point","coordinates":[51.424438,35.67194]}},{"properties":{"city":"Thornbury","latitude":-37.756672,"country":"Australia","ellis":2,"longitude":145.000931,"id":"a68luhz63yk8","state":"Victoria"},"type":"Feature","geometry":{"type":"Point","coordinates":[145.000931,-37.756672]}},{"properties":{"city":"Tokyo","latitude":35.670479,"country":"Japan","ellis":1,"longitude":139.740921,"id":"a68lui3jt0to","state":null},"type":"Feature","geometry":{"type":"Point","coordinates":[139.740921,35.670479]}},{"properties":{"city":"Toorak","latitude":-37.841541,"country":"Australia","ellis":1,"longitude":145.012726,"id":"a68lui5yw3gj","state":"Victoria"},"type":"Feature","geometry":{"type":"Point","coordinates":[145.012726,-37.841541]}},{"properties":{"city":"Toowoomba","latitude":-27.561449,"country":"Australia","ellis":5,"longitude":151.953293,"id":"a68lui0n1phg","state":"Queensland"},"type":"Feature","geometry":{"type":"Point","coordinates":[151.953293,-27.561449]}},{"properties":{"city":"Toronto","latitude":43.64856,"country":"Canada","ellis":3,"longitude":-79.385324,"id":"a68luiajlm2c","state":"Ontario"},"type":"Feature","geometry":{"type":"Point","coordinates":[-79.385324,43.64856]}},{"properties":{"city":"Torquay","latitude":-38.329899,"country":"Australia","ellis":2,"longitude":144.318115,"id":"a68lui4ezbj3","state":"Victoria"},"type":"Feature","geometry":{"type":"Point","coordinates":[144.318115,-38.329899]}},{"properties":{"city":"Townsville","latitude":-19.257231,"country":"Australia","ellis":15,"longitude":146.82106,"id":"a68lui3b99bw","state":"Queensland"},"type":"Feature","geometry":{"type":"Point","coordinates":[146.82106,-19.257231]}},{"properties":{"city":"Traralgon","latitude":-38.19495,"country":"Australia","ellis":1,"longitude":146.538147,"id":"a68luibqu5du","state":"Victoria"},"type":"Feature","geometry":{"type":"Point","coordinates":[146.538147,-38.19495]}},{"properties":{"city":"Tuggeranong","latitude":-35.415161,"country":"Australia","ellis":1,"longitude":149.065796,"id":"a68luiap5f93","state":"Australian Capital Territory"},"type":"Feature","geometry":{"type":"Point","coordinates":[149.065796,-35.415161]}},{"properties":{"city":"Tugun","latitude":-28.14184,"country":"Australia","ellis":1,"longitude":153.492126,"id":"a68luidv8lwu","state":"Queensland"},"type":"Feature","geometry":{"type":"Point","coordinates":[153.492126,-28.14184]}},{"properties":{"city":"Turramurra","latitude":-33.732601,"country":"Australia","ellis":1,"longitude":151.129196,"id":"a68luibolnkf","state":"New South Wales"},"type":"Feature","geometry":{"type":"Point","coordinates":[151.129196,-33.732601]}},{"properties":{"city":"Ultimo","latitude":-33.878422,"country":"Australia","ellis":1,"longitude":151.197266,"id":"a68lui0bsxje","state":"New South Wales"},"type":"Feature","geometry":{"type":"Point","coordinates":[151.197266,-33.878422]}},{"properties":{"city":"Vancouver","latitude":49.26044,"country":"Canada","ellis":2,"longitude":-123.114034,"id":"a68lui7j1gip","state":"British Columbia"},"type":"Feature","geometry":{"type":"Point","coordinates":[-123.114034,49.26044]}},{"properties":{"city":"Venus Bay","latitude":-38.67588,"country":"Australia","ellis":1,"longitude":145.792343,"id":"a68luibemo4m","state":"Victoria"},"type":"Feature","geometry":{"type":"Point","coordinates":[145.792343,-38.67588]}},{"properties":{"city":"Vermont","latitude":-37.83617,"country":"Australia","ellis":1,"longitude":145.195023,"id":"a68luiagypm1","state":"Victoria"},"type":"Feature","geometry":{"type":"Point","coordinates":[145.195023,-37.83617]}},{"properties":{"city":"Victor Harbor","latitude":-35.54974,"country":"Australia","ellis":1,"longitude":138.624435,"id":"a68lui5ppz20","state":"South Australia"},"type":"Feature","geometry":{"type":"Point","coordinates":[138.624435,-35.54974]}},{"properties":{"city":"Wagga Wagga","latitude":-35.117241,"country":"Australia","ellis":4,"longitude":147.357193,"id":"a68luie31ua8","state":"New South Wales"},"type":"Feature","geometry":{"type":"Point","coordinates":[147.357193,-35.117241]}},{"properties":{"city":"Wagin","latitude":-33.308632,"country":"Australia","ellis":1,"longitude":117.344254,"id":"a68luictq2w7","state":"Western Australia"},"type":"Feature","geometry":{"type":"Point","coordinates":[117.344254,-33.308632]}},{"properties":{"city":"Wamberal","latitude":-33.418209,"country":"Australia","ellis":2,"longitude":151.443146,"id":"a68lui5jrwqk","state":"New South Wales"},"type":"Feature","geometry":{"type":"Point","coordinates":[151.443146,-33.418209]}},{"properties":{"city":"Wantirna South","latitude":-37.871948,"country":"Australia","ellis":1,"longitude":145.244843,"id":"a68lui10udje","state":"Victoria"},"type":"Feature","geometry":{"type":"Point","coordinates":[145.244843,-37.871948]}},{"properties":{"city":"Warrnambool","latitude":-38.384258,"country":"Australia","ellis":1,"longitude":142.483231,"id":"a68luibxoig6","state":"Victoria"},"type":"Feature","geometry":{"type":"Point","coordinates":[142.483231,-38.384258]}},{"properties":{"city":"Washington","latitude":38.89037,"country":"United States","ellis":3,"longitude":-77.031959,"id":"a68luhzdaiq8","state":"DC"},"type":"Feature","geometry":{"type":"Point","coordinates":[-77.031959,38.89037]}},{"properties":{"city":"Wellington","latitude":-35.321529,"country":"Australia","ellis":1,"longitude":139.251968,"id":"a68luhydd0wn","state":"South Australia"},"type":"Feature","geometry":{"type":"Point","coordinates":[139.251968,-35.321529]}},{"properties":{"city":"Wellington","latitude":-41.325909,"country":"New Zealand","ellis":1,"longitude":174.821631,"id":"a68lui824nyq","state":"Wellington"},"type":"Feature","geometry":{"type":"Point","coordinates":[174.821631,-41.325909]}},{"properties":{"city":"Werribee","latitude":-37.903671,"country":"Australia","ellis":2,"longitude":144.659668,"id":"a68lui01i422","state":"Victoria"},"type":"Feature","geometry":{"type":"Point","coordinates":[144.659668,-37.903671]}},{"properties":{"city":"West Footscray","latitude":-37.801949,"country":"Australia","ellis":1,"longitude":144.880936,"id":"a68lui5cxee8","state":"Victoria"},"type":"Feature","geometry":{"type":"Point","coordinates":[144.880936,-37.801949]}},{"properties":{"city":"West Lakes","latitude":-34.87262,"country":"Australia","ellis":1,"longitude":138.488007,"id":"a68luhy3203y","state":"South Australia"},"type":"Feature","geometry":{"type":"Point","coordinates":[138.488007,-34.87262]}},{"properties":{"city":"West Melbourne","latitude":-37.806721,"country":"Australia","ellis":1,"longitude":144.950287,"id":"a68luhybd24d","state":"Victoria"},"type":"Feature","geometry":{"type":"Point","coordinates":[144.950287,-37.806721]}},{"properties":{"city":"Wheatsheaf","latitude":-37.31554,"country":"Australia","ellis":1,"longitude":144.221878,"id":"a68lui0064dk","state":"Victoria"},"type":"Feature","geometry":{"type":"Point","coordinates":[144.221878,-37.31554]}},{"properties":{"city":"Whyalla","latitude":-33.025879,"country":"Australia","ellis":1,"longitude":137.573303,"id":"a68lui0h8qv6","state":"South Australia"},"type":"Feature","geometry":{"type":"Point","coordinates":[137.573303,-33.025879]}},{"properties":{"city":"Wodonga","latitude":-36.115929,"country":"Australia","ellis":2,"longitude":146.891235,"id":"a68luichyslm","state":"Victoria"},"type":"Feature","geometry":{"type":"Point","coordinates":[146.891235,-36.115929]}},{"properties":{"city":"Wollongong","latitude":-34.424881,"country":"Australia","ellis":25,"longitude":150.893036,"id":"a68lui1gpswt","state":"New South Wales"},"type":"Feature","geometry":{"type":"Point","coordinates":[150.893036,-34.424881]}},{"properties":{"city":"Woodside","latitude":-34.95126,"country":"Australia","ellis":3,"longitude":138.875885,"id":"a68lui3yebwk","state":"South Australia"},"type":"Feature","geometry":{"type":"Point","coordinates":[138.875885,-34.95126]}},{"properties":{"city":"Woodville South","latitude":-34.883801,"country":"Australia","ellis":1,"longitude":138.532623,"id":"a68luhyjns77","state":"South Australia"},"type":"Feature","geometry":{"type":"Point","coordinates":[138.532623,-34.883801]}},{"properties":{"city":"Woy Woy","latitude":-33.492901,"country":"Australia","ellis":1,"longitude":151.327469,"id":"a68lui9kue8r","state":"New South Wales"},"type":"Feature","geometry":{"type":"Point","coordinates":[151.327469,-33.492901]}},{"properties":{"city":"Wyndham","latitude":-15.57835,"country":"Australia","ellis":1,"longitude":128.218536,"id":"a68luhz3xgxg","state":"Western Australia"},"type":"Feature","geometry":{"type":"Point","coordinates":[128.218536,-15.57835]}},{"properties":{"city":"Yass","latitude":-34.844292,"country":"Australia","ellis":1,"longitude":148.913086,"id":"a68lui5k8o8s","state":"New South Wales"},"type":"Feature","geometry":{"type":"Point","coordinates":[148.913086,-34.844292]}}],"is_temporal":false,"author":{"url":"","metadata":"","contact_name":"","contact_address":"","source":"","contact_phone":""},"source":"","pagination":{"sort":null,"start":0,"total":357,"limit":1000000},"state":"complete","tags":"kateellis","published":"2011-01-06T01:34:17Z","id":83405}