{"type":"FeatureCollection","data_type":"Dataset","url_type":null,"permissions":[{"permissions":{"download":true,"view":true},"group_id":"everyone"}],"classification":null,"title":"Hockey Twitter followers","count":542,"stream_id":83425,"contributor":{"url":"http://geocommons.com/users/12003","name":"LauraHale"},"data_attributes":null,"calculation_params":null,"icon_link":null,"link":"http://geocommons.com/overlays/83425.json","extent":[-157.858,-45.8745,178.017,59.8585],"geometry_types":["point"],"unique_name":null,"name":"Hockey Twitter followers","feature_count":542,"description":"Joe Hockey Twitter followers.","next_feature":null,"is_raster":false,"short_classification":"Y","stats":{"latitude":{"max":59.85845,"mean":-22.2522029557196,"variance":731.590882148172,"stdev":27.0479367447532,"min":-45.8745,"median":-33.83239},"joe hockey":{"max":2613,"mean":15.909594095941,"variance":20354.7219410548,"stdev":142.669975611741,"min":1,"median":1},"longitude":{"max":178.016785,"mean":113.364843269373,"variance":5648.41834510218,"stdev":75.155960143572,"min":-157.857614,"median":144.999451}},"features":[{"properties":{"city":"Abbotsford","latitude":-37.803131,"country":"Australia","joe hockey":1,"longitude":144.997162,"id":"a65izrpxna7d","state":"Victoria"},"type":"Feature","geometry":{"type":"Point","coordinates":[144.997162,-37.803131]}},{"properties":{"city":"Aberfeldie","latitude":-37.759361,"country":"Australia","joe hockey":1,"longitude":144.895828,"id":"a65izrkgfyft","state":"Victoria"},"type":"Feature","geometry":{"type":"Point","coordinates":[144.895828,-37.759361]}},{"properties":{"city":"Abu Dhabi","latitude":24.443935,"country":"United Arab Emirates","joe hockey":2,"longitude":54.41905,"id":"a65izrjsmuz5","state":null},"type":"Feature","geometry":{"type":"Point","coordinates":[54.41905,24.443935]}},{"properties":{"city":"Accra","latitude":5.55856,"country":"Ghana","joe hockey":1,"longitude":-0.20092,"id":"a65izrlrdxw3","state":null},"type":"Feature","geometry":{"type":"Point","coordinates":[-0.20092,5.55856]}},{"properties":{"city":"Adelaide","latitude":-34.926102,"country":"Australia","joe hockey":420,"longitude":138.599884,"id":"a65izrcu4be9","state":"South Australia"},"type":"Feature","geometry":{"type":"Point","coordinates":[138.599884,-34.926102]}},{"properties":{"city":"Albany","latitude":-35.023911,"country":"Australia","joe hockey":1,"longitude":117.882584,"id":"a65izrost0y5","state":"Western Australia"},"type":"Feature","geometry":{"type":"Point","coordinates":[117.882584,-35.023911]}},{"properties":{"city":"Albury","latitude":-36.081032,"country":"Australia","joe hockey":9,"longitude":146.918488,"id":"a65izrf1wyux","state":"New South Wales"},"type":"Feature","geometry":{"type":"Point","coordinates":[146.918488,-36.081032]}},{"properties":{"city":"Alice Springs","latitude":-23.703329,"country":"Australia","joe hockey":8,"longitude":133.880936,"id":"a65izrd223sg","state":"Northern Territory"},"type":"Feature","geometry":{"type":"Point","coordinates":[133.880936,-23.703329]}},{"properties":{"city":"Amsterdam","latitude":52.37312,"country":"Netherlands","joe hockey":1,"longitude":4.893195,"id":"a65izripa37d","state":null},"type":"Feature","geometry":{"type":"Point","coordinates":[4.893195,52.37312]}},{"properties":{"city":"Annandale","latitude":-33.880219,"country":"Australia","joe hockey":1,"longitude":151.171234,"id":"a65izrgw6u1k","state":"New South Wales"},"type":"Feature","geometry":{"type":"Point","coordinates":[151.171234,-33.880219]}},{"properties":{"city":"Antwerp","latitude":51.222085,"country":"Belgium","joe hockey":1,"longitude":4.39771,"id":"a65izrlabgbj","state":null},"type":"Feature","geometry":{"type":"Point","coordinates":[4.39771,51.222085]}},{"properties":{"city":"Apollo Bay","latitude":-38.752258,"country":"Australia","joe hockey":3,"longitude":143.669266,"id":"a65izrdr4l0p","state":"Victoria"},"type":"Feature","geometry":{"type":"Point","coordinates":[143.669266,-38.752258]}},{"properties":{"city":"Ardrossan","latitude":-34.422089,"country":"Australia","joe hockey":1,"longitude":137.910431,"id":"a65izrb3uvvo","state":"South Australia"},"type":"Feature","geometry":{"type":"Point","coordinates":[137.910431,-34.422089]}},{"properties":{"city":"Armadale","latitude":-32.151001,"country":"Australia","joe hockey":1,"longitude":116.020576,"id":"a65izrept847","state":"Western Australia"},"type":"Feature","geometry":{"type":"Point","coordinates":[116.020576,-32.151001]}},{"properties":{"city":"Armidale","latitude":-30.51615,"country":"Australia","joe hockey":1,"longitude":151.668259,"id":"a65izrmsqeu6","state":"New South Wales"},"type":"Feature","geometry":{"type":"Point","coordinates":[151.668259,-30.51615]}},{"properties":{"city":"Armidale","latitude":-37.32,"country":"Australia","joe hockey":2,"longitude":141.702454,"id":"a65izrna31hs","state":"Victoria"},"type":"Feature","geometry":{"type":"Point","coordinates":[141.702454,-37.32]}},{"properties":{"city":"Atlanta","latitude":33.748315,"country":"United States","joe hockey":4,"longitude":-84.391109,"id":"a65izrfd6367","state":"Georgia"},"type":"Feature","geometry":{"type":"Point","coordinates":[-84.391109,33.748315]}},{"properties":{"city":"Auckland","latitude":-37.006059,"country":"New Zealand","joe hockey":4,"longitude":174.784505,"id":"a65izrn4gavm","state":"Auckland"},"type":"Feature","geometry":{"type":"Point","coordinates":[174.784505,-37.006059]}},{"properties":{"city":"Austin","latitude":30.267605,"country":"United States","joe hockey":2,"longitude":-97.742984,"id":"a65izrohkiin","state":"Texas"},"type":"Feature","geometry":{"type":"Point","coordinates":[-97.742984,30.267605]}},{"properties":{"city":"Australind","latitude":-33.275162,"country":"Australia","joe hockey":1,"longitude":115.714828,"id":"a65izrqrjz09","state":"Western Australia"},"type":"Feature","geometry":{"type":"Point","coordinates":[115.714828,-33.275162]}},{"properties":{"city":"Ayrshire","latitude":55.445278,"country":"United Kingdom","joe hockey":1,"longitude":-4.50831,"id":"a65izrjxwe41","state":"Scotland"},"type":"Feature","geometry":{"type":"Point","coordinates":[-4.50831,55.445278]}},{"properties":{"city":"Bairnsdale","latitude":-37.831421,"country":"Australia","joe hockey":1,"longitude":147.611298,"id":"a65izrmt2h3j","state":"Victoria"},"type":"Feature","geometry":{"type":"Point","coordinates":[147.611298,-37.831421]}},{"properties":{"city":"Balaclava","latitude":-37.869049,"country":"Australia","joe hockey":1,"longitude":144.995834,"id":"a65izrjoj3ri","state":"Victoria"},"type":"Feature","geometry":{"type":"Point","coordinates":[144.995834,-37.869049]}},{"properties":{"city":"Balcolyn","latitude":-33.09549,"country":"Australia","joe hockey":1,"longitude":151.552216,"id":"a65izrnyzrs6","state":"New South Wales"},"type":"Feature","geometry":{"type":"Point","coordinates":[151.552216,-33.09549]}},{"properties":{"city":"Ballarat","latitude":-37.562351,"country":"Australia","joe hockey":24,"longitude":143.847137,"id":"a65izrr8yfgf","state":"Victoria"},"type":"Feature","geometry":{"type":"Point","coordinates":[143.847137,-37.562351]}},{"properties":{"city":"Ballina","latitude":-28.86788,"country":"Australia","joe hockey":1,"longitude":153.554962,"id":"a65izrddznnz","state":"New South Wales"},"type":"Feature","geometry":{"type":"Point","coordinates":[153.554962,-28.86788]}},{"properties":{"city":"Balmain","latitude":-33.856022,"country":"Australia","joe hockey":4,"longitude":151.175995,"id":"a65izrbsis9b","state":"New South Wales"},"type":"Feature","geometry":{"type":"Point","coordinates":[151.175995,-33.856022]}},{"properties":{"city":"Balmoral","latitude":-37.248482,"country":"Australia","joe hockey":1,"longitude":141.841278,"id":"a65izrnq7733","state":"Victoria"},"type":"Feature","geometry":{"type":"Point","coordinates":[141.841278,-37.248482]}},{"properties":{"city":"Balwyn North","latitude":-42.142342,"country":"Australia","joe hockey":1,"longitude":146.483231,"id":"a65izrf3w39x","state":"Tasmania"},"type":"Feature","geometry":{"type":"Point","coordinates":[146.483231,-42.142342]}},{"properties":{"city":"Bangalore","latitude":12.97092,"country":"India","joe hockey":1,"longitude":77.60482,"id":"a65izrm52ume","state":null},"type":"Feature","geometry":{"type":"Point","coordinates":[77.60482,12.97092]}},{"properties":{"city":"Bangalow","latitude":-28.68228,"country":"Australia","joe hockey":1,"longitude":153.533157,"id":"a65izrmmdcsl","state":"New South Wales"},"type":"Feature","geometry":{"type":"Point","coordinates":[153.533157,-28.68228]}},{"properties":{"city":"Bangkok","latitude":13.75333,"country":"Thailand","joe hockey":9,"longitude":100.504822,"id":"a65izre1hj4f","state":null},"type":"Feature","geometry":{"type":"Point","coordinates":[100.504822,13.75333]}},{"properties":{"city":"Barcelona","latitude":41.385589,"country":"Spain","joe hockey":1,"longitude":2.168745,"id":"a65izrdkuha7","state":null},"type":"Feature","geometry":{"type":"Point","coordinates":[2.168745,41.385589]}},{"properties":{"city":"Barwon Heads","latitude":-38.282379,"country":"Australia","joe hockey":2,"longitude":144.491959,"id":"a65izrhvzx0g","state":"Victoria"},"type":"Feature","geometry":{"type":"Point","coordinates":[144.491959,-38.282379]}},{"properties":{"city":"Bassendean","latitude":-31.908039,"country":"Australia","joe hockey":1,"longitude":115.942169,"id":"a65izrr7kpbo","state":"Western Australia"},"type":"Feature","geometry":{"type":"Point","coordinates":[115.942169,-31.908039]}},{"properties":{"city":"Batemans Bay","latitude":-35.708408,"country":"Australia","joe hockey":2,"longitude":150.177338,"id":"a65izrg7odjw","state":"New South Wales"},"type":"Feature","geometry":{"type":"Point","coordinates":[150.177338,-35.708408]}},{"properties":{"city":"Bathurst","latitude":-33.41074,"country":"Australia","joe hockey":17,"longitude":149.578293,"id":"a65izrg894dc","state":"New South Wales"},"type":"Feature","geometry":{"type":"Point","coordinates":[149.578293,-33.41074]}},{"properties":{"city":"Baulkham Hills","latitude":-33.757881,"country":"Australia","joe hockey":1,"longitude":150.989624,"id":"a65izrfr3qhr","state":"New South Wales"},"type":"Feature","geometry":{"type":"Point","coordinates":[150.989624,-33.757881]}},{"properties":{"city":"Bayside","latitude":-37.944351,"country":"Australia","joe hockey":2,"longitude":145.013687,"id":"a65izrnrkohc","state":"Victoria"},"type":"Feature","geometry":{"type":"Point","coordinates":[145.013687,-37.944351]}},{"properties":{"city":"Bayswater","latitude":-31.923901,"country":"Australia","joe hockey":2,"longitude":115.920052,"id":"a65izre5uvyt","state":"Western Australia"},"type":"Feature","geometry":{"type":"Point","coordinates":[115.920052,-31.923901]}},{"properties":{"city":"Bedfordale","latitude":-32.184189,"country":"Australia","joe hockey":1,"longitude":116.08992,"id":"a65izrinbuoi","state":"Western Australia"},"type":"Feature","geometry":{"type":"Point","coordinates":[116.08992,-32.184189]}},{"properties":{"city":"Beijing","latitude":39.90601,"country":"China","joe hockey":2,"longitude":116.387909,"id":"a65izreg4rht","state":null},"type":"Feature","geometry":{"type":"Point","coordinates":[116.387909,39.90601]}},{"properties":{"city":"Bellingen","latitude":-30.452419,"country":"Australia","joe hockey":2,"longitude":152.898636,"id":"a65izrbcntho","state":"New South Wales"},"type":"Feature","geometry":{"type":"Point","coordinates":[152.898636,-30.452419]}},{"properties":{"city":"Belo Horizonte","latitude":-19.94536,"country":"Brazil","joe hockey":1,"longitude":-43.932678,"id":"a65izrnalfd6","state":"Minas Gerais"},"type":"Feature","geometry":{"type":"Point","coordinates":[-43.932678,-19.94536]}},{"properties":{"city":"Bendigo","latitude":-36.7575,"country":"Australia","joe hockey":27,"longitude":144.281403,"id":"a65izror5rsm","state":"Victoria"},"type":"Feature","geometry":{"type":"Point","coordinates":[144.281403,-36.7575]}},{"properties":{"city":"Berlin","latitude":52.516074,"country":"Germany","joe hockey":2,"longitude":13.376987,"id":"a65izrjh1ncs","state":null},"type":"Feature","geometry":{"type":"Point","coordinates":[13.376987,52.516074]}},{"properties":{"city":"Berri","latitude":-34.281719,"country":"Australia","joe hockey":2,"longitude":140.598846,"id":"a65izrkuu7wu","state":"South Australia"},"type":"Feature","geometry":{"type":"Point","coordinates":[140.598846,-34.281719]}},{"properties":{"city":"Bexley North","latitude":-33.938549,"country":"Australia","joe hockey":1,"longitude":151.114197,"id":"a65izrcihmat","state":"New South Wales"},"type":"Feature","geometry":{"type":"Point","coordinates":[151.114197,-33.938549]}},{"properties":{"city":"Bibra Lake","latitude":-32.08992,"country":"Australia","joe hockey":1,"longitude":115.812401,"id":"a65izrdsqzqg","state":"Western Australia"},"type":"Feature","geometry":{"type":"Point","coordinates":[115.812401,-32.08992]}},{"properties":{"city":"Birdwood","latitude":-34.817799,"country":"Australia","joe hockey":1,"longitude":138.966003,"id":"a65izriy9buq","state":"South Australia"},"type":"Feature","geometry":{"type":"Point","coordinates":[138.966003,-34.817799]}},{"properties":{"city":"Blackmans Bay","latitude":-42.997421,"country":"Australia","joe hockey":1,"longitude":147.322388,"id":"a65izrprjghh","state":"Tasmania"},"type":"Feature","geometry":{"type":"Point","coordinates":[147.322388,-42.997421]}},{"properties":{"city":"Blackwood","latitude":-35.020851,"country":"Australia","joe hockey":1,"longitude":138.611435,"id":"a65izrqov14i","state":"South Australia"},"type":"Feature","geometry":{"type":"Point","coordinates":[138.611435,-35.020851]}},{"properties":{"city":"Blakehurst","latitude":-33.98785,"country":"Australia","joe hockey":1,"longitude":151.111664,"id":"a65izrca62tv","state":"New South Wales"},"type":"Feature","geometry":{"type":"Point","coordinates":[151.111664,-33.98785]}},{"properties":{"city":"Blue Mountains","latitude":-34.016811,"country":"Australia","joe hockey":13,"longitude":150.269394,"id":"a65izrplebkf","state":"New South Wales"},"type":"Feature","geometry":{"type":"Point","coordinates":[150.269394,-34.016811]}},{"properties":{"city":"Bondi","latitude":-33.893799,"country":"Australia","joe hockey":3,"longitude":151.263,"id":"a65izrmcjmhn","state":"New South Wales"},"type":"Feature","geometry":{"type":"Point","coordinates":[151.263,-33.893799]}},{"properties":{"city":"Bondi Beach","latitude":-33.89307,"country":"Australia","joe hockey":4,"longitude":151.276596,"id":"a65izrioas4o","state":"New South Wales"},"type":"Feature","geometry":{"type":"Point","coordinates":[151.276596,-33.89307]}},{"properties":{"city":"Boston","latitude":42.358635,"country":"United States","joe hockey":7,"longitude":-71.056699,"id":"a65izrjpswqe","state":"Massachusetts"},"type":"Feature","geometry":{"type":"Point","coordinates":[-71.056699,42.358635]}},{"properties":{"city":"Boulder","latitude":-30.781839,"country":"Australia","joe hockey":1,"longitude":121.489464,"id":"a65izrdiz2oc","state":"Western Australia"},"type":"Feature","geometry":{"type":"Point","coordinates":[121.489464,-30.781839]}},{"properties":{"city":"Bowen Hills","latitude":-27.447639,"country":"Australia","joe hockey":1,"longitude":153.037079,"id":"a65izrd69qhc","state":"Queensland"},"type":"Feature","geometry":{"type":"Point","coordinates":[153.037079,-27.447639]}},{"properties":{"city":"Bowral","latitude":-34.455059,"country":"Australia","joe hockey":2,"longitude":150.385895,"id":"a65izrku3cqa","state":"New South Wales"},"type":"Feature","geometry":{"type":"Point","coordinates":[150.385895,-34.455059]}},{"properties":{"city":"Bribie Island","latitude":-26.95709,"country":"Australia","joe hockey":1,"longitude":153.141373,"id":"a65izrbvmc7o","state":"Queensland"},"type":"Feature","geometry":{"type":"Point","coordinates":[153.141373,-26.95709]}},{"properties":{"city":"Bridgetown","latitude":-33.95591,"country":"Australia","joe hockey":1,"longitude":116.136803,"id":"a65izrd75s4k","state":"Western Australia"},"type":"Feature","geometry":{"type":"Point","coordinates":[116.136803,-33.95591]}},{"properties":{"city":"Bright","latitude":-36.72739,"country":"Australia","joe hockey":1,"longitude":146.960129,"id":"a65izrehdybo","state":"Victoria"},"type":"Feature","geometry":{"type":"Point","coordinates":[146.960129,-36.72739]}},{"properties":{"city":"Brighton","latitude":-37.91008,"country":"Australia","joe hockey":1,"longitude":144.998276,"id":"a65izrbofsj1","state":"Victoria"},"type":"Feature","geometry":{"type":"Point","coordinates":[144.998276,-37.91008]}},{"properties":{"city":"Brighton","latitude":-27.29291,"country":"Australia","joe hockey":1,"longitude":153.062195,"id":"a65izrr510fi","state":"Queensland"},"type":"Feature","geometry":{"type":"Point","coordinates":[153.062195,-27.29291]}},{"properties":{"city":"Brisbane","latitude":-27.46888,"country":"Australia","joe hockey":879,"longitude":153.022827,"id":"a65izrej4xb7","state":"Queensland"},"type":"Feature","geometry":{"type":"Point","coordinates":[153.022827,-27.46888]}},{"properties":{"city":"Broken Hill","latitude":-31.95833,"country":"Australia","joe hockey":3,"longitude":141.465485,"id":"a65izrdjmf9k","state":"New South Wales"},"type":"Feature","geometry":{"type":"Point","coordinates":[141.465485,-31.95833]}},{"properties":{"city":"Brookfield","latitude":-37.69968,"country":"Australia","joe hockey":1,"longitude":144.547607,"id":"a65izrmyr7og","state":"Victoria"},"type":"Feature","geometry":{"type":"Point","coordinates":[144.547607,-37.69968]}},{"properties":{"city":"Brooklyn","latitude":40.692455,"country":"United States","joe hockey":1,"longitude":-73.990364,"id":"a65izrhm7jzu","state":"New York"},"type":"Feature","geometry":{"type":"Point","coordinates":[-73.990364,40.692455]}},{"properties":{"city":"Brooklyn","latitude":-37.820518,"country":"Australia","joe hockey":1,"longitude":144.849243,"id":"a65izrhcf12w","state":"Victoria"},"type":"Feature","geometry":{"type":"Point","coordinates":[144.849243,-37.820518]}},{"properties":{"city":"Brookvale","latitude":-33.761189,"country":"Australia","joe hockey":1,"longitude":151.273941,"id":"a65izrg7avji","state":"New South Wales"},"type":"Feature","geometry":{"type":"Point","coordinates":[151.273941,-33.761189]}},{"properties":{"city":"Broome","latitude":-17.953079,"country":"Australia","joe hockey":2,"longitude":122.240517,"id":"a65izrogwmdh","state":"Western Australia"},"type":"Feature","geometry":{"type":"Point","coordinates":[122.240517,-17.953079]}},{"properties":{"city":"Brunswick","latitude":-33.252102,"country":"Australia","joe hockey":2,"longitude":115.839691,"id":"a65izroqm32b","state":"Western Australia"},"type":"Feature","geometry":{"type":"Point","coordinates":[115.839691,-33.252102]}},{"properties":{"city":"Brunswick East","latitude":-37.768532,"country":"Australia","joe hockey":1,"longitude":144.976074,"id":"a65izrdssb47","state":"Victoria"},"type":"Feature","geometry":{"type":"Point","coordinates":[144.976074,-37.768532]}},{"properties":{"city":"Brunswick West","latitude":-37.761532,"country":"Australia","joe hockey":1,"longitude":144.944366,"id":"a65izrhg2weu","state":"Victoria"},"type":"Feature","geometry":{"type":"Point","coordinates":[144.944366,-37.761532]}},{"properties":{"city":"Brussels","latitude":50.848385,"country":"Belgium","joe hockey":1,"longitude":4.349685,"id":"a65izrqstovc","state":null},"type":"Feature","geometry":{"type":"Point","coordinates":[4.349685,50.848385]}},{"properties":{"city":"Buenos Aires","latitude":-34.608521,"country":"Argentina","joe hockey":4,"longitude":-58.373539,"id":"a65izrm97h2r","state":null},"type":"Feature","geometry":{"type":"Point","coordinates":[-58.373539,-34.608521]}},{"properties":{"city":"Buffalo","latitude":-38.652161,"country":"Australia","joe hockey":1,"longitude":146.029343,"id":"a65izrkco01v","state":"Victoria"},"type":"Feature","geometry":{"type":"Point","coordinates":[146.029343,-38.652161]}},{"properties":{"city":"Buffalo","latitude":42.88544,"country":"United States","joe hockey":1,"longitude":-78.878464,"id":"a65izrnxn8mq","state":"New York"},"type":"Feature","geometry":{"type":"Point","coordinates":[-78.878464,42.88544]}},{"properties":{"city":"Bunbury","latitude":-33.321659,"country":"Australia","joe hockey":7,"longitude":115.636909,"id":"a65izrohnik8","state":"Western Australia"},"type":"Feature","geometry":{"type":"Point","coordinates":[115.636909,-33.321659]}},{"properties":{"city":"Bundaberg","latitude":-24.86705,"country":"Australia","joe hockey":7,"longitude":152.346695,"id":"a65izris4xc7","state":"Queensland"},"type":"Feature","geometry":{"type":"Point","coordinates":[152.346695,-24.86705]}},{"properties":{"city":"Bunyip","latitude":-38.077599,"country":"Australia","joe hockey":1,"longitude":145.70668,"id":"a65izrjv9xae","state":"Victoria"},"type":"Feature","geometry":{"type":"Point","coordinates":[145.70668,-38.077599]}},{"properties":{"city":"Burleigh Heads","latitude":-28.08791,"country":"Australia","joe hockey":1,"longitude":153.449753,"id":"a65izrjjbzt0","state":"Queensland"},"type":"Feature","geometry":{"type":"Point","coordinates":[153.449753,-28.08791]}},{"properties":{"city":"Burnie","latitude":-41.05265,"country":"Australia","joe hockey":1,"longitude":145.906357,"id":"a65izrgqhe1b","state":"Tasmania"},"type":"Feature","geometry":{"type":"Point","coordinates":[145.906357,-41.05265]}},{"properties":{"city":"Burnside","latitude":-34.935902,"country":"Australia","joe hockey":1,"longitude":138.659973,"id":"a65izrewhujt","state":"South Australia"},"type":"Feature","geometry":{"type":"Point","coordinates":[138.659973,-34.935902]}},{"properties":{"city":"Burwood","latitude":-33.87817,"country":"Australia","joe hockey":4,"longitude":151.103546,"id":"a65izrbnssod","state":"New South Wales"},"type":"Feature","geometry":{"type":"Point","coordinates":[151.103546,-33.87817]}},{"properties":{"city":"Busselton","latitude":-33.652142,"country":"Australia","joe hockey":4,"longitude":115.344818,"id":"a65izrbfcqc3","state":"Western Australia"},"type":"Feature","geometry":{"type":"Point","coordinates":[115.344818,-33.652142]}},{"properties":{"city":"Byron Bay","latitude":-28.646891,"country":"Australia","joe hockey":4,"longitude":153.612823,"id":"a65izrgiy8tz","state":"New South Wales"},"type":"Feature","geometry":{"type":"Point","coordinates":[153.612823,-28.646891]}},{"properties":{"city":"Caboolture","latitude":-27.070721,"country":"Australia","joe hockey":2,"longitude":152.950287,"id":"a65izrf7klsy","state":"Queensland"},"type":"Feature","geometry":{"type":"Point","coordinates":[152.950287,-27.070721]}},{"properties":{"city":"Cairns","latitude":-16.92646,"country":"Australia","joe hockey":22,"longitude":145.77597,"id":"a65izrejxctt","state":"Queensland"},"type":"Feature","geometry":{"type":"Point","coordinates":[145.77597,-16.92646]}},{"properties":{"city":"Calarasi","latitude":44.19644,"country":"Romania","joe hockey":1,"longitude":27.33536,"id":"a65izrjd7y23","state":null},"type":"Feature","geometry":{"type":"Point","coordinates":[27.33536,44.19644]}},{"properties":{"city":"Calgary","latitude":51.04522,"country":"Canada","joe hockey":3,"longitude":-114.063014,"id":"a65izrpa9jha","state":"Alberta"},"type":"Feature","geometry":{"type":"Point","coordinates":[-114.063014,51.04522]}},{"properties":{"city":"Caloundra","latitude":-26.793619,"country":"Australia","joe hockey":3,"longitude":153.124756,"id":"a65izrli5xlx","state":"Queensland"},"type":"Feature","geometry":{"type":"Point","coordinates":[153.124756,-26.793619]}},{"properties":{"city":"Campbelltown","latitude":-34.064098,"country":"Australia","joe hockey":1,"longitude":150.816589,"id":"a65izrqtkvfv","state":"New South Wales"},"type":"Feature","geometry":{"type":"Point","coordinates":[150.816589,-34.064098]}},{"properties":{"city":"Camperdown","latitude":-38.22966,"country":"Australia","joe hockey":1,"longitude":143.142105,"id":"a65izrcpwgfn","state":"Victoria"},"type":"Feature","geometry":{"type":"Point","coordinates":[143.142105,-38.22966]}},{"properties":{"city":"Canberra","latitude":-35.306541,"country":"Australia","joe hockey":678,"longitude":149.126556,"id":"a65izrmv2d2i","state":"Australian Capital Territory"},"type":"Feature","geometry":{"type":"Point","coordinates":[149.126556,-35.306541]}},{"properties":{"city":"Cape Town","latitude":-33.919104,"country":"South Africa","joe hockey":1,"longitude":18.42197,"id":"a65izrdo1rdc","state":null},"type":"Feature","geometry":{"type":"Point","coordinates":[18.42197,-33.919104]}},{"properties":{"city":"Capel","latitude":-33.508881,"country":"Australia","joe hockey":1,"longitude":115.601418,"id":"a65izrmfe2th","state":"Western Australia"},"type":"Feature","geometry":{"type":"Point","coordinates":[115.601418,-33.508881]}},{"properties":{"city":"Cardiff","latitude":51.48125,"country":"United Kingdom","joe hockey":1,"longitude":-3.180734,"id":"a65izrfc8sqh","state":"Wales"},"type":"Feature","geometry":{"type":"Point","coordinates":[-3.180734,51.48125]}},{"properties":{"city":"Carine","latitude":-31.851089,"country":"Australia","joe hockey":1,"longitude":115.776619,"id":"a65izrauwbhg","state":"Western Australia"},"type":"Feature","geometry":{"type":"Point","coordinates":[115.776619,-31.851089]}},{"properties":{"city":"Carlisle","latitude":-31.97201,"country":"Australia","joe hockey":1,"longitude":115.918549,"id":"a65izrqrgzx5","state":"Western Australia"},"type":"Feature","geometry":{"type":"Point","coordinates":[115.918549,-31.97201]}},{"properties":{"city":"Carlton","latitude":-37.801041,"country":"Australia","joe hockey":5,"longitude":144.969482,"id":"a65izrcambvs","state":"Victoria"},"type":"Feature","geometry":{"type":"Point","coordinates":[144.969482,-37.801041]}},{"properties":{"city":"Caroline Springs","latitude":-37.744991,"country":"Australia","joe hockey":1,"longitude":144.735199,"id":"a65izrlm7nbk","state":"Victoria"},"type":"Feature","geometry":{"type":"Point","coordinates":[144.735199,-37.744991]}},{"properties":{"city":"Carrum Downs","latitude":-38.101002,"country":"Australia","joe hockey":1,"longitude":145.183487,"id":"a65izrlnletl","state":"Victoria"},"type":"Feature","geometry":{"type":"Point","coordinates":[145.183487,-38.101002]}},{"properties":{"city":"Castle Hill","latitude":-33.73177,"country":"Australia","joe hockey":3,"longitude":151.003815,"id":"a65izrqif0tz","state":"New South Wales"},"type":"Feature","geometry":{"type":"Point","coordinates":[151.003815,-33.73177]}},{"properties":{"city":"Caulfield North","latitude":-37.869122,"country":"Australia","joe hockey":1,"longitude":145.025375,"id":"a65izrkg4wgh","state":"Victoria"},"type":"Feature","geometry":{"type":"Point","coordinates":[145.025375,-37.869122]}},{"properties":{"city":"Caulfield South","latitude":-37.886902,"country":"Australia","joe hockey":1,"longitude":145.021973,"id":"a65izrilalit","state":"Victoria"},"type":"Feature","geometry":{"type":"Point","coordinates":[145.021973,-37.886902]}},{"properties":{"city":"Cessnock","latitude":-32.832569,"country":"Australia","joe hockey":2,"longitude":151.354935,"id":"a65izrmpmsck","state":"New South Wales"},"type":"Feature","geometry":{"type":"Point","coordinates":[151.354935,-32.832569]}},{"properties":{"city":"Chandigarh","latitude":30.73012,"country":"India","joe hockey":1,"longitude":76.78244,"id":"a65izrpjyc56","state":null},"type":"Feature","geometry":{"type":"Point","coordinates":[76.78244,30.73012]}},{"properties":{"city":"Charleston","latitude":32.78115,"country":"United States","joe hockey":1,"longitude":-79.931604,"id":"a65izrbmgvt8","state":"South Carolina"},"type":"Feature","geometry":{"type":"Point","coordinates":[-79.931604,32.78115]}},{"properties":{"city":"Charlestown","latitude":-32.957851,"country":"Australia","joe hockey":1,"longitude":151.688126,"id":"a65izrpez85h","state":"New South Wales"},"type":"Feature","geometry":{"type":"Point","coordinates":[151.688126,-32.957851]}},{"properties":{"city":"Charlotte","latitude":35.2225,"country":"United States","joe hockey":1,"longitude":-80.837539,"id":"a65izrjt50zt","state":"North Carolina"},"type":"Feature","geometry":{"type":"Point","coordinates":[-80.837539,35.2225]}},{"properties":{"city":"Chatswood","latitude":-33.79607,"country":"Australia","joe hockey":3,"longitude":151.183853,"id":"a65izrj4v77i","state":"New South Wales"},"type":"Feature","geometry":{"type":"Point","coordinates":[151.183853,-33.79607]}},{"properties":{"city":"Cheltenham","latitude":-37.967621,"country":"Australia","joe hockey":2,"longitude":145.073853,"id":"a65izrnikjzf","state":"Victoria"},"type":"Feature","geometry":{"type":"Point","coordinates":[145.073853,-37.967621]}},{"properties":{"city":"Chicago","latitude":41.88415,"country":"United States","joe hockey":8,"longitude":-87.632409,"id":"a65izrnc1y6u","state":"Illinois"},"type":"Feature","geometry":{"type":"Point","coordinates":[-87.632409,41.88415]}},{"properties":{"city":"Childers","latitude":-38.291401,"country":"Australia","joe hockey":1,"longitude":146.102112,"id":"a65izrm6vvme","state":"Victoria"},"type":"Feature","geometry":{"type":"Point","coordinates":[146.102112,-38.291401]}},{"properties":{"city":"Christchurch","latitude":-43.531311,"country":"New Zealand","joe hockey":1,"longitude":172.637299,"id":"a65izrc5exe0","state":"Canterbury"},"type":"Feature","geometry":{"type":"Point","coordinates":[172.637299,-43.531311]}},{"properties":{"city":"Clare","latitude":-33.83239,"country":"Australia","joe hockey":1,"longitude":138.610779,"id":"a65izroxhy9m","state":"South Australia"},"type":"Feature","geometry":{"type":"Point","coordinates":[138.610779,-33.83239]}},{"properties":{"city":"Clare Valley","latitude":-32.0289,"country":"Australia","joe hockey":1,"longitude":135.002151,"id":"a65izrkgsl7w","state":"South Australia"},"type":"Feature","geometry":{"type":"Point","coordinates":[135.002151,-32.0289]}},{"properties":{"city":"Clayton","latitude":-37.925491,"country":"Australia","joe hockey":1,"longitude":145.119659,"id":"a65izriy222q","state":"Victoria"},"type":"Feature","geometry":{"type":"Point","coordinates":[145.119659,-37.925491]}},{"properties":{"city":"Cleveland","latitude":-41.804359,"country":"Australia","joe hockey":1,"longitude":147.403687,"id":"a65izrd5z1xm","state":"Tasmania"},"type":"Feature","geometry":{"type":"Point","coordinates":[147.403687,-41.804359]}},{"properties":{"city":"Clovelly","latitude":-33.91264,"country":"Australia","joe hockey":1,"longitude":151.262024,"id":"a65izrp8me8l","state":"New South Wales"},"type":"Feature","geometry":{"type":"Point","coordinates":[151.262024,-33.91264]}},{"properties":{"city":"Coburg","latitude":-37.74139,"country":"Australia","joe hockey":1,"longitude":144.96727,"id":"a65izrqnkbul","state":"Victoria"},"type":"Feature","geometry":{"type":"Point","coordinates":[144.96727,-37.74139]}},{"properties":{"city":"Coffs Harbour","latitude":-30.29701,"country":"Australia","joe hockey":8,"longitude":153.115158,"id":"a65izret8z6u","state":"New South Wales"},"type":"Feature","geometry":{"type":"Point","coordinates":[153.115158,-30.29701]}},{"properties":{"city":"Collingwood","latitude":-37.79929,"country":"Australia","joe hockey":4,"longitude":144.987564,"id":"a65izrnx8ygu","state":"Victoria"},"type":"Feature","geometry":{"type":"Point","coordinates":[144.987564,-37.79929]}},{"properties":{"city":"Cooktown","latitude":-15.47743,"country":"Australia","joe hockey":2,"longitude":145.249237,"id":"a65izrh6hjkv","state":"Queensland"},"type":"Feature","geometry":{"type":"Point","coordinates":[145.249237,-15.47743]}},{"properties":{"city":"Coolbellup","latitude":-32.081348,"country":"Australia","joe hockey":1,"longitude":115.804787,"id":"a65izrn661c8","state":"Western Australia"},"type":"Feature","geometry":{"type":"Point","coordinates":[115.804787,-32.081348]}},{"properties":{"city":"Coolgardie","latitude":-30.93961,"country":"Australia","joe hockey":1,"longitude":121.18895,"id":"a65izrl60e90","state":"Western Australia"},"type":"Feature","geometry":{"type":"Point","coordinates":[121.18895,-30.93961]}},{"properties":{"city":"Coolum Beach","latitude":-26.53533,"country":"Australia","joe hockey":2,"longitude":153.075439,"id":"a65izrmbqkkv","state":"Queensland"},"type":"Feature","geometry":{"type":"Point","coordinates":[153.075439,-26.53533]}},{"properties":{"city":"Coonawarra","latitude":-37.292919,"country":"Australia","joe hockey":1,"longitude":140.839096,"id":"a65izrcar4pv","state":"South Australia"},"type":"Feature","geometry":{"type":"Point","coordinates":[140.839096,-37.292919]}},{"properties":{"city":"Cottesloe","latitude":-31.99605,"country":"Australia","joe hockey":2,"longitude":115.757278,"id":"a65izroh7i8o","state":"Western Australia"},"type":"Feature","geometry":{"type":"Point","coordinates":[115.757278,-31.99605]}},{"properties":{"city":"Cranbourne","latitude":-38.080952,"country":"Australia","joe hockey":1,"longitude":145.266373,"id":"a65izrdkrcgm","state":"Victoria"},"type":"Feature","geometry":{"type":"Point","coordinates":[145.266373,-38.080952]}},{"properties":{"city":"Cremorne","latitude":-33.829849,"country":"Australia","joe hockey":1,"longitude":151.227356,"id":"a65izrn10l1k","state":"New South Wales"},"type":"Feature","geometry":{"type":"Point","coordinates":[151.227356,-33.829849]}},{"properties":{"city":"Cremorne","latitude":-37.825218,"country":"Australia","joe hockey":3,"longitude":144.993668,"id":"a65izrqi0kky","state":"Victoria"},"type":"Feature","geometry":{"type":"Point","coordinates":[144.993668,-37.825218]}},{"properties":{"city":"Cronulla","latitude":-34.055229,"country":"Australia","joe hockey":2,"longitude":151.153366,"id":"a65izreqpn4x","state":"New South Wales"},"type":"Feature","geometry":{"type":"Point","coordinates":[151.153366,-34.055229]}},{"properties":{"city":"Croydon","latitude":-37.798908,"country":"Australia","joe hockey":2,"longitude":145.279739,"id":"a65izrfmj5pr","state":"Victoria"},"type":"Feature","geometry":{"type":"Point","coordinates":[145.279739,-37.798908]}},{"properties":{"city":"Dampier","latitude":-20.66218,"country":"Australia","joe hockey":1,"longitude":116.711601,"id":"a65izrbtdjnp","state":"Western Australia"},"type":"Feature","geometry":{"type":"Point","coordinates":[116.711601,-20.66218]}},{"properties":{"city":"Dapto","latitude":-34.49773,"country":"Australia","joe hockey":2,"longitude":150.791656,"id":"a65izrf11hcj","state":"New South Wales"},"type":"Feature","geometry":{"type":"Point","coordinates":[150.791656,-34.49773]}},{"properties":{"city":"Darling Downs","latitude":-32.195621,"country":"Australia","joe hockey":1,"longitude":116.016197,"id":"a65izrk80kdf","state":"Western Australia"},"type":"Feature","geometry":{"type":"Point","coordinates":[116.016197,-32.195621]}},{"properties":{"city":"Darlinghurst","latitude":-33.879162,"country":"Australia","joe hockey":3,"longitude":151.220184,"id":"a65izrgxtp2r","state":"New South Wales"},"type":"Feature","geometry":{"type":"Point","coordinates":[151.220184,-33.879162]}},{"properties":{"city":"Darwin","latitude":-12.4675,"country":"Australia","joe hockey":45,"longitude":130.843155,"id":"a65izrm6g11s","state":"Northern Territory"},"type":"Feature","geometry":{"type":"Point","coordinates":[130.843155,-12.4675]}},{"properties":{"city":"Daylesford","latitude":-37.341351,"country":"Australia","joe hockey":1,"longitude":144.143036,"id":"a65izrdpmzxj","state":"Victoria"},"type":"Feature","geometry":{"type":"Point","coordinates":[144.143036,-37.341351]}},{"properties":{"city":"Deddington","latitude":-41.556511,"country":"Australia","joe hockey":1,"longitude":147.47789,"id":"a65izrf68mym","state":"Tasmania"},"type":"Feature","geometry":{"type":"Point","coordinates":[147.47789,-41.556511]}},{"properties":{"city":"Deepwater","latitude":-24.427629,"country":"Australia","joe hockey":1,"longitude":151.965042,"id":"a65izrdcvqiy","state":"Queensland"},"type":"Feature","geometry":{"type":"Point","coordinates":[151.965042,-24.427629]}},{"properties":{"city":"Delhi","latitude":28.643999,"country":"India","joe hockey":3,"longitude":77.091003,"id":"a65izrhwjbz0","state":null},"type":"Feature","geometry":{"type":"Point","coordinates":[77.091003,28.643999]}},{"properties":{"city":"Deniliquin","latitude":-35.535961,"country":"Australia","joe hockey":1,"longitude":144.970688,"id":"a65izrkrdygq","state":"New South Wales"},"type":"Feature","geometry":{"type":"Point","coordinates":[144.970688,-35.535961]}},{"properties":{"city":"Denmark","latitude":-34.96019,"country":"Australia","joe hockey":2,"longitude":117.35434,"id":"a65izrlg2blt","state":"Western Australia"},"type":"Feature","geometry":{"type":"Point","coordinates":[117.35434,-34.96019]}},{"properties":{"city":"Des Moines","latitude":41.58979,"country":"United States","joe hockey":1,"longitude":-93.615659,"id":"a65izrftz95g","state":"Iowa"},"type":"Feature","geometry":{"type":"Point","coordinates":[-93.615659,41.58979]}},{"properties":{"city":"Detroit","latitude":42.331685,"country":"United States","joe hockey":2,"longitude":-83.047924,"id":"a65izrhm1l25","state":"Michigan"},"type":"Feature","geometry":{"type":"Point","coordinates":[-83.047924,42.331685]}},{"properties":{"city":"Devonport","latitude":-41.179859,"country":"Australia","joe hockey":7,"longitude":146.348587,"id":"a65izrmmbtqv","state":"Tasmania"},"type":"Feature","geometry":{"type":"Point","coordinates":[146.348587,-41.179859]}},{"properties":{"city":"Dimboola","latitude":-36.457142,"country":"Australia","joe hockey":1,"longitude":142.029434,"id":"a65izrfmcuix","state":"Victoria"},"type":"Feature","geometry":{"type":"Point","coordinates":[142.029434,-36.457142]}},{"properties":{"city":"Drouin","latitude":-38.136688,"country":"Australia","joe hockey":1,"longitude":145.858124,"id":"a65izrjp2w9k","state":"Victoria"},"type":"Feature","geometry":{"type":"Point","coordinates":[145.858124,-38.136688]}},{"properties":{"city":"Dubai","latitude":25.269445,"country":"United Arab Emirates","joe hockey":2,"longitude":55.30865,"id":"a65izroogsnk","state":null},"type":"Feature","geometry":{"type":"Point","coordinates":[55.30865,25.269445]}},{"properties":{"city":"Dubbo","latitude":-32.247871,"country":"Australia","joe hockey":5,"longitude":148.601181,"id":"a65izrn8duys","state":"New South Wales"},"type":"Feature","geometry":{"type":"Point","coordinates":[148.601181,-32.247871]}},{"properties":{"city":"Dunedin","latitude":-45.8745,"country":"New Zealand","joe hockey":1,"longitude":170.503845,"id":"a65izrqaiomd","state":"Otago"},"type":"Feature","geometry":{"type":"Point","coordinates":[170.503845,-45.8745]}},{"properties":{"city":"Durban","latitude":-29.855744,"country":"South Africa","joe hockey":1,"longitude":31.035125,"id":"a65izrdg7s6k","state":null},"type":"Feature","geometry":{"type":"Point","coordinates":[31.035125,-29.855744]}},{"properties":{"city":"East Gosford","latitude":-33.438019,"country":"Australia","joe hockey":1,"longitude":151.353745,"id":"a65izrjjseht","state":"New South Wales"},"type":"Feature","geometry":{"type":"Point","coordinates":[151.353745,-33.438019]}},{"properties":{"city":"Eastwood","latitude":-34.94075,"country":"Australia","joe hockey":1,"longitude":138.620743,"id":"a65izrn58yud","state":"South Australia"},"type":"Feature","geometry":{"type":"Point","coordinates":[138.620743,-34.94075]}},{"properties":{"city":"Edenhope","latitude":-37.02969,"country":"Australia","joe hockey":1,"longitude":141.282761,"id":"a65izrnlf8fw","state":"Victoria"},"type":"Feature","geometry":{"type":"Point","coordinates":[141.282761,-37.02969]}},{"properties":{"city":"Edinburgh","latitude":-34.737381,"country":"Australia","joe hockey":1,"longitude":138.646896,"id":"a65izrqme7kq","state":"South Australia"},"type":"Feature","geometry":{"type":"Point","coordinates":[138.646896,-34.737381]}},{"properties":{"city":"Eildon","latitude":-37.347771,"country":"Australia","joe hockey":1,"longitude":145.983627,"id":"a65izrijv71y","state":"Victoria"},"type":"Feature","geometry":{"type":"Point","coordinates":[145.983627,-37.347771]}},{"properties":{"city":"Elizabeth Bay","latitude":-33.870331,"country":"Australia","joe hockey":1,"longitude":151.225372,"id":"a65izrekjifm","state":"New South Wales"},"type":"Feature","geometry":{"type":"Point","coordinates":[151.225372,-33.870331]}},{"properties":{"city":"Elizabeth North","latitude":-34.70586,"country":"Australia","joe hockey":1,"longitude":138.675369,"id":"a65izrnm2vl8","state":"South Australia"},"type":"Feature","geometry":{"type":"Point","coordinates":[138.675369,-34.70586]}},{"properties":{"city":"Eltham","latitude":-37.714539,"country":"Australia","joe hockey":2,"longitude":145.150116,"id":"a65izreu5u86","state":"Victoria"},"type":"Feature","geometry":{"type":"Point","coordinates":[145.150116,-37.714539]}},{"properties":{"city":"Esperance","latitude":-33.85984,"country":"Australia","joe hockey":2,"longitude":121.895149,"id":"a65izrl5vw3z","state":"Western Australia"},"type":"Feature","geometry":{"type":"Point","coordinates":[121.895149,-33.85984]}},{"properties":{"city":"Essendon","latitude":-37.751541,"country":"Australia","joe hockey":1,"longitude":144.909515,"id":"a65izrc6zgft","state":"Victoria"},"type":"Feature","geometry":{"type":"Point","coordinates":[144.909515,-37.751541]}},{"properties":{"city":"Fairfield","latitude":-37.772099,"country":"Australia","joe hockey":1,"longitude":145.023041,"id":"a65izrgfbcu0","state":"Victoria"},"type":"Feature","geometry":{"type":"Point","coordinates":[145.023041,-37.772099]}},{"properties":{"city":"Ferntree Gully","latitude":-37.882702,"country":"Australia","joe hockey":1,"longitude":145.295242,"id":"a65izrgwxv4j","state":"Victoria"},"type":"Feature","geometry":{"type":"Point","coordinates":[145.295242,-37.882702]}},{"properties":{"city":"Fitzroy","latitude":-37.798389,"country":"Australia","joe hockey":3,"longitude":144.979004,"id":"a65izrfjpu03","state":"Victoria"},"type":"Feature","geometry":{"type":"Point","coordinates":[144.979004,-37.798389]}},{"properties":{"city":"Fitzroy North","latitude":-37.783691,"country":"Australia","joe hockey":1,"longitude":144.983505,"id":"a65izrftl691","state":"Victoria"},"type":"Feature","geometry":{"type":"Point","coordinates":[144.983505,-37.783691]}},{"properties":{"city":"Flagstaff Hill","latitude":-35.050579,"country":"Australia","joe hockey":1,"longitude":138.589554,"id":"a65izrpyf7dz","state":"South Australia"},"type":"Feature","geometry":{"type":"Point","coordinates":[138.589554,-35.050579]}},{"properties":{"city":"Flinders","latitude":-38.473961,"country":"Australia","joe hockey":1,"longitude":145.017532,"id":"a65izrqstzne","state":"Victoria"},"type":"Feature","geometry":{"type":"Point","coordinates":[145.017532,-38.473961]}},{"properties":{"city":"Footscray","latitude":-37.791698,"country":"Australia","joe hockey":5,"longitude":144.891251,"id":"a65izrl5fovi","state":"Victoria"},"type":"Feature","geometry":{"type":"Point","coordinates":[144.891251,-37.791698]}},{"properties":{"city":"Forbes","latitude":-33.374432,"country":"Australia","joe hockey":1,"longitude":147.868256,"id":"a65izrbhz4bl","state":"New South Wales"},"type":"Feature","geometry":{"type":"Point","coordinates":[147.868256,-33.374432]}},{"properties":{"city":"Forititude Valley","latitude":-19.93272,"country":"Australia","joe hockey":1,"longitude":145.774063,"id":"a65izrn8go8v","state":"Queensland"},"type":"Feature","geometry":{"type":"Point","coordinates":[145.774063,-19.93272]}},{"properties":{"city":"Forster","latitude":-32.18552,"country":"Australia","joe hockey":2,"longitude":152.516083,"id":"a65izrnl3ogd","state":"New South Wales"},"type":"Feature","geometry":{"type":"Point","coordinates":[152.516083,-32.18552]}},{"properties":{"city":"Frankfurt","latitude":50.112065,"country":"Germany","joe hockey":1,"longitude":8.683415,"id":"a65izrr3nt0t","state":null},"type":"Feature","geometry":{"type":"Point","coordinates":[8.683415,50.112065]}},{"properties":{"city":"Frankston","latitude":-38.141571,"country":"Australia","joe hockey":2,"longitude":145.121826,"id":"a65izrmr9lpg","state":"Victoria"},"type":"Feature","geometry":{"type":"Point","coordinates":[145.121826,-38.141571]}},{"properties":{"city":"Frankston South","latitude":-38.171669,"country":"Australia","joe hockey":2,"longitude":145.120667,"id":"a65izrnkawog","state":"Victoria"},"type":"Feature","geometry":{"type":"Point","coordinates":[145.120667,-38.171669]}},{"properties":{"city":"Fremantle","latitude":-32.05286,"country":"Australia","joe hockey":9,"longitude":115.748238,"id":"a65izrndsdcy","state":"Western Australia"},"type":"Feature","geometry":{"type":"Point","coordinates":[115.748238,-32.05286]}},{"properties":{"city":"Geelong","latitude":-38.148769,"country":"Australia","joe hockey":55,"longitude":144.360046,"id":"a65izrho14z3","state":"Victoria"},"type":"Feature","geometry":{"type":"Point","coordinates":[144.360046,-38.148769]}},{"properties":{"city":"Gembrook","latitude":-37.952499,"country":"Australia","joe hockey":1,"longitude":145.550461,"id":"a65izrk9awmn","state":"Victoria"},"type":"Feature","geometry":{"type":"Point","coordinates":[145.550461,-37.952499]}},{"properties":{"city":"Geneva","latitude":46.208358,"country":"Switzerland","joe hockey":1,"longitude":6.142701,"id":"a65izrk04xqh","state":null},"type":"Feature","geometry":{"type":"Point","coordinates":[6.142701,46.208358]}},{"properties":{"city":"George Town","latitude":-41.106602,"country":"Australia","joe hockey":1,"longitude":146.828232,"id":"a65izriex96g","state":"Tasmania"},"type":"Feature","geometry":{"type":"Point","coordinates":[146.828232,-41.106602]}},{"properties":{"city":"Geraldton","latitude":-28.7763,"country":"Australia","joe hockey":1,"longitude":114.626068,"id":"a65izrnut8du","state":"Western Australia"},"type":"Feature","geometry":{"type":"Point","coordinates":[114.626068,-28.7763]}},{"properties":{"city":"Gig Harbor","latitude":47.328,"country":"United States","joe hockey":1,"longitude":-122.580369,"id":"a65izrifmlqe","state":"Washington"},"type":"Feature","geometry":{"type":"Point","coordinates":[-122.580369,47.328]}},{"properties":{"city":"Gippsland","latitude":-36.419399,"country":"Australia","joe hockey":8,"longitude":148.613495,"id":"a65izrk8lq4m","state":"Victoria"},"type":"Feature","geometry":{"type":"Point","coordinates":[148.613495,-36.419399]}},{"properties":{"city":"Gisborne","latitude":-38.663259,"country":"New Zealand","joe hockey":1,"longitude":178.016785,"id":"a65izrcw3dsl","state":"Gisborne"},"type":"Feature","geometry":{"type":"Point","coordinates":[178.016785,-38.663259]}},{"properties":{"city":"Gladstone","latitude":-23.843821,"country":"Australia","joe hockey":7,"longitude":151.253555,"id":"a65izrfvixui","state":"Queensland"},"type":"Feature","geometry":{"type":"Point","coordinates":[151.253555,-23.843821]}},{"properties":{"city":"Glasgow","latitude":55.857809,"country":"United Kingdom","joe hockey":2,"longitude":-4.242511,"id":"a65izrb2bei3","state":"Scotland"},"type":"Feature","geometry":{"type":"Point","coordinates":[-4.242511,55.857809]}},{"properties":{"city":"Glebe","latitude":-42.874859,"country":"Australia","joe hockey":1,"longitude":147.325989,"id":"a65izrgpjhni","state":"Tasmania"},"type":"Feature","geometry":{"type":"Point","coordinates":[147.325989,-42.874859]}},{"properties":{"city":"Glen Waverley","latitude":-37.882961,"country":"Australia","joe hockey":1,"longitude":145.165115,"id":"a65izri4eaum","state":"Victoria"},"type":"Feature","geometry":{"type":"Point","coordinates":[145.165115,-37.882961]}},{"properties":{"city":"Glenelg","latitude":-34.980148,"country":"Australia","joe hockey":1,"longitude":138.517715,"id":"a65izrpe63l9","state":"South Australia"},"type":"Feature","geometry":{"type":"Point","coordinates":[138.517715,-34.980148]}},{"properties":{"city":"Glenorchy","latitude":-42.833698,"country":"Australia","joe hockey":1,"longitude":147.279755,"id":"a65izrd16znn","state":"Tasmania"},"type":"Feature","geometry":{"type":"Point","coordinates":[147.279755,-42.833698]}},{"properties":{"city":"Glenwood","latitude":-33.733089,"country":"Australia","joe hockey":1,"longitude":150.927795,"id":"a65izrr8d95j","state":"New South Wales"},"type":"Feature","geometry":{"type":"Point","coordinates":[150.927795,-33.733089]}},{"properties":{"city":"Gold Coast","latitude":-28.04583,"country":"Australia","joe hockey":187,"longitude":153.397751,"id":"a65izrii5d0e","state":"Queensland"},"type":"Feature","geometry":{"type":"Point","coordinates":[153.397751,-28.04583]}},{"properties":{"city":"Goolwa","latitude":-35.50211,"country":"Australia","joe hockey":1,"longitude":138.776718,"id":"a65izre2dsbk","state":"South Australia"},"type":"Feature","geometry":{"type":"Point","coordinates":[138.776718,-35.50211]}},{"properties":{"city":"Gordon","latitude":-33.75761,"country":"Australia","joe hockey":1,"longitude":151.153336,"id":"a65izrrc8o27","state":"New South Wales"},"type":"Feature","geometry":{"type":"Point","coordinates":[151.153336,-33.75761]}},{"properties":{"city":"Gosford","latitude":-33.42321,"country":"Australia","joe hockey":37,"longitude":151.342606,"id":"a65izrkuggv9","state":"New South Wales"},"type":"Feature","geometry":{"type":"Point","coordinates":[151.342606,-33.42321]}},{"properties":{"city":"Goulburn","latitude":-34.757179,"country":"Australia","joe hockey":2,"longitude":149.716263,"id":"a65izrd6hpad","state":"New South Wales"},"type":"Feature","geometry":{"type":"Point","coordinates":[149.716263,-34.757179]}},{"properties":{"city":"Grafton","latitude":-29.692751,"country":"Australia","joe hockey":2,"longitude":152.935745,"id":"a65izrg2qvm8","state":"New South Wales"},"type":"Feature","geometry":{"type":"Point","coordinates":[152.935745,-29.692751]}},{"properties":{"city":"Greensborough","latitude":-37.704491,"country":"Australia","joe hockey":1,"longitude":145.102142,"id":"a65izre9av0b","state":"Victoria"},"type":"Feature","geometry":{"type":"Point","coordinates":[145.102142,-37.704491]}},{"properties":{"city":"Griffith","latitude":-34.28944,"country":"Australia","joe hockey":2,"longitude":146.050323,"id":"a65izrj6awvd","state":"New South Wales"},"type":"Feature","geometry":{"type":"Point","coordinates":[146.050323,-34.28944]}},{"properties":{"city":"Guildford","latitude":-31.89983,"country":"Australia","joe hockey":1,"longitude":115.968803,"id":"a65izrd3enwv","state":"Western Australia"},"type":"Feature","geometry":{"type":"Point","coordinates":[115.968803,-31.89983]}},{"properties":{"city":"Hamilton","latitude":-37.742229,"country":"Australia","joe hockey":3,"longitude":142.021576,"id":"a65izrke4irs","state":"Victoria"},"type":"Feature","geometry":{"type":"Point","coordinates":[142.021576,-37.742229]}},{"properties":{"city":"Hampshire","latitude":-41.26276,"country":"Australia","joe hockey":1,"longitude":145.783676,"id":"a65izreurmqy","state":"Tasmania"},"type":"Feature","geometry":{"type":"Point","coordinates":[145.783676,-41.26276]}},{"properties":{"city":"Hanoi","latitude":21.03195,"country":"Vietnam","joe hockey":1,"longitude":105.819908,"id":"a65izrcsuzyw","state":null},"type":"Feature","geometry":{"type":"Point","coordinates":[105.819908,21.03195]}},{"properties":{"city":"Harvey","latitude":-33.082569,"country":"Australia","joe hockey":2,"longitude":115.905678,"id":"a65izro7fqxt","state":"Western Australia"},"type":"Feature","geometry":{"type":"Point","coordinates":[115.905678,-33.082569]}},{"properties":{"city":"Hastings","latitude":-38.307701,"country":"Australia","joe hockey":1,"longitude":145.191299,"id":"a65izrr0ryfu","state":"Victoria"},"type":"Feature","geometry":{"type":"Point","coordinates":[145.191299,-38.307701]}},{"properties":{"city":"Hawthorn","latitude":-37.822861,"country":"Australia","joe hockey":1,"longitude":145.035294,"id":"a65izrjme5tq","state":"Victoria"},"type":"Feature","geometry":{"type":"Point","coordinates":[145.035294,-37.822861]}},{"properties":{"city":"Hawthorn East","latitude":-37.830769,"country":"Australia","joe hockey":1,"longitude":145.056076,"id":"a65izrfoc8b0","state":"Victoria"},"type":"Feature","geometry":{"type":"Point","coordinates":[145.056076,-37.830769]}},{"properties":{"city":"Hazeldene","latitude":-37.36578,"country":"Australia","joe hockey":1,"longitude":145.286331,"id":"a65izrfjwks1","state":"Victoria"},"type":"Feature","geometry":{"type":"Point","coordinates":[145.286331,-37.36578]}},{"properties":{"city":"Heathcote","latitude":-36.91436,"country":"Australia","joe hockey":2,"longitude":144.700333,"id":"a65izrmgrzib","state":"Victoria"},"type":"Feature","geometry":{"type":"Point","coordinates":[144.700333,-36.91436]}},{"properties":{"city":"Heathcote","latitude":-34.081669,"country":"Australia","joe hockey":2,"longitude":151.008682,"id":"a65izrfz2zxb","state":"New South Wales"},"type":"Feature","geometry":{"type":"Point","coordinates":[151.008682,-34.081669]}},{"properties":{"city":"Hervey Bay","latitude":-25.287661,"country":"Australia","joe hockey":4,"longitude":152.838257,"id":"a65izrq1y3q0","state":"Queensland"},"type":"Feature","geometry":{"type":"Point","coordinates":[152.838257,-25.287661]}},{"properties":{"city":"Highton","latitude":-38.17215,"country":"Australia","joe hockey":1,"longitude":144.318756,"id":"a65izrn9qbjf","state":"Victoria"},"type":"Feature","geometry":{"type":"Point","coordinates":[144.318756,-38.17215]}},{"properties":{"city":"Hillside","latitude":-37.688641,"country":"Australia","joe hockey":1,"longitude":144.744736,"id":"a65izrr058dn","state":"Victoria"},"type":"Feature","geometry":{"type":"Point","coordinates":[144.744736,-37.688641]}},{"properties":{"city":"Hobart","latitude":-42.88163,"country":"Australia","joe hockey":64,"longitude":147.331589,"id":"a65izrlop4vj","state":"Tasmania"},"type":"Feature","geometry":{"type":"Point","coordinates":[147.331589,-42.88163]}},{"properties":{"city":"Hollywood","latitude":34.101555,"country":"United States","joe hockey":2,"longitude":-118.337209,"id":"a65izrcgeboe","state":"California"},"type":"Feature","geometry":{"type":"Point","coordinates":[-118.337209,34.101555]}},{"properties":{"city":"Homebush Bay","latitude":-33.8437,"country":"Australia","joe hockey":1,"longitude":151.070648,"id":"a65izrhzk414","state":"New South Wales"},"type":"Feature","geometry":{"type":"Point","coordinates":[151.070648,-33.8437]}},{"properties":{"city":"Hong Kong","latitude":22.411249,"country":"China","joe hockey":10,"longitude":114.153542,"id":"a65izrqy2wp8","state":null},"type":"Feature","geometry":{"type":"Point","coordinates":[114.153542,22.411249]}},{"properties":{"city":"Honolulu","latitude":21.30477,"country":"United States","joe hockey":1,"longitude":-157.857614,"id":"a65izrbj5mq1","state":"Hawaii"},"type":"Feature","geometry":{"type":"Point","coordinates":[-157.857614,21.30477]}},{"properties":{"city":"Hoppers Crossing","latitude":-37.86433,"country":"Australia","joe hockey":1,"longitude":144.703934,"id":"a65izrljn49l","state":"Victoria"},"type":"Feature","geometry":{"type":"Point","coordinates":[144.703934,-37.86433]}},{"properties":{"city":"Hornsby","latitude":-33.700779,"country":"Australia","joe hockey":1,"longitude":151.096878,"id":"a65izrpz3hs1","state":"New South Wales"},"type":"Feature","geometry":{"type":"Point","coordinates":[151.096878,-33.700779]}},{"properties":{"city":"Horsham","latitude":-36.71093,"country":"Australia","joe hockey":4,"longitude":142.197372,"id":"a65izrmqfhrs","state":"Victoria"},"type":"Feature","geometry":{"type":"Point","coordinates":[142.197372,-36.71093]}},{"properties":{"city":"Houston","latitude":29.76045,"country":"United States","joe hockey":2,"longitude":-95.369784,"id":"a65izrlmva5r","state":"Texas"},"type":"Feature","geometry":{"type":"Point","coordinates":[-95.369784,29.76045]}},{"properties":{"city":"Hunter Valley","latitude":-32.573311,"country":"Australia","joe hockey":2,"longitude":151.22319,"id":"a65izrn7h96k","state":"New South Wales"},"type":"Feature","geometry":{"type":"Point","coordinates":[151.22319,-32.573311]}},{"properties":{"city":"Huntington Beach","latitude":33.67889,"country":"United States","joe hockey":1,"longitude":-118.001574,"id":"a65izrej6mme","state":"California"},"type":"Feature","geometry":{"type":"Point","coordinates":[-118.001574,33.67889]}},{"properties":{"city":"Hurstville","latitude":-33.967319,"country":"Australia","joe hockey":1,"longitude":151.107285,"id":"a65izro8qj5g","state":"New South Wales"},"type":"Feature","geometry":{"type":"Point","coordinates":[151.107285,-33.967319]}},{"properties":{"city":"Hyderabad","latitude":17.4376,"country":"India","joe hockey":1,"longitude":78.4706,"id":"a65izrbto1o6","state":"Andhra Pradesh"},"type":"Feature","geometry":{"type":"Point","coordinates":[78.4706,17.4376]}},{"properties":{"city":"Illawarra","latitude":-33.838345,"country":"Australia","joe hockey":2,"longitude":151.235687,"id":"a65izrcj2qel","state":"New South Wales"},"type":"Feature","geometry":{"type":"Point","coordinates":[151.235687,-33.838345]}},{"properties":{"city":"Inverloch","latitude":-38.62727,"country":"Australia","joe hockey":1,"longitude":145.720123,"id":"a65izrmfp3d6","state":"Victoria"},"type":"Feature","geometry":{"type":"Point","coordinates":[145.720123,-38.62727]}},{"properties":{"city":"Ipswich","latitude":-27.616489,"country":"Australia","joe hockey":2,"longitude":152.765274,"id":"a65izrqy576q","state":"Queensland"},"type":"Feature","geometry":{"type":"Point","coordinates":[152.765274,-27.616489]}},{"properties":{"city":"Irvine","latitude":33.686887,"country":"United States","joe hockey":1,"longitude":-117.825348,"id":"a65izraz11uv","state":"California"},"type":"Feature","geometry":{"type":"Point","coordinates":[-117.825348,33.686887]}},{"properties":{"city":"Isa","latitude":-20.681339,"country":"Australia","joe hockey":1,"longitude":139.493423,"id":"a65izroqfnn0","state":"Queensland"},"type":"Feature","geometry":{"type":"Point","coordinates":[139.493423,-20.681339]}},{"properties":{"city":"Islamabad","latitude":33.709839,"country":"Pakistan","joe hockey":1,"longitude":73.075912,"id":"a65izrbht5za","state":null},"type":"Feature","geometry":{"type":"Point","coordinates":[73.075912,33.709839]}},{"properties":{"city":"Jacksonville","latitude":30.33138,"country":"United States","joe hockey":2,"longitude":-81.655799,"id":"a65izri38isl","state":"Florida"},"type":"Feature","geometry":{"type":"Point","coordinates":[-81.655799,30.33138]}},{"properties":{"city":"Jakarta","latitude":-6.17144,"country":"Indonesia","joe hockey":8,"longitude":106.82782,"id":"a65izrj81191","state":null},"type":"Feature","geometry":{"type":"Point","coordinates":[106.82782,-6.17144]}},{"properties":{"city":"Jeparit","latitude":-36.140518,"country":"Australia","joe hockey":2,"longitude":141.988144,"id":"a65izrdmh2qe","state":"Victoria"},"type":"Feature","geometry":{"type":"Point","coordinates":[141.988144,-36.140518]}},{"properties":{"city":"Jolimont","latitude":-31.94718,"country":"Australia","joe hockey":1,"longitude":115.812691,"id":"a65izrdu3pol","state":"Western Australia"},"type":"Feature","geometry":{"type":"Point","coordinates":[115.812691,-31.94718]}},{"properties":{"city":"Joondalup","latitude":-31.732491,"country":"Australia","joe hockey":2,"longitude":115.759987,"id":"a65izrlupltm","state":"Western Australia"},"type":"Feature","geometry":{"type":"Point","coordinates":[115.759987,-31.732491]}},{"properties":{"city":"Junee","latitude":-34.86882,"country":"Australia","joe hockey":1,"longitude":147.583664,"id":"a65izroxv0ic","state":"New South Wales"},"type":"Feature","geometry":{"type":"Point","coordinates":[147.583664,-34.86882]}},{"properties":{"city":"Kalamunda","latitude":-31.970221,"country":"Australia","joe hockey":1,"longitude":116.057312,"id":"a65izrqjjcm1","state":"Western Australia"},"type":"Feature","geometry":{"type":"Point","coordinates":[116.057312,-31.970221]}},{"properties":{"city":"Kalgoorlie","latitude":-30.748171,"country":"Australia","joe hockey":2,"longitude":121.471718,"id":"a65izrel4t6u","state":"Western Australia"},"type":"Feature","geometry":{"type":"Point","coordinates":[121.471718,-30.748171]}},{"properties":{"city":"Kallangur","latitude":-27.240919,"country":"Australia","joe hockey":2,"longitude":152.992584,"id":"a65izrbjly75","state":"Queensland"},"type":"Feature","geometry":{"type":"Point","coordinates":[152.992584,-27.240919]}},{"properties":{"city":"Karratha","latitude":-20.73563,"country":"Australia","joe hockey":1,"longitude":116.843971,"id":"a65izroi9eb6","state":"Western Australia"},"type":"Feature","geometry":{"type":"Point","coordinates":[116.843971,-20.73563]}},{"properties":{"city":"Kellyville Ridge","latitude":-33.701111,"country":"Australia","joe hockey":1,"longitude":150.925644,"id":"a65izrj8sl5f","state":"New South Wales"},"type":"Feature","geometry":{"type":"Point","coordinates":[150.925644,-33.701111]}},{"properties":{"city":"Kensington","latitude":-37.794159,"country":"Australia","joe hockey":1,"longitude":144.927628,"id":"a65izrjih814","state":"Victoria"},"type":"Feature","geometry":{"type":"Point","coordinates":[144.927628,-37.794159]}},{"properties":{"city":"Kettering","latitude":-43.1208,"country":"Australia","joe hockey":1,"longitude":147.246094,"id":"a65izrlc98fa","state":"Tasmania"},"type":"Feature","geometry":{"type":"Point","coordinates":[147.246094,-43.1208]}},{"properties":{"city":"Kew","latitude":-37.807289,"country":"Australia","joe hockey":1,"longitude":145.034485,"id":"a65izrkwgvhm","state":"Victoria"},"type":"Feature","geometry":{"type":"Point","coordinates":[145.034485,-37.807289]}},{"properties":{"city":"Kilsyth","latitude":-37.80265,"country":"Australia","joe hockey":1,"longitude":145.314972,"id":"a65izreey4tp","state":"Victoria"},"type":"Feature","geometry":{"type":"Point","coordinates":[145.314972,-37.80265]}},{"properties":{"city":"Kinglake West","latitude":-37.481251,"country":"Australia","joe hockey":1,"longitude":145.270859,"id":"a65izrni5woh","state":"Victoria"},"type":"Feature","geometry":{"type":"Point","coordinates":[145.270859,-37.481251]}},{"properties":{"city":"Kingswood","latitude":-33.76347,"country":"Australia","joe hockey":1,"longitude":150.719696,"id":"a65izrct5kzl","state":"New South Wales"},"type":"Feature","geometry":{"type":"Point","coordinates":[150.719696,-33.76347]}},{"properties":{"city":"Kolkata","latitude":22.5894,"country":"India","joe hockey":1,"longitude":88.37771,"id":"a65izrj4hx78","state":"West Benegal"},"type":"Feature","geometry":{"type":"Point","coordinates":[88.37771,22.5894]}},{"properties":{"city":"Kooyong","latitude":-37.844212,"country":"Australia","joe hockey":1,"longitude":145.035004,"id":"a65izrlukrb5","state":"Victoria"},"type":"Feature","geometry":{"type":"Point","coordinates":[145.035004,-37.844212]}},{"properties":{"city":"Ku-ring-gai","latitude":-33.72607,"country":"Australia","joe hockey":1,"longitude":151.147247,"id":"a65izrlklix7","state":"New South Wales"},"type":"Feature","geometry":{"type":"Point","coordinates":[151.147247,-33.72607]}},{"properties":{"city":"Kuala Lumpur","latitude":3.13601,"country":"Kuala Lumpur","joe hockey":1,"longitude":101.62976,"id":"a65izrku7yd9","state":null},"type":"Feature","geometry":{"type":"Point","coordinates":[101.62976,3.13601]}},{"properties":{"city":"Kununurra","latitude":-15.77267,"country":"Australia","joe hockey":1,"longitude":128.739365,"id":"a65izrop8v0r","state":"Western Australia"},"type":"Feature","geometry":{"type":"Point","coordinates":[128.739365,-15.77267]}},{"properties":{"city":"Kyabram","latitude":-36.313431,"country":"Australia","joe hockey":1,"longitude":145.041885,"id":"a65izrecuhm8","state":"Victoria"},"type":"Feature","geometry":{"type":"Point","coordinates":[145.041885,-36.313431]}},{"properties":{"city":"Kyneton","latitude":-37.251141,"country":"Australia","joe hockey":1,"longitude":144.456955,"id":"a65izrfcvj2z","state":"Victoria"},"type":"Feature","geometry":{"type":"Point","coordinates":[144.456955,-37.251141]}},{"properties":{"city":"Laidley","latitude":-27.64517,"country":"Australia","joe hockey":1,"longitude":152.38942,"id":"a65izrf53vse","state":"Queensland"},"type":"Feature","geometry":{"type":"Point","coordinates":[152.38942,-27.64517]}},{"properties":{"city":"Lake Macquarie","latitude":-33.067032,"country":"Australia","joe hockey":3,"longitude":151.583145,"id":"a65izrhy2a7w","state":"New South Wales"},"type":"Feature","geometry":{"type":"Point","coordinates":[151.583145,-33.067032]}},{"properties":{"city":"Lara","latitude":-38.021511,"country":"Australia","joe hockey":1,"longitude":144.396591,"id":"a65izrcjqjpr","state":"Victoria"},"type":"Feature","geometry":{"type":"Point","coordinates":[144.396591,-38.021511]}},{"properties":{"city":"Las Vegas","latitude":36.171915,"country":"United States","joe hockey":4,"longitude":-115.139974,"id":"a65izrlbsner","state":"Nevada"},"type":"Feature","geometry":{"type":"Point","coordinates":[-115.139974,36.171915]}},{"properties":{"city":"Launceston","latitude":-41.436008,"country":"Australia","joe hockey":15,"longitude":147.137802,"id":"a65izrkloe94","state":"Tasmania"},"type":"Feature","geometry":{"type":"Point","coordinates":[147.137802,-41.436008]}},{"properties":{"city":"Leederville","latitude":-31.931931,"country":"Australia","joe hockey":1,"longitude":115.841888,"id":"a65izrg62y4p","state":"Western Australia"},"type":"Feature","geometry":{"type":"Point","coordinates":[115.841888,-31.931931]}},{"properties":{"city":"Leeds","latitude":53.794494,"country":"United Kingdom","joe hockey":1,"longitude":-1.546587,"id":"a65izrbbs5ld","state":"England"},"type":"Feature","geometry":{"type":"Point","coordinates":[-1.546587,53.794494]}},{"properties":{"city":"Legana","latitude":-41.366989,"country":"Australia","joe hockey":1,"longitude":147.04509,"id":"a65izrj9phek","state":"Tasmania"},"type":"Feature","geometry":{"type":"Point","coordinates":[147.04509,-41.366989]}},{"properties":{"city":"Lilydale","latitude":-37.757561,"country":"Australia","joe hockey":1,"longitude":145.351028,"id":"a65izris44yh","state":"Victoria"},"type":"Feature","geometry":{"type":"Point","coordinates":[145.351028,-37.757561]}},{"properties":{"city":"Lilyfield","latitude":-33.873779,"country":"Australia","joe hockey":1,"longitude":151.162415,"id":"a65izrm2tfps","state":"New South Wales"},"type":"Feature","geometry":{"type":"Point","coordinates":[151.162415,-33.873779]}},{"properties":{"city":"Lismore","latitude":-37.95467,"country":"Australia","joe hockey":2,"longitude":143.337814,"id":"a65izrn8qxiu","state":"Victoria"},"type":"Feature","geometry":{"type":"Point","coordinates":[143.337814,-37.95467]}},{"properties":{"city":"Lobethal","latitude":-34.90469,"country":"Australia","joe hockey":1,"longitude":138.874557,"id":"a65izreoqrrk","state":"South Australia"},"type":"Feature","geometry":{"type":"Point","coordinates":[138.874557,-34.90469]}},{"properties":{"city":"Logan","latitude":-36.622131,"country":"Australia","joe hockey":1,"longitude":143.490936,"id":"a65izrdy4oa1","state":"Victoria"},"type":"Feature","geometry":{"type":"Point","coordinates":[143.490936,-36.622131]}},{"properties":{"city":"Logan City","latitude":-27.640329,"country":"Australia","joe hockey":2,"longitude":153.107452,"id":"a65izrccm7cr","state":"Queensland"},"type":"Feature","geometry":{"type":"Point","coordinates":[153.107452,-27.640329]}},{"properties":{"city":"London","latitude":51.506325,"country":"United Kingdom","joe hockey":47,"longitude":-0.127144,"id":"a65izrf8xjci","state":"England"},"type":"Feature","geometry":{"type":"Point","coordinates":[-0.127144,51.506325]}},{"properties":{"city":"Long Island","latitude":40.852509,"country":"United States","joe hockey":1,"longitude":-73.135849,"id":"a65izrlo0i6y","state":"New York"},"type":"Feature","geometry":{"type":"Point","coordinates":[-73.135849,40.852509]}},{"properties":{"city":"Los Angeles","latitude":34.05349,"country":"United States","joe hockey":9,"longitude":-118.245319,"id":"a65izrb93y7e","state":"California"},"type":"Feature","geometry":{"type":"Point","coordinates":[-118.245319,34.05349]}},{"properties":{"city":"Lower Plenty","latitude":-37.72966,"country":"Australia","joe hockey":1,"longitude":145.123383,"id":"a65izrnm69il","state":"Victoria"},"type":"Feature","geometry":{"type":"Point","coordinates":[145.123383,-37.72966]}},{"properties":{"city":"Lubbock","latitude":33.59233,"country":"United States","joe hockey":1,"longitude":-101.855869,"id":"a65izreg5ud7","state":"Texas"},"type":"Feature","geometry":{"type":"Point","coordinates":[-101.855869,33.59233]}},{"properties":{"city":"Lyndoch","latitude":-34.599701,"country":"Australia","joe hockey":2,"longitude":138.888916,"id":"a65izrb2zgkt","state":"South Australia"},"type":"Feature","geometry":{"type":"Point","coordinates":[138.888916,-34.599701]}},{"properties":{"city":"Mackay","latitude":-21.142309,"country":"Australia","joe hockey":7,"longitude":149.178711,"id":"a65izrlunryc","state":"Queensland"},"type":"Feature","geometry":{"type":"Point","coordinates":[149.178711,-21.142309]}},{"properties":{"city":"Maitland","latitude":-32.727951,"country":"Australia","joe hockey":2,"longitude":151.543823,"id":"a65izrp3hxe4","state":"New South Wales"},"type":"Feature","geometry":{"type":"Point","coordinates":[151.543823,-32.727951]}},{"properties":{"city":"Majorca","latitude":-37.114059,"country":"Australia","joe hockey":1,"longitude":143.796951,"id":"a65izrdhngqy","state":"Victoria"},"type":"Feature","geometry":{"type":"Point","coordinates":[143.796951,-37.114059]}},{"properties":{"city":"Maldon","latitude":-36.996529,"country":"Australia","joe hockey":1,"longitude":144.068451,"id":"a65izriibqy3","state":"Victoria"},"type":"Feature","geometry":{"type":"Point","coordinates":[144.068451,-36.996529]}},{"properties":{"city":"Mallala","latitude":-34.437969,"country":"Australia","joe hockey":1,"longitude":138.509964,"id":"a65izrgcrj1c","state":"South Australia"},"type":"Feature","geometry":{"type":"Point","coordinates":[138.509964,-34.437969]}},{"properties":{"city":"Malvern","latitude":-37.852539,"country":"Australia","joe hockey":3,"longitude":145.036896,"id":"a65izrmuuplf","state":"Victoria"},"type":"Feature","geometry":{"type":"Point","coordinates":[145.036896,-37.852539]}},{"properties":{"city":"Manchester","latitude":42.991175,"country":"United States","joe hockey":3,"longitude":-71.463089,"id":"a65izrgok6pb","state":"New Hampshire"},"type":"Feature","geometry":{"type":"Point","coordinates":[-71.463089,42.991175]}},{"properties":{"city":"Mandurah","latitude":-32.534771,"country":"Australia","joe hockey":3,"longitude":115.720444,"id":"a65izrk14gp6","state":"Western Australia"},"type":"Feature","geometry":{"type":"Point","coordinates":[115.720444,-32.534771]}},{"properties":{"city":"Mango Hill","latitude":-27.24299,"country":"Australia","joe hockey":1,"longitude":153.020111,"id":"a65izrhf9ssk","state":"Queensland"},"type":"Feature","geometry":{"type":"Point","coordinates":[153.020111,-27.24299]}},{"properties":{"city":"Manjimup","latitude":-34.239922,"country":"Australia","joe hockey":1,"longitude":116.149147,"id":"a65izrgusysz","state":"Western Australia"},"type":"Feature","geometry":{"type":"Point","coordinates":[116.149147,-34.239922]}},{"properties":{"city":"Manly","latitude":-27.454229,"country":"Australia","joe hockey":6,"longitude":153.185837,"id":"a65izrn3diwl","state":"Queensland"},"type":"Feature","geometry":{"type":"Point","coordinates":[153.185837,-27.454229]}},{"properties":{"city":"Manly","latitude":-33.795238,"country":"Australia","joe hockey":4,"longitude":151.287369,"id":"a65izrm9kqs2","state":"New South Wales"},"type":"Feature","geometry":{"type":"Point","coordinates":[151.287369,-33.795238]}},{"properties":{"city":"Manningham","latitude":-37.7537,"country":"Australia","joe hockey":1,"longitude":145.18396,"id":"a65izrb9o425","state":"Victoria"},"type":"Feature","geometry":{"type":"Point","coordinates":[145.18396,-37.7537]}},{"properties":{"city":"Marcus Beach","latitude":-26.4534,"country":"Australia","joe hockey":1,"longitude":153.1008,"id":"a65izrfelyf6","state":"Queensland"},"type":"Feature","geometry":{"type":"Point","coordinates":[153.1008,-26.4534]}},{"properties":{"city":"Mareeba","latitude":-17.01366,"country":"Australia","joe hockey":1,"longitude":145.425705,"id":"a65izrqdxzgx","state":"Queensland"},"type":"Feature","geometry":{"type":"Point","coordinates":[145.425705,-17.01366]}},{"properties":{"city":"Margaret River","latitude":-33.909199,"country":"Australia","joe hockey":1,"longitude":115.251221,"id":"a65izrbq50rp","state":"Western Australia"},"type":"Feature","geometry":{"type":"Point","coordinates":[115.251221,-33.909199]}},{"properties":{"city":"Maroochydore","latitude":-26.65271,"country":"Australia","joe hockey":2,"longitude":153.089737,"id":"a65izrqfmb6z","state":"Queensland"},"type":"Feature","geometry":{"type":"Point","coordinates":[153.089737,-26.65271]}},{"properties":{"city":"Marrickville","latitude":-33.91251,"country":"Australia","joe hockey":2,"longitude":151.160553,"id":"a65izrcx359x","state":"New South Wales"},"type":"Feature","geometry":{"type":"Point","coordinates":[151.160553,-33.91251]}},{"properties":{"city":"Maryborough","latitude":-25.535271,"country":"Australia","joe hockey":1,"longitude":152.692154,"id":"a65izrfhzwy2","state":"Queensland"},"type":"Feature","geometry":{"type":"Point","coordinates":[152.692154,-25.535271]}},{"properties":{"city":"Maryborough","latitude":-37.048641,"country":"Australia","joe hockey":1,"longitude":143.735611,"id":"a65izrj1lj8e","state":"Victoria"},"type":"Feature","geometry":{"type":"Point","coordinates":[143.735611,-37.048641]}},{"properties":{"city":"Matraville","latitude":-33.960442,"country":"Australia","joe hockey":1,"longitude":151.231522,"id":"a65izrguon40","state":"New South Wales"},"type":"Feature","geometry":{"type":"Point","coordinates":[151.231522,-33.960442]}},{"properties":{"city":"McMahons Point","latitude":-33.846298,"country":"Australia","joe hockey":1,"longitude":151.203995,"id":"a65izrmbvpeq","state":"New South Wales"},"type":"Feature","geometry":{"type":"Point","coordinates":[151.203995,-33.846298]}},{"properties":{"city":"Melbourne","latitude":-37.817532,"country":"Australia","joe hockey":1626,"longitude":144.967148,"id":"a65izrml1ntm","state":"Victoria"},"type":"Feature","geometry":{"type":"Point","coordinates":[144.967148,-37.817532]}},{"properties":{"city":"Melbourne University","latitude":-37.837559,"country":"Australia","joe hockey":1,"longitude":145.041321,"id":"a65izrk6pqnn","state":"Victoria"},"type":"Feature","geometry":{"type":"Point","coordinates":[145.041321,-37.837559]}},{"properties":{"city":"Melton","latitude":-37.683289,"country":"Australia","joe hockey":1,"longitude":144.581894,"id":"a65izrl4kish","state":"Victoria"},"type":"Feature","geometry":{"type":"Point","coordinates":[144.581894,-37.683289]}},{"properties":{"city":"Menzies","latitude":-20.71875,"country":"Australia","joe hockey":1,"longitude":139.495026,"id":"a65izrmvqsm2","state":"Queensland"},"type":"Feature","geometry":{"type":"Point","coordinates":[139.495026,-20.71875]}},{"properties":{"city":"Merbein","latitude":-34.167561,"country":"Australia","joe hockey":1,"longitude":142.058578,"id":"a65izrdevyhm","state":"Victoria"},"type":"Feature","geometry":{"type":"Point","coordinates":[142.058578,-34.167561]}},{"properties":{"city":"Merimbula","latitude":-36.888302,"country":"Australia","joe hockey":1,"longitude":149.905792,"id":"a65izrfcwvms","state":"New South Wales"},"type":"Feature","geometry":{"type":"Point","coordinates":[149.905792,-36.888302]}},{"properties":{"city":"Mermaid Beach","latitude":-28.036791,"country":"Australia","joe hockey":3,"longitude":153.432037,"id":"a65izrmzbmbw","state":"Queensland"},"type":"Feature","geometry":{"type":"Point","coordinates":[153.432037,-28.036791]}},{"properties":{"city":"Miami","latitude":25.728985,"country":"United States","joe hockey":1,"longitude":-80.237419,"id":"a65izrf730h9","state":"Florida"},"type":"Feature","geometry":{"type":"Point","coordinates":[-80.237419,25.728985]}},{"properties":{"city":"Middle Swan","latitude":-31.849159,"country":"Australia","joe hockey":1,"longitude":116.014931,"id":"a65izrkx0rls","state":"Western Australia"},"type":"Feature","geometry":{"type":"Point","coordinates":[116.014931,-31.849159]}},{"properties":{"city":"Mildura","latitude":-34.18605,"country":"Australia","joe hockey":8,"longitude":142.161713,"id":"a65izridla3o","state":"Victoria"},"type":"Feature","geometry":{"type":"Point","coordinates":[142.161713,-34.18605]}},{"properties":{"city":"Millicent","latitude":-37.593342,"country":"Australia","joe hockey":1,"longitude":140.351334,"id":"a65izrh8eumh","state":"South Australia"},"type":"Feature","geometry":{"type":"Point","coordinates":[140.351334,-37.593342]}},{"properties":{"city":"Miners Rest","latitude":-37.480701,"country":"Australia","joe hockey":1,"longitude":143.799927,"id":"a65izrbsqorl","state":"Victoria"},"type":"Feature","geometry":{"type":"Point","coordinates":[143.799927,-37.480701]}},{"properties":{"city":"Minneapolis","latitude":31.315203,"country":"United States","joe hockey":1,"longitude":-83.910862,"id":"a65izrobzvsx","state":"Minnesotta"},"type":"Feature","geometry":{"type":"Point","coordinates":[-83.910862,31.315203]}},{"properties":{"city":"Miranda","latitude":-34.91151,"country":"Australia","joe hockey":1,"longitude":144.60051,"id":"a65izrcodpp1","state":"New South Wales"},"type":"Feature","geometry":{"type":"Point","coordinates":[144.60051,-34.91151]}},{"properties":{"city":"Mitchell Park","latitude":-35.011181,"country":"Australia","joe hockey":1,"longitude":138.562454,"id":"a65izrr854wi","state":"South Australia"},"type":"Feature","geometry":{"type":"Point","coordinates":[138.562454,-35.011181]}},{"properties":{"city":"Mitt","latitude":-32.831032,"country":"Australia","joe hockey":1,"longitude":147.319046,"id":"a65izrfmet96","state":"New South Wales"},"type":"Feature","geometry":{"type":"Point","coordinates":[147.319046,-32.831032]}},{"properties":{"city":"Moe","latitude":-38.174858,"country":"Australia","joe hockey":2,"longitude":146.263916,"id":"a65izrot3cwx","state":"Victoria"},"type":"Feature","geometry":{"type":"Point","coordinates":[146.263916,-38.174858]}},{"properties":{"city":"Mollymook","latitude":-35.341301,"country":"Australia","joe hockey":1,"longitude":150.473816,"id":"a65izrlvzmxt","state":"New South Wales"},"type":"Feature","geometry":{"type":"Point","coordinates":[150.473816,-35.341301]}},{"properties":{"city":"Montreal","latitude":45.512293,"country":"Canada","joe hockey":9,"longitude":-73.554407,"id":"a65izrnk8nja","state":"Quebec"},"type":"Feature","geometry":{"type":"Point","coordinates":[-73.554407,45.512293]}},{"properties":{"city":"Montrose","latitude":-37.813919,"country":"Australia","joe hockey":1,"longitude":145.332474,"id":"a65izre36dor","state":"Victoria"},"type":"Feature","geometry":{"type":"Point","coordinates":[145.332474,-37.813919]}},{"properties":{"city":"Montville","latitude":-26.68622,"country":"Australia","joe hockey":1,"longitude":152.890167,"id":"a65izrdxtj64","state":"Queensland"},"type":"Feature","geometry":{"type":"Point","coordinates":[152.890167,-26.68622]}},{"properties":{"city":"Mordialloc","latitude":-38.001171,"country":"Australia","joe hockey":2,"longitude":145.093719,"id":"a65izrfefrhj","state":"Victoria"},"type":"Feature","geometry":{"type":"Point","coordinates":[145.093719,-38.001171]}},{"properties":{"city":"Morley","latitude":-31.89427,"country":"Australia","joe hockey":1,"longitude":115.896889,"id":"a65izrmpeixk","state":"Western Australia"},"type":"Feature","geometry":{"type":"Point","coordinates":[115.896889,-31.89427]}},{"properties":{"city":"Mornington","latitude":-38.217869,"country":"Australia","joe hockey":1,"longitude":145.03743,"id":"a65izrkdxejh","state":"Victoria"},"type":"Feature","geometry":{"type":"Point","coordinates":[145.03743,-38.217869]}},{"properties":{"city":"Mornington","latitude":-33.160789,"country":"Australia","joe hockey":1,"longitude":116.015709,"id":"a65izrmupk0a","state":"Western Australia"},"type":"Feature","geometry":{"type":"Point","coordinates":[116.015709,-33.160789]}},{"properties":{"city":"Morno","latitude":-36.558651,"country":"Australia","joe hockey":1,"longitude":145.468994,"id":"a65izrn7fa2j","state":"Victoria"},"type":"Feature","geometry":{"type":"Point","coordinates":[145.468994,-36.558651]}},{"properties":{"city":"Morphett Vale","latitude":-35.126202,"country":"Australia","joe hockey":1,"longitude":138.524429,"id":"a65izrqqlql4","state":"South Australia"},"type":"Feature","geometry":{"type":"Point","coordinates":[138.524429,-35.126202]}},{"properties":{"city":"Moscow","latitude":55.75695,"country":"Russia","joe hockey":1,"longitude":37.614975,"id":"a65izrq3in5c","state":null},"type":"Feature","geometry":{"type":"Point","coordinates":[37.614975,55.75695]}},{"properties":{"city":"Mosman","latitude":-33.829079,"country":"Australia","joe hockey":4,"longitude":151.244095,"id":"a65izrmgyw0f","state":"New South Wales"},"type":"Feature","geometry":{"type":"Point","coordinates":[151.244095,-33.829079]}},{"properties":{"city":"Mount Barker","latitude":-35.073711,"country":"Australia","joe hockey":3,"longitude":138.867966,"id":"a65izrek0u87","state":"South Australia"},"type":"Feature","geometry":{"type":"Point","coordinates":[138.867966,-35.073711]}},{"properties":{"city":"Mount Gambier","latitude":-37.828159,"country":"Australia","joe hockey":2,"longitude":140.780823,"id":"a65izrlzsvkc","state":"South Australia"},"type":"Feature","geometry":{"type":"Point","coordinates":[140.780823,-37.828159]}},{"properties":{"city":"Mount Isa","latitude":-20.73167,"country":"Australia","joe hockey":1,"longitude":139.481979,"id":"a65izrlpii4c","state":"Queensland"},"type":"Feature","geometry":{"type":"Point","coordinates":[139.481979,-20.73167]}},{"properties":{"city":"Mount Martha","latitude":-38.267551,"country":"Australia","joe hockey":2,"longitude":145.012878,"id":"a65izroe5ce9","state":"Victoria"},"type":"Feature","geometry":{"type":"Point","coordinates":[145.012878,-38.267551]}},{"properties":{"city":"Mount Waverley","latitude":-37.884258,"country":"Australia","joe hockey":1,"longitude":145.127426,"id":"a65izrpjwlah","state":"Victoria"},"type":"Feature","geometry":{"type":"Point","coordinates":[145.127426,-37.884258]}},{"properties":{"city":"Mountain View","latitude":37.389475,"country":"United States","joe hockey":1,"longitude":-122.081694,"id":"a65izri4apa3","state":"California"},"type":"Feature","geometry":{"type":"Point","coordinates":[-122.081694,37.389475]}},{"properties":{"city":"Mt Hawthorn","latitude":-31.920691,"country":"Australia","joe hockey":1,"longitude":115.837334,"id":"a65izrnijr1o","state":"Western Australia"},"type":"Feature","geometry":{"type":"Point","coordinates":[115.837334,-31.920691]}},{"properties":{"city":"Mudgeeraba","latitude":-28.075621,"country":"Australia","joe hockey":1,"longitude":153.364578,"id":"a65izrfj9dwu","state":"Queensland"},"type":"Feature","geometry":{"type":"Point","coordinates":[153.364578,-28.075621]}},{"properties":{"city":"Mulgrave","latitude":-37.91798,"country":"Australia","joe hockey":1,"longitude":145.158905,"id":"a65izrg71zdh","state":"Victoria"},"type":"Feature","geometry":{"type":"Point","coordinates":[145.158905,-37.91798]}},{"properties":{"city":"Murdoch","latitude":-32.063122,"country":"Australia","joe hockey":1,"longitude":115.836212,"id":"a65izrpgy4mv","state":"Western Australia"},"type":"Feature","geometry":{"type":"Point","coordinates":[115.836212,-32.063122]}},{"properties":{"city":"Nambour","latitude":-26.60936,"country":"Australia","joe hockey":1,"longitude":152.972153,"id":"a65izrf3whm0","state":"Queensland"},"type":"Feature","geometry":{"type":"Point","coordinates":[152.972153,-26.60936]}},{"properties":{"city":"Naracoorte","latitude":-36.95422,"country":"Australia","joe hockey":1,"longitude":140.730087,"id":"a65izrp6ix4v","state":"South Australia"},"type":"Feature","geometry":{"type":"Point","coordinates":[140.730087,-36.95422]}},{"properties":{"city":"Narangba","latitude":-27.18552,"country":"Australia","joe hockey":1,"longitude":152.934677,"id":"a65izrllipdv","state":"Queensland"},"type":"Feature","geometry":{"type":"Point","coordinates":[152.934677,-27.18552]}},{"properties":{"city":"Nelson Bay","latitude":-32.72279,"country":"Australia","joe hockey":1,"longitude":152.143311,"id":"a65izrfx2vx5","state":"New South Wales"},"type":"Feature","geometry":{"type":"Point","coordinates":[152.143311,-32.72279]}},{"properties":{"city":"New Delhi","latitude":24.7338,"country":"India","joe hockey":2,"longitude":81.33463,"id":"a65izrbdia20","state":null},"type":"Feature","geometry":{"type":"Point","coordinates":[81.33463,24.7338]}},{"properties":{"city":"New England","latitude":-33.949642,"country":"Australia","joe hockey":1,"longitude":151.092957,"id":"a65izrdn8u6c","state":"New South Wales"},"type":"Feature","geometry":{"type":"Point","coordinates":[151.092957,-33.949642]}},{"properties":{"city":"New York City","latitude":40.71455,"country":"United States","joe hockey":31,"longitude":-74.007124,"id":"a65izrq3voit","state":"New York"},"type":"Feature","geometry":{"type":"Point","coordinates":[-74.007124,40.71455]}},{"properties":{"city":"Newcastle","latitude":-32.928089,"country":"Australia","joe hockey":109,"longitude":151.772324,"id":"a65izrh5z9zh","state":"New South Wales"},"type":"Feature","geometry":{"type":"Point","coordinates":[151.772324,-32.928089]}},{"properties":{"city":"Newport","latitude":-37.842709,"country":"Australia","joe hockey":1,"longitude":144.882248,"id":"a65izrdu4k0e","state":"Victoria"},"type":"Feature","geometry":{"type":"Point","coordinates":[144.882248,-37.842709]}},{"properties":{"city":"Newtown","latitude":-38.15387,"country":"Australia","joe hockey":6,"longitude":144.344955,"id":"a65izrjlk1hr","state":"Victoria"},"type":"Feature","geometry":{"type":"Point","coordinates":[144.344955,-38.15387]}},{"properties":{"city":"Newtown","latitude":-33.89859,"country":"Australia","joe hockey":6,"longitude":151.175812,"id":"a65izrqjvbei","state":"New South Wales"},"type":"Feature","geometry":{"type":"Point","coordinates":[151.175812,-33.89859]}},{"properties":{"city":"Niddrie","latitude":-37.735771,"country":"Australia","joe hockey":1,"longitude":144.888458,"id":"a65izrqqpjez","state":"Victoria"},"type":"Feature","geometry":{"type":"Point","coordinates":[144.888458,-37.735771]}},{"properties":{"city":"Noosa","latitude":-26.399019,"country":"Australia","joe hockey":5,"longitude":153.086105,"id":"a65izrczhar9","state":"Queensland"},"type":"Feature","geometry":{"type":"Point","coordinates":[153.086105,-26.399019]}},{"properties":{"city":"Noosa Heads","latitude":-26.399019,"country":"Australia","joe hockey":1,"longitude":153.086105,"id":"a65izrndqzx7","state":"Queensland"},"type":"Feature","geometry":{"type":"Point","coordinates":[153.086105,-26.399019]}},{"properties":{"city":"Noranda","latitude":-31.8755,"country":"Australia","joe hockey":1,"longitude":115.895882,"id":"a65izrm391qa","state":"Western Australia"},"type":"Feature","geometry":{"type":"Point","coordinates":[115.895882,-31.8755]}},{"properties":{"city":"North Lakes","latitude":-27.22434,"country":"Australia","joe hockey":1,"longitude":153.013535,"id":"a65izrgeiq9e","state":"Queensland"},"type":"Feature","geometry":{"type":"Point","coordinates":[153.013535,-27.22434]}},{"properties":{"city":"North Melbourne","latitude":-37.800659,"country":"Australia","joe hockey":2,"longitude":144.947205,"id":"a65izrfx5v75","state":"Victoria"},"type":"Feature","geometry":{"type":"Point","coordinates":[144.947205,-37.800659]}},{"properties":{"city":"North Ryde","latitude":-33.793369,"country":"Australia","joe hockey":2,"longitude":151.119995,"id":"a65izrjckgwx","state":"New South Wales"},"type":"Feature","geometry":{"type":"Point","coordinates":[151.119995,-33.793369]}},{"properties":{"city":"North Sydney","latitude":-33.83989,"country":"Australia","joe hockey":6,"longitude":151.207779,"id":"a65izrhmak5l","state":"New South Wales"},"type":"Feature","geometry":{"type":"Point","coordinates":[151.207779,-33.83989]}},{"properties":{"city":"Northcote","latitude":-37.77005,"country":"Australia","joe hockey":5,"longitude":144.998886,"id":"a65izrjds5y7","state":"Victoria"},"type":"Feature","geometry":{"type":"Point","coordinates":[144.998886,-37.77005]}},{"properties":{"city":"Norwood","latitude":-34.921371,"country":"Australia","joe hockey":1,"longitude":138.632767,"id":"a65izrgf1emk","state":"South Australia"},"type":"Feature","geometry":{"type":"Point","coordinates":[138.632767,-34.921371]}},{"properties":{"city":"Nouméa","latitude":-21.242041,"country":"New Caledonia","joe hockey":1,"longitude":165.506744,"id":"a65izrnhictk","state":null},"type":"Feature","geometry":{"type":"Point","coordinates":[165.506744,-21.242041]}},{"properties":{"city":"Nowra","latitude":-34.87331,"country":"Australia","joe hockey":3,"longitude":150.60083,"id":"a65izrobv494","state":"New South Wales"},"type":"Feature","geometry":{"type":"Point","coordinates":[150.60083,-34.87331]}},{"properties":{"city":"Nunawading","latitude":-37.819271,"country":"Australia","joe hockey":1,"longitude":145.175766,"id":"a65izrg4j2xw","state":"Victoria"},"type":"Feature","geometry":{"type":"Point","coordinates":[145.175766,-37.819271]}},{"properties":{"city":"O'Connor","latitude":-35.444626,"country":"Australia","joe hockey":1,"longitude":149.109512,"id":"a65izrl1wzm7","state":"Australian Capital Territory"},"type":"Feature","geometry":{"type":"Point","coordinates":[149.109512,-35.444626]}},{"properties":{"city":"Oak Flats","latitude":-34.565418,"country":"Australia","joe hockey":1,"longitude":150.819397,"id":"a65izrlm3g5n","state":"New South Wales"},"type":"Feature","geometry":{"type":"Point","coordinates":[150.819397,-34.565418]}},{"properties":{"city":"Ocean Grove","latitude":-38.268299,"country":"Australia","joe hockey":1,"longitude":144.521729,"id":"a65izre1ezez","state":"Victoria"},"type":"Feature","geometry":{"type":"Point","coordinates":[144.521729,-38.268299]}},{"properties":{"city":"Orange","latitude":-33.282902,"country":"Australia","joe hockey":11,"longitude":149.095078,"id":"a65izrm5ql73","state":"New South Wales"},"type":"Feature","geometry":{"type":"Point","coordinates":[149.095078,-33.282902]}},{"properties":{"city":"Orange County","latitude":33.667099,"country":"United States","joe hockey":2,"longitude":-117.765053,"id":"a65izrphhec3","state":"California"},"type":"Feature","geometry":{"type":"Point","coordinates":[-117.765053,33.667099]}},{"properties":{"city":"Orlando","latitude":28.538235,"country":"United States","joe hockey":2,"longitude":-81.377389,"id":"a65izrh6ya1z","state":"Florida"},"type":"Feature","geometry":{"type":"Point","coordinates":[-81.377389,28.538235]}},{"properties":{"city":"Ormiston","latitude":-27.511869,"country":"Australia","joe hockey":1,"longitude":153.252914,"id":"a65izrcazi54","state":"Queensland"},"type":"Feature","geometry":{"type":"Point","coordinates":[153.252914,-27.511869]}},{"properties":{"city":"Ottawa","latitude":45.4215,"country":"Canada","joe hockey":5,"longitude":-75.691894,"id":"a65izrrcsk04","state":"Ontario"},"type":"Feature","geometry":{"type":"Point","coordinates":[-75.691894,45.4215]}},{"properties":{"city":"Ovingham","latitude":-34.8979,"country":"Australia","joe hockey":1,"longitude":138.585007,"id":"a65izrnwkow2","state":"South Australia"},"type":"Feature","geometry":{"type":"Point","coordinates":[138.585007,-34.8979]}},{"properties":{"city":"Oxford","latitude":-21.779341,"country":"Australia","joe hockey":1,"longitude":148.761749,"id":"a65izrpano3f","state":"Queensland"},"type":"Feature","geometry":{"type":"Point","coordinates":[148.761749,-21.779341]}},{"properties":{"city":"Paddington","latitude":-27.46195,"country":"Australia","joe hockey":2,"longitude":153.006683,"id":"a65izrobvbkg","state":"Queensland"},"type":"Feature","geometry":{"type":"Point","coordinates":[153.006683,-27.46195]}},{"properties":{"city":"Pakenham","latitude":-38.07151,"country":"Australia","joe hockey":1,"longitude":145.481506,"id":"a65izrnt0966","state":"Victoria"},"type":"Feature","geometry":{"type":"Point","coordinates":[145.481506,-38.07151]}},{"properties":{"city":"Paradise","latitude":-33.385929,"country":"Australia","joe hockey":3,"longitude":115.744308,"id":"a65izrnnyefj","state":"Western Australia"},"type":"Feature","geometry":{"type":"Point","coordinates":[115.744308,-33.385929]}},{"properties":{"city":"Paralowie","latitude":-34.744019,"country":"Australia","joe hockey":1,"longitude":138.611633,"id":"a65izrj8mt6q","state":"South Australia"},"type":"Feature","geometry":{"type":"Point","coordinates":[138.611633,-34.744019]}},{"properties":{"city":"Paraná","latitude":-31.726289,"country":"Argentina","joe hockey":1,"longitude":-60.531429,"id":"a65izrfduml7","state":null},"type":"Feature","geometry":{"type":"Point","coordinates":[-60.531429,-31.726289]}},{"properties":{"city":"Paris","latitude":48.85693,"country":"France","joe hockey":4,"longitude":2.3412,"id":"a65izrr52443","state":null},"type":"Feature","geometry":{"type":"Point","coordinates":[2.3412,48.85693]}},{"properties":{"city":"Parkville","latitude":-37.793129,"country":"Australia","joe hockey":3,"longitude":144.958176,"id":"a65izrh9z5o7","state":"Victoria"},"type":"Feature","geometry":{"type":"Point","coordinates":[144.958176,-37.793129]}},{"properties":{"city":"Parramatta","latitude":-33.81731,"country":"Australia","joe hockey":5,"longitude":151.00354,"id":"a65izrmznjk1","state":"New South Wales"},"type":"Feature","geometry":{"type":"Point","coordinates":[151.00354,-33.81731]}},{"properties":{"city":"Paterson","latitude":-32.603088,"country":"Australia","joe hockey":1,"longitude":151.617706,"id":"a65izrbc48re","state":"New South Wales"},"type":"Feature","geometry":{"type":"Point","coordinates":[151.617706,-32.603088]}},{"properties":{"city":"Pemberton","latitude":-34.444832,"country":"Australia","joe hockey":1,"longitude":116.034538,"id":"a65izrdku3s9","state":"Western Australia"},"type":"Feature","geometry":{"type":"Point","coordinates":[116.034538,-34.444832]}},{"properties":{"city":"Penrith","latitude":-33.753819,"country":"Australia","joe hockey":16,"longitude":150.698563,"id":"a65izrdgb8tj","state":"New South Wales"},"type":"Feature","geometry":{"type":"Point","coordinates":[150.698563,-33.753819]}},{"properties":{"city":"Peoria","latitude":40.69214,"country":"United States","joe hockey":1,"longitude":-89.587764,"id":"a65izrqfx62u","state":"Illinois"},"type":"Feature","geometry":{"type":"Point","coordinates":[-89.587764,40.69214]}},{"properties":{"city":"Perth","latitude":-31.95302,"country":"Australia","joe hockey":436,"longitude":115.857239,"id":"a65izrfzj9u1","state":"Western Australia"},"type":"Feature","geometry":{"type":"Point","coordinates":[115.857239,-31.95302]}},{"properties":{"city":"Petrie","latitude":-27.265421,"country":"Australia","joe hockey":1,"longitude":152.966766,"id":"a65izrbr9xm1","state":"Queensland"},"type":"Feature","geometry":{"type":"Point","coordinates":[152.966766,-27.265421]}},{"properties":{"city":"Philadelphia","latitude":39.95227,"country":"United States","joe hockey":3,"longitude":-75.162369,"id":"a65izre52uep","state":"Pennsylvania"},"type":"Feature","geometry":{"type":"Point","coordinates":[-75.162369,39.95227]}},{"properties":{"city":"Phoenix","latitude":33.44826,"country":"United States","joe hockey":2,"longitude":-112.075774,"id":"a65izrpq3dsv","state":"Arizona"},"type":"Feature","geometry":{"type":"Point","coordinates":[-112.075774,33.44826]}},{"properties":{"city":"Point Cook","latitude":-37.89584,"country":"Australia","joe hockey":1,"longitude":144.753525,"id":"a65izrei29is","state":"Victoria"},"type":"Feature","geometry":{"type":"Point","coordinates":[144.753525,-37.89584]}},{"properties":{"city":"Pomona","latitude":-26.39089,"country":"Australia","joe hockey":1,"longitude":152.855392,"id":"a65izrexjvui","state":"Queensland"},"type":"Feature","geometry":{"type":"Point","coordinates":[152.855392,-26.39089]}},{"properties":{"city":"Port Douglas","latitude":-16.484449,"country":"Australia","joe hockey":4,"longitude":145.465439,"id":"a65izrdlx3vz","state":"Queensland"},"type":"Feature","geometry":{"type":"Point","coordinates":[145.465439,-16.484449]}},{"properties":{"city":"Port Elliot","latitude":-35.53191,"country":"Australia","joe hockey":1,"longitude":138.669815,"id":"a65izrf0rk76","state":"South Australia"},"type":"Feature","geometry":{"type":"Point","coordinates":[138.669815,-35.53191]}},{"properties":{"city":"Port Fairy","latitude":-38.384609,"country":"Australia","joe hockey":1,"longitude":142.227127,"id":"a65izrl0gsly","state":"Victoria"},"type":"Feature","geometry":{"type":"Point","coordinates":[142.227127,-38.384609]}},{"properties":{"city":"Port Jackson","latitude":-33.445595,"country":"Australia","joe hockey":2,"longitude":151.42186,"id":"a65izrbzszoe","state":"New South Wales"},"type":"Feature","geometry":{"type":"Point","coordinates":[151.42186,-33.445595]}},{"properties":{"city":"Port Lincoln","latitude":-34.721958,"country":"Australia","joe hockey":1,"longitude":135.857956,"id":"a65izre3dzl7","state":"South Australia"},"type":"Feature","geometry":{"type":"Point","coordinates":[135.857956,-34.721958]}},{"properties":{"city":"Port Macquarie","latitude":-31.4296,"country":"Australia","joe hockey":1,"longitude":152.908173,"id":"a65izrouou4n","state":"New South Wales"},"type":"Feature","geometry":{"type":"Point","coordinates":[152.908173,-31.4296]}},{"properties":{"city":"Port Melbourne","latitude":-37.83382,"country":"Australia","joe hockey":3,"longitude":144.924606,"id":"a65izrb9fz95","state":"Victoria"},"type":"Feature","geometry":{"type":"Point","coordinates":[144.924606,-37.83382]}},{"properties":{"city":"Port Pirie","latitude":-33.17704,"country":"Australia","joe hockey":2,"longitude":138.010223,"id":"a65izrg41tnk","state":"South Australia"},"type":"Feature","geometry":{"type":"Point","coordinates":[138.010223,-33.17704]}},{"properties":{"city":"Port Stephens","latitude":-32.681301,"country":"Australia","joe hockey":1,"longitude":152.169693,"id":"a65izrnztuxx","state":"New South Wales"},"type":"Feature","geometry":{"type":"Point","coordinates":[152.169693,-32.681301]}},{"properties":{"city":"Portland","latitude":45.511795,"country":"United States","joe hockey":2,"longitude":-122.675629,"id":"a65izrbnojyh","state":"Oregon"},"type":"Feature","geometry":{"type":"Point","coordinates":[-122.675629,45.511795]}},{"properties":{"city":"Portland","latitude":-38.355289,"country":"Australia","joe hockey":1,"longitude":141.614258,"id":"a65izrj8rpcg","state":"Victoria"},"type":"Feature","geometry":{"type":"Point","coordinates":[141.614258,-38.355289]}},{"properties":{"city":"Prahran","latitude":-37.851341,"country":"Australia","joe hockey":1,"longitude":144.993423,"id":"a65izre5bxmg","state":"Victoria"},"type":"Feature","geometry":{"type":"Point","coordinates":[144.993423,-37.851341]}},{"properties":{"city":"Pymble","latitude":-33.740528,"country":"Australia","joe hockey":1,"longitude":151.137497,"id":"a65izrm3c422","state":"New South Wales"},"type":"Feature","geometry":{"type":"Point","coordinates":[151.137497,-33.740528]}},{"properties":{"city":"Queanbeyan","latitude":-35.355091,"country":"Australia","joe hockey":5,"longitude":149.232651,"id":"a65izrgfr7k6","state":"New South Wales"},"type":"Feature","geometry":{"type":"Point","coordinates":[149.232651,-35.355091]}},{"properties":{"city":"Randwick","latitude":-33.91399,"country":"Australia","joe hockey":2,"longitude":151.239914,"id":"a65izri0v1mg","state":"New South Wales"},"type":"Feature","geometry":{"type":"Point","coordinates":[151.239914,-33.91399]}},{"properties":{"city":"Rarrnameool","latitude":-36.558651,"country":"Australia","joe hockey":1,"longitude":145.468994,"id":"a65izrfr5xrt","state":"Victoria"},"type":"Feature","geometry":{"type":"Point","coordinates":[145.468994,-36.558651]}},{"properties":{"city":"Red Hill","latitude":-38.37204,"country":"Australia","joe hockey":1,"longitude":145.019516,"id":"a65izrqgk0iu","state":"Victoria"},"type":"Feature","geometry":{"type":"Point","coordinates":[145.019516,-38.37204]}},{"properties":{"city":"Redbank","latitude":-27.602909,"country":"Australia","joe hockey":1,"longitude":152.869324,"id":"a65izrj6p5fl","state":"Queensland"},"type":"Feature","geometry":{"type":"Point","coordinates":[152.869324,-27.602909]}},{"properties":{"city":"Redcliffe","latitude":-27.22217,"country":"Australia","joe hockey":2,"longitude":153.107224,"id":"a65izrnitnj6","state":"Queensland"},"type":"Feature","geometry":{"type":"Point","coordinates":[153.107224,-27.22217]}},{"properties":{"city":"Redfern","latitude":-33.893169,"country":"Australia","joe hockey":2,"longitude":151.206818,"id":"a65izrjma2is","state":"New South Wales"},"type":"Feature","geometry":{"type":"Point","coordinates":[151.206818,-33.893169]}},{"properties":{"city":"Redland Bay","latitude":-27.60936,"country":"Australia","joe hockey":1,"longitude":153.293716,"id":"a65izrez2ikg","state":"Queensland"},"type":"Feature","geometry":{"type":"Point","coordinates":[153.293716,-27.60936]}},{"properties":{"city":"Redland City","latitude":-19.93272,"country":"Australia","joe hockey":1,"longitude":145.774063,"id":"a65izrq0oob0","state":"Queensland"},"type":"Feature","geometry":{"type":"Point","coordinates":[145.774063,-19.93272]}},{"properties":{"city":"Redlands","latitude":-27.483187,"country":"Australia","joe hockey":1,"longitude":151.860504,"id":"a65izrngxoqb","state":"Queensland"},"type":"Feature","geometry":{"type":"Point","coordinates":[151.860504,-27.483187]}},{"properties":{"city":"Renmark","latitude":-34.175369,"country":"Australia","joe hockey":1,"longitude":140.745544,"id":"a65izrcwib77","state":"South Australia"},"type":"Feature","geometry":{"type":"Point","coordinates":[140.745544,-34.175369]}},{"properties":{"city":"Reservoir","latitude":-37.708099,"country":"Australia","joe hockey":1,"longitude":145.000687,"id":"a65izrioq621","state":"Victoria"},"type":"Feature","geometry":{"type":"Point","coordinates":[145.000687,-37.708099]}},{"properties":{"city":"Richmond","latitude":-37.81702,"country":"Australia","joe hockey":6,"longitude":144.999451,"id":"a65izrbyhg39","state":"Victoria"},"type":"Feature","geometry":{"type":"Point","coordinates":[144.999451,-37.81702]}},{"properties":{"city":"Riga","latitude":56.946,"country":"Latvia","joe hockey":1,"longitude":24.114905,"id":"a65izrq6b55h","state":null},"type":"Feature","geometry":{"type":"Point","coordinates":[24.114905,56.946]}},{"properties":{"city":"Ringwood","latitude":-37.81572,"country":"Australia","joe hockey":2,"longitude":145.227524,"id":"a65izrcaeka5","state":"Victoria"},"type":"Feature","geometry":{"type":"Point","coordinates":[145.227524,-37.81572]}},{"properties":{"city":"Robertson","latitude":-34.589981,"country":"Australia","joe hockey":1,"longitude":150.570724,"id":"a65izrr7vwh7","state":"New South Wales"},"type":"Feature","geometry":{"type":"Point","coordinates":[150.570724,-34.589981]}},{"properties":{"city":"Robina","latitude":-28.068001,"country":"Australia","joe hockey":2,"longitude":153.390381,"id":"a65izrob9qs6","state":"Queensland"},"type":"Feature","geometry":{"type":"Point","coordinates":[153.390381,-28.068001]}},{"properties":{"city":"Rockhampton","latitude":-23.374241,"country":"Australia","joe hockey":8,"longitude":150.503662,"id":"a65izrgze3bq","state":"Queensland"},"type":"Feature","geometry":{"type":"Point","coordinates":[150.503662,-23.374241]}},{"properties":{"city":"Roma","latitude":-26.573429,"country":"Australia","joe hockey":3,"longitude":148.787323,"id":"a65izrmzq2t6","state":"Queensland"},"type":"Feature","geometry":{"type":"Point","coordinates":[148.787323,-26.573429]}},{"properties":{"city":"Rosario","latitude":-32.967799,"country":"Argentina","joe hockey":1,"longitude":-60.659239,"id":"a65izrkhopqw","state":null},"type":"Feature","geometry":{"type":"Point","coordinates":[-60.659239,-32.967799]}},{"properties":{"city":"Rostrevor","latitude":-34.889912,"country":"Australia","joe hockey":1,"longitude":138.6922,"id":"a65izrqmukv0","state":"South Australia"},"type":"Feature","geometry":{"type":"Point","coordinates":[138.6922,-34.889912]}},{"properties":{"city":"Rotorua","latitude":-38.189018,"country":"New Zealand","joe hockey":1,"longitude":176.905289,"id":"a65izrh7f2m7","state":"Bay of Plenty"},"type":"Feature","geometry":{"type":"Point","coordinates":[176.905289,-38.189018]}},{"properties":{"city":"Rouse Hill","latitude":-33.67923,"country":"Australia","joe hockey":1,"longitude":150.922348,"id":"a65izrlou93a","state":"New South Wales"},"type":"Feature","geometry":{"type":"Point","coordinates":[150.922348,-33.67923]}},{"properties":{"city":"Runaway Bay","latitude":-27.924219,"country":"Australia","joe hockey":1,"longitude":153.403931,"id":"a65izrigsvyl","state":"Queensland"},"type":"Feature","geometry":{"type":"Point","coordinates":[153.403931,-27.924219]}},{"properties":{"city":"Ryde","latitude":-33.81332,"country":"Australia","joe hockey":1,"longitude":151.105469,"id":"a65izrm0ibvj","state":"New South Wales"},"type":"Feature","geometry":{"type":"Point","coordinates":[151.105469,-33.81332]}},{"properties":{"city":"Rye","latitude":-38.37014,"country":"Australia","joe hockey":1,"longitude":144.820755,"id":"a65izrfxbhan","state":"Victoria"},"type":"Feature","geometry":{"type":"Point","coordinates":[144.820755,-38.37014]}},{"properties":{"city":"Salt Lake City","latitude":40.759505,"country":"United States","joe hockey":1,"longitude":-111.888229,"id":"a65izrii25tl","state":"Utah"},"type":"Feature","geometry":{"type":"Point","coordinates":[-111.888229,40.759505]}},{"properties":{"city":"Salta","latitude":-24.788589,"country":"Argentina","joe hockey":1,"longitude":-65.410259,"id":"a65izredqpg9","state":null},"type":"Feature","geometry":{"type":"Point","coordinates":[-65.410259,-24.788589]}},{"properties":{"city":"San Antonio","latitude":29.42449,"country":"United States","joe hockey":1,"longitude":-98.494624,"id":"a65izrevm4v4","state":"Texas"},"type":"Feature","geometry":{"type":"Point","coordinates":[-98.494624,29.42449]}},{"properties":{"city":"San Diego","latitude":32.715695,"country":"United States","joe hockey":3,"longitude":-117.161719,"id":"a65izrfdni6s","state":"California"},"type":"Feature","geometry":{"type":"Point","coordinates":[-117.161719,32.715695]}},{"properties":{"city":"San Francicso","latitude":37.777125,"country":"United States","joe hockey":3,"longitude":-122.419644,"id":"a65izrefmqrd","state":"California"},"type":"Feature","geometry":{"type":"Point","coordinates":[-122.419644,37.777125]}},{"properties":{"city":"Sandgate","latitude":-27.3158,"country":"Australia","joe hockey":1,"longitude":153.066299,"id":"a65izrbprwee","state":"Queensland"},"type":"Feature","geometry":{"type":"Point","coordinates":[153.066299,-27.3158]}},{"properties":{"city":"Sandy Bay","latitude":-42.901249,"country":"Australia","joe hockey":2,"longitude":147.332809,"id":"a65izre3bjhf","state":"Tasmania"},"type":"Feature","geometry":{"type":"Point","coordinates":[147.332809,-42.901249]}},{"properties":{"city":"Sawtell","latitude":-30.370171,"country":"Australia","joe hockey":2,"longitude":153.099716,"id":"a65izrh4ddwb","state":"New South Wales"},"type":"Feature","geometry":{"type":"Point","coordinates":[153.099716,-30.370171]}},{"properties":{"city":"Seattle","latitude":47.60356,"country":"United States","joe hockey":2,"longitude":-122.329439,"id":"a65izrl4xlek","state":"Washington"},"type":"Feature","geometry":{"type":"Point","coordinates":[-122.329439,47.60356]}},{"properties":{"city":"Shanghai","latitude":31.247709,"country":"China","joe hockey":2,"longitude":121.472618,"id":"a65izrb2wqz3","state":null},"type":"Feature","geometry":{"type":"Point","coordinates":[121.472618,31.247709]}},{"properties":{"city":"Shearwater","latitude":-41.157669,"country":"Australia","joe hockey":1,"longitude":146.534409,"id":"a65izrozi61m","state":"Tasmania"},"type":"Feature","geometry":{"type":"Point","coordinates":[146.534409,-41.157669]}},{"properties":{"city":"Sheffield","latitude":-41.384521,"country":"Australia","joe hockey":1,"longitude":146.330872,"id":"a65izrf2diva","state":"Tasmania"},"type":"Feature","geometry":{"type":"Point","coordinates":[146.330872,-41.384521]}},{"properties":{"city":"Shellharbour","latitude":-34.575691,"country":"Australia","joe hockey":1,"longitude":150.86412,"id":"a65izrntq4j5","state":"New South Wales"},"type":"Feature","geometry":{"type":"Point","coordinates":[150.86412,-34.575691]}},{"properties":{"city":"Shepparton","latitude":-36.381401,"country":"Australia","joe hockey":11,"longitude":145.401749,"id":"a65izrbgo9ss","state":"Victoria"},"type":"Feature","geometry":{"type":"Point","coordinates":[145.401749,-36.381401]}},{"properties":{"city":"Shoalhaven","latitude":-35.143299,"country":"Australia","joe hockey":1,"longitude":150.417175,"id":"a65izrjqkyfs","state":"New South Wales"},"type":"Feature","geometry":{"type":"Point","coordinates":[150.417175,-35.143299]}},{"properties":{"city":"Siesta Key","latitude":27.267191,"country":"United States","joe hockey":1,"longitude":-82.549927,"id":"a65izrk4j0f9","state":"Florida"},"type":"Feature","geometry":{"type":"Point","coordinates":[-82.549927,27.267191]}},{"properties":{"city":"Singapore","latitude":1.29378,"country":"Singapore","joe hockey":19,"longitude":103.853256,"id":"a65izrcfjey3","state":null},"type":"Feature","geometry":{"type":"Point","coordinates":[103.853256,1.29378]}},{"properties":{"city":"Smithton","latitude":-40.85545,"country":"Australia","joe hockey":1,"longitude":145.120346,"id":"a65izrlf5arc","state":"Tasmania"},"type":"Feature","geometry":{"type":"Point","coordinates":[145.120346,-40.85545]}},{"properties":{"city":"Somers","latitude":-38.383572,"country":"Australia","joe hockey":1,"longitude":145.172028,"id":"a65izrq7algx","state":"Victoria"},"type":"Feature","geometry":{"type":"Point","coordinates":[145.172028,-38.383572]}},{"properties":{"city":"Somerville","latitude":-38.22234,"country":"Australia","joe hockey":3,"longitude":145.17453,"id":"a65izrit48al","state":"Victoria"},"type":"Feature","geometry":{"type":"Point","coordinates":[145.17453,-38.22234]}},{"properties":{"city":"South Brisbane","latitude":-27.47579,"country":"Australia","joe hockey":1,"longitude":153.01503,"id":"a65izrh5gmxc","state":"Queensland"},"type":"Feature","geometry":{"type":"Point","coordinates":[153.01503,-27.47579]}},{"properties":{"city":"South Coogee","latitude":-33.928829,"country":"Australia","joe hockey":1,"longitude":151.252823,"id":"a65izrcxhr2x","state":"New South Wales"},"type":"Feature","geometry":{"type":"Point","coordinates":[151.252823,-33.928829]}},{"properties":{"city":"South Melbourne","latitude":-37.834549,"country":"Australia","joe hockey":6,"longitude":144.960175,"id":"a65izrh5dfka","state":"Victoria"},"type":"Feature","geometry":{"type":"Point","coordinates":[144.960175,-37.834549]}},{"properties":{"city":"South Perth","latitude":-31.97521,"country":"Australia","joe hockey":3,"longitude":115.855759,"id":"a65izrhtpovc","state":"Western Australia"},"type":"Feature","geometry":{"type":"Point","coordinates":[115.855759,-31.97521]}},{"properties":{"city":"South Yarra","latitude":-37.839531,"country":"Australia","joe hockey":2,"longitude":144.995895,"id":"a65izrem6yii","state":"Victoria"},"type":"Feature","geometry":{"type":"Point","coordinates":[144.995895,-37.839531]}},{"properties":{"city":"Southbank","latitude":-37.825401,"country":"Australia","joe hockey":1,"longitude":144.960709,"id":"a65izrhbkyim","state":"Victoria"},"type":"Feature","geometry":{"type":"Point","coordinates":[144.960709,-37.825401]}},{"properties":{"city":"Southport","latitude":-27.96553,"country":"Australia","joe hockey":2,"longitude":153.415558,"id":"a65izremk5uw","state":"Queensland"},"type":"Feature","geometry":{"type":"Point","coordinates":[153.415558,-27.96553]}},{"properties":{"city":"Springwood","latitude":-27.61746,"country":"Australia","joe hockey":1,"longitude":153.132095,"id":"a65izrgra9nj","state":"Queensland"},"type":"Feature","geometry":{"type":"Point","coordinates":[153.132095,-27.61746]}},{"properties":{"city":"St Andrews","latitude":-37.60136,"country":"Australia","joe hockey":1,"longitude":145.272537,"id":"a65izrjcjslc","state":"Victoria"},"type":"Feature","geometry":{"type":"Point","coordinates":[145.272537,-37.60136]}},{"properties":{"city":"St Kilda","latitude":-37.85812,"country":"Australia","joe hockey":2,"longitude":144.980133,"id":"a65izrlvm8bz","state":"Victoria"},"type":"Feature","geometry":{"type":"Point","coordinates":[144.980133,-37.85812]}},{"properties":{"city":"St Kilda East","latitude":-37.861488,"country":"Australia","joe hockey":1,"longitude":144.996826,"id":"a65izrjp7r3m","state":"Victoria"},"type":"Feature","geometry":{"type":"Point","coordinates":[144.996826,-37.861488]}},{"properties":{"city":"St Kilda West","latitude":-37.856918,"country":"Australia","joe hockey":1,"longitude":144.974167,"id":"a65izrgy94qe","state":"Victoria"},"type":"Feature","geometry":{"type":"Point","coordinates":[144.974167,-37.856918]}},{"properties":{"city":"St Peters","latitude":-34.90472,"country":"Australia","joe hockey":1,"longitude":138.623505,"id":"a65izrgq3al7","state":"South Australia"},"type":"Feature","geometry":{"type":"Point","coordinates":[138.623505,-34.90472]}},{"properties":{"city":"Stanthorpe","latitude":-28.65159,"country":"Australia","joe hockey":2,"longitude":151.940201,"id":"a65izrb3v10n","state":"Queensland"},"type":"Feature","geometry":{"type":"Point","coordinates":[151.940201,-28.65159]}},{"properties":{"city":"Stirling","latitude":-31.885981,"country":"Australia","joe hockey":1,"longitude":115.809891,"id":"a65izrhij7jo","state":"Western Australia"},"type":"Feature","geometry":{"type":"Point","coordinates":[115.809891,-31.885981]}},{"properties":{"city":"Stockholm","latitude":59.33228,"country":"Sweden","joe hockey":1,"longitude":18.06284,"id":"a65izrn6ir94","state":null},"type":"Feature","geometry":{"type":"Point","coordinates":[18.06284,59.33228]}},{"properties":{"city":"Stonnington","latitude":-37.861622,"country":"Australia","joe hockey":2,"longitude":145.036102,"id":"a65izrc4t9fq","state":"Victoria"},"type":"Feature","geometry":{"type":"Point","coordinates":[145.036102,-37.861622]}},{"properties":{"city":"Strathfield","latitude":-33.87154,"country":"Australia","joe hockey":1,"longitude":151.093094,"id":"a65izrkxxd2a","state":"New South Wales"},"type":"Feature","geometry":{"type":"Point","coordinates":[151.093094,-33.87154]}},{"properties":{"city":"Subiaco","latitude":-31.946831,"country":"Australia","joe hockey":3,"longitude":115.82399,"id":"a65izri6h1ej","state":"Western Australia"},"type":"Feature","geometry":{"type":"Point","coordinates":[115.82399,-31.946831]}},{"properties":{"city":"Sunshine Coast","latitude":-26.544279,"country":"Australia","joe hockey":56,"longitude":153.025314,"id":"a65izrjbwqul","state":"Queensland"},"type":"Feature","geometry":{"type":"Point","coordinates":[153.025314,-26.544279]}},{"properties":{"city":"Surf Coast","latitude":-38.347252,"country":"Australia","joe hockey":1,"longitude":144.117523,"id":"a65izrr9nc86","state":"Victoria"},"type":"Feature","geometry":{"type":"Point","coordinates":[144.117523,-38.347252]}},{"properties":{"city":"Surfers Paradise","latitude":-28.002331,"country":"Australia","joe hockey":6,"longitude":153.428543,"id":"a65izrlpqhuu","state":"Queensland"},"type":"Feature","geometry":{"type":"Point","coordinates":[153.428543,-28.002331]}},{"properties":{"city":"Surry Hills","latitude":-33.879051,"country":"Australia","joe hockey":7,"longitude":151.212982,"id":"a65izrbvj24e","state":"New South Wales"},"type":"Feature","geometry":{"type":"Point","coordinates":[151.212982,-33.879051]}},{"properties":{"city":"Sydney","latitude":-33.869629,"country":"Australia","joe hockey":2613,"longitude":151.206955,"id":"a65izrmh86xj","state":"New South Wales"},"type":"Feature","geometry":{"type":"Point","coordinates":[151.206955,-33.869629]}},{"properties":{"city":"Tamborine Mountain","latitude":-27.92017,"country":"Australia","joe hockey":1,"longitude":153.198853,"id":"a65izrfkj4tp","state":"Queensland"},"type":"Feature","geometry":{"type":"Point","coordinates":[153.198853,-27.92017]}},{"properties":{"city":"Tampa","latitude":27.94653,"country":"United States","joe hockey":3,"longitude":-82.459269,"id":"a65izrmcaiua","state":"Florida"},"type":"Feature","geometry":{"type":"Point","coordinates":[-82.459269,27.94653]}},{"properties":{"city":"Tamworth","latitude":-31.090639,"country":"Australia","joe hockey":7,"longitude":150.928528,"id":"a65izrpo8m9t","state":"New South Wales"},"type":"Feature","geometry":{"type":"Point","coordinates":[150.928528,-31.090639]}},{"properties":{"city":"Tarneit","latitude":-37.817719,"country":"Australia","joe hockey":2,"longitude":144.675354,"id":"a65izro7cuor","state":"Victoria"},"type":"Feature","geometry":{"type":"Point","coordinates":[144.675354,-37.817719]}},{"properties":{"city":"Taupo","latitude":-40.621769,"country":"New Zealand","joe hockey":1,"longitude":172.680387,"id":"a65izrqyw0m3","state":"Waikato"},"type":"Feature","geometry":{"type":"Point","coordinates":[172.680387,-40.621769]}},{"properties":{"city":"Tehran","latitude":35.67194,"country":"Iran","joe hockey":5,"longitude":51.424438,"id":"a65izrjh4hke","state":null},"type":"Feature","geometry":{"type":"Point","coordinates":[51.424438,35.67194]}},{"properties":{"city":"Theodore","latitude":-35.447071,"country":"Australia","joe hockey":1,"longitude":149.124557,"id":"a65izrre33yk","state":"Australian Capital Territory"},"type":"Feature","geometry":{"type":"Point","coordinates":[149.124557,-35.447071]}},{"properties":{"city":"Thornbury","latitude":-37.756672,"country":"Australia","joe hockey":1,"longitude":145.000931,"id":"a65izrkj0ru0","state":"Victoria"},"type":"Feature","geometry":{"type":"Point","coordinates":[145.000931,-37.756672]}},{"properties":{"city":"Tin Can Bay","latitude":-25.92132,"country":"Australia","joe hockey":1,"longitude":152.999832,"id":"a65izrh7c6mb","state":"Queensland"},"type":"Feature","geometry":{"type":"Point","coordinates":[152.999832,-25.92132]}},{"properties":{"city":"Tokyo","latitude":35.670479,"country":"Japan","joe hockey":3,"longitude":139.740921,"id":"a65izrnth33p","state":null},"type":"Feature","geometry":{"type":"Point","coordinates":[139.740921,35.670479]}},{"properties":{"city":"Tonimbuk","latitude":-38.032799,"country":"Australia","joe hockey":1,"longitude":145.721268,"id":"a65izrr505vy","state":"Victoria"},"type":"Feature","geometry":{"type":"Point","coordinates":[145.721268,-38.032799]}},{"properties":{"city":"Toongabbie","latitude":-38.060181,"country":"Australia","joe hockey":1,"longitude":146.624695,"id":"a65izrii95rt","state":"Victoria"},"type":"Feature","geometry":{"type":"Point","coordinates":[146.624695,-38.060181]}},{"properties":{"city":"Toowoomba","latitude":-27.561449,"country":"Australia","joe hockey":39,"longitude":151.953293,"id":"a65izrf5atja","state":"Queensland"},"type":"Feature","geometry":{"type":"Point","coordinates":[151.953293,-27.561449]}},{"properties":{"city":"Toowoomba","latitude":-27.561449,"country":"Australia","joe hockey":1,"longitude":151.953293,"id":"a65izrmc1cvb","state":"Queensland"},"type":"Feature","geometry":{"type":"Point","coordinates":[151.953293,-27.561449]}},{"properties":{"city":"Toronto","latitude":43.64856,"country":"Canada","joe hockey":23,"longitude":-79.385324,"id":"a65izrg9bfeo","state":"Ontario"},"type":"Feature","geometry":{"type":"Point","coordinates":[-79.385324,43.64856]}},{"properties":{"city":"Torquay","latitude":-38.329899,"country":"Australia","joe hockey":3,"longitude":144.318115,"id":"a65izrehof54","state":"Victoria"},"type":"Feature","geometry":{"type":"Point","coordinates":[144.318115,-38.329899]}},{"properties":{"city":"Townsville","latitude":-19.257231,"country":"Australia","joe hockey":55,"longitude":146.82106,"id":"a65izrciqd18","state":"Queensland"},"type":"Feature","geometry":{"type":"Point","coordinates":[146.82106,-19.257231]}},{"properties":{"city":"Townsvillel","latitude":-19.93272,"country":"Australia","joe hockey":1,"longitude":145.774063,"id":"a65izrjlc9yp","state":"Queensland"},"type":"Feature","geometry":{"type":"Point","coordinates":[145.774063,-19.93272]}},{"properties":{"city":"Traralgon","latitude":-38.19495,"country":"Australia","joe hockey":4,"longitude":146.538147,"id":"a65izrkz5fj5","state":"Victoria"},"type":"Feature","geometry":{"type":"Point","coordinates":[146.538147,-38.19495]}},{"properties":{"city":"Tugun","latitude":-28.14184,"country":"Australia","joe hockey":1,"longitude":153.492126,"id":"a65izrnkpqae","state":"Queensland"},"type":"Feature","geometry":{"type":"Point","coordinates":[153.492126,-28.14184]}},{"properties":{"city":"Turramurra","latitude":-33.732601,"country":"Australia","joe hockey":1,"longitude":151.129196,"id":"a65izrof3pk1","state":"New South Wales"},"type":"Feature","geometry":{"type":"Point","coordinates":[151.129196,-33.732601]}},{"properties":{"city":"University Of Melbourne","latitude":-37.798328,"country":"Australia","joe hockey":1,"longitude":144.960373,"id":"a65izrjfbhkr","state":"Victoria"},"type":"Feature","geometry":{"type":"Point","coordinates":[144.960373,-37.798328]}},{"properties":{"city":"Uppsala","latitude":59.85845,"country":"Sweden","joe hockey":1,"longitude":17.64405,"id":"a65izrm7w9do","state":null},"type":"Feature","geometry":{"type":"Point","coordinates":[17.64405,59.85845]}},{"properties":{"city":"Van Nuys","latitude":34.18416,"country":"United States","joe hockey":1,"longitude":-118.446517,"id":"a65izrexe92s","state":"California"},"type":"Feature","geometry":{"type":"Point","coordinates":[-118.446517,34.18416]}},{"properties":{"city":"Vancouver","latitude":49.26044,"country":"Canada","joe hockey":19,"longitude":-123.114034,"id":"a65izrmxe38l","state":"British Columbia"},"type":"Feature","geometry":{"type":"Point","coordinates":[-123.114034,49.26044]}},{"properties":{"city":"Vermont","latitude":-37.83617,"country":"Australia","joe hockey":1,"longitude":145.195023,"id":"a65izroej0f6","state":"Victoria"},"type":"Feature","geometry":{"type":"Point","coordinates":[145.195023,-37.83617]}},{"properties":{"city":"Vicco","latitude":-36.558651,"country":"Australia","joe hockey":1,"longitude":145.468994,"id":"a65izrr70c6x","state":"Victoria"},"type":"Feature","geometry":{"type":"Point","coordinates":[145.468994,-36.558651]}},{"properties":{"city":"Victor Harbor","latitude":-35.54974,"country":"Australia","joe hockey":1,"longitude":138.624435,"id":"a65izrb1696e","state":"South Australia"},"type":"Feature","geometry":{"type":"Point","coordinates":[138.624435,-35.54974]}},{"properties":{"city":"Victoria Park","latitude":-31.97678,"country":"Australia","joe hockey":1,"longitude":115.898369,"id":"a65izreurdsn","state":"Western Australia"},"type":"Feature","geometry":{"type":"Point","coordinates":[115.898369,-31.97678]}},{"properties":{"city":"Virginia","latitude":-34.667542,"country":"Australia","joe hockey":1,"longitude":138.560806,"id":"a65izri0ok55","state":"South Australia"},"type":"Feature","geometry":{"type":"Point","coordinates":[138.560806,-34.667542]}},{"properties":{"city":"Vladivostok","latitude":43.154616,"country":"Russia","joe hockey":1,"longitude":131.910755,"id":"a65izrh9h5q1","state":null},"type":"Feature","geometry":{"type":"Point","coordinates":[131.910755,43.154616]}},{"properties":{"city":"Wagga Wagga","latitude":-35.117241,"country":"Australia","joe hockey":11,"longitude":147.357193,"id":"a65izrq3o0pw","state":"New South Wales"},"type":"Feature","geometry":{"type":"Point","coordinates":[147.357193,-35.117241]}},{"properties":{"city":"Walkerston","latitude":-21.16041,"country":"Australia","joe hockey":1,"longitude":149.06546,"id":"a65izrh9to4q","state":"Queensland"},"type":"Feature","geometry":{"type":"Point","coordinates":[149.06546,-21.16041]}},{"properties":{"city":"Wamberal","latitude":-33.418209,"country":"Australia","joe hockey":7,"longitude":151.443146,"id":"a65izre3fkri","state":"New South Wales"},"type":"Feature","geometry":{"type":"Point","coordinates":[151.443146,-33.418209]}},{"properties":{"city":"Wanbi","latitude":-34.765919,"country":"Australia","joe hockey":1,"longitude":140.308456,"id":"a65izrnvevb5","state":"South Australia"},"type":"Feature","geometry":{"type":"Point","coordinates":[140.308456,-34.765919]}},{"properties":{"city":"Wangaratta","latitude":-36.354839,"country":"Australia","joe hockey":4,"longitude":146.326111,"id":"a65izrdx5iie","state":"Victoria"},"type":"Feature","geometry":{"type":"Point","coordinates":[146.326111,-36.354839]}},{"properties":{"city":"Wantirna South","latitude":-37.871948,"country":"Australia","joe hockey":1,"longitude":145.244843,"id":"a65izrck9bl1","state":"Victoria"},"type":"Feature","geometry":{"type":"Point","coordinates":[145.244843,-37.871948]}},{"properties":{"city":"Warilla","latitude":-34.549381,"country":"Australia","joe hockey":1,"longitude":150.860825,"id":"a65izrntha94","state":"New South Wales"},"type":"Feature","geometry":{"type":"Point","coordinates":[150.860825,-34.549381]}},{"properties":{"city":"Warragul","latitude":-38.143978,"country":"Australia","joe hockey":2,"longitude":145.938614,"id":"a65izrpqdema","state":"Victoria"},"type":"Feature","geometry":{"type":"Point","coordinates":[145.938614,-38.143978]}},{"properties":{"city":"Warrnambool","latitude":-38.384258,"country":"Australia","joe hockey":3,"longitude":142.483231,"id":"a65izrkxx1ni","state":"Victoria"},"type":"Feature","geometry":{"type":"Point","coordinates":[142.483231,-38.384258]}},{"properties":{"city":"Warwick","latitude":-28.21813,"country":"Australia","joe hockey":2,"longitude":152.034653,"id":"a65izrqya7fq","state":"Queensland"},"type":"Feature","geometry":{"type":"Point","coordinates":[152.034653,-28.21813]}},{"properties":{"city":"Washington","latitude":38.89037,"country":"United States","joe hockey":7,"longitude":-77.031959,"id":"a65izreq4e36","state":"DC"},"type":"Feature","geometry":{"type":"Point","coordinates":[-77.031959,38.89037]}},{"properties":{"city":"Washington D.C.","latitude":38.89037,"country":"United States","joe hockey":1,"longitude":-77.031959,"id":"a65izrosto2u","state":null},"type":"Feature","geometry":{"type":"Point","coordinates":[-77.031959,38.89037]}},{"properties":{"city":"Waterloo","latitude":43.463394,"country":"Canada","joe hockey":1,"longitude":-80.520758,"id":"a65izriepdoi","state":"Ontario"},"type":"Feature","geometry":{"type":"Point","coordinates":[-80.520758,43.463394]}},{"properties":{"city":"Wellington","latitude":-41.325909,"country":"New Zealand","joe hockey":4,"longitude":174.821631,"id":"a65izrb7i9wf","state":"Wellington"},"type":"Feature","geometry":{"type":"Point","coordinates":[174.821631,-41.325909]}},{"properties":{"city":"Werribee","latitude":-37.903671,"country":"Australia","joe hockey":2,"longitude":144.659668,"id":"a65izrghth6z","state":"Victoria"},"type":"Feature","geometry":{"type":"Point","coordinates":[144.659668,-37.903671]}},{"properties":{"city":"West Footscray","latitude":-37.801949,"country":"Australia","joe hockey":1,"longitude":144.880936,"id":"a65izrnfvw8i","state":"Victoria"},"type":"Feature","geometry":{"type":"Point","coordinates":[144.880936,-37.801949]}},{"properties":{"city":"West Melbourne","latitude":-37.806721,"country":"Australia","joe hockey":1,"longitude":144.950287,"id":"a65izrq6f01k","state":"Victoria"},"type":"Feature","geometry":{"type":"Point","coordinates":[144.950287,-37.806721]}},{"properties":{"city":"West Perth","latitude":-31.938311,"country":"Australia","joe hockey":1,"longitude":115.846077,"id":"a65izrr5c0ju","state":"Western Australia"},"type":"Feature","geometry":{"type":"Point","coordinates":[115.846077,-31.938311]}},{"properties":{"city":"Westleigh","latitude":-33.71936,"country":"Australia","joe hockey":1,"longitude":151.068405,"id":"a65izrmvodu8","state":"New South Wales"},"type":"Feature","geometry":{"type":"Point","coordinates":[151.068405,-33.71936]}},{"properties":{"city":"Whyalla","latitude":-33.025879,"country":"Australia","joe hockey":1,"longitude":137.573303,"id":"a65izrmq5lho","state":"South Australia"},"type":"Feature","geometry":{"type":"Point","coordinates":[137.573303,-33.025879]}},{"properties":{"city":"Willoughby","latitude":-33.807331,"country":"Australia","joe hockey":1,"longitude":151.199387,"id":"a65izrpfdm86","state":"New South Wales"},"type":"Feature","geometry":{"type":"Point","coordinates":[151.199387,-33.807331]}},{"properties":{"city":"Wimmera","latitude":-36.450558,"country":"Australia","joe hockey":1,"longitude":142.0392,"id":"a65izrc4u57n","state":"Victoria"},"type":"Feature","geometry":{"type":"Point","coordinates":[142.0392,-36.450558]}},{"properties":{"city":"Windsor","latitude":-37.85619,"country":"Australia","joe hockey":2,"longitude":144.992538,"id":"a65izrd2s1qy","state":"Victoria"},"type":"Feature","geometry":{"type":"Point","coordinates":[144.992538,-37.85619]}},{"properties":{"city":"Winnipeg","latitude":49.89944,"country":"Canada","joe hockey":2,"longitude":-97.140794,"id":"a65izrotm1u9","state":"Manitoba"},"type":"Feature","geometry":{"type":"Point","coordinates":[-97.140794,49.89944]}},{"properties":{"city":"Wodonga","latitude":-36.115929,"country":"Australia","joe hockey":12,"longitude":146.891235,"id":"a65izrfdbj5j","state":"Victoria"},"type":"Feature","geometry":{"type":"Point","coordinates":[146.891235,-36.115929]}},{"properties":{"city":"Wollongong","latitude":-34.424881,"country":"Australia","joe hockey":52,"longitude":150.893036,"id":"a65izrivjm2p","state":"New South Wales"},"type":"Feature","geometry":{"type":"Point","coordinates":[150.893036,-34.424881]}},{"properties":{"city":"Wollstonecraft","latitude":-33.83149,"country":"Australia","joe hockey":1,"longitude":151.196945,"id":"a65izrhn1hqk","state":"New South Wales"},"type":"Feature","geometry":{"type":"Point","coordinates":[151.196945,-33.83149]}},{"properties":{"city":"Woodcroft","latitude":-33.7528,"country":"Australia","joe hockey":1,"longitude":150.878204,"id":"a65izromyovo","state":"New South Wales"},"type":"Feature","geometry":{"type":"Point","coordinates":[150.878204,-33.7528]}},{"properties":{"city":"Woodend","latitude":-37.352539,"country":"Australia","joe hockey":3,"longitude":144.532227,"id":"a65izrb8qvv9","state":"Victoria"},"type":"Feature","geometry":{"type":"Point","coordinates":[144.532227,-37.352539]}},{"properties":{"city":"Woodside","latitude":-34.95126,"country":"Australia","joe hockey":1,"longitude":138.875885,"id":"a65izrqlmfbs","state":"South Australia"},"type":"Feature","geometry":{"type":"Point","coordinates":[138.875885,-34.95126]}},{"properties":{"city":"Wyndham","latitude":-15.57835,"country":"Australia","joe hockey":1,"longitude":128.218536,"id":"a65izrl4ijj3","state":"Western Australia"},"type":"Feature","geometry":{"type":"Point","coordinates":[128.218536,-15.57835]}},{"properties":{"city":"Yaren","latitude":-0.54431,"country":"Nauru","joe hockey":1,"longitude":166.906769,"id":"a65izron92re","state":null},"type":"Feature","geometry":{"type":"Point","coordinates":[166.906769,-0.54431]}},{"properties":{"city":"Yaroomba","latitude":-26.552151,"country":"Australia","joe hockey":1,"longitude":153.097992,"id":"a65izrewmlpk","state":"Queensland"},"type":"Feature","geometry":{"type":"Point","coordinates":[153.097992,-26.552151]}},{"properties":{"city":"Yass","latitude":-34.844292,"country":"Australia","joe hockey":3,"longitude":148.913086,"id":"a65izrc7h0s7","state":"New South Wales"},"type":"Feature","geometry":{"type":"Point","coordinates":[148.913086,-34.844292]}},{"properties":{"city":"Yea","latitude":-37.213501,"country":"Australia","joe hockey":1,"longitude":145.416641,"id":"a65izrli5n1r","state":"Victoria"},"type":"Feature","geometry":{"type":"Point","coordinates":[145.416641,-37.213501]}}],"is_temporal":false,"author":{"url":"","metadata":"","contact_name":"","contact_address":"","source":"","contact_phone":""},"source":"","pagination":{"sort":null,"start":0,"total":542,"limit":1000000},"state":"complete","tags":"joehockey,liberals","published":"2011-01-06T01:59:35Z","id":83425}