{"type":"FeatureCollection","data_type":"Dataset","url_type":null,"permissions":[{"permissions":{"download":true,"view":true},"group_id":"everyone"}],"classification":null,"title":"State and Local Subsidies Given to Foreign-Owned Auto Assembly Plants, United States, 1980-2008","count":20,"stream_id":8357,"contributor":{"url":"http://geocommons.com/users/2943","name":"Margot"},"data_attributes":null,"calculation_params":null,"icon_link":null,"link":"http://geocommons.com/overlays/8357.json","extent":[-98.4946,29.4245,-81.9348,40.4174],"geometry_types":["point"],"unique_name":null,"name":"State and Local Subsidies Given to Foreign-Owned Auto Assembly Plants, United States, 1980-2008","feature_count":20,"description":"We got this data from a friend of ours Mike O. as a pdf. The data was divided into two sets of information in excel. One for subsidies received by foreign owned auto assembly plants by state, and the second for how the senate voted on the auto industry bailout in December 2008 at the state level.\n\nFurther information can be found at Good Jobs First, which is a non-profit, non-partisan research center promoting best practices in economic development and smart growth, based in Washington, DC,with offices in New York and Chicago. This along with US Census data, Gazateer, and USGS provided the voting data. ","next_feature":null,"is_raster":false,"short_classification":"Y","stats":{"latitude":{"max":40.41737,"mean":36.01403775,"variance":10.6332655507941,"stdev":3.26086883373037,"min":29.42449,"median":35.210285},"amount":{"max":577,"mean":179.2,"variance":21488.9052631579,"stdev":146.590945365524,"min":15,"median":150},"year":{"max":2008,"mean":1995.3,"variance":81.6947368421052,"stdev":9.03851408374768,"min":1980,"median":1996},"longitude":{"max":-81.934829,"mean":-86.31184185,"variance":12.4455674379628,"stdev":3.52782758053207,"min":-98.494624,"median":-86.076809}},"features":[{"properties":{"city":"Huntsville","remarks":"","latitude":34.729121,"automaker":"Toyota","stateabb":"AL","amount":30,"year":2001,"longitude":-86.584961,"id":"a66l5paenp6t","state":"Alabama"},"type":"Feature","geometry":{"type":"Point","coordinates":[-86.584961,34.729121]}},{"properties":{"city":"Lincoln","remarks":"","latitude":33.603865,"automaker":"Honda","stateabb":"AL","amount":248,"year":1999,"longitude":-86.119529,"id":"a66l5p4t7d6v","state":"Alabama"},"type":"Feature","geometry":{"type":"Point","coordinates":[-86.119529,33.603865]}},{"properties":{"city":"Montgomery","remarks":"","latitude":32.38012,"automaker":"Hyundai","stateabb":"AL","amount":252,"year":2002,"longitude":-86.300629,"id":"a66l5oxsqfs8","state":"Alabama"},"type":"Feature","geometry":{"type":"Point","coordinates":[-86.300629,32.38012]}},{"properties":{"city":"Vance","remarks":"","latitude":33.175445,"automaker":"Mercedes-Benz","stateabb":"AL","amount":258,"year":1993,"longitude":-87.233684,"id":"a66l5p88psrp","state":"Alabama"},"type":"Feature","geometry":{"type":"Point","coordinates":[-87.233684,33.175445]}},{"properties":{"city":"WestPoint","remarks":"","latitude":32.8772,"automaker":"Kia","stateabb":"GA","amount":400,"year":2006,"longitude":-85.174019,"id":"a66l5oyxt9t4","state":"Georgia"},"type":"Feature","geometry":{"type":"Point","coordinates":[-85.174019,32.8772]}},{"properties":{"city":"Greensburg","remarks":"","latitude":39.337685,"automaker":"Honda","stateabb":"IN","amount":141,"year":2006,"longitude":-85.484959,"id":"a66l5p4l6x9v","state":"Indiana"},"type":"Feature","geometry":{"type":"Point","coordinates":[-85.484959,39.337685]}},{"properties":{"city":"Princeton","remarks":"","latitude":38.355216,"automaker":"Toyota","stateabb":"IN","amount":30,"year":1995,"longitude":-87.565669,"id":"a66l5p287jz3","state":"Indiana"},"type":"Feature","geometry":{"type":"Point","coordinates":[-87.565669,38.355216]}},{"properties":{"city":"Lafayette","remarks":"","latitude":40.41737,"automaker":"Subaru","stateabb":"IN","amount":94,"year":1986,"longitude":-86.876554,"id":"a66l5p87kl5y","state":"Indiana"},"type":"Feature","geometry":{"type":"Point","coordinates":[-86.876554,40.41737]}},{"properties":{"city":"Georgetown","remarks":"","latitude":38.2099,"automaker":"Toyota","stateabb":"KY","amount":147,"year":1985,"longitude":-84.559344,"id":"a66l5oui6l7i","state":"Kentucky"},"type":"Feature","geometry":{"type":"Point","coordinates":[-84.559344,38.2099]}},{"properties":{"city":"Canton","remarks":"","latitude":32.612599,"automaker":"Nissan","stateabb":"MS","amount":295,"year":2000,"longitude":-90.034781,"id":"a66l5ovpkfmv","state":"Mississippi"},"type":"Feature","geometry":{"type":"Point","coordinates":[-90.034781,32.612599]}},{"properties":{"city":"Blue Springs","remarks":"","latitude":34.400626,"automaker":"Toyota","stateabb":"MS","amount":300,"year":2007,"longitude":-88.873796,"id":"a66l5p04khiv","state":"Mississippi"},"type":"Feature","geometry":{"type":"Point","coordinates":[-88.873796,34.400626]}},{"properties":{"city":"Marysville","remarks":"* total of direct subsidies to all Honda facilities in Ohio","latitude":40.235295,"automaker":"Honda","stateabb":"OH","amount":27,"year":1980,"longitude":-83.366404,"id":"a66l5oxft4au","state":"Ohio"},"type":"Feature","geometry":{"type":"Point","coordinates":[-83.366404,40.235295]}},{"properties":{"city":"Anna","remarks":"* total of direct subsidies to all Honda facilities in Ohio","latitude":40.39512,"automaker":"Honda","stateabb":"OH","amount":27,"year":1985,"longitude":-84.171904,"id":"a66l5p6u2jj6","state":"Ohio"},"type":"Feature","geometry":{"type":"Point","coordinates":[-84.171904,40.39512]}},{"properties":{"city":"East Liberty","remarks":"* total of direct subsidies to all Honda facilities in Ohio","latitude":40.329893,"automaker":"Honda","stateabb":"OH","amount":27,"year":1987,"longitude":-83.580801,"id":"a66l5p4wt4oh","state":"Ohio"},"type":"Feature","geometry":{"type":"Point","coordinates":[-83.580801,40.329893]}},{"properties":{"city":"Spartanburg","remarks":"","latitude":34.948265,"automaker":"BMW","stateabb":"SC","amount":150,"year":1992,"longitude":-81.934829,"id":"a66l5p1cjzw4","state":"South Carolina"},"type":"Feature","geometry":{"type":"Point","coordinates":[-81.934829,34.948265]}},{"properties":{"city":"Chattanooga","remarks":"","latitude":35.046432,"automaker":"Volkswagen","stateabb":"TN","amount":577,"year":2008,"longitude":-85.309421,"id":"a66l5p07q5oz","state":"Tennessee"},"type":"Feature","geometry":{"type":"Point","coordinates":[-85.309421,35.046432]}},{"properties":{"city":"Decherd","remarks":"** includes about $200 million for expansions of Smyrna and Decherd plants","latitude":35.210285,"automaker":"Nissan","stateabb":"TN","amount":200,"year":1995,"longitude":-86.076809,"id":"a66l5p8b7jfa","state":"Tennessee"},"type":"Feature","geometry":{"type":"Point","coordinates":[-86.076809,35.210285]}},{"properties":{"city":"Smyrna","remarks":"** includes about $200 million for expansions of Smyrna and Decherd plants","latitude":35.974664,"automaker":"Nissan","stateabb":"TN","amount":233,"year":1980,"longitude":-86.512133,"id":"a66l5p5yosaa","state":"Tennessee"},"type":"Feature","geometry":{"type":"Point","coordinates":[-86.512133,35.974664]}},{"properties":{"city":"San Antonio","remarks":"","latitude":29.42449,"automaker":"Toyota","stateabb":"TX","amount":133,"year":2003,"longitude":-98.494624,"id":"a66l5p4bv42h","state":"Texas"},"type":"Feature","geometry":{"type":"Point","coordinates":[-98.494624,29.42449]}},{"properties":{"city":"Buffalo","remarks":"over 15 mill","latitude":38.617164,"automaker":"Toyota","stateabb":"WV","amount":15,"year":1996,"longitude":-81.981987,"id":"a66l5p1ju33i","state":"West Virginia"},"type":"Feature","geometry":{"type":"Point","coordinates":[-81.981987,38.617164]}}],"is_temporal":false,"author":{"url":"http://xchange.fortiusone.com/service/home/~/CarVote.pdf?auth=co&loc=en_US&id=331&part=2","metadata":"http://xchange.fortiusone.com/service/home/~/CarVote.pdf?auth=co&loc=en_US&id=331&part=2","contact_name":"","contact_address":"","source":"Good Jobs First, US Census, Gazateer, USGS","contact_phone":""},"source":"http://xchange.fortiusone.com/service/home/~/CarVote.pdf?auth=co&loc=en_US&id=331&part=2","pagination":{"sort":null,"start":0,"total":20,"limit":1000000},"state":"complete","tags":"automobile,autoplants,bailout,foreign,local,state,subsidies,us","published":"2008-12-16T12:00:00Z","id":8357}